{
"type": "FeatureCollection",
"crs": { "type": "name", "properties": { "name": "urn:ogc:def:crs:OGC:1.3:CRS84" } },
"features": [
{ "type": "Feature", "properties": { "OBJECTID": 1404, "ID": "0002846825", "NAME": "DUPONT HOSPITAL LLC", "ADDRESS": "2520 E DUPONT RD", "CITY": "FORT WAYNE", "STATE": "IN", "ZIP": "46825", "ZIP4": "NOT AVAILABLE", "TELEPHONE": "(260) 416-3023", "TYPE": "GENERAL ACUTE CARE", "STATUS": "OPEN", "POPULATION": 131, "COUNTY": "ALLEN", "COUNTYFIPS": "18003", "COUNTRY": "USA", "LATITUDE": 41.17526916, "LONGITUDE": -85.108930621, "NAICS_CODE": "622110", "NAICS_DESC": "GENERAL MEDICAL AND SURGICAL HOSPITALS", "SOURCE": "http://www.in.gov/isdh/reports/QAMIS/hosdir", "SOURCEDATE": "2018-08-16T00:00:00.000Z", "VAL_METHOD": "IMAGERY", "VAL_DATE": "2014-03-12T00:00:00.000Z", "WEBSITE": "http://www.thedupontdifference.com", "STATE_ID": "17-002408-1", "ALT_NAME": "NOT AVAILABLE", "ST_FIPS": "18", "OWNER": "PROPRIETARY", "TTL_STAFF": -999, "BEDS": 131, "TRAUMA": "NOT AVAILABLE", "HELIPAD": "Y" }, "geometry": { "type": "Polygon", "coordinates": [ [ [ -85.1432917, 41.085770300000014 ], [ -85.1921784, 41.102888600000028 ], [ -85.2113563, 41.114955100000024 ], [ -85.2264336, 41.125199700000017 ], [ -85.2369209, 41.1779989 ], [ -85.1747612, 41.2381191 ], [ -85.1692864, 41.242302600000038 ], [ -85.1349649, 41.260716399999986 ], [ -85.0776296, 41.255176800000044 ], [ -85.0109082, 41.224962400000059 ], [ -84.984152126994573, 41.143398489702847 ], [ -84.983767728554213, 41.136149001811233 ], [ -85.019817555053791, 41.114985940236501 ], [ -85.0242563, 41.112952299999968 ], [ -85.1151251, 41.0896306 ], [ -85.1284883, 41.086733200000026 ], [ -85.1432917, 41.085770300000014 ] ] ] } },
{ "type": "Feature", "properties": { "OBJECTID": 1405, "ID": "0010246845", "NAME": "ORTHOPAEDIC HOSPITAL AT PARKVIEW NORTH LLC", "ADDRESS": "11130 PARKVIEW CIRCLE DR", "CITY": "FORT WAYNE", "STATE": "IN", "ZIP": "46845", "ZIP4": "NOT AVAILABLE", "TELEPHONE": "(260) 672-4050", "TYPE": "GENERAL ACUTE CARE", "STATUS": "OPEN", "POPULATION": 37, "COUNTY": "ALLEN", "COUNTYFIPS": "18003", "COUNTRY": "USA", "LATITUDE": 41.189577579000101, "LONGITUDE": -85.100669573999895, "NAICS_CODE": "622110", "NAICS_DESC": "GENERAL MEDICAL AND SURGICAL HOSPITALS", "SOURCE": "http://www.in.gov/isdh/reports/QAMIS/hosdir", "SOURCEDATE": "2018-08-16T00:00:00.000Z", "VAL_METHOD": "IMAGERY", "VAL_DATE": "2014-02-10T00:00:00.000Z", "WEBSITE": "www.parkview.com", "STATE_ID": "17-005845-1", "ALT_NAME": "NOT AVAILABLE", "ST_FIPS": "18", "OWNER": "PROPRIETARY", "TTL_STAFF": -999, "BEDS": 37, "TRAUMA": "NOT AVAILABLE", "HELIPAD": "Y" }, "geometry": { "type": "Polygon", "coordinates": [ [ [ -85.1398407, 41.092860900000041 ], [ -85.1923292, 41.112345500000039 ], [ -85.213316400000011, 41.126134 ], [ -85.21696750000001, 41.1904754 ], [ -85.2169752, 41.191251399999977 ], [ -85.2100954, 41.205783099999962 ], [ -85.1747612, 41.2381191 ], [ -85.1704378, 41.24195490000001 ], [ -85.1350748, 41.2651374 ], [ -85.0684811, 41.265745199999984 ], [ -85.0046847, 41.2308902 ], [ -84.995700432339817, 41.219343156877294 ], [ -85.002157890996955, 41.130250913111574 ], [ -85.008391112774618, 41.126184620752966 ], [ -85.018360246946031, 41.121740928932162 ], [ -85.1398407, 41.092860900000041 ] ] ] } },
{ "type": "Feature", "properties": { "OBJECTID": 1413, "ID": "0010646755", "NAME": "PARKVIEW NOBLE HOSPITAL", "ADDRESS": "401 SAWYER RD", "CITY": "KENDALLVILLE", "STATE": "IN", "ZIP": "46755", "ZIP4": "NOT AVAILABLE", "TELEPHONE": "(260) 347-8700", "TYPE": "GENERAL ACUTE CARE", "STATUS": "OPEN", "POPULATION": 31, "COUNTY": "NOBLE", "COUNTYFIPS": "18113", "COUNTRY": "USA", "LATITUDE": 41.448340345000098, "LONGITUDE": -85.2961583109999, "NAICS_CODE": "622110", "NAICS_DESC": "GENERAL MEDICAL AND SURGICAL HOSPITALS", "SOURCE": "http://www.in.gov/isdh/reports/QAMIS/hosdir", "SOURCEDATE": "2018-08-16T00:00:00.000Z", "VAL_METHOD": "IMAGERY", "VAL_DATE": "2014-03-12T00:00:00.000Z", "WEBSITE": "http://www.parkview.com", "STATE_ID": "17-002434-1", "ALT_NAME": "NOT AVAILABLE", "ST_FIPS": "18", "OWNER": "NON-PROFIT", "TTL_STAFF": -999, "BEDS": 31, "TRAUMA": "NOT AVAILABLE", "HELIPAD": "Y" }, "geometry": { "type": "Polygon", "coordinates": [ [ [ -85.237602079651481, 41.359919935560974 ], [ -85.32860095396488, 41.385732975378943 ], [ -85.347729890619433, 41.395540987763859 ], [ -85.367149821032342, 41.40565059957904 ], [ -85.395576702682817, 41.421733016550498 ], [ -85.423359769070231, 41.438603232164624 ], [ -85.442766450116366, 41.453088044353024 ], [ -85.382262924621287, 41.496558001401091 ], [ -85.377561221037482, 41.498156104350691 ], [ -85.316489147491652, 41.517794122747354 ], [ -85.271501335461664, 41.526346329651204 ], [ -85.231872389523204, 41.495868106760689 ], [ -85.175877598246402, 41.437791387735743 ], [ -85.21953802696477, 41.365248941198196 ], [ -85.236351076632857, 41.360163935851425 ], [ -85.237602079651481, 41.359919935560974 ] ] ] } },
{ "type": "Feature", "properties": { "OBJECTID": 1425, "ID": "0002946514", "NAME": "ELKHART GENERAL HOSPITAL", "ADDRESS": "600 EAST BLVD", "CITY": "ELKHART", "STATE": "IN", "ZIP": "46514", "ZIP4": "NOT AVAILABLE", "TELEPHONE": "(574) 294-2621", "TYPE": "GENERAL ACUTE CARE", "STATUS": "OPEN", "POPULATION": 270, "COUNTY": "ELKHART", "COUNTYFIPS": "18039", "COUNTRY": "USA", "LATITUDE": 41.6793473500001, "LONGITUDE": -85.993270562999996, "NAICS_CODE": "622110", "NAICS_DESC": "GENERAL MEDICAL AND SURGICAL HOSPITALS", "SOURCE": "http://www.in.gov/isdh/reports/QAMIS/hosdir", "SOURCEDATE": "2018-08-16T00:00:00.000Z", "VAL_METHOD": "IMAGERY/OTHER", "VAL_DATE": "2014-02-10T00:00:00.000Z", "WEBSITE": "http://www.egh.org", "STATE_ID": "12-005017-1", "ALT_NAME": "NOT AVAILABLE", "ST_FIPS": "18", "OWNER": "NON-PROFIT", "TTL_STAFF": -999, "BEDS": 270, "TRAUMA": "LEVEL III", "HELIPAD": "Y" }, "geometry": { "type": "Polygon", "coordinates": [ [ [ -86.002131641901556, 41.57977278096218 ], [ -86.113248135438994, 41.663293430077381 ], [ -86.122809966296302, 41.681133149747133 ], [ -86.110544, 41.699769 ], [ -86.064753, 41.742594 ], [ -86.0623502, 41.743783599999986 ], [ -86.0012162, 41.760302900000049 ], [ -85.974714, 41.76705410000001 ], [ -85.9727208, 41.766908 ], [ -85.8764082, 41.709418 ], [ -85.8709719, 41.70594 ], [ -85.8704695, 41.7052471 ], [ -85.880878550847513, 41.666756367627144 ], [ -85.902348779427754, 41.623733012238048 ], [ -86.002131641901556, 41.57977278096218 ] ] ] } },
{ "type": "Feature", "properties": { "OBJECTID": 1426, "ID": "0010046527", "NAME": "OAKLAWN PSYCHIATRIC CENTER INC", "ADDRESS": "330 LAKEVIEW DR", "CITY": "GOSHEN", "STATE": "IN", "ZIP": "46527", "ZIP4": "NOT AVAILABLE", "TELEPHONE": "(574) 533-1234", "TYPE": "PSYCHIATRIC", "STATUS": "OPEN", "POPULATION": 16, "COUNTY": "ELKHART", "COUNTYFIPS": "18039", "COUNTRY": "USA", "LATITUDE": 41.603604119000103, "LONGITUDE": -85.839485401999994, "NAICS_CODE": "622210", "NAICS_DESC": "PSYCHIATRIC AND SUBSTANCE ABUSE HOSPITALS", "SOURCE": "http://www.in.gov/isdh/reports/QAMIS/hosdir", "SOURCEDATE": "2018-08-16T00:00:00.000Z", "VAL_METHOD": "IMAGERY", "VAL_DATE": "2014-02-10T00:00:00.000Z", "WEBSITE": "http://www.oaklawn.org", "STATE_ID": "NOT AVAILABLE", "ALT_NAME": "NOT AVAILABLE", "ST_FIPS": "18", "OWNER": "NON-PROFIT", "TTL_STAFF": -999, "BEDS": 16, "TRAUMA": "NOT AVAILABLE", "HELIPAD": "N" }, "geometry": { "type": "Polygon", "coordinates": [ [ [ -85.829473255392926, 41.515040655448317 ], [ -85.912426667171204, 41.551271555909153 ], [ -85.92581958876815, 41.608744965360074 ], [ -85.928505492508904, 41.624150613826068 ], [ -85.925399904529954, 41.637677967960357 ], [ -85.92326248910976, 41.639781460685121 ], [ -85.855543743827738, 41.675368538044403 ], [ -85.816775, 41.692853599999985 ], [ -85.792465370304399, 41.682314913118638 ], [ -85.772695575939494, 41.667594658903177 ], [ -85.76371297778131, 41.655892295215764 ], [ -85.753688139590452, 41.638610348626294 ], [ -85.743670117274448, 41.612950221890237 ], [ -85.743370449047234, 41.600036460606582 ], [ -85.751358216458726, 41.552179518805993 ], [ -85.770394541780504, 41.537449169296103 ], [ -85.828425257114802, 41.51505715512063 ], [ -85.829473255392926, 41.515040655448317 ] ] ] } },
{ "type": "Feature", "properties": { "OBJECTID": 1438, "ID": "0001546506", "NAME": "COMMUNITY HOSPITAL OF BREMEN INC", "ADDRESS": "1020 HIGH RD", "CITY": "BREMEN", "STATE": "IN", "ZIP": "46506", "ZIP4": "NOT AVAILABLE", "TELEPHONE": "(574) 546-2211", "TYPE": "CRITICAL ACCESS", "STATUS": "OPEN", "POPULATION": 24, "COUNTY": "MARSHALL", "COUNTYFIPS": "18099", "COUNTRY": "USA", "LATITUDE": 41.456467767, "LONGITUDE": -86.158849722999904, "NAICS_CODE": "622110", "NAICS_DESC": "GENERAL MEDICAL AND SURGICAL HOSPITALS", "SOURCE": "http://www.in.gov/isdh/reports/QAMIS/hosdir", "SOURCEDATE": "2018-08-16T00:00:00.000Z", "VAL_METHOD": "IMAGERY", "VAL_DATE": "2014-03-12T00:00:00.000Z", "WEBSITE": "http://www.bremenhospital.com", "STATE_ID": "17-005097-1", "ALT_NAME": "NOT AVAILABLE", "ST_FIPS": "18", "OWNER": "NON-PROFIT", "TTL_STAFF": -999, "BEDS": 24, "TRAUMA": "NOT AVAILABLE", "HELIPAD": "Y" }, "geometry": { "type": "Polygon", "coordinates": [ [ [ -86.155163, 41.361584 ], [ -86.233037, 41.398881 ], [ -86.310539720781733, 41.447886541161857 ], [ -86.311806611041689, 41.44953673831634 ], [ -86.311843410338241, 41.449649138248375 ], [ -86.176652258681642, 41.557243540110207 ], [ -86.117966598959555, 41.524930143866904 ], [ -86.012350903641263, 41.442702659951742 ], [ -86.1171203, 41.383189299999962 ], [ -86.155163, 41.361584 ] ] ] } },
{ "type": "Feature", "properties": { "OBJECTID": 1439, "ID": "0002646506", "NAME": "DOCTORS NEUROPSYCHIATRIC HOSPITAL", "ADDRESS": "417 S WHITLOCK ST", "CITY": "BREMEN", "STATE": "IN", "ZIP": "46506", "ZIP4": "NOT AVAILABLE", "TELEPHONE": "(574) 546-0330", "TYPE": "PSYCHIATRIC", "STATUS": "OPEN", "POPULATION": 37, "COUNTY": "MARSHALL", "COUNTYFIPS": "18099", "COUNTRY": "USA", "LATITUDE": 41.443335034, "LONGITUDE": -86.150319347999996, "NAICS_CODE": "622210", "NAICS_DESC": "PSYCHIATRIC AND SUBSTANCE ABUSE HOSPITALS", "SOURCE": "http://www.in.gov/isdh/reports/QAMIS/hosdir", "SOURCEDATE": "2018-08-16T00:00:00.000Z", "VAL_METHOD": "IMAGERY/OTHER", "VAL_DATE": "2014-02-10T00:00:00.000Z", "WEBSITE": "http://www.physicianshospitalsystem.net", "STATE_ID": "16-38-1-P-IP", "ALT_NAME": "NOT AVAILABLE", "ST_FIPS": "18", "OWNER": "PROPRIETARY", "TTL_STAFF": -999, "BEDS": 37, "TRAUMA": "NOT AVAILABLE", "HELIPAD": "N" }, "geometry": { "type": "Polygon", "coordinates": [ [ [ -86.15519, 41.357967 ], [ -86.233037, 41.398881 ], [ -86.298618798459003, 41.449773372332153 ], [ -86.298618497110596, 41.449976172407951 ], [ -86.170294433349554, 41.535541249511276 ], [ -86.059444973745798, 41.479103078572685 ], [ -86.012339593078025, 41.444625257774518 ], [ -86.011372900769089, 41.443670255855274 ], [ -86.012350903641263, 41.442702659951742 ], [ -86.1170371, 41.375919499999981 ], [ -86.15519, 41.357967 ] ] ] } },
{ "type": "Feature", "properties": { "OBJECTID": 1732, "ID": "0004246805", "NAME": "VA MEDICAL CENTER - FORT WAYNE CAMPUS", "ADDRESS": "2121 LAKE AVE", "CITY": "FORT WAYNE", "STATE": "IN", "ZIP": "46805", "ZIP4": "NOT AVAILABLE", "TELEPHONE": "(260) 426-5431", "TYPE": "MILITARY", "STATUS": "OPEN", "POPULATION": -999, "COUNTY": "ALLEN", "COUNTYFIPS": "18003", "COUNTRY": "USA", "LATITUDE": 41.0907864610001, "LONGITUDE": -85.109517881000002, "NAICS_CODE": "622110", "NAICS_DESC": "GENERAL MEDICAL AND SURGICAL HOSPITALS", "SOURCE": "https://www.va.gov/directory/guide/allstate.asp", "SOURCEDATE": "2018-09-26T00:00:00.000Z", "VAL_METHOD": "IMAGERY/OTHER", "VAL_DATE": "2015-05-18T00:00:00.000Z", "WEBSITE": "http://www.northernindiana.va.gov/", "STATE_ID": "NOT AVAILABLE", "ALT_NAME": "NOT AVAILABLE", "ST_FIPS": "18", "OWNER": "GOVERNMENT - FEDERAL", "TTL_STAFF": -999, "BEDS": -999, "TRAUMA": "NOT AVAILABLE", "HELIPAD": "N" }, "geometry": { "type": "Polygon", "coordinates": [ [ [ -85.0980823, 40.998522800000025 ], [ -85.1117267, 41.0006262 ], [ -85.1535176, 41.018261400000043 ], [ -85.2193525, 41.059079900000022 ], [ -85.2232278, 41.074561400000029 ], [ -85.2264336, 41.125199700000017 ], [ -85.2264306, 41.1254018 ], [ -85.2096146, 41.140641199999962 ], [ -85.1655865, 41.165931500000021 ], [ -85.1142816, 41.173538500000028 ], [ -85.0549915, 41.173136600000014 ], [ -85.006244802195695, 41.134271606519576 ], [ -84.987809861242454, 41.087314084793221 ], [ -84.989878075702791, 41.069040216770794 ], [ -84.994786694672669, 41.064368627240391 ], [ -85.0978061, 40.998621500000013 ], [ -85.0980823, 40.998522800000025 ] ] ] } },
{ "type": "Feature", "properties": { "OBJECTID": 2102, "ID": "0002749085", "NAME": "LAKELAND HOSPITAL, ST JOSEPH", "ADDRESS": "1234 NAPIER AVENUE", "CITY": "ST JOSEPH", "STATE": "MI", "ZIP": "49085", "ZIP4": "NOT AVAILABLE", "TELEPHONE": "NOT AVAILABLE", "TYPE": "GENERAL ACUTE CARE", "STATUS": "OPEN", "POPULATION": 215, "COUNTY": "BERRIEN", "COUNTYFIPS": "26021", "COUNTRY": "USA", "LATITUDE": 42.088254167000102, "LONGITUDE": -86.478771465999998, "NAICS_CODE": "622110", "NAICS_DESC": "GENERAL MEDICAL AND SURGICAL HOSPITALS", "SOURCE": "https://w2.lara.state.mi.us/VAL/License/Search", "SOURCEDATE": "2018-08-09T00:00:00.000Z", "VAL_METHOD": "IMAGERY", "VAL_DATE": "2014-02-10T00:00:00.000Z", "WEBSITE": "http://www.lakelandhealth.org", "STATE_ID": "NOT AVAILABLE", "ALT_NAME": "NOT AVAILABLE", "ST_FIPS": "26", "OWNER": "NON-PROFIT", "TTL_STAFF": -999, "BEDS": 215, "TRAUMA": "NOT AVAILABLE", "HELIPAD": "Y" }, "geometry": { "type": "Polygon", "coordinates": [ [ [ -86.3961737, 41.992448100000018 ], [ -86.475378, 42.000055 ], [ -86.5337988, 42.0070094 ], [ -86.5443186, 42.0108038 ], [ -86.544361, 42.010881 ], [ -86.5358335, 42.030322 ], [ -86.4857857, 42.116803 ], [ -86.434803, 42.163557 ], [ -86.433583, 42.164645 ], [ -86.427795700000019, 42.169231099999969 ], [ -86.3683616, 42.149469099999983 ], [ -86.3321845, 42.0914974 ], [ -86.3961737, 41.992448100000018 ] ] ] } },
{ "type": "Feature", "properties": { "OBJECTID": 2103, "ID": "0003149120", "NAME": "LAKELAND HOSPITAL, NILES", "ADDRESS": "31 NORTH ST JOSEPH AVE", "CITY": "NILES", "STATE": "MI", "ZIP": "49120", "ZIP4": "NOT AVAILABLE", "TELEPHONE": "NOT AVAILABLE", "TYPE": "GENERAL ACUTE CARE", "STATUS": "OPEN", "POPULATION": 76, "COUNTY": "BERRIEN", "COUNTYFIPS": "26021", "COUNTRY": "USA", "LATITUDE": 41.827925202000102, "LONGITUDE": -86.260488534000004, "NAICS_CODE": "622110", "NAICS_DESC": "GENERAL MEDICAL AND SURGICAL HOSPITALS", "SOURCE": "https://w2.lara.state.mi.us/VAL/License/Search", "SOURCEDATE": "2018-08-09T00:00:00.000Z", "VAL_METHOD": "IMAGERY", "VAL_DATE": "2014-02-10T00:00:00.000Z", "WEBSITE": "http://www.lakelandhealth.org/", "STATE_ID": "NOT AVAILABLE", "ALT_NAME": "NOT AVAILABLE", "ST_FIPS": "26", "OWNER": "NON-PROFIT", "TTL_STAFF": -999, "BEDS": 76, "TRAUMA": "NOT AVAILABLE", "HELIPAD": "N" }, "geometry": { "type": "Polygon", "coordinates": [ [ [ -86.250672, 41.7322129 ], [ -86.358048, 41.767934 ], [ -86.3906934, 41.8052512 ], [ -86.3905002, 41.8084614 ], [ -86.387544, 41.83401 ], [ -86.3142215, 41.922642100000019 ], [ -86.271787, 41.924358 ], [ -86.223394, 41.895974 ], [ -86.192483, 41.876742 ], [ -86.175541, 41.864377 ], [ -86.1546295, 41.843071 ], [ -86.1543207, 41.841794499999985 ], [ -86.147487, 41.809614 ], [ -86.1571, 41.778351 ], [ -86.250672, 41.7322129 ] ] ] } },
{ "type": "Feature", "properties": { "OBJECTID": 2106, "ID": "0003549047", "NAME": "BORGESS-LEE MEMORIAL HOSPITAL", "ADDRESS": "420 W HIGH STREET", "CITY": "DOWAGIAC", "STATE": "MI", "ZIP": "49047", "ZIP4": "NOT AVAILABLE", "TELEPHONE": "NOT AVAILABLE", "TYPE": "GENERAL ACUTE CARE", "STATUS": "OPEN", "POPULATION": 25, "COUNTY": "CASS", "COUNTYFIPS": "26027", "COUNTRY": "USA", "LATITUDE": 41.983138480999997, "LONGITUDE": -86.115580743999899, "NAICS_CODE": "622110", "NAICS_DESC": "GENERAL MEDICAL AND SURGICAL HOSPITALS", "SOURCE": "https://w2.lara.state.mi.us/VAL/License/Search", "SOURCEDATE": "2018-08-09T00:00:00.000Z", "VAL_METHOD": "IMAGERY/OTHER", "VAL_DATE": "2014-03-12T00:00:00.000Z", "WEBSITE": "http://www.borgess.com", "STATE_ID": "NOT AVAILABLE", "ALT_NAME": "NOT AVAILABLE", "ST_FIPS": "26", "OWNER": "NON-PROFIT", "TTL_STAFF": -999, "BEDS": 25, "TRAUMA": "NOT AVAILABLE", "HELIPAD": "Y" }, "geometry": { "type": "Polygon", "coordinates": [ [ [ -86.1974794, 41.911713600000013 ], [ -86.222909, 41.969041 ], [ -86.228047, 41.99179 ], [ -86.2231442, 41.9989938 ], [ -86.204085, 42.020446 ], [ -86.1415791, 42.056316800000012 ], [ -86.114728, 42.070802 ], [ -86.092938, 42.06539 ], [ -86.010979, 42.012579800000026 ], [ -85.991209, 41.983628 ], [ -86.03111890000001, 41.9221348 ], [ -86.097239, 41.91208 ], [ -86.17803, 41.910846 ], [ -86.1974794, 41.911713600000013 ] ] ] } },
{ "type": "Feature", "properties": { "OBJECTID": 2344, "ID": "0009946706", "NAME": "NORTHEASTERN CENTER", "ADDRESS": "1850 WESLEY RD", "CITY": "AUBURN", "STATE": "IN", "ZIP": "46706", "ZIP4": "NOT AVAILABLE", "TELEPHONE": "(260) 927-0726", "TYPE": "PSYCHIATRIC", "STATUS": "OPEN", "POPULATION": 16, "COUNTY": "DEKALB", "COUNTYFIPS": "18033", "COUNTRY": "USA", "LATITUDE": 41.3709560510001, "LONGITUDE": -85.029953851000002, "NAICS_CODE": "622210", "NAICS_DESC": "PSYCHIATRIC AND SUBSTANCE ABUSE HOSPITALS", "SOURCE": "http://www.in.gov/isdh/reports/QAMIS/hosdir", "SOURCEDATE": "2018-08-16T00:00:00.000Z", "VAL_METHOD": "IMAGERY", "VAL_DATE": "2014-02-10T00:00:00.000Z", "WEBSITE": "http://www.necmh.org", "STATE_ID": "NOT AVAILABLE", "ALT_NAME": "NOT AVAILABLE", "ST_FIPS": "18", "OWNER": "NOT AVAILABLE", "TTL_STAFF": -999, "BEDS": 16, "TRAUMA": "NOT AVAILABLE", "HELIPAD": "N" }, "geometry": { "type": "Polygon", "coordinates": [ [ [ -85.0780653, 41.294685800000011 ], [ -85.1076116, 41.305118899999961 ], [ -85.168381850277655, 41.365869937639168 ], [ -85.063170423361768, 41.439487894693336 ], [ -85.025315252151188, 41.46200984387999 ], [ -84.908254906302872, 41.385118946260974 ], [ -84.907540568218394, 41.358759858510091 ], [ -85.0208561, 41.295404099999956 ], [ -85.0726271, 41.2947445 ], [ -85.0780653, 41.294685800000011 ] ] ] } },
{ "type": "Feature", "properties": { "OBJECTID": 2345, "ID": "0008546580", "NAME": "KOSCIUSKO COMMUNITY HOSPITAL", "ADDRESS": "2101 E DUBOIS DR", "CITY": "WARSAW", "STATE": "IN", "ZIP": "46580", "ZIP4": "NOT AVAILABLE", "TELEPHONE": "(574) 267-3200", "TYPE": "GENERAL ACUTE CARE", "STATUS": "OPEN", "POPULATION": 72, "COUNTY": "KOSCIUSKO", "COUNTYFIPS": "18085", "COUNTRY": "USA", "LATITUDE": 41.248343815000098, "LONGITUDE": -85.828844241999903, "NAICS_CODE": "622110", "NAICS_DESC": "GENERAL MEDICAL AND SURGICAL HOSPITALS", "SOURCE": "http://www.in.gov/isdh/reports/QAMIS/hosdir", "SOURCEDATE": "2018-08-16T00:00:00.000Z", "VAL_METHOD": "IMAGERY", "VAL_DATE": "2014-03-12T00:00:00.000Z", "WEBSITE": "http://www.kch.com", "STATE_ID": "17-005113-1", "ALT_NAME": "NOT AVAILABLE", "ST_FIPS": "18", "OWNER": "PROPRIETARY", "TTL_STAFF": -999, "BEDS": 72, "TRAUMA": "NOT AVAILABLE", "HELIPAD": "Y" }, "geometry": { "type": "Polygon", "coordinates": [ [ [ -85.878547, 41.172435 ], [ -85.989664, 41.264842 ], [ -85.989669, 41.265055 ], [ -85.884011, 41.320587 ], [ -85.863503, 41.330507 ], [ -85.853942, 41.332926 ], [ -85.848244, 41.333023 ], [ -85.844299, 41.331979 ], [ -85.82964, 41.324911 ], [ -85.7858, 41.300084 ], [ -85.733288, 41.257396 ], [ -85.718784, 41.235908 ], [ -85.705273299999988, 41.2070074 ], [ -85.703413, 41.202096 ], [ -85.703419, 41.201431 ], [ -85.704011, 41.199914 ], [ -85.705258, 41.198902 ], [ -85.78726, 41.177168 ], [ -85.878547, 41.172435 ] ] ] } },
{ "type": "Feature", "properties": { "OBJECTID": 2396, "ID": "0011846804", "NAME": "REHABILITATION HOSPITAL OF FORT WAYNE GENERAL PAR", "ADDRESS": "7970 W JEFFERSON BLVD", "CITY": "FORT WAYNE", "STATE": "IN", "ZIP": "46804", "ZIP4": "NOT AVAILABLE", "TELEPHONE": "(260) 435-6100", "TYPE": "REHABILITATION", "STATUS": "OPEN", "POPULATION": 36, "COUNTY": "ALLEN", "COUNTYFIPS": "18003", "COUNTRY": "USA", "LATITUDE": 41.042790267000001, "LONGITUDE": -85.248212189, "NAICS_CODE": "622310", "NAICS_DESC": "REHABILITATION HOSPITALS (EXCEPT ALCOHOLISM, DRUG ADDICTION)", "SOURCE": "http://www.in.gov/isdh/reports/QAMIS/hosdir", "SOURCEDATE": "2018-08-16T00:00:00.000Z", "VAL_METHOD": "IMAGERY", "VAL_DATE": "2014-01-22T00:00:00.000Z", "WEBSITE": "http://www.rehabhospital.com/Pages/home.aspx", "STATE_ID": "17-006245-1", "ALT_NAME": "NOT AVAILABLE", "ST_FIPS": "18", "OWNER": "PROPRIETARY", "TTL_STAFF": -999, "BEDS": 36, "TRAUMA": "NOT AVAILABLE", "HELIPAD": "N" }, "geometry": { "type": "Polygon", "coordinates": [ [ [ -85.3145503, 40.956861699999983 ], [ -85.319588, 40.960369300000053 ], [ -85.346163, 40.997925 ], [ -85.3552536, 41.0493358 ], [ -85.3554117, 41.064072699999961 ], [ -85.3368845, 41.0804634 ], [ -85.2457617, 41.1182228 ], [ -85.1934584, 41.126031600000026 ], [ -85.1833791, 41.125293900000024 ], [ -85.1302102, 41.083843100000038 ], [ -85.1299709, 41.082907500000012 ], [ -85.1301309, 41.050092599999942 ], [ -85.1463025, 41.0192986 ], [ -85.2548885, 40.953116 ], [ -85.2593351, 40.9525141 ], [ -85.3145503, 40.956861699999983 ] ] ] } },
{ "type": "Feature", "properties": { "OBJECTID": 2398, "ID": "0011446996", "NAME": "PULASKI MEMORIAL HOSPITAL", "ADDRESS": "616 E 13TH ST", "CITY": "WINAMAC", "STATE": "IN", "ZIP": "46996", "ZIP4": "NOT AVAILABLE", "TELEPHONE": "(574) 946-2100", "TYPE": "CRITICAL ACCESS", "STATUS": "OPEN", "POPULATION": 25, "COUNTY": "PULASKI", "COUNTYFIPS": "18131", "COUNTRY": "USA", "LATITUDE": 41.056267569000099, "LONGITUDE": -86.595998494999904, "NAICS_CODE": "622110", "NAICS_DESC": "GENERAL MEDICAL AND SURGICAL HOSPITALS", "SOURCE": "http://www.in.gov/isdh/reports/QAMIS/hosdir", "SOURCEDATE": "2018-08-16T00:00:00.000Z", "VAL_METHOD": "IMAGERY", "VAL_DATE": "2014-01-24T00:00:00.000Z", "WEBSITE": "http://www.pmhnet.com", "STATE_ID": "17-005084-1", "ALT_NAME": "NOT AVAILABLE", "ST_FIPS": "18", "OWNER": "GOVERNMENT - LOCAL", "TTL_STAFF": -999, "BEDS": 25, "TRAUMA": "NOT AVAILABLE", "HELIPAD": "N" }, "geometry": { "type": "Polygon", "coordinates": [ [ [ -86.555578985262827, 40.974106295239345 ], [ -86.622791307055337, 40.984397125444907 ], [ -86.638363288915698, 40.98987210939373 ], [ -86.722050238415221, 41.054356990411861 ], [ -86.721886239484306, 41.055418990369553 ], [ -86.60255437913807, 41.142321060440466 ], [ -86.486788, 41.066369 ], [ -86.496812, 41.04807 ], [ -86.50621043998062, 41.034564254296939 ], [ -86.555578985262827, 40.974106295239345 ] ] ] } },
{ "type": "Feature", "properties": { "OBJECTID": 2818, "ID": "0016346807", "NAME": "VIBRA HOSPITAL OF FORT WAYNE", "ADDRESS": "2626 FAIRFIELD AVE", "CITY": "FORT WAYNE", "STATE": "IN", "ZIP": "46807", "ZIP4": "NOT AVAILABLE", "TELEPHONE": "(260) 399-2900", "TYPE": "LONG TERM CARE", "STATUS": "CLOSED", "POPULATION": 24, "COUNTY": "ALLEN", "COUNTYFIPS": "18003", "COUNTRY": "USA", "LATITUDE": 41.061139353000002, "LONGITUDE": -85.145508136000004, "NAICS_CODE": "622110", "NAICS_DESC": "GENERAL MEDICAL AND SURGICAL HOSPITALS", "SOURCE": "http://www.state.in.us/isdh/reports/QAMIS/hosdir/wdirhos.htm", "SOURCEDATE": "2012-11-06T00:00:00.000Z", "VAL_METHOD": "IMAGERY", "VAL_DATE": "2014-02-10T00:00:00.000Z", "WEBSITE": "http://www.vhfortwayne.com", "STATE_ID": "12-012132-1", "ALT_NAME": "NOT AVAILABLE", "ST_FIPS": "18", "OWNER": "PROPRIETARY", "TTL_STAFF": -999, "BEDS": 24, "TRAUMA": "NOT AVAILABLE", "HELIPAD": "N" }, "geometry": { "type": "Polygon", "coordinates": [ [ [ -85.1680622, 40.9685151 ], [ -85.2127306, 40.9977299 ], [ -85.2542581, 41.033280599999948 ], [ -85.2562309, 41.0446297 ], [ -85.2575805, 41.059720400000046 ], [ -85.2579134, 41.074245299999987 ], [ -85.2579019, 41.0748127 ], [ -85.2264306, 41.1254018 ], [ -85.2096146, 41.140641199999962 ], [ -85.2088358, 41.14100069999995 ], [ -85.1655367, 41.155341699999987 ], [ -85.1652788, 41.15538590000002 ], [ -85.1369776, 41.155667800000025 ], [ -85.1117053, 41.149816199999982 ], [ -85.0518705, 41.1056818 ], [ -85.020780980956488, 41.070228414417144 ], [ -85.020586287657508, 41.055739638490358 ], [ -85.0826965, 40.977359 ], [ -85.1229201, 40.9663297 ], [ -85.1680622, 40.9685151 ] ] ] } },
{ "type": "Feature", "properties": { "OBJECTID": 6040, "ID": "0008746804", "NAME": "LUTHERAN HOSPITAL OF INDIANA", "ADDRESS": "7950 W JEFFERSON BLVD", "CITY": "FORT WAYNE", "STATE": "IN", "ZIP": "46804", "ZIP4": "NOT AVAILABLE", "TELEPHONE": "(260) 435-7001", "TYPE": "GENERAL ACUTE CARE", "STATUS": "OPEN", "POPULATION": 396, "COUNTY": "ALLEN", "COUNTYFIPS": "18003", "COUNTRY": "USA", "LATITUDE": 41.039211686999998, "LONGITUDE": -85.249849395999902, "NAICS_CODE": "622110", "NAICS_DESC": "GENERAL MEDICAL AND SURGICAL HOSPITALS", "SOURCE": "http://www.in.gov/isdh/reports/QAMIS/hosdir", "SOURCEDATE": "2018-08-16T00:00:00.000Z", "VAL_METHOD": "IMAGERY/OTHER", "VAL_DATE": "2014-03-12T00:00:00.000Z", "WEBSITE": "http://www.lutheranhospital.com", "STATE_ID": "17-005016-1", "ALT_NAME": "NOT AVAILABLE", "ST_FIPS": "18", "OWNER": "PROPRIETARY", "TTL_STAFF": -999, "BEDS": 396, "TRAUMA": "LEVEL II, LEVEL II PEDIATRIC", "HELIPAD": "Y" }, "geometry": { "type": "Polygon", "coordinates": [ [ [ -85.270325600000021, 40.989059399999988 ], [ -85.2741924, 40.990383799999982 ], [ -85.3032886, 41.0157534 ], [ -85.32223, 41.0725411 ], [ -85.3222685, 41.073487800000052 ], [ -85.2848646, 41.103700599999982 ], [ -85.215443, 41.146696899999974 ], [ -85.2144783, 41.146702500000039 ], [ -85.1642523, 41.146708200000035 ], [ -85.1363312, 41.143591499999978 ], [ -85.1303392, 41.14032550000006 ], [ -85.1295172, 41.133777 ], [ -85.1294359, 41.13207349999994 ], [ -85.133103599999984, 41.0803043 ], [ -85.133954, 41.076962800000068 ], [ -85.1367975, 41.0730973 ], [ -85.1428506, 41.066294700000014 ], [ -85.1451905, 41.06414740000001 ], [ -85.1585732, 41.052380700000015 ], [ -85.1673825, 41.044702499999985 ], [ -85.180671, 41.033619499999965 ], [ -85.188787, 41.029000399999987 ], [ -85.2617442, 40.9922254 ], [ -85.270325600000021, 40.989059399999988 ] ] ] } },
{ "type": "Feature", "properties": { "OBJECTID": 6062, "ID": "0007446526", "NAME": "IU HEALTH GOSHEN HOSPITAL", "ADDRESS": "200 HIGH PARK AVE", "CITY": "GOSHEN", "STATE": "IN", "ZIP": "46526", "ZIP4": "NOT AVAILABLE", "TELEPHONE": "(574) 364-2141", "TYPE": "GENERAL ACUTE CARE", "STATUS": "OPEN", "POPULATION": 120, "COUNTY": "ELKHART", "COUNTYFIPS": "18039", "COUNTRY": "USA", "LATITUDE": 41.563292078000103, "LONGITUDE": -85.830604706000003, "NAICS_CODE": "622110", "NAICS_DESC": "GENERAL MEDICAL AND SURGICAL HOSPITALS", "SOURCE": "http://www.in.gov/isdh/reports/QAMIS/hosdir", "SOURCEDATE": "2018-08-16T00:00:00.000Z", "VAL_METHOD": "IMAGERY", "VAL_DATE": "2014-02-10T00:00:00.000Z", "WEBSITE": "http://www.iuhealth.org", "STATE_ID": "17-005025-1", "ALT_NAME": "NOT AVAILABLE", "ST_FIPS": "18", "OWNER": "NON-PROFIT", "TTL_STAFF": -999, "BEDS": 120, "TRAUMA": "NOT AVAILABLE", "HELIPAD": "N" }, "geometry": { "type": "Polygon", "coordinates": [ [ [ -85.837677440933334, 41.467636921084214 ], [ -85.846694702478317, 41.471227223221291 ], [ -85.959357203947334, 41.536512116228806 ], [ -85.957658024196832, 41.550999066459511 ], [ -85.907482859078797, 41.627201601240287 ], [ -85.827644978847118, 41.653810406477071 ], [ -85.821157480332744, 41.652694009597084 ], [ -85.813232203762752, 41.648927421100524 ], [ -85.806437127603729, 41.645395431868195 ], [ -85.780002747760633, 41.629829478920477 ], [ -85.772067300544364, 41.623798197115718 ], [ -85.743370449047234, 41.600036460606582 ], [ -85.713136163887356, 41.566837207386641 ], [ -85.712780407827921, 41.552279243746874 ], [ -85.726473376225712, 41.521974654672171 ], [ -85.75202225570338, 41.498162882330362 ], [ -85.784960890696752, 41.478921495865158 ], [ -85.837677440933334, 41.467636921084214 ] ] ] } },
{ "type": "Feature", "properties": { "OBJECTID": 6063, "ID": "0002446706", "NAME": "DEKALB HEALTH", "ADDRESS": "1316 E SEVENTH ST", "CITY": "AUBURN", "STATE": "IN", "ZIP": "46706", "ZIP4": "NOT AVAILABLE", "TELEPHONE": "(260) 925-4600", "TYPE": "GENERAL ACUTE CARE", "STATUS": "OPEN", "POPULATION": 56, "COUNTY": "DEKALB", "COUNTYFIPS": "18033", "COUNTRY": "USA", "LATITUDE": 41.368866859000001, "LONGITUDE": -85.035394170999993, "NAICS_CODE": "622110", "NAICS_DESC": "GENERAL MEDICAL AND SURGICAL HOSPITALS", "SOURCE": "http://www.in.gov/isdh/reports/QAMIS/hosdir", "SOURCEDATE": "2018-08-16T00:00:00.000Z", "VAL_METHOD": "IMAGERY", "VAL_DATE": "2014-02-10T00:00:00.000Z", "WEBSITE": "http://www.dekalbhealth.com", "STATE_ID": "17-005041-1", "ALT_NAME": "NOT AVAILABLE", "ST_FIPS": "18", "OWNER": "NON-PROFIT", "TTL_STAFF": -999, "BEDS": 56, "TRAUMA": "NOT AVAILABLE", "HELIPAD": "Y" }, "geometry": { "type": "Polygon", "coordinates": [ [ [ -85.07798, 41.2859708 ], [ -85.1368106, 41.321008099999943 ], [ -85.174389259334234, 41.365787238084259 ], [ -85.063170423361768, 41.439487894693336 ], [ -85.053535892800099, 41.442688084839162 ], [ -85.024956307259259, 41.451145852784784 ], [ -85.004924298954961, 41.446980338067206 ], [ -84.922719819425708, 41.384747239528473 ], [ -84.907540568218394, 41.358759858510091 ], [ -85.0208561, 41.295404099999956 ], [ -85.07798, 41.2859708 ] ] ] } },
{ "type": "Feature", "properties": { "OBJECTID": 6073, "ID": "0000146628", "NAME": "A ROSIE PLACE", "ADDRESS": "53131 QUINCE RD", "CITY": "SOUTH BEND", "STATE": "IN", "ZIP": "46628", "ZIP4": "NOT AVAILABLE", "TELEPHONE": "(574) 235-8899", "TYPE": "CHILDREN", "STATUS": "OPEN", "POPULATION": 10, "COUNTY": "ST. JOSEPH", "COUNTYFIPS": "18141", "COUNTRY": "USA", "LATITUDE": 41.720046037000003, "LONGITUDE": -86.381464342000001, "NAICS_CODE": "622110", "NAICS_DESC": "GENERAL MEDICAL AND SURGICAL HOSPITALS", "SOURCE": "http://www.in.gov/isdh/reports/QAMIS/hosdir", "SOURCEDATE": "2018-08-16T00:00:00.000Z", "VAL_METHOD": "IMAGERY", "VAL_DATE": "2014-02-10T00:00:00.000Z", "WEBSITE": "http://arosieplace.org/index.php", "STATE_ID": "17-012157-1", "ALT_NAME": "NOT AVAILABLE", "ST_FIPS": "18", "OWNER": "NON-PROFIT", "TTL_STAFF": -999, "BEDS": 10, "TRAUMA": "NOT AVAILABLE", "HELIPAD": "N" }, "geometry": { "type": "Polygon", "coordinates": [ [ [ -86.385251236960372, 41.642777039624946 ], [ -86.462413439977553, 41.671914864045995 ], [ -86.501309, 41.708481 ], [ -86.501277700000017, 41.70872160000004 ], [ -86.4435041, 41.754349099999985 ], [ -86.3954615, 41.776214899999978 ], [ -86.387215, 41.776292 ], [ -86.358116, 41.776365 ], [ -86.3205484, 41.759803699999985 ], [ -86.260671400000021, 41.722472599999982 ], [ -86.270244230278578, 41.684289974272843 ], [ -86.294670310529227, 41.639496363969329 ], [ -86.300619308078112, 41.638889666825705 ], [ -86.385251236960372, 41.642777039624946 ] ] ] } },
{ "type": "Feature", "properties": { "OBJECTID": 6075, "ID": "0009746563", "NAME": "MICHIANA BEHAVIORAL HEALTH CENTER", "ADDRESS": "1800 N OAK RD", "CITY": "PLYMOUTH", "STATE": "IN", "ZIP": "46563", "ZIP4": "NOT AVAILABLE", "TELEPHONE": "(574) 936-3784", "TYPE": "PSYCHIATRIC", "STATUS": "OPEN", "POPULATION": 51, "COUNTY": "MARSHALL", "COUNTYFIPS": "18099", "COUNTRY": "USA", "LATITUDE": 41.3569279210001, "LONGITUDE": -86.327573916999896, "NAICS_CODE": "622210", "NAICS_DESC": "PSYCHIATRIC AND SUBSTANCE ABUSE HOSPITALS", "SOURCE": "http://www.in.gov/isdh/reports/QAMIS/hosdir", "SOURCEDATE": "2018-08-16T00:00:00.000Z", "VAL_METHOD": "IMAGERY", "VAL_DATE": "2014-02-10T00:00:00.000Z", "WEBSITE": "http://www.michianabhc.com", "STATE_ID": "NOT AVAILABLE", "ALT_NAME": "NOT AVAILABLE", "ST_FIPS": "18", "OWNER": "PROPRIETARY", "TTL_STAFF": -999, "BEDS": 51, "TRAUMA": "NOT AVAILABLE", "HELIPAD": "N" }, "geometry": { "type": "Polygon", "coordinates": [ [ [ -86.337977, 41.266875 ], [ -86.487699481489145, 41.368483627648651 ], [ -86.487622481330632, 41.368678627690521 ], [ -86.444427, 41.389622 ], [ -86.311157, 41.4439 ], [ -86.3110006, 41.443953699999987 ], [ -86.3107375, 41.443960799999928 ], [ -86.173748, 41.318207 ], [ -86.173751, 41.31715 ], [ -86.267134, 41.26614559999998 ], [ -86.267447, 41.266142 ], [ -86.337977, 41.266875 ] ] ] } },
{ "type": "Feature", "properties": { "OBJECTID": 6143, "ID": "0013646802", "NAME": "ST JOSEPH HOSPITAL", "ADDRESS": "700 BROADWAY", "CITY": "FORT WAYNE", "STATE": "IN", "ZIP": "46802", "ZIP4": "NOT AVAILABLE", "TELEPHONE": "(260) 425-3000", "TYPE": "GENERAL ACUTE CARE", "STATUS": "OPEN", "POPULATION": 145, "COUNTY": "ALLEN", "COUNTYFIPS": "18003", "COUNTRY": "USA", "LATITUDE": 41.078000734000099, "LONGITUDE": -85.149277198999997, "NAICS_CODE": "622110", "NAICS_DESC": "GENERAL MEDICAL AND SURGICAL HOSPITALS", "SOURCE": "http://www.in.gov/isdh/reports/QAMIS/hosdir", "SOURCEDATE": "2018-08-16T00:00:00.000Z", "VAL_METHOD": "IMAGERY", "VAL_DATE": "2014-03-12T00:00:00.000Z", "WEBSITE": "http://www.stjoehospital.com", "STATE_ID": "17-005043-1", "ALT_NAME": "NOT AVAILABLE", "ST_FIPS": "18", "OWNER": "PROPRIETARY", "TTL_STAFF": -999, "BEDS": 145, "TRAUMA": "NOT AVAILABLE", "HELIPAD": "Y" }, "geometry": { "type": "Polygon", "coordinates": [ [ [ -85.16656380000002, 40.9869877 ], [ -85.1738484, 40.98827959999997 ], [ -85.2610097, 41.030629900000015 ], [ -85.2748878, 41.059644 ], [ -85.2783331, 41.075362299999959 ], [ -85.245473, 41.133148 ], [ -85.2143758, 41.149724099999979 ], [ -85.1659963, 41.171666399999985 ], [ -85.1032174, 41.1761559 ], [ -85.0322895, 41.107873499999982 ], [ -85.026494900443396, 41.070139013172827 ], [ -85.026258900493474, 41.068524115855965 ], [ -85.0951868, 40.9958652 ], [ -85.0959018, 40.995442899999958 ], [ -85.1195742, 40.990683899999979 ], [ -85.16656380000002, 40.9869877 ] ] ] } },
{ "type": "Feature", "properties": { "OBJECTID": 6171, "ID": "0016246545", "NAME": "UNITY MEDICAL AND SURGICAL HOSPITAL", "ADDRESS": "4455 EDISON LAKES PKWY", "CITY": "MISHAWAKA", "STATE": "IN", "ZIP": "46545", "ZIP4": "NOT AVAILABLE", "TELEPHONE": "(574) 231-6800", "TYPE": "GENERAL ACUTE CARE", "STATUS": "OPEN", "POPULATION": 29, "COUNTY": "ST. JOSEPH", "COUNTYFIPS": "18141", "COUNTRY": "USA", "LATITUDE": 41.701232434000097, "LONGITUDE": -86.178003809000003, "NAICS_CODE": "622110", "NAICS_DESC": "GENERAL MEDICAL AND SURGICAL HOSPITALS", "SOURCE": "http://www.in.gov/isdh/reports/QAMIS/hosdir", "SOURCEDATE": "2018-08-16T00:00:00.000Z", "VAL_METHOD": "IMAGERY", "VAL_DATE": "2014-01-23T00:00:00.000Z", "WEBSITE": "http://www.physicianshospitalsystem.net", "STATE_ID": "17-012113-1", "ALT_NAME": "NOT AVAILABLE", "ST_FIPS": "18", "OWNER": "PROPRIETARY", "TTL_STAFF": -999, "BEDS": 29, "TRAUMA": "NOT AVAILABLE", "HELIPAD": "N" }, "geometry": { "type": "Polygon", "coordinates": [ [ [ -86.180558076217736, 41.622322660974994 ], [ -86.232720831339165, 41.654771339008725 ], [ -86.259449557692932, 41.677642910268844 ], [ -86.260941053158646, 41.678988002242569 ], [ -86.269198, 41.690893 ], [ -86.2694026, 41.694387899999981 ], [ -86.2555197, 41.728669200000049 ], [ -86.250672, 41.7322129 ], [ -86.1979327, 41.768211499999971 ], [ -86.1897739, 41.768167700000028 ], [ -86.1595901, 41.767955 ], [ -86.1571648, 41.767937500000023 ], [ -86.1123064, 41.754583799999978 ], [ -86.109856, 41.753527 ], [ -86.0619032, 41.696998 ], [ -86.060601, 41.695423899999973 ], [ -86.065106184277994, 41.688422958994742 ], [ -86.090075558877146, 41.663342300431268 ], [ -86.138020542301106, 41.621429187423225 ], [ -86.138181442063953, 41.621427987728204 ], [ -86.180558076217736, 41.622322660974994 ] ] ] } },
{ "type": "Feature", "properties": { "OBJECTID": 6745, "ID": "0012846545", "NAME": "SAINT JOSEPH REGIONAL MEDICAL CENTER", "ADDRESS": "5215 HOLY CROSS PKWY", "CITY": "MISHAWAKA", "STATE": "IN", "ZIP": "46545", "ZIP4": "NOT AVAILABLE", "TELEPHONE": "(574) 335-5000", "TYPE": "GENERAL ACUTE CARE", "STATUS": "OPEN", "POPULATION": 294, "COUNTY": "ST. JOSEPH", "COUNTYFIPS": "18141", "COUNTRY": "USA", "LATITUDE": 41.707177381000101, "LONGITUDE": -86.174469580999997, "NAICS_CODE": "622110", "NAICS_DESC": "GENERAL MEDICAL AND SURGICAL HOSPITALS", "SOURCE": "http://www.in.gov/isdh/reports/QAMIS/hosdir", "SOURCEDATE": "2018-08-16T00:00:00.000Z", "VAL_METHOD": "IMAGERY", "VAL_DATE": "2014-03-12T00:00:00.000Z", "WEBSITE": "http://www.sjmed.com", "STATE_ID": "17-005012-1", "ALT_NAME": "NOT AVAILABLE", "ST_FIPS": "18", "OWNER": "NON-PROFIT", "TTL_STAFF": -999, "BEDS": 294, "TRAUMA": "NOT AVAILABLE", "HELIPAD": "Y" }, "geometry": { "type": "Polygon", "coordinates": [ [ [ -86.176771881827875, 41.622330353953465 ], [ -86.183348166195785, 41.624548752692213 ], [ -86.261553484446296, 41.663269608266461 ], [ -86.273209953224253, 41.672112555521956 ], [ -86.278359933674977, 41.678146520080652 ], [ -86.289961800000015, 41.693725799999989 ], [ -86.28764390000002, 41.725018 ], [ -86.2055085, 41.787927099999962 ], [ -86.1862099, 41.78872 ], [ -86.1828752, 41.788682800000018 ], [ -86.147294, 41.786832299999972 ], [ -86.086187, 41.760228 ], [ -86.0797319, 41.753483399999979 ], [ -86.0529259, 41.7113623 ], [ -86.0536273, 41.709873799999968 ], [ -86.06394318510317, 41.688429557898438 ], [ -86.087658161413657, 41.663322497457173 ], [ -86.138091646558465, 41.620045995020241 ], [ -86.176771881827875, 41.622330353953465 ] ] ] } },
{ "type": "Feature", "properties": { "OBJECTID": 4040, "ID": "0156346805", "NAME": "VIBRA HOSPITAL OF FORT WAYNE", "ADDRESS": "2200 RANDALLIA DRIVE, 5TH FLOOR", "CITY": "FORT WAYNE", "STATE": "IN", "ZIP": "46805", "ZIP4": "NOT AVAILABLE", "TELEPHONE": "(260) 399-2900", "TYPE": "LONG TERM CARE", "STATUS": "OPEN", "POPULATION": -999, "COUNTY": "ALLEN", "COUNTYFIPS": "18003", "COUNTRY": "USA", "LATITUDE": 41.096171462000001, "LONGITUDE": -85.110219027, "NAICS_CODE": "622110", "NAICS_DESC": "GENERAL MEDICAL AND SURGICAL HOSPITALS", "SOURCE": "http://www.in.gov/isdh/reports/QAMIS/hosdir", "SOURCEDATE": "2018-08-16T00:00:00.000Z", "VAL_METHOD": "IMAGERY/OTHER", "VAL_DATE": "2015-03-30T00:00:00.000Z", "WEBSITE": "NOT AVAILABLE", "STATE_ID": "NOT AVAILABLE", "ALT_NAME": "NOT AVAILABLE", "ST_FIPS": "18", "OWNER": "PROPRIETARY", "TTL_STAFF": -999, "BEDS": 48, "TRAUMA": "NOT AVAILABLE", "HELIPAD": "Y" }, "geometry": { "type": "Polygon", "coordinates": [ [ [ -85.1118306, 41.002992199999973 ], [ -85.1757926, 41.036448700000022 ], [ -85.2157628, 41.060349299999956 ], [ -85.2158428, 41.060479 ], [ -85.2456897, 41.125392499999933 ], [ -85.2456913, 41.125603100000042 ], [ -85.2167687, 41.147885599999967 ], [ -85.1669279, 41.175154199999966 ], [ -85.113601800000012, 41.1827259 ], [ -85.0755552, 41.18318020000001 ], [ -85.0505292, 41.1777052 ], [ -85.002991991108942, 41.135964703146357 ], [ -84.992626963522042, 41.121526227407593 ], [ -84.993103080805909, 41.083670692984242 ], [ -85.000731112647514, 41.070448118903705 ], [ -85.010941550784239, 41.063262728743439 ], [ -85.0739578, 41.019749300000015 ], [ -85.1033275, 41.006459599999978 ], [ -85.1118306, 41.002992199999973 ] ] ] } },
{ "type": "Feature", "properties": { "OBJECTID": 4103, "ID": "0156246802", "NAME": "SELECT SPECIALTY HOSPITAL-FORT WAYNE", "ADDRESS": "700 BROADWAY, 7TH FL E", "CITY": "FORT WAYNE", "STATE": "IN", "ZIP": "46802", "ZIP4": "NOT AVAILABLE", "TELEPHONE": "(260) 425-3840", "TYPE": "LONG TERM CARE", "STATUS": "CLOSED", "POPULATION": -999, "COUNTY": "ALLEN", "COUNTYFIPS": "18003", "COUNTRY": "USA", "LATITUDE": 41.078295523000101, "LONGITUDE": -85.149166007999995, "NAICS_CODE": "622310", "NAICS_DESC": "HOSPITALS, SPECIALTY (EXCEPT PSYCHIATRIC, SUBSTANCE ABUSE)", "SOURCE": "http://www.in.gov/isdh/reports/QAMIS/hosdir", "SOURCEDATE": "2016-04-13T00:00:00.000Z", "VAL_METHOD": "IMAGERY/OTHER", "VAL_DATE": "2015-03-30T00:00:00.000Z", "WEBSITE": "NOT AVAILABLE", "STATE_ID": "NOT AVAILABLE", "ALT_NAME": "NOT AVAILABLE", "ST_FIPS": "18", "OWNER": "PROPRIETARY", "TTL_STAFF": -999, "BEDS": 32, "TRAUMA": "NOT AVAILABLE", "HELIPAD": "Y" }, "geometry": { "type": "Polygon", "coordinates": [ [ [ -85.16656380000002, 40.9869877 ], [ -85.1738484, 40.98827959999997 ], [ -85.2610097, 41.030629900000015 ], [ -85.2748878, 41.059644 ], [ -85.2783331, 41.075362299999959 ], [ -85.245473, 41.133148 ], [ -85.2143758, 41.149724099999979 ], [ -85.1659963, 41.171666399999985 ], [ -85.1032174, 41.1761559 ], [ -85.0322895, 41.107873499999982 ], [ -85.026494900443396, 41.070139013172827 ], [ -85.026258900493474, 41.068524115855965 ], [ -85.0951868, 40.9958652 ], [ -85.0959018, 40.995442899999958 ], [ -85.1195742, 40.990683899999979 ], [ -85.16656380000002, 40.9869877 ] ] ] } },
{ "type": "Feature", "properties": { "OBJECTID": 4261, "ID": "0008146544", "NAME": "KINDRED HOSPITAL NORTHERN INDIANA", "ADDRESS": "215 W 4TH ST, STE 200", "CITY": "MISHAWAKA", "STATE": "IN", "ZIP": "46544", "ZIP4": "NOT AVAILABLE", "TELEPHONE": "(574) 252-2000", "TYPE": "LONG TERM CARE", "STATUS": "OPEN", "POPULATION": 32, "COUNTY": "ST. JOSEPH", "COUNTYFIPS": "18141", "COUNTRY": "USA", "LATITUDE": 41.658708069000099, "LONGITUDE": -86.181979790999904, "NAICS_CODE": "622110", "NAICS_DESC": "GENERAL MEDICAL AND SURGICAL HOSPITALS", "SOURCE": "http://www.in.gov/isdh/reports/QAMIS/hosdir", "SOURCEDATE": "2018-08-16T00:00:00.000Z", "VAL_METHOD": "IMAGERY", "VAL_DATE": "2014-02-10T00:00:00.000Z", "WEBSITE": "http://www.khnorthernindiana.com/", "STATE_ID": "12-002605-1", "ALT_NAME": "NOT AVAILABLE", "ST_FIPS": "18", "OWNER": "PROPRIETARY", "TTL_STAFF": -999, "BEDS": 32, "TRAUMA": "NOT AVAILABLE", "HELIPAD": "N" }, "geometry": { "type": "Polygon", "coordinates": [ [ [ -86.176652258681642, 41.557243540110207 ], [ -86.26799799459819, 41.608467271374209 ], [ -86.300619308078112, 41.638889666825705 ], [ -86.310234812126126, 41.671811278376566 ], [ -86.310236911839823, 41.671915677784291 ], [ -86.2969299, 41.692194500000014 ], [ -86.275376, 41.704684 ], [ -86.1882449, 41.7473 ], [ -86.178537, 41.74714 ], [ -86.1779176, 41.74708550000004 ], [ -86.1492285, 41.740024300000051 ], [ -86.145937, 41.7387904 ], [ -86.124123, 41.728428 ], [ -86.067640182479906, 41.688408461384711 ], [ -86.051477479334082, 41.667894032409777 ], [ -86.051466383884105, 41.66679873698066 ], [ -86.051506990843762, 41.665109644100696 ], [ -86.056227522513225, 41.656213987797351 ], [ -86.080019314575807, 41.625247562328134 ], [ -86.176652258681642, 41.557243540110207 ] ] ] } },
{ "type": "Feature", "properties": { "OBJECTID": 247, "ID": "0003049098", "NAME": "LAKELAND COMMUNITY HOSPITAL, WATERVLIET", "ADDRESS": "400 MEDICAL PARK DR", "CITY": "WATERVLIET", "STATE": "MI", "ZIP": "49098", "ZIP4": "NOT AVAILABLE", "TELEPHONE": "NOT AVAILABLE", "TYPE": "GENERAL ACUTE CARE", "STATUS": "OPEN", "POPULATION": 38, "COUNTY": "BERRIEN", "COUNTYFIPS": "26021", "COUNTRY": "USA", "LATITUDE": 42.184880464000102, "LONGITUDE": -86.249925826999998, "NAICS_CODE": "622110", "NAICS_DESC": "GENERAL MEDICAL AND SURGICAL HOSPITALS", "SOURCE": "https://w2.lara.state.mi.us/VAL/License/Search", "SOURCEDATE": "2018-08-09T00:00:00.000Z", "VAL_METHOD": "IMAGERY", "VAL_DATE": "2014-03-12T00:00:00.000Z", "WEBSITE": "http://www.lakelandhealth.org/watervliet", "STATE_ID": "NOT AVAILABLE", "ALT_NAME": "NOT AVAILABLE", "ST_FIPS": "26", "OWNER": "NON-PROFIT", "TTL_STAFF": -999, "BEDS": 38, "TRAUMA": "NOT AVAILABLE", "HELIPAD": "Y" }, "geometry": { "type": "Polygon", "coordinates": [ [ [ -86.2617627, 42.1009298 ], [ -86.3892187, 42.120659900000014 ], [ -86.366613, 42.186335 ], [ -86.262424, 42.257895 ], [ -86.259326, 42.259445700000043 ], [ -86.1626839, 42.233785600000012 ], [ -86.1233022, 42.2134764 ], [ -86.1232897, 42.2125888 ], [ -86.205563, 42.143926 ], [ -86.2617627, 42.1009298 ] ] ] } },
{ "type": "Feature", "properties": { "OBJECTID": 265, "ID": "0009446601", "NAME": "MEMORIAL HOSPITAL OF SOUTH BEND", "ADDRESS": "615 N MICHIGAN ST", "CITY": "SOUTH BEND", "STATE": "IN", "ZIP": "46601", "ZIP4": "NOT AVAILABLE", "TELEPHONE": "(574) 647-1000", "TYPE": "GENERAL ACUTE CARE", "STATUS": "OPEN", "POPULATION": 416, "COUNTY": "ST. JOSEPH", "COUNTYFIPS": "18141", "COUNTRY": "USA", "LATITUDE": 41.684055286000003, "LONGITUDE": -86.25157885, "NAICS_CODE": "622110", "NAICS_DESC": "GENERAL MEDICAL AND SURGICAL HOSPITALS", "SOURCE": "http://www.in.gov/isdh/reports/QAMIS/hosdir", "SOURCEDATE": "2018-08-16T00:00:00.000Z", "VAL_METHOD": "IMAGERY", "VAL_DATE": "2014-03-12T00:00:00.000Z", "WEBSITE": "http://www.qualityoflife.org", "STATE_ID": "17-005053-1", "ALT_NAME": "NOT AVAILABLE", "ST_FIPS": "18", "OWNER": "NON-PROFIT", "TTL_STAFF": -999, "BEDS": 416, "TRAUMA": "LEVEL II", "HELIPAD": "Y" }, "geometry": { "type": "Polygon", "coordinates": [ [ [ -86.234615641405398, 41.600112210427909 ], [ -86.265693005120781, 41.603713104685973 ], [ -86.290663089228048, 41.608425953986689 ], [ -86.340673741107338, 41.619894757219193 ], [ -86.380446032975428, 41.671799818067932 ], [ -86.380429532461307, 41.671943717454681 ], [ -86.374197, 41.693723 ], [ -86.3608688, 41.719518699999959 ], [ -86.3428626, 41.737041600000019 ], [ -86.3038323, 41.760402599999978 ], [ -86.2506067, 41.7797847 ], [ -86.146389, 41.729158900000023 ], [ -86.12779086377769, 41.680661557304283 ], [ -86.143350105115815, 41.663177468923081 ], [ -86.165205149581681, 41.63970963225696 ], [ -86.233572143217941, 41.600114208167724 ], [ -86.234615641405398, 41.600112210427909 ] ] ] } },
{ "type": "Feature", "properties": { "OBJECTID": 7553, "ID": "0015946804", "NAME": "THE ORTHOPAEDIC HOSPITAL OF LUTHERAN HEALTH NETWOR", "ADDRESS": "7952 W JEFFERSON BLVD", "CITY": "FORT WAYNE", "STATE": "IN", "ZIP": "46804", "ZIP4": "NOT AVAILABLE", "TELEPHONE": "(260) 435-2999", "TYPE": "GENERAL ACUTE CARE", "STATUS": "OPEN", "POPULATION": 43, "COUNTY": "ALLEN", "COUNTYFIPS": "18003", "COUNTRY": "USA", "LATITUDE": 41.04028484, "LONGITUDE": -85.239125427999994, "NAICS_CODE": "622110", "NAICS_DESC": "GENERAL MEDICAL AND SURGICAL HOSPITALS", "SOURCE": "http://www.in.gov/isdh/reports/QAMIS/hosdir", "SOURCEDATE": "2018-08-16T00:00:00.000Z", "VAL_METHOD": "IMAGERY/OTHER", "VAL_DATE": "2014-01-22T00:00:00.000Z", "WEBSITE": "http://www.theorthohospital.com", "STATE_ID": "17-011479-1", "ALT_NAME": "NOT AVAILABLE", "ST_FIPS": "18", "OWNER": "PROPRIETARY", "TTL_STAFF": -999, "BEDS": 43, "TRAUMA": "NOT AVAILABLE", "HELIPAD": "N" }, "geometry": { "type": "Polygon", "coordinates": [ [ [ -85.281164, 40.945945100000024 ], [ -85.335699, 40.959186 ], [ -85.346163, 40.997925 ], [ -85.3448804, 41.014161699999981 ], [ -85.3366297, 41.063366099999968 ], [ -85.3090331, 41.0804868 ], [ -85.2669682, 41.103721899999989 ], [ -85.1995712, 41.133147300000019 ], [ -85.1530416, 41.130253700000019 ], [ -85.1300144, 41.084136699999981 ], [ -85.1299709, 41.082907500000012 ], [ -85.1301309, 41.050092599999942 ], [ -85.1323034, 41.045455900000029 ], [ -85.1389406, 41.0315612 ], [ -85.145574900000014, 41.019502699999961 ], [ -85.2621582, 40.94582680000002 ], [ -85.281164, 40.945945100000024 ] ] ] } },
{ "type": "Feature", "properties": { "OBJECTID": 5022, "ID": "0013049093", "NAME": "THREE RIVERS HEALTH", "ADDRESS": "701 S HEALTH PARKWAY", "CITY": "THREE RIVERS", "STATE": "MI", "ZIP": "49093", "ZIP4": "NOT AVAILABLE", "TELEPHONE": "NOT AVAILABLE", "TYPE": "GENERAL ACUTE CARE", "STATUS": "OPEN", "POPULATION": 60, "COUNTY": "ST. JOSEPH", "COUNTYFIPS": "26149", "COUNTRY": "USA", "LATITUDE": 41.935407665000099, "LONGITUDE": -85.647925611999895, "NAICS_CODE": "622110", "NAICS_DESC": "GENERAL MEDICAL AND SURGICAL HOSPITALS", "SOURCE": "https://w2.lara.state.mi.us/VAL/License/Search", "SOURCEDATE": "2018-08-09T00:00:00.000Z", "VAL_METHOD": "IMAGERY", "VAL_DATE": "2014-01-30T00:00:00.000Z", "WEBSITE": "http://www.threerivershealth.org", "STATE_ID": "NOT AVAILABLE", "ALT_NAME": "NOT AVAILABLE", "ST_FIPS": "26", "OWNER": "GOVERNMENT - DISTRICT/AUTHORITY", "TTL_STAFF": -999, "BEDS": 60, "TRAUMA": "NOT AVAILABLE", "HELIPAD": "Y" }, "geometry": { "type": "Polygon", "coordinates": [ [ [ -85.6642741, 41.818257 ], [ -85.682125, 41.823783 ], [ -85.700382, 41.833088 ], [ -85.760302, 41.91112 ], [ -85.753383, 41.926903 ], [ -85.73167, 41.96886 ], [ -85.6360151, 42.057023 ], [ -85.635794, 42.057031100000025 ], [ -85.563593, 41.989671 ], [ -85.552797, 41.973174 ], [ -85.52212, 41.923697 ], [ -85.6642741, 41.818257 ] ] ] } },
{ "type": "Feature", "properties": { "OBJECTID": 5030, "ID": "0003249102", "NAME": "LAKELAND SPECIALTY HOSPITAL AT BERRIEN CENTER", "ADDRESS": "6418 DEANS HILL RD", "CITY": "BERRIEN CENTER", "STATE": "MI", "ZIP": "49102", "ZIP4": "NOT AVAILABLE", "TELEPHONE": "NOT AVAILABLE", "TYPE": "LONG TERM CARE", "STATUS": "OPEN", "POPULATION": 183, "COUNTY": "BERRIEN", "COUNTYFIPS": "26021", "COUNTRY": "USA", "LATITUDE": 41.955457562, "LONGITUDE": -86.3010967499999, "NAICS_CODE": "622310", "NAICS_DESC": "SPECIALTY (EXCEPT PSYCHIATRIC AND SUBSTANCE ABUSE) HOSPITALS", "SOURCE": "https://w2.lara.state.mi.us/VAL/License/Search", "SOURCEDATE": "2018-08-09T00:00:00.000Z", "VAL_METHOD": "IMAGERY", "VAL_DATE": "2014-02-10T00:00:00.000Z", "WEBSITE": "http://www.lakelandhealth.org", "STATE_ID": "NOT AVAILABLE", "ALT_NAME": "NOT AVAILABLE", "ST_FIPS": "26", "OWNER": "NON-PROFIT", "TTL_STAFF": -999, "BEDS": 183, "TRAUMA": "NOT AVAILABLE", "HELIPAD": "N" }, "geometry": { "type": "Polygon", "coordinates": [ [ [ -86.2954642, 41.869740700000015 ], [ -86.339899, 41.885929 ], [ -86.381672, 41.913947 ], [ -86.4235887, 41.94312630000001 ], [ -86.3961737, 41.992448100000018 ], [ -86.361219, 42.021779 ], [ -86.328232, 42.033444 ], [ -86.300472, 42.04315 ], [ -86.222817, 41.991785 ], [ -86.2091499, 41.974512 ], [ -86.2046459, 41.9256997 ], [ -86.21428, 41.918192 ], [ -86.2676351, 41.877909400000028 ], [ -86.281035, 41.870828 ], [ -86.2954642, 41.869740700000015 ] ] ] } },
{ "type": "Feature", "properties": { "OBJECTID": 5466, "ID": "0019046805", "NAME": "PARK CENTER, INC", "ADDRESS": "1909 CAREW STREET", "CITY": "FORT WAYNE", "STATE": "IN", "ZIP": "46805", "ZIP4": "NOT AVAILABLE", "TELEPHONE": "(260) 489-3543", "TYPE": "PSYCHIATRIC", "STATUS": "OPEN", "POPULATION": 16, "COUNTY": "ALLEN", "COUNTYFIPS": "18003", "COUNTRY": "USA", "LATITUDE": 41.0936254390001, "LONGITUDE": -85.108482019999897, "NAICS_CODE": "622110", "NAICS_DESC": "GENERAL MEDICAL AND SURGICAL HOSPITALS", "SOURCE": "http://www.in.gov/isdh/reports/QAMIS/hosdir", "SOURCEDATE": "2018-08-16T00:00:00.000Z", "VAL_METHOD": "IMAGERY", "VAL_DATE": "2016-04-26T00:00:00.000Z", "WEBSITE": "http://www.parkcenter.org/", "STATE_ID": "41-9-10-P-IP", "ALT_NAME": "NOT AVAILABLE", "ST_FIPS": "18", "OWNER": "NON-PROFIT", "TTL_STAFF": -999, "BEDS": 16, "TRAUMA": "NOT AVAILABLE", "HELIPAD": "N" }, "geometry": { "type": "Polygon", "coordinates": [ [ [ -85.11198060000001, 41.009454400000038 ], [ -85.1491911, 41.02717829999996 ], [ -85.1726622, 41.0403945 ], [ -85.2090152, 41.0622593 ], [ -85.2260289, 41.088863799999984 ], [ -85.2265839, 41.113180300000032 ], [ -85.2264336, 41.125199700000017 ], [ -85.2264306, 41.1254018 ], [ -85.2116276, 41.144062299999987 ], [ -85.1658867, 41.168512300000032 ], [ -85.1033172, 41.1811864 ], [ -85.0754908, 41.17985810000004 ], [ -85.0532932, 41.174831900000036 ], [ -85.002991991108942, 41.135964703146357 ], [ -84.994567886261422, 41.08261159538386 ], [ -84.994718487095199, 41.08185389676143 ], [ -85.005346328360432, 41.070415517844062 ], [ -85.010992949534185, 41.066269223579113 ], [ -85.0767531, 41.0248985 ], [ -85.0946889, 41.016053099999979 ], [ -85.1086893, 41.010524700000055 ], [ -85.11198060000001, 41.009454400000038 ] ] ] } },
{ "type": "Feature", "properties": { "OBJECTID": 3040, "ID": "0010346580", "NAME": "OTIS R BOWEN CENTER FOR HUMAN SERVICES INC", "ADDRESS": "1535 PROVIDENT DR", "CITY": "WARSAW", "STATE": "IN", "ZIP": "46580", "ZIP4": "NOT AVAILABLE", "TELEPHONE": "(574) 267-7169", "TYPE": "PSYCHIATRIC", "STATUS": "OPEN", "POPULATION": 16, "COUNTY": "KOSCIUSKO", "COUNTYFIPS": "18085", "COUNTRY": "USA", "LATITUDE": 41.251827365000103, "LONGITUDE": -85.831092575999904, "NAICS_CODE": "622210", "NAICS_DESC": "PSYCHIATRIC AND SUBSTANCE ABUSE HOSPITALS", "SOURCE": "http://www.in.gov/isdh/reports/QAMIS/hosdir", "SOURCEDATE": "2018-08-16T00:00:00.000Z", "VAL_METHOD": "IMAGERY", "VAL_DATE": "2014-02-10T00:00:00.000Z", "WEBSITE": "http://www.bowencenter.org", "STATE_ID": "NOT AVAILABLE", "ALT_NAME": "NOT AVAILABLE", "ST_FIPS": "18", "OWNER": "NON-PROFIT", "TTL_STAFF": -999, "BEDS": 16, "TRAUMA": "NOT AVAILABLE", "HELIPAD": "N" }, "geometry": { "type": "Polygon", "coordinates": [ [ [ -85.837305, 41.176197 ], [ -85.877224, 41.182774 ], [ -85.993638, 41.266438 ], [ -85.991486, 41.267569 ], [ -85.903305, 41.31299 ], [ -85.863503, 41.330507 ], [ -85.853942, 41.332926 ], [ -85.839679, 41.335843 ], [ -85.780951, 41.300136 ], [ -85.733647, 41.264451 ], [ -85.718918, 41.250264 ], [ -85.6939204, 41.199912499999982 ], [ -85.6957414, 41.199223099999976 ], [ -85.705266, 41.195917 ], [ -85.774711, 41.17733 ], [ -85.837305, 41.176197 ] ] ] } },
{ "type": "Feature", "properties": { "OBJECTID": 3047, "ID": "0006646350", "NAME": "INDIANA UNIVERSITY HEALTH LA PORTE HOSPITAL", "ADDRESS": "1007 LINCOLNWAY", "CITY": "LA PORTE", "STATE": "IN", "ZIP": "46350", "ZIP4": "NOT AVAILABLE", "TELEPHONE": "(219) 326-1234", "TYPE": "GENERAL ACUTE CARE", "STATUS": "OPEN", "POPULATION": 227, "COUNTY": "LAPORTE", "COUNTYFIPS": "18091", "COUNTRY": "USA", "LATITUDE": 41.610652170999998, "LONGITUDE": -86.725290267999995, "NAICS_CODE": "622110", "NAICS_DESC": "GENERAL MEDICAL AND SURGICAL HOSPITALS", "SOURCE": "http://www.in.gov/isdh/reports/QAMIS/hosdir", "SOURCEDATE": "2018-08-16T00:00:00.000Z", "VAL_METHOD": "IMAGERY/OTHER", "VAL_DATE": "2014-03-12T00:00:00.000Z", "WEBSITE": "http://www.iuhealth.org", "STATE_ID": "17-005006-1", "ALT_NAME": "NOT AVAILABLE", "ST_FIPS": "18", "OWNER": "NON-PROFIT", "TTL_STAFF": -999, "BEDS": 227, "TRAUMA": "NOT AVAILABLE", "HELIPAD": "Y" }, "geometry": { "type": "Polygon", "coordinates": [ [ [ -86.691122949139242, 41.510951683193355 ], [ -86.740149440508119, 41.517462221420118 ], [ -86.837841368505494, 41.573654983034615 ], [ -86.823493703233297, 41.65916344178045 ], [ -86.801797712940342, 41.689513140472279 ], [ -86.730118, 41.704722199999985 ], [ -86.612015129861305, 41.665393545472064 ], [ -86.611970733400582, 41.664688345756218 ], [ -86.611969234263782, 41.66451794584539 ], [ -86.613501826203048, 41.567737900313567 ], [ -86.690856648783665, 41.511000083023724 ], [ -86.691122949139242, 41.510951683193355 ] ] ] } },
{ "type": "Feature", "properties": { "OBJECTID": 3150, "ID": "0012346545", "NAME": "MEDICAL BEHAVIORAL HOSPITAL - MISHAWAKA", "ADDRESS": "1625 E JEFFERSON BLVD", "CITY": "MISHAWAKA", "STATE": "IN", "ZIP": "46545", "ZIP4": "NOT AVAILABLE", "TELEPHONE": "(574) 255-1400", "TYPE": "LONG TERM CARE", "STATUS": "OPEN", "POPULATION": 30, "COUNTY": "ST. JOSEPH", "COUNTYFIPS": "18141", "COUNTRY": "USA", "LATITUDE": 41.671248352000099, "LONGITUDE": -86.158872751999994, "NAICS_CODE": "622110", "NAICS_DESC": "GENERAL MEDICAL AND SURGICAL HOSPITALS", "SOURCE": "http://www.in.gov/isdh/reports/QAMIS/hosdir", "SOURCEDATE": "2018-08-16T00:00:00.000Z", "VAL_METHOD": "IMAGERY", "VAL_DATE": "2014-02-10T00:00:00.000Z", "WEBSITE": "http://physicianshospitalsystem.net/", "STATE_ID": "12-012130-1", "ALT_NAME": "RIVERCREST SPECIALTY HOSPITAL", "ST_FIPS": "18", "OWNER": "PROPRIETARY", "TTL_STAFF": -999, "BEDS": 30, "TRAUMA": "NOT AVAILABLE", "HELIPAD": "N" }, "geometry": { "type": "Polygon", "coordinates": [ [ [ -86.17654156050375, 41.593486024714124 ], [ -86.243206079290175, 41.6242438632069 ], [ -86.268440994303717, 41.655398662630297 ], [ -86.275916919094826, 41.685984468110099 ], [ -86.2235166, 41.7234459 ], [ -86.1882449, 41.7473 ], [ -86.1785253, 41.75292290000003 ], [ -86.153754, 41.756821700000017 ], [ -86.1399663, 41.756986799999964 ], [ -86.1251297, 41.753590800000033 ], [ -86.039456701564063, 41.688772234047413 ], [ -86.039731741929629, 41.679290672426475 ], [ -86.041904696334925, 41.666072828253029 ], [ -86.044437316274283, 41.660761053079163 ], [ -86.089647296321147, 41.626395574255348 ], [ -86.138108329455576, 41.593760836918719 ], [ -86.17654156050375, 41.593486024714124 ] ] ] } },
{ "type": "Feature", "properties": { "OBJECTID": 3151, "ID": "0017146975", "NAME": "WOODLAWN HOSPITAL", "ADDRESS": "1400 E 9TH ST", "CITY": "ROCHESTER", "STATE": "IN", "ZIP": "46975", "ZIP4": "NOT AVAILABLE", "TELEPHONE": "(574) 223-3141", "TYPE": "CRITICAL ACCESS", "STATUS": "OPEN", "POPULATION": 25, "COUNTY": "FULTON", "COUNTYFIPS": "18049", "COUNTRY": "USA", "LATITUDE": 41.063964342000098, "LONGITUDE": -86.195692053000002, "NAICS_CODE": "622110", "NAICS_DESC": "GENERAL MEDICAL AND SURGICAL HOSPITALS", "SOURCE": "http://www.in.gov/isdh/reports/QAMIS/hosdir", "SOURCEDATE": "2018-08-16T00:00:00.000Z", "VAL_METHOD": "IMAGERY", "VAL_DATE": "2014-01-23T00:00:00.000Z", "WEBSITE": "http://www.woodlawnhospital.com", "STATE_ID": "17-005098-1", "ALT_NAME": "NOT AVAILABLE", "ST_FIPS": "18", "OWNER": "GOVERNMENT - LOCAL", "TTL_STAFF": -999, "BEDS": 25, "TRAUMA": "NOT AVAILABLE", "HELIPAD": "N" }, "geometry": { "type": "Polygon", "coordinates": [ [ [ -86.251458, 40.967689 ], [ -86.318988, 41.054799 ], [ -86.277926, 41.102076 ], [ -86.2399778, 41.1350309 ], [ -86.22797, 41.142704 ], [ -86.149772, 41.141873 ], [ -86.145017, 41.140142 ], [ -86.071473, 41.038292 ], [ -86.149271, 40.989519 ], [ -86.1760662, 40.9770731 ], [ -86.251458, 40.967689 ] ] ] } },
{ "type": "Feature", "properties": { "OBJECTID": 3160, "ID": "0012946563", "NAME": "SAINT JOSEPH'S REGIONAL MEDICAL CENTER - PLYMOUTH", "ADDRESS": "1915 LAKE AVE", "CITY": "PLYMOUTH", "STATE": "IN", "ZIP": "46563", "ZIP4": "NOT AVAILABLE", "TELEPHONE": "(574) 936-3181", "TYPE": "GENERAL ACUTE CARE", "STATUS": "OPEN", "POPULATION": 48, "COUNTY": "MARSHALL", "COUNTYFIPS": "18099", "COUNTRY": "USA", "LATITUDE": 41.33350568, "LONGITUDE": -86.331861289999907, "NAICS_CODE": "622110", "NAICS_DESC": "GENERAL MEDICAL AND SURGICAL HOSPITALS", "SOURCE": "http://www.in.gov/isdh/reports/QAMIS/hosdir", "SOURCEDATE": "2018-08-16T00:00:00.000Z", "VAL_METHOD": "IMAGERY", "VAL_DATE": "2014-02-10T00:00:00.000Z", "WEBSITE": "http://www.sjmed.com", "STATE_ID": "17-005070-1", "ALT_NAME": "NOT AVAILABLE", "ST_FIPS": "18", "OWNER": "NON-PROFIT", "TTL_STAFF": -999, "BEDS": 48, "TRAUMA": "NOT AVAILABLE", "HELIPAD": "Y" }, "geometry": { "type": "Polygon", "coordinates": [ [ [ -86.323311, 41.252412 ], [ -86.362065, 41.266737 ], [ -86.414961, 41.292939 ], [ -86.424652, 41.302558 ], [ -86.4419602, 41.337607499999983 ], [ -86.446593, 41.361278 ], [ -86.4442556, 41.364647599999969 ], [ -86.3866853, 41.3903976 ], [ -86.314270400000012, 41.4210427 ], [ -86.261542, 41.376732 ], [ -86.227341, 41.343337 ], [ -86.2218341, 41.328381500000013 ], [ -86.2218364, 41.328166699999969 ], [ -86.221952, 41.320906 ], [ -86.259221, 41.266212 ], [ -86.323311, 41.252412 ] ] ] } },
{ "type": "Feature", "properties": { "OBJECTID": 3725, "ID": "0010746805", "NAME": "PARKVIEW REGIONAL MEDICAL CENTER", "ADDRESS": "11109 PARKVIEW PLAZA DRIVE", "CITY": "FORT WAYNE", "STATE": "IN", "ZIP": "46805", "ZIP4": "NOT AVAILABLE", "TELEPHONE": "(260) 373-4000", "TYPE": "GENERAL ACUTE CARE", "STATUS": "OPEN", "POPULATION": 650, "COUNTY": "ALLEN", "COUNTYFIPS": "18003", "COUNTRY": "USA", "LATITUDE": 41.1884519830001, "LONGITUDE": -85.101793443000005, "NAICS_CODE": "622110", "NAICS_DESC": "GENERAL MEDICAL AND SURGICAL HOSPITALS", "SOURCE": "http://www.in.gov/isdh/reports/QAMIS/hosdir", "SOURCEDATE": "2018-08-16T00:00:00.000Z", "VAL_METHOD": "IMAGERY", "VAL_DATE": "2014-02-10T00:00:00.000Z", "WEBSITE": "http://www.parkview.com", "STATE_ID": "17-005020-1", "ALT_NAME": "NOT AVAILABLE", "ST_FIPS": "18", "OWNER": "NON-PROFIT", "TTL_STAFF": -999, "BEDS": 650, "TRAUMA": "LEVEL II, LEVEL II PEDIATRIC", "HELIPAD": "Y" }, "geometry": { "type": "Polygon", "coordinates": [ [ [ -85.140263200000021, 41.0877353 ], [ -85.1947839, 41.108807799999987 ], [ -85.2264336, 41.125199700000017 ], [ -85.2264306, 41.1254018 ], [ -85.209954, 41.191246 ], [ -85.1834012, 41.222729 ], [ -85.172005, 41.2324004 ], [ -85.1695248, 41.234393 ], [ -85.1349649, 41.260716399999986 ], [ -85.077815, 41.265603699999964 ], [ -85.0061502, 41.229730100000026 ], [ -85.000151345184108, 41.220622552532959 ], [ -84.993653057420289, 41.144320188015016 ], [ -85.002157890996955, 41.130250913111574 ], [ -85.021665860645314, 41.115776438952359 ], [ -85.140263200000021, 41.0877353 ] ] ] } },
{ "type": "Feature", "properties": { "OBJECTID": 3761, "ID": "0007046534", "NAME": "INDIANA UNIVERSITY HEALTH STARKE HOSPITAL", "ADDRESS": "102 E CULVER RD", "CITY": "KNOX", "STATE": "IN", "ZIP": "46534", "ZIP4": "NOT AVAILABLE", "TELEPHONE": "(574) 772-1100", "TYPE": "GENERAL ACUTE CARE", "STATUS": "OPEN", "POPULATION": 53, "COUNTY": "STARKE", "COUNTYFIPS": "18149", "COUNTRY": "USA", "LATITUDE": 41.287568804000003, "LONGITUDE": -86.621997285000006, "NAICS_CODE": "622110", "NAICS_DESC": "GENERAL MEDICAL AND SURGICAL HOSPITALS", "SOURCE": "http://www.in.gov/isdh/reports/QAMIS/hosdir", "SOURCEDATE": "2018-08-16T00:00:00.000Z", "VAL_METHOD": "IMAGERY", "VAL_DATE": "2014-03-12T00:00:00.000Z", "WEBSITE": "http://iuhealth.org/starke/", "STATE_ID": "17-005091-1", "ALT_NAME": "NOT AVAILABLE", "ST_FIPS": "18", "OWNER": "PROPRIETARY", "TTL_STAFF": -999, "BEDS": 53, "TRAUMA": "NOT AVAILABLE", "HELIPAD": "Y" }, "geometry": { "type": "Polygon", "coordinates": [ [ [ -86.621264093797265, 41.200908908874624 ], [ -86.640525395762097, 41.215595891177202 ], [ -86.692363804446316, 41.259116844428661 ], [ -86.698378895632658, 41.273566522004849 ], [ -86.698508687285937, 41.288068401271929 ], [ -86.69853178310764, 41.295334490896629 ], [ -86.698565670550224, 41.317177259718093 ], [ -86.620810755046847, 41.384635408589325 ], [ -86.524310402740042, 41.316942634961002 ], [ -86.485783611654213, 41.28776189938101 ], [ -86.524389418875373, 41.258888295289381 ], [ -86.606014400740904, 41.208202311198292 ], [ -86.621264093797265, 41.200908908874624 ] ] ] } },
{ "type": "Feature", "properties": { "OBJECTID": 3767, "ID": "0010846725", "NAME": "PARKVIEW WHITLEY HOSPITAL", "ADDRESS": "1260 E SR 205", "CITY": "COLUMBIA CITY", "STATE": "IN", "ZIP": "46725", "ZIP4": "NOT AVAILABLE", "TELEPHONE": "(260) 248-9301", "TYPE": "GENERAL ACUTE CARE", "STATUS": "OPEN", "POPULATION": 30, "COUNTY": "WHITLEY", "COUNTYFIPS": "18183", "COUNTRY": "USA", "LATITUDE": 41.158646371000003, "LONGITUDE": -85.464901590999901, "NAICS_CODE": "622110", "NAICS_DESC": "GENERAL MEDICAL AND SURGICAL HOSPITALS", "SOURCE": "http://www.in.gov/isdh/reports/QAMIS/hosdir", "SOURCEDATE": "2018-08-16T00:00:00.000Z", "VAL_METHOD": "IMAGERY", "VAL_DATE": "2014-02-10T00:00:00.000Z", "WEBSITE": "http://www.parkview.com", "STATE_ID": "17-005090-1", "ALT_NAME": "NOT AVAILABLE", "ST_FIPS": "18", "OWNER": "NON-PROFIT", "TTL_STAFF": -999, "BEDS": 30, "TRAUMA": "NOT AVAILABLE", "HELIPAD": "Y" }, "geometry": { "type": "Polygon", "coordinates": [ [ [ -85.4701339, 41.0775979 ], [ -85.542219, 41.096747600000015 ], [ -85.6333458, 41.1820704 ], [ -85.6332374, 41.182247899999979 ], [ -85.5772099, 41.213927 ], [ -85.529994, 41.235575 ], [ -85.4917321, 41.250562300000041 ], [ -85.4628064, 41.251983 ], [ -85.3532416, 41.2127936 ], [ -85.3135117, 41.125968300000011 ], [ -85.3135129, 41.1257677 ], [ -85.346904, 41.104329399999969 ], [ -85.3749828, 41.089447 ], [ -85.4701339, 41.0775979 ] ] ] } },
{ "type": "Feature", "properties": { "OBJECTID": 3880, "ID": "0173946545", "NAME": "ST JOSEPH COUNTY VA HEALTH CARE CENTER", "ADDRESS": "1540 TRINITY PLACE", "CITY": "MISHAWAKA", "STATE": "IN", "ZIP": "46545", "ZIP4": "NOT AVAILABLE", "TELEPHONE": "(574) 272-9000", "TYPE": "MILITARY", "STATUS": "OPEN", "POPULATION": -999, "COUNTY": "ST JOSEPH", "COUNTYFIPS": "18141", "COUNTRY": "USA", "LATITUDE": 41.707343, "LONGITUDE": -86.16311, "NAICS_CODE": "622110", "NAICS_DESC": "GENERAL MEDICAL AND SURGICAL HOSPITALS", "SOURCE": "https://www.va.gov/directory/guide/allstate.asp", "SOURCEDATE": "2018-09-26T00:00:00.000Z", "VAL_METHOD": "IMAGERY", "VAL_DATE": "2019-05-09T00:00:00.000Z", "WEBSITE": "https://www.northernindiana.va.gov/", "STATE_ID": "NOT AVAILABLE", "ALT_NAME": "NOT AVAILABLE", "ST_FIPS": "18", "OWNER": "GOVERNMENT - FEDERAL", "TTL_STAFF": -999, "BEDS": -999, "TRAUMA": "NOT AVAILABLE", "HELIPAD": "N" }, "geometry": { "type": "Polygon", "coordinates": [ [ [ -86.180558076217736, 41.622322660974994 ], [ -86.228946037295913, 41.653948639252654 ], [ -86.230310033870751, 41.654847635150901 ], [ -86.253604564644988, 41.677704005825198 ], [ -86.254597760758017, 41.679087197014887 ], [ -86.2623127, 41.693279499999989 ], [ -86.255314, 41.71763 ], [ -86.2529698, 41.723213 ], [ -86.2408654, 41.732569399999981 ], [ -86.1897739, 41.768167700000028 ], [ -86.1595901, 41.767955 ], [ -86.1571648, 41.767937500000023 ], [ -86.113411, 41.754584 ], [ -86.1110046, 41.753533300000029 ], [ -86.0619032, 41.696998 ], [ -86.060601, 41.695423899999973 ], [ -86.065106184277994, 41.688422958994742 ], [ -86.090075558877146, 41.663342300431268 ], [ -86.138020542301106, 41.621429187423225 ], [ -86.138181442063953, 41.621427987728204 ], [ -86.180558076217736, 41.622322660974994 ] ] ] } }
]
}
