{
"type": "FeatureCollection",
"crs": { "type": "name", "properties": { "name": "urn:ogc:def:crs:OGC:1.3:CRS84" } },
"features": [
{ "type": "Feature", "properties": { "OBJECTID": 1409, "ID": "0009047006", "NAME": "MARGARET MARY HEALTH", "ADDRESS": "321 MITCHELL AVE", "CITY": "BATESVILLE", "STATE": "IN", "ZIP": "47006", "ZIP4": "NOT AVAILABLE", "TELEPHONE": "(812) 934-6624", "TYPE": "CRITICAL ACCESS", "STATUS": "OPEN", "POPULATION": 25, "COUNTY": "RIPLEY", "COUNTYFIPS": "18137", "COUNTRY": "USA", "LATITUDE": 39.305024896000099, "LONGITUDE": -85.222526188000003, "NAICS_CODE": "622110", "NAICS_DESC": "GENERAL MEDICAL AND SURGICAL HOSPITALS", "SOURCE": "http://www.in.gov/isdh/reports/QAMIS/hosdir", "SOURCEDATE": "2018-08-16T00:00:00.000Z", "VAL_METHOD": "IMAGERY", "VAL_DATE": "2014-02-10T00:00:00.000Z", "WEBSITE": "http://www.mmch.org", "STATE_ID": "17-004718-1", "ALT_NAME": "NOT AVAILABLE", "ST_FIPS": "18", "OWNER": "NON-PROFIT", "TTL_STAFF": -999, "BEDS": 25, "TRAUMA": "NOT AVAILABLE", "HELIPAD": "N" }, "geometry": { "type": "Polygon", "coordinates": [ [ [ -85.253086203193732, 39.24247172528213 ], [ -85.296324290740799, 39.271948645707482 ], [ -85.306632134942205, 39.279447132683885 ], [ -85.309950463685738, 39.294359649694535 ], [ -85.29672871964496, 39.319643725076581 ], [ -85.281222773456804, 39.333694486758432 ], [ -85.254090063313967, 39.350221880611514 ], [ -85.206245205291182, 39.33914390533922 ], [ -85.10125744762567, 39.285486867159243 ], [ -85.088574467866749, 39.274803850399493 ], [ -85.094763374345192, 39.265363826270921 ], [ -85.207631498190167, 39.242482750553712 ], [ -85.216849435793165, 39.242416746790546 ], [ -85.253086203193732, 39.24247172528213 ] ] ] } },
{ "type": "Feature", "properties": { "OBJECTID": 1428, "ID": "0006746151", "NAME": "INDIANA UNIVERSITY HEALTH MORGAN HOSPITAL INC", "ADDRESS": "2209 JOHN R WOODEN DR", "CITY": "MARTINSVILLE", "STATE": "IN", "ZIP": "46151", "ZIP4": "NOT AVAILABLE", "TELEPHONE": "(765) 349-6938", "TYPE": "GENERAL ACUTE CARE", "STATUS": "OPEN", "POPULATION": 92, "COUNTY": "MORGAN", "COUNTYFIPS": "18109", "COUNTRY": "USA", "LATITUDE": 39.42589574, "LONGITUDE": -86.404838995000006, "NAICS_CODE": "622110", "NAICS_DESC": "GENERAL MEDICAL AND SURGICAL HOSPITALS", "SOURCE": "http://www.in.gov/isdh/reports/QAMIS/hosdir", "SOURCEDATE": "2018-08-16T00:00:00.000Z", "VAL_METHOD": "IMAGERY", "VAL_DATE": "2014-02-10T00:00:00.000Z", "WEBSITE": "http://www.iuhealth.org/morgan/", "STATE_ID": "12-005036-1", "ALT_NAME": "NOT AVAILABLE", "ST_FIPS": "18", "OWNER": "NON-PROFIT", "TTL_STAFF": -999, "BEDS": 92, "TRAUMA": "NOT AVAILABLE", "HELIPAD": "Y" }, "geometry": { "type": "Polygon", "coordinates": [ [ [ -86.478727337651733, 39.352748260832534 ], [ -86.488033986176291, 39.355615433151748 ], [ -86.503365489915637, 39.371355240762327 ], [ -86.503304882736572, 39.375628353419501 ], [ -86.502564625461574, 39.409943854928166 ], [ -86.448274842994124, 39.480846844583198 ], [ -86.443042899768614, 39.485382889388013 ], [ -86.354848948274395, 39.521516215032271 ], [ -86.354379953371946, 39.521513217270225 ], [ -86.32238705168001, 39.500879507377796 ], [ -86.297110090258101, 39.44765978155926 ], [ -86.320777705258052, 39.398565115832348 ], [ -86.323851864606112, 39.395037684474694 ], [ -86.358449355079244, 39.377101848659947 ], [ -86.383298078431949, 39.369085708925134 ], [ -86.478727337651733, 39.352748260832534 ] ] ] } },
{ "type": "Feature", "properties": { "OBJECTID": 2346, "ID": "0000346143", "NAME": "BHC VALLE VISTA HOSPITAL", "ADDRESS": "898 E MAIN ST", "CITY": "GREENWOOD", "STATE": "IN", "ZIP": "46143", "ZIP4": "NOT AVAILABLE", "TELEPHONE": "(317) 883-5300", "TYPE": "PSYCHIATRIC", "STATUS": "OPEN", "POPULATION": 98, "COUNTY": "JOHNSON", "COUNTYFIPS": "18081", "COUNTRY": "USA", "LATITUDE": 39.615677874, "LONGITUDE": -86.086413637999996, "NAICS_CODE": "622210", "NAICS_DESC": "PSYCHIATRIC AND SUBSTANCE ABUSE HOSPITALS", "SOURCE": "http://www.in.gov/isdh/reports/QAMIS/hosdir", "SOURCEDATE": "2018-08-16T00:00:00.000Z", "VAL_METHOD": "IMAGERY", "VAL_DATE": "2014-02-10T00:00:00.000Z", "WEBSITE": "http://www.vallevistahospital.com", "STATE_ID": "NOT AVAILABLE", "ALT_NAME": "NOT AVAILABLE", "ST_FIPS": "18", "OWNER": "PROPRIETARY", "TTL_STAFF": -999, "BEDS": 98, "TRAUMA": "NOT AVAILABLE", "HELIPAD": "N" }, "geometry": { "type": "Polygon", "coordinates": [ [ [ -86.052796535651424, 39.533951827156898 ], [ -86.059092447997926, 39.535649676439341 ], [ -86.085390345588294, 39.545683818867985 ], [ -86.1590414, 39.5893191 ], [ -86.18143240000002, 39.605461600000019 ], [ -86.1793549, 39.620472400000018 ], [ -86.125852, 39.717644 ], [ -86.119453, 39.717699 ], [ -86.0824651, 39.706499299999962 ], [ -86.0207156, 39.654159699999987 ], [ -85.9888288, 39.608434800000019 ], [ -86.0040667, 39.551746800000025 ], [ -86.034794564455609, 39.535589763252965 ], [ -86.052796535651424, 39.533951827156898 ] ] ] } },
{ "type": "Feature", "properties": { "OBJECTID": 6064, "ID": "0002347240", "NAME": "DECATUR COUNTY MEMORIAL HOSPITAL", "ADDRESS": "720 N LINCOLN ST", "CITY": "GREENSBURG", "STATE": "IN", "ZIP": "47240", "ZIP4": "NOT AVAILABLE", "TELEPHONE": "(812) 663-4331", "TYPE": "CRITICAL ACCESS", "STATUS": "OPEN", "POPULATION": 25, "COUNTY": "DECATUR", "COUNTYFIPS": "18031", "COUNTRY": "USA", "LATITUDE": 39.344223887000098, "LONGITUDE": -85.478711942999993, "NAICS_CODE": "622110", "NAICS_DESC": "GENERAL MEDICAL AND SURGICAL HOSPITALS", "SOURCE": "http://www.in.gov/isdh/reports/QAMIS/hosdir", "SOURCEDATE": "2018-08-16T00:00:00.000Z", "VAL_METHOD": "IMAGERY", "VAL_DATE": "2014-01-22T00:00:00.000Z", "WEBSITE": "http://www.dcmh.net", "STATE_ID": "17-004714-1", "ALT_NAME": "NOT AVAILABLE", "ST_FIPS": "18", "OWNER": "GOVERNMENT - LOCAL", "TTL_STAFF": -999, "BEDS": 25, "TRAUMA": "NOT AVAILABLE", "HELIPAD": "Y" }, "geometry": { "type": "Polygon", "coordinates": [ [ [ -85.467334077452634, 39.234032105020155 ], [ -85.578322604152106, 39.308035412274876 ], [ -85.578590709324885, 39.308495314127569 ], [ -85.576160894877574, 39.364250557948125 ], [ -85.561507969545545, 39.381969111054204 ], [ -85.559889488678238, 39.383896306180098 ], [ -85.554608245276327, 39.389617590034696 ], [ -85.479348786097418, 39.432410680280178 ], [ -85.402729262119195, 39.363818641986313 ], [ -85.386285043287415, 39.339171438842271 ], [ -85.385868030553098, 39.317511501995988 ], [ -85.385838105254692, 39.314938397571332 ], [ -85.467334077452634, 39.234032105020155 ] ] ] } },
{ "type": "Feature", "properties": { "OBJECTID": 6065, "ID": "0009847403", "NAME": "MONROE HOSPITAL", "ADDRESS": "4011 S MONROE MEDICAL PARK BLVD", "CITY": "BLOOMINGTON", "STATE": "IN", "ZIP": "47403", "ZIP4": "NOT AVAILABLE", "TELEPHONE": "(812) 825-1111", "TYPE": "GENERAL ACUTE CARE", "STATUS": "OPEN", "POPULATION": -999, "COUNTY": "MONROE", "COUNTYFIPS": "18105", "COUNTRY": "USA", "LATITUDE": 39.120608664000002, "LONGITUDE": -86.57195222, "NAICS_CODE": "622110", "NAICS_DESC": "GENERAL MEDICAL AND SURGICAL HOSPITALS", "SOURCE": "http://www.in.gov/isdh/reports/QAMIS/hosdir", "SOURCEDATE": "2018-08-16T00:00:00.000Z", "VAL_METHOD": "IMAGERY", "VAL_DATE": "2014-01-22T00:00:00.000Z", "WEBSITE": "http://www.monroehospital.com", "STATE_ID": "NOT AVAILABLE", "ALT_NAME": "NOT AVAILABLE", "ST_FIPS": "18", "OWNER": "PROPRIETARY", "TTL_STAFF": -999, "BEDS": -999, "TRAUMA": "NOT AVAILABLE", "HELIPAD": "N" }, "geometry": { "type": "Polygon", "coordinates": [ [ [ -86.5371381, 39.0173691 ], [ -86.6824558, 39.086668699999947 ], [ -86.6763158, 39.1086073 ], [ -86.64986529998113, 39.163642282331729 ], [ -86.601734283091403, 39.201215152207105 ], [ -86.539083514849906, 39.236957647069737 ], [ -86.507192164025597, 39.179799049347487 ], [ -86.4925486, 39.14021110000003 ], [ -86.4984517, 39.099698800000041 ], [ -86.5031289, 39.068382 ], [ -86.5348462, 39.018893 ], [ -86.5371381, 39.0173691 ] ] ] } },
{ "type": "Feature", "properties": { "OBJECTID": 6150, "ID": "0011546135", "NAME": "PUTNAM COUNTY HOSPITAL", "ADDRESS": "1542 S BLOOMINGTON ST", "CITY": "GREENCASTLE", "STATE": "IN", "ZIP": "46135", "ZIP4": "NOT AVAILABLE", "TELEPHONE": "(765) 655-2620", "TYPE": "CRITICAL ACCESS", "STATUS": "OPEN", "POPULATION": 25, "COUNTY": "PUTNAM", "COUNTYFIPS": "18133", "COUNTRY": "USA", "LATITUDE": 39.621171255999997, "LONGITUDE": -86.847799736, "NAICS_CODE": "622110", "NAICS_DESC": "GENERAL MEDICAL AND SURGICAL HOSPITALS", "SOURCE": "http://www.in.gov/isdh/reports/QAMIS/hosdir", "SOURCEDATE": "2018-08-16T00:00:00.000Z", "VAL_METHOD": "IMAGERY", "VAL_DATE": "2014-02-10T00:00:00.000Z", "WEBSITE": "http://www.pchosp.org/", "STATE_ID": "17-004765-1", "ALT_NAME": "NOT AVAILABLE", "ST_FIPS": "18", "OWNER": "GOVERNMENT - LOCAL", "TTL_STAFF": -999, "BEDS": 25, "TRAUMA": "NOT AVAILABLE", "HELIPAD": "Y" }, "geometry": { "type": "Polygon", "coordinates": [ [ [ -86.803635733165407, 39.536685821982893 ], [ -86.902843545432148, 39.58821142892846 ], [ -86.922044997975348, 39.618170945423259 ], [ -86.930144817904846, 39.643971963374604 ], [ -86.894460558248824, 39.674448546619729 ], [ -86.87110932721923, 39.689935811606006 ], [ -86.794111076500556, 39.668236400862064 ], [ -86.758021356382443, 39.634184200517836 ], [ -86.759212005058671, 39.601021595233213 ], [ -86.803491332739313, 39.536689621786124 ], [ -86.803635733165407, 39.536685821982893 ] ] ] } },
{ "type": "Feature", "properties": { "OBJECTID": 6154, "ID": "0014247834", "NAME": "ST VINCENT CLAY HOSPITAL INC", "ADDRESS": "1206 E NATIONAL AVE", "CITY": "BRAZIL", "STATE": "IN", "ZIP": "47834", "ZIP4": "NOT AVAILABLE", "TELEPHONE": "(812) 442-2500", "TYPE": "CRITICAL ACCESS", "STATUS": "OPEN", "POPULATION": 25, "COUNTY": "CLAY", "COUNTYFIPS": "18021", "COUNTRY": "USA", "LATITUDE": 39.529071160999997, "LONGITUDE": -87.111811211000003, "NAICS_CODE": "622110", "NAICS_DESC": "GENERAL MEDICAL AND SURGICAL HOSPITALS", "SOURCE": "http://www.in.gov/isdh/reports/QAMIS/hosdir", "SOURCEDATE": "2018-08-16T00:00:00.000Z", "VAL_METHOD": "IMAGERY", "VAL_DATE": "2014-03-12T00:00:00.000Z", "WEBSITE": "http://www.stvincent.org", "STATE_ID": "17-005046-1", "ALT_NAME": "NOT AVAILABLE", "ST_FIPS": "18", "OWNER": "NON-PROFIT", "TTL_STAFF": -999, "BEDS": 25, "TRAUMA": "NOT AVAILABLE", "HELIPAD": "Y" }, "geometry": { "type": "Polygon", "coordinates": [ [ [ -87.126499, 39.431358 ], [ -87.219123, 39.49998 ], [ -87.21925, 39.501031 ], [ -87.193353, 39.549134 ], [ -87.1808, 39.562919 ], [ -87.1432613, 39.586622700000014 ], [ -87.123876, 39.598542199999983 ], [ -87.106722, 39.603715 ], [ -87.105571, 39.603482 ], [ -87.022818, 39.5607 ], [ -87.013811822361731, 39.548438139260433 ], [ -87.01381262244486, 39.548288939700996 ], [ -87.025044, 39.516525 ], [ -87.126499, 39.431358 ] ] ] } },
{ "type": "Feature", "properties": { "OBJECTID": 6778, "ID": "0011946254", "NAME": "REHABILITATION HOSPITAL OF INDIANA INC", "ADDRESS": "4141 SHORE DR", "CITY": "INDIANAPOLIS", "STATE": "IN", "ZIP": "46254", "ZIP4": "NOT AVAILABLE", "TELEPHONE": "(317) 329-2000", "TYPE": "REHABILITATION", "STATUS": "OPEN", "POPULATION": 91, "COUNTY": "MARION", "COUNTYFIPS": "18097", "COUNTRY": "USA", "LATITUDE": 39.829115705, "LONGITUDE": -86.281515800999998, "NAICS_CODE": "622310", "NAICS_DESC": "REHABILITATION HOSPITALS (EXCEPT ALCOHOLISM, DRUG ADDICTION)", "SOURCE": "http://www.in.gov/isdh/reports/QAMIS/hosdir", "SOURCEDATE": "2018-08-16T00:00:00.000Z", "VAL_METHOD": "IMAGERY", "VAL_DATE": "2014-02-10T00:00:00.000Z", "WEBSITE": "http://www.rhin.com", "STATE_ID": "17-005971-1", "ALT_NAME": "NOT AVAILABLE", "ST_FIPS": "18", "OWNER": "NON-PROFIT", "TTL_STAFF": -999, "BEDS": 91, "TRAUMA": "NOT AVAILABLE", "HELIPAD": "N" }, "geometry": { "type": "Polygon", "coordinates": [ [ [ -86.2647956, 39.7123532 ], [ -86.2670959, 39.713094200000029 ], [ -86.3237634, 39.763774400000024 ], [ -86.34708190000002, 39.793020600000034 ], [ -86.3659612, 39.82137670000003 ], [ -86.3714475, 39.831056900000014 ], [ -86.3723281, 39.851240399999966 ], [ -86.370428, 39.852917 ], [ -86.306112, 39.903264 ], [ -86.281471, 39.910299 ], [ -86.2642723, 39.914563500000028 ], [ -86.259865, 39.914344 ], [ -86.253673, 39.911817 ], [ -86.1603907, 39.8247937 ], [ -86.16607190000002, 39.802201599999989 ], [ -86.2647956, 39.7123532 ] ] ] } },
{ "type": "Feature", "properties": { "OBJECTID": 4028, "ID": "0172546214", "NAME": "ASSURANCE PSYCHIATRIC HOSPITAL", "ADDRESS": "900 NORTH HIGH SCHOOL ROAD", "CITY": "INDIANAPOLIS", "STATE": "IN", "ZIP": "46214", "ZIP4": "NOT AVAILABLE", "TELEPHONE": "(317) 982-3715", "TYPE": "PSYCHIATRIC", "STATUS": "OPEN", "POPULATION": 23, "COUNTY": "MADISON", "COUNTYFIPS": "18095", "COUNTRY": "USA", "LATITUDE": 39.777528, "LONGITUDE": -86.273313, "NAICS_CODE": "622210", "NAICS_DESC": "PSYCHIATRIC AND SUBSTANCE ABUSE HOSPITALS", "SOURCE": "http://www.in.gov/isdh/reports/QAMIS/hosdir", "SOURCEDATE": "2018-08-16T00:00:00.000Z", "VAL_METHOD": "IMAGERY", "VAL_DATE": "2019-05-09T00:00:00.000Z", "WEBSITE": "http://www.assurancehealthsystem.com/", "STATE_ID": "17-49-1-P-IP", "ALT_NAME": "NOT AVAILABLE", "ST_FIPS": "18", "OWNER": "PROPRIETARY", "TTL_STAFF": -999, "BEDS": 23, "TRAUMA": "NOT AVAILABLE", "HELIPAD": "N" }, "geometry": { "type": "Polygon", "coordinates": [ [ [ -86.288483, 39.679921 ], [ -86.3071835, 39.694354300000043 ], [ -86.3729001, 39.7631628 ], [ -86.3735085, 39.779211 ], [ -86.346293, 39.826779 ], [ -86.2931978, 39.879800799999984 ], [ -86.2907667, 39.880599300000014 ], [ -86.266894900000011, 39.884836 ], [ -86.1620848, 39.781032100000061 ], [ -86.16618960000001, 39.775203599999976 ], [ -86.2372987, 39.6920503 ], [ -86.2692809, 39.679675200000013 ], [ -86.288483, 39.679921 ] ] ] } },
{ "type": "Feature", "properties": { "OBJECTID": 4056, "ID": "0019146254", "NAME": "NEUROPSYCHIATRIC HOSPITAL OF INDIANAPOLIS, LLC", "ADDRESS": "6720 PARKDALE PLACE, STE 100", "CITY": "INDIANAPOLIS", "STATE": "IN", "ZIP": "46254", "ZIP4": "NOT AVAILABLE", "TELEPHONE": "(317) 744-9200", "TYPE": "PSYCHIATRIC", "STATUS": "OPEN", "POPULATION": 36, "COUNTY": "MARION", "COUNTYFIPS": "18097", "COUNTRY": "USA", "LATITUDE": 39.826264758999997, "LONGITUDE": -86.278987335999901, "NAICS_CODE": "622210", "NAICS_DESC": "PSYCHIATRIC AND SUBSTANCE ABUSE HOSPITALS", "SOURCE": "http://www.in.gov/isdh/reports/QAMIS/hosdir", "SOURCEDATE": "2018-08-16T00:00:00.000Z", "VAL_METHOD": "IMAGERY", "VAL_DATE": "2016-04-27T00:00:00.000Z", "WEBSITE": "http://www.neuropsychiatrichospitals.net/neuropsychiatric-hospital-of-indianapolis/", "STATE_ID": "NOT AVAILABLE", "ALT_NAME": "NOT AVAILABLE", "ST_FIPS": "18", "OWNER": "PROPRIETARY", "TTL_STAFF": -999, "BEDS": 36, "TRAUMA": "NOT AVAILABLE", "HELIPAD": "N" }, "geometry": { "type": "Polygon", "coordinates": [ [ [ -86.264588, 39.706743900000035 ], [ -86.2994149, 39.7376892 ], [ -86.3282698, 39.763704 ], [ -86.3659612, 39.82137670000003 ], [ -86.3708781, 39.831299800000018 ], [ -86.37119, 39.833801 ], [ -86.3709619, 39.835373 ], [ -86.3636426, 39.8513639 ], [ -86.307834, 39.905139 ], [ -86.2684688, 39.9139444 ], [ -86.2642723, 39.914563500000028 ], [ -86.259865, 39.914344 ], [ -86.2517988, 39.911813699999975 ], [ -86.1568496, 39.82495880000004 ], [ -86.1568498, 39.8248265 ], [ -86.1629969, 39.8083524 ], [ -86.16607190000002, 39.802201599999989 ], [ -86.264588, 39.706743900000035 ] ] ] } },
{ "type": "Feature", "properties": { "OBJECTID": 3011, "ID": "0005146140", "NAME": "HANCOCK REGIONAL HOSPITAL", "ADDRESS": "801 N STATE ST", "CITY": "GREENFIELD", "STATE": "IN", "ZIP": "46140", "ZIP4": "NOT AVAILABLE", "TELEPHONE": "(317) 468-4412", "TYPE": "GENERAL ACUTE CARE", "STATUS": "OPEN", "POPULATION": 68, "COUNTY": "HANCOCK", "COUNTYFIPS": "18059", "COUNTRY": "USA", "LATITUDE": 39.795493326, "LONGITUDE": -85.768081056, "NAICS_CODE": "622110", "NAICS_DESC": "GENERAL MEDICAL AND SURGICAL HOSPITALS", "SOURCE": "http://www.in.gov/isdh/reports/QAMIS/hosdir", "SOURCEDATE": "2018-08-16T00:00:00.000Z", "VAL_METHOD": "IMAGERY", "VAL_DATE": "2014-02-10T00:00:00.000Z", "WEBSITE": "http://www.hancockregional.org", "STATE_ID": "17-005035-1", "ALT_NAME": "NOT AVAILABLE", "ST_FIPS": "18", "OWNER": "GOVERNMENT - LOCAL", "TTL_STAFF": -999, "BEDS": 68, "TRAUMA": "NOT AVAILABLE", "HELIPAD": "N" }, "geometry": { "type": "Polygon", "coordinates": [ [ [ -85.7823767, 39.713519900000072 ], [ -85.8485234, 39.757098600000013 ], [ -85.8776086, 39.780277100000035 ], [ -85.9071373, 39.819492300000022 ], [ -85.8169962, 39.854682500000017 ], [ -85.770286, 39.871945 ], [ -85.7576964, 39.872001699999977 ], [ -85.689358, 39.815138 ], [ -85.675884, 39.789143 ], [ -85.6886707, 39.772013399999985 ], [ -85.707302, 39.757127 ], [ -85.74469, 39.72804 ], [ -85.763477, 39.71352629999997 ], [ -85.7823767, 39.713519900000072 ] ] ] } },
{ "type": "Feature", "properties": { "OBJECTID": 3045, "ID": "0007846131", "NAME": "JOHNSON MEMORIAL HOSPITAL", "ADDRESS": "1125 W JEFFERSON ST", "CITY": "FRANKLIN", "STATE": "IN", "ZIP": "46131", "ZIP4": "NOT AVAILABLE", "TELEPHONE": "(317) 736-3300", "TYPE": "GENERAL ACUTE CARE", "STATUS": "OPEN", "POPULATION": 125, "COUNTY": "JOHNSON", "COUNTYFIPS": "18081", "COUNTRY": "USA", "LATITUDE": 39.4796677410001, "LONGITUDE": -86.077000603000002, "NAICS_CODE": "622110", "NAICS_DESC": "GENERAL MEDICAL AND SURGICAL HOSPITALS", "SOURCE": "http://www.in.gov/isdh/reports/QAMIS/hosdir", "SOURCEDATE": "2018-08-16T00:00:00.000Z", "VAL_METHOD": "IMAGERY/OTHER", "VAL_DATE": "2014-03-12T00:00:00.000Z", "WEBSITE": "http://www.johnsonmemorial.org", "STATE_ID": "17-005001-1", "ALT_NAME": "NOT AVAILABLE", "ST_FIPS": "18", "OWNER": "GOVERNMENT - LOCAL", "TTL_STAFF": -999, "BEDS": 125, "TRAUMA": "NOT AVAILABLE", "HELIPAD": "Y" }, "geometry": { "type": "Polygon", "coordinates": [ [ [ -86.030953277584686, 39.411747248823879 ], [ -86.158005460363285, 39.431943880860068 ], [ -86.177263518564658, 39.44758599881542 ], [ -86.177164120103896, 39.491302457010583 ], [ -86.175569275036025, 39.520975091316714 ], [ -86.174241085476112, 39.52563662431259 ], [ -86.173118896165747, 39.52906987539437 ], [ -86.172306214423202, 39.529578570465183 ], [ -86.09623670000002, 39.5741835 ], [ -86.044193, 39.555196499999944 ], [ -86.035673100000011, 39.550713400000049 ], [ -85.96978885452431, 39.511573199279326 ], [ -85.950019734205796, 39.495267850332361 ], [ -85.999738053753433, 39.419096810080916 ], [ -86.030953277584686, 39.411747248823879 ] ] ] } },
{ "type": "Feature", "properties": { "OBJECTID": 3069, "ID": "0005546122", "NAME": "HENDRICKS REGIONAL HEALTH", "ADDRESS": "1000 E MAIN ST", "CITY": "DANVILLE", "STATE": "IN", "ZIP": "46122", "ZIP4": "NOT AVAILABLE", "TELEPHONE": "(317) 745-4451", "TYPE": "GENERAL ACUTE CARE", "STATUS": "OPEN", "POPULATION": 160, "COUNTY": "HENDRICKS", "COUNTYFIPS": "18063", "COUNTRY": "USA", "LATITUDE": 39.761912162999998, "LONGITUDE": -86.50188213, "NAICS_CODE": "622110", "NAICS_DESC": "GENERAL MEDICAL AND SURGICAL HOSPITALS", "SOURCE": "http://www.in.gov/isdh/reports/QAMIS/hosdir", "SOURCEDATE": "2018-08-16T00:00:00.000Z", "VAL_METHOD": "IMAGERY", "VAL_DATE": "2014-03-12T00:00:00.000Z", "WEBSITE": "http://www.hendrickshospital.org", "STATE_ID": "17-005005-1", "ALT_NAME": "NOT AVAILABLE", "ST_FIPS": "18", "OWNER": "GOVERNMENT - LOCAL", "TTL_STAFF": -999, "BEDS": 160, "TRAUMA": "NOT AVAILABLE", "HELIPAD": "Y" }, "geometry": { "type": "Polygon", "coordinates": [ [ [ -86.523238300000017, 39.7021104 ], [ -86.604567, 39.760401600000023 ], [ -86.543017, 39.814143 ], [ -86.505464, 39.834359 ], [ -86.418559, 39.781052 ], [ -86.3942216, 39.762862199999979 ], [ -86.397059, 39.760333 ], [ -86.429943, 39.73305 ], [ -86.466536, 39.710493 ], [ -86.523238300000017, 39.7021104 ] ] ] } },
{ "type": "Feature", "properties": { "OBJECTID": 3070, "ID": "0007546123", "NAME": "INDIANA UNIVERSITY HEALTH WEST HOSPITAL", "ADDRESS": "1111 N RONALD REAGAN PKWY", "CITY": "AVON", "STATE": "IN", "ZIP": "46123", "ZIP4": "NOT AVAILABLE", "TELEPHONE": "(317) 217-3000", "TYPE": "GENERAL ACUTE CARE", "STATUS": "OPEN", "POPULATION": 127, "COUNTY": "HENDRICKS", "COUNTYFIPS": "18063", "COUNTRY": "USA", "LATITUDE": 39.780504393000101, "LONGITUDE": -86.340446634000003, "NAICS_CODE": "622110", "NAICS_DESC": "GENERAL MEDICAL AND SURGICAL HOSPITALS", "SOURCE": "http://www.in.gov/isdh/reports/QAMIS/hosdir", "SOURCEDATE": "2018-08-16T00:00:00.000Z", "VAL_METHOD": "IMAGERY", "VAL_DATE": "2014-02-10T00:00:00.000Z", "WEBSITE": "http://www.iuhealth.org", "STATE_ID": "17-003776-1", "ALT_NAME": "NOT AVAILABLE", "ST_FIPS": "18", "OWNER": "NON-PROFIT", "TTL_STAFF": -999, "BEDS": 127, "TRAUMA": "NOT AVAILABLE", "HELIPAD": "Y" }, "geometry": { "type": "Polygon", "coordinates": [ [ [ -86.3356362, 39.701729 ], [ -86.3661314, 39.7142076 ], [ -86.426937, 39.7611521 ], [ -86.438301, 39.775189 ], [ -86.438319, 39.776609 ], [ -86.4231283, 39.7959534 ], [ -86.383978, 39.835986 ], [ -86.3636426, 39.8513639 ], [ -86.3473703, 39.852397799999956 ], [ -86.3463886, 39.85234039999996 ], [ -86.2833946, 39.828041099999957 ], [ -86.2771847, 39.823304599999979 ], [ -86.2371802, 39.780929699999966 ], [ -86.2453093, 39.7648845 ], [ -86.2647396, 39.741939 ], [ -86.3354879, 39.701726400000055 ], [ -86.3356362, 39.701729 ] ] ] } },
{ "type": "Feature", "properties": { "OBJECTID": 3129, "ID": "0012546173", "NAME": "RUSH MEMORIAL HOSPITAL", "ADDRESS": "1300 N MAIN ST", "CITY": "RUSHVILLE", "STATE": "IN", "ZIP": "46173", "ZIP4": "NOT AVAILABLE", "TELEPHONE": "(765) 932-7513", "TYPE": "CRITICAL ACCESS", "STATUS": "OPEN", "POPULATION": 25, "COUNTY": "RUSH", "COUNTYFIPS": "18139", "COUNTRY": "USA", "LATITUDE": 39.621754587000098, "LONGITUDE": -85.444036914999998, "NAICS_CODE": "622110", "NAICS_DESC": "GENERAL MEDICAL AND SURGICAL HOSPITALS", "SOURCE": "http://www.in.gov/isdh/reports/QAMIS/hosdir", "SOURCEDATE": "2018-08-16T00:00:00.000Z", "VAL_METHOD": "IMAGERY", "VAL_DATE": "2014-03-12T00:00:00.000Z", "WEBSITE": "http://www.rushmemorial.com", "STATE_ID": "17-005082-1", "ALT_NAME": "NOT AVAILABLE", "ST_FIPS": "18", "OWNER": "GOVERNMENT - LOCAL", "TTL_STAFF": -999, "BEDS": 25, "TRAUMA": "NOT AVAILABLE", "HELIPAD": "Y" }, "geometry": { "type": "Polygon", "coordinates": [ [ [ -85.4797497, 39.546421099999975 ], [ -85.532371, 39.590097800000038 ], [ -85.5388509, 39.631484600000029 ], [ -85.441792, 39.714411399999989 ], [ -85.4146937, 39.684576100000037 ], [ -85.3777502, 39.6424431 ], [ -85.3587672, 39.618249200000029 ], [ -85.3586479, 39.6120512 ], [ -85.3773036, 39.555607900000069 ], [ -85.44379720000002, 39.54653220000003 ], [ -85.455524, 39.545294 ], [ -85.4797497, 39.546421099999975 ] ] ] } },
{ "type": "Feature", "properties": { "OBJECTID": 3726, "ID": "0001047201", "NAME": "COLUMBUS REGIONAL HOSPITAL", "ADDRESS": "2400 E 17TH ST", "CITY": "COLUMBUS", "STATE": "IN", "ZIP": "47201", "ZIP4": "NOT AVAILABLE", "TELEPHONE": "(812) 379-4441", "TYPE": "GENERAL ACUTE CARE", "STATUS": "OPEN", "POPULATION": 198, "COUNTY": "BARTHOLOMEW", "COUNTYFIPS": "18005", "COUNTRY": "USA", "LATITUDE": 39.216952915, "LONGITUDE": -85.895463792000001, "NAICS_CODE": "622110", "NAICS_DESC": "GENERAL MEDICAL AND SURGICAL HOSPITALS", "SOURCE": "http://www.in.gov/isdh/reports/QAMIS/hosdir", "SOURCEDATE": "2018-08-16T00:00:00.000Z", "VAL_METHOD": "IMAGERY", "VAL_DATE": "2014-03-12T00:00:00.000Z", "WEBSITE": "http://www.crh.org", "STATE_ID": "17-005099-1", "ALT_NAME": "NOT AVAILABLE", "ST_FIPS": "18", "OWNER": "GOVERNMENT - LOCAL", "TTL_STAFF": -999, "BEDS": 198, "TRAUMA": "NOT AVAILABLE", "HELIPAD": "Y" }, "geometry": { "type": "Polygon", "coordinates": [ [ [ -85.923769626517696, 39.15700759873215 ], [ -85.940851198062589, 39.163787860306805 ], [ -85.951750010556324, 39.171005712279026 ], [ -85.977901686805438, 39.199389893097027 ], [ -85.975875089035881, 39.240152354349661 ], [ -85.951512703689076, 39.286020474989108 ], [ -85.949968434178629, 39.288459279167945 ], [ -85.949673328755892, 39.288442577680961 ], [ -85.879577217102621, 39.282173925905859 ], [ -85.866131770530444, 39.275169247464213 ], [ -85.855163473098813, 39.268018284372737 ], [ -85.790907029492601, 39.217635573123708 ], [ -85.787798955668094, 39.212599857914221 ], [ -85.790958630967594, 39.202453556491378 ], [ -85.809646460773976, 39.1732639702754 ], [ -85.82775596347912, 39.159051590738279 ], [ -85.877750914840988, 39.157581998817129 ], [ -85.923769626517696, 39.15700759873215 ] ] ] } },
{ "type": "Feature", "properties": { "OBJECTID": 3739, "ID": "0004346158", "NAME": "FRANCISCAN ST FRANCIS HEALTH - MOORESVILLE", "ADDRESS": "1201 HADLEY RD", "CITY": "MOORESVILLE", "STATE": "IN", "ZIP": "46158", "ZIP4": "NOT AVAILABLE", "TELEPHONE": "(317) 831-1160", "TYPE": "GENERAL ACUTE CARE", "STATUS": "OPEN", "POPULATION": 115, "COUNTY": "MORGAN", "COUNTYFIPS": "18109", "COUNTRY": "USA", "LATITUDE": 39.607857113000101, "LONGITUDE": -86.355692528999995, "NAICS_CODE": "622110", "NAICS_DESC": "GENERAL MEDICAL AND SURGICAL HOSPITALS", "SOURCE": "http://www.in.gov/isdh/reports/QAMIS/hosdir", "SOURCEDATE": "2018-08-16T00:00:00.000Z", "VAL_METHOD": "IMAGERY", "VAL_DATE": "2014-02-10T00:00:00.000Z", "WEBSITE": "http://www.franciscanalliance.org/hospitals/mooresville/Pages/defaul t.aspx", "STATE_ID": "17-005052-1", "ALT_NAME": "NOT AVAILABLE", "ST_FIPS": "18", "OWNER": "NON-PROFIT", "TTL_STAFF": -999, "BEDS": 115, "TRAUMA": "NOT AVAILABLE", "HELIPAD": "N" }, "geometry": { "type": "Polygon", "coordinates": [ [ [ -86.41358276419416, 39.508352342132277 ], [ -86.415404547444837, 39.509331024951855 ], [ -86.4504392, 39.592942599999937 ], [ -86.4566941, 39.615494 ], [ -86.3896719, 39.674667800000051 ], [ -86.3893995, 39.6746838 ], [ -86.3697133, 39.675585499999961 ], [ -86.330275, 39.675816 ], [ -86.2970115, 39.6730372 ], [ -86.27787, 39.654874 ], [ -86.263009, 39.618698 ], [ -86.25015040000001, 39.5661043 ], [ -86.399425417709352, 39.507552123171187 ], [ -86.41358276419416, 39.508352342132277 ] ] ] } },
{ "type": "Feature", "properties": { "OBJECTID": 3741, "ID": "0003947933", "NAME": "FRANCISCAN ST ELIZABETH HEALTH - CRAWFORDSVILLE", "ADDRESS": "1710 LAFAYETTE RD", "CITY": "CRAWFORDSVILLE", "STATE": "IN", "ZIP": "47933", "ZIP4": "NOT AVAILABLE", "TELEPHONE": "(765) 362-2800", "TYPE": "GENERAL ACUTE CARE", "STATUS": "OPEN", "POPULATION": 103, "COUNTY": "MONTGOMERY", "COUNTYFIPS": "18107", "COUNTRY": "USA", "LATITUDE": 40.066471857000103, "LONGITUDE": -86.905571914000006, "NAICS_CODE": "622110", "NAICS_DESC": "GENERAL MEDICAL AND SURGICAL HOSPITALS", "SOURCE": "http://www.in.gov/isdh/reports/QAMIS/hosdir", "SOURCEDATE": "2018-08-16T00:00:00.000Z", "VAL_METHOD": "IMAGERY", "VAL_DATE": "2014-03-12T00:00:00.000Z", "WEBSITE": "http://www.stclaremedical.org", "STATE_ID": "17-005021-1", "ALT_NAME": "NOT AVAILABLE", "ST_FIPS": "18", "OWNER": "NON-PROFIT", "TTL_STAFF": -999, "BEDS": 103, "TRAUMA": "NOT AVAILABLE", "HELIPAD": "Y" }, "geometry": { "type": "Polygon", "coordinates": [ [ [ -86.903094911929287, 39.981465214414385 ], [ -86.92715367435305, 39.990860072621899 ], [ -86.934641863544442, 39.995982293752725 ], [ -87.068469, 40.101471 ], [ -87.068497, 40.105267 ], [ -87.068485, 40.107122 ], [ -86.907375077078783, 40.156961756624291 ], [ -86.776746296462591, 40.047194239253173 ], [ -86.77580029568179, 40.045351230732578 ], [ -86.903094911929287, 39.981465214414385 ] ] ] } },
{ "type": "Feature", "properties": { "OBJECTID": 3742, "ID": "0000447404", "NAME": "BLOOMINGTON MEADOWS HOSPITAL", "ADDRESS": "3600 N PROW RD", "CITY": "BLOOMINGTON", "STATE": "IN", "ZIP": "47404", "ZIP4": "NOT AVAILABLE", "TELEPHONE": "(812) 331-8000", "TYPE": "PSYCHIATRIC", "STATUS": "OPEN", "POPULATION": 71, "COUNTY": "MONROE", "COUNTYFIPS": "18105", "COUNTRY": "USA", "LATITUDE": 39.205979514, "LONGITUDE": -86.550922129, "NAICS_CODE": "622210", "NAICS_DESC": "PSYCHIATRIC AND SUBSTANCE ABUSE HOSPITALS", "SOURCE": "http://www.in.gov/isdh/reports/QAMIS/hosdir", "SOURCEDATE": "2018-08-16T00:00:00.000Z", "VAL_METHOD": "IMAGERY", "VAL_DATE": "2014-02-10T00:00:00.000Z", "WEBSITE": "http://www.bloomingtonmeadows.com", "STATE_ID": "NOT AVAILABLE", "ALT_NAME": "NOT AVAILABLE", "ST_FIPS": "18", "OWNER": "PROPRIETARY", "TTL_STAFF": -999, "BEDS": 71, "TRAUMA": "NOT AVAILABLE", "HELIPAD": "N" }, "geometry": { "type": "Polygon", "coordinates": [ [ [ -86.5733353, 39.121028500000023 ], [ -86.5756766, 39.122041799999977 ], [ -86.5963197, 39.135052400000014 ], [ -86.610803570539176, 39.164930544192828 ], [ -86.620117440308874, 39.232451571878542 ], [ -86.547786567327464, 39.269586801026257 ], [ -86.526182503646908, 39.275995437890352 ], [ -86.522626615693994, 39.27330991776693 ], [ -86.501689095807308, 39.236965500392053 ], [ -86.47442868522657, 39.179143570960605 ], [ -86.478308075222188, 39.164238293216101 ], [ -86.480671673077509, 39.161147095645212 ], [ -86.49781376647347, 39.150477593218042 ], [ -86.5710583, 39.1217882 ], [ -86.5733353, 39.121028500000023 ] ] ] } },
{ "type": "Feature", "properties": { "OBJECTID": 3743, "ID": "0006547403", "NAME": "INDIANA UNIVERSITY HEALTH BLOOMINGTON HOSPITAL", "ADDRESS": "601 W SECOND ST", "CITY": "BLOOMINGTON", "STATE": "IN", "ZIP": "47403", "ZIP4": "NOT AVAILABLE", "TELEPHONE": "(812) 353-9555", "TYPE": "GENERAL ACUTE CARE", "STATUS": "OPEN", "POPULATION": 297, "COUNTY": "MONROE", "COUNTYFIPS": "18105", "COUNTRY": "USA", "LATITUDE": 39.15989295, "LONGITUDE": -86.539893594999995, "NAICS_CODE": "622110", "NAICS_DESC": "GENERAL MEDICAL AND SURGICAL HOSPITALS", "SOURCE": "http://www.in.gov/isdh/reports/QAMIS/hosdir", "SOURCEDATE": "2018-08-16T00:00:00.000Z", "VAL_METHOD": "IMAGERY", "VAL_DATE": "2014-03-12T00:00:00.000Z", "WEBSITE": "http://www.iuhealth.org", "STATE_ID": "17-005047-1", "ALT_NAME": "NOT AVAILABLE", "ST_FIPS": "18", "OWNER": "NON-PROFIT", "TTL_STAFF": -999, "BEDS": 297, "TRAUMA": "LEVEL III", "HELIPAD": "Y" }, "geometry": { "type": "Polygon", "coordinates": [ [ [ -86.5409473, 39.084384200000024 ], [ -86.6481988, 39.1040736 ], [ -86.661196877570973, 39.168412915569618 ], [ -86.598896787218109, 39.217345214594815 ], [ -86.59720519064841, 39.218175306756386 ], [ -86.539083514849906, 39.236957647069737 ], [ -86.510380071794174, 39.221317469045161 ], [ -86.461839894231744, 39.185990181739548 ], [ -86.43810878121775, 39.163627357575166 ], [ -86.5131212, 39.0946144 ], [ -86.5169943, 39.092631399999952 ], [ -86.5409473, 39.084384200000024 ] ] ] } },
{ "type": "Feature", "properties": { "OBJECTID": 3760, "ID": "0008946176", "NAME": "MAJOR HOSPITAL", "ADDRESS": "150 W WASHINGTON ST", "CITY": "SHELBYVILLE", "STATE": "IN", "ZIP": "46176", "ZIP4": "NOT AVAILABLE", "TELEPHONE": "(317) 392-3211", "TYPE": "GENERAL ACUTE CARE", "STATUS": "CLOSED", "POPULATION": 72, "COUNTY": "SHELBY", "COUNTYFIPS": "18145", "COUNTRY": "USA", "LATITUDE": 39.525273383000098, "LONGITUDE": -85.781051465000004, "NAICS_CODE": "622110", "NAICS_DESC": "GENERAL MEDICAL AND SURGICAL HOSPITALS", "SOURCE": "http://www.in.gov/isdh/reports/QAMIS/hosdir", "SOURCEDATE": "2016-04-13T00:00:00.000Z", "VAL_METHOD": "IMAGERY", "VAL_DATE": "2014-01-23T00:00:00.000Z", "WEBSITE": "http://www.majorhospital.org", "STATE_ID": "12-005086-1", "ALT_NAME": "NOT AVAILABLE", "ST_FIPS": "18", "OWNER": "GOVERNMENT - LOCAL", "TTL_STAFF": -999, "BEDS": 72, "TRAUMA": "NOT AVAILABLE", "HELIPAD": "N" }, "geometry": { "type": "Polygon", "coordinates": [ [ [ -85.755320719458027, 39.438335544859079 ], [ -85.799075105107036, 39.453404743183633 ], [ -85.839785305367514, 39.469393549844035 ], [ -85.856593534394491, 39.489327456337918 ], [ -85.85694668568425, 39.497630477552249 ], [ -85.8376525, 39.595159399999957 ], [ -85.835563, 39.596514 ], [ -85.771887, 39.611194 ], [ -85.7673959, 39.611207899999961 ], [ -85.694468, 39.554923 ], [ -85.667719224498711, 39.49734808481778 ], [ -85.684187208346273, 39.485310139076169 ], [ -85.755320719458027, 39.438335544859079 ] ] ] } }
]
}
