{
"type": "FeatureCollection",
"crs": { "type": "name", "properties": { "name": "urn:ogc:def:crs:OGC:1.3:CRS84" } },
"features": [
{ "type": "Feature", "properties": { "OBJECTID": 1645, "ID": "0099962703", "NAME": "SPRINGFIELD HOSPITAL INC - DBA LINCOLN PRAIRIE BEHAVIORAL HEALTH CENTER", "ADDRESS": "5230 SOUTH SIXTH STREET", "CITY": "SPRINGFIELD", "STATE": "IL", "ZIP": "62703", "ZIP4": "NOT AVAILABLE", "TELEPHONE": "(217) 585-1180", "TYPE": "PSYCHIATRIC", "STATUS": "OPEN", "POPULATION": 88, "COUNTY": "SANGAMON", "COUNTYFIPS": "17167", "COUNTRY": "USA", "LATITUDE": 39.725561960999997, "LONGITUDE": -89.640773952000004, "NAICS_CODE": "622110", "NAICS_DESC": "GENERAL MEDICAL AND SURGICAL HOSPITALS", "SOURCE": "https://data.illinois.gov/", "SOURCEDATE": "2018-08-09T00:00:00.000Z", "VAL_METHOD": "IMAGERY/OTHER", "VAL_DATE": "2015-02-21T00:00:00.000Z", "WEBSITE": "http://www.lincolnprairiebhc.com/", "STATE_ID": "NOT AVAILABLE", "ALT_NAME": "NOT AVAILABLE", "ST_FIPS": "17", "OWNER": "NOT AVAILABLE", "TTL_STAFF": -999, "BEDS": 88, "TRAUMA": "NOT AVAILABLE", "HELIPAD": "N" }, "geometry": { "type": "Polygon", "coordinates": [ [ [ -89.6468293, 39.596441599999949 ], [ -89.7431763, 39.719785 ], [ -89.7414246, 39.7521595 ], [ -89.6421667, 39.797111100000052 ], [ -89.5938829, 39.8062481 ], [ -89.5785907, 39.805122299999958 ], [ -89.5710152, 39.76924139999997 ], [ -89.5692971, 39.755219700000026 ], [ -89.5786057, 39.71689150000001 ], [ -89.5872461, 39.692456099999966 ], [ -89.6468293, 39.596441599999949 ] ] ] } },
{ "type": "Feature", "properties": { "OBJECTID": 6309, "ID": "0017362557", "NAME": "PANA COMMUNITY HOSPITAL", "ADDRESS": "101 E NINTH STREET", "CITY": "PANA", "STATE": "IL", "ZIP": "62557", "ZIP4": "NOT AVAILABLE", "TELEPHONE": "(217) 562-2131", "TYPE": "CRITICAL ACCESS", "STATUS": "OPEN", "POPULATION": 22, "COUNTY": "CHRISTIAN", "COUNTYFIPS": "17021", "COUNTRY": "USA", "LATITUDE": 39.379701237000099, "LONGITUDE": -89.084404234000004, "NAICS_CODE": "622110", "NAICS_DESC": "GENERAL MEDICAL AND SURGICAL HOSPITALS", "SOURCE": "https://data.illinois.gov/", "SOURCEDATE": "2018-08-09T00:00:00.000Z", "VAL_METHOD": "IMAGERY", "VAL_DATE": "2014-03-12T00:00:00.000Z", "WEBSITE": "http://www.panahospital.com", "STATE_ID": "141341", "ALT_NAME": "NOT AVAILABLE", "ST_FIPS": "17", "OWNER": "NON-PROFIT", "TTL_STAFF": -999, "BEDS": 22, "TRAUMA": "NOT AVAILABLE", "HELIPAD": "Y" }, "geometry": { "type": "Polygon", "coordinates": [ [ [ -89.090655309931307, 39.29942199076411 ], [ -89.109539, 39.318663 ], [ -89.1396362, 39.3628551 ], [ -89.1577063, 39.399805300000025 ], [ -89.1410862, 39.436278399999964 ], [ -89.099990359736211, 39.436377943738222 ], [ -89.044372317920988, 39.435183266907011 ], [ -88.991146545856708, 39.390291498148926 ], [ -89.030097328268909, 39.34594329147609 ], [ -89.060342969178521, 39.314294861373661 ], [ -89.090655309931307, 39.29942199076411 ] ] ] } },
{ "type": "Feature", "properties": { "OBJECTID": 4301, "ID": "0016261747", "NAME": "HOPEDALE MEDICAL COMPLEX", "ADDRESS": "107 TREMONT STREET", "CITY": "HOPEDALE", "STATE": "IL", "ZIP": "61747", "ZIP4": "NOT AVAILABLE", "TELEPHONE": "(309) 449-3321", "TYPE": "CRITICAL ACCESS", "STATUS": "OPEN", "POPULATION": 25, "COUNTY": "TAZEWELL", "COUNTYFIPS": "17179", "COUNTRY": "USA", "LATITUDE": 40.418411462999998, "LONGITUDE": -89.4175622449999, "NAICS_CODE": "622110", "NAICS_DESC": "GENERAL MEDICAL AND SURGICAL HOSPITALS", "SOURCE": "https://data.illinois.gov/", "SOURCEDATE": "2018-08-09T00:00:00.000Z", "VAL_METHOD": "IMAGERY", "VAL_DATE": "2014-02-10T00:00:00.000Z", "WEBSITE": "http://www.hopedalemc.com", "STATE_ID": "141330", "ALT_NAME": "NOT AVAILABLE", "ST_FIPS": "17", "OWNER": "NON-PROFIT", "TTL_STAFF": -999, "BEDS": 25, "TRAUMA": "NOT AVAILABLE", "HELIPAD": "N" }, "geometry": { "type": "Polygon", "coordinates": [ [ [ -89.419699, 40.365545 ], [ -89.4357498, 40.366842399999967 ], [ -89.474184100000016, 40.3804685 ], [ -89.4914373, 40.409376699999967 ], [ -89.49537, 40.421925 ], [ -89.4990777, 40.4345112 ], [ -89.492641300000017, 40.48120260000001 ], [ -89.4714642, 40.48438220000002 ], [ -89.424215, 40.482273299999974 ], [ -89.3517263, 40.459239700000012 ], [ -89.31604830000002, 40.441222200000034 ], [ -89.3552956, 40.3970531 ], [ -89.378856, 40.378236 ], [ -89.3976665, 40.3675433 ], [ -89.419699, 40.365545 ] ] ] } },
{ "type": "Feature", "properties": { "OBJECTID": 4304, "ID": "0004461455", "NAME": "MC DONOUGH DISTRICT HOSPITAL", "ADDRESS": "525 EAST GRANT STREET", "CITY": "MACOMB", "STATE": "IL", "ZIP": "61455", "ZIP4": "NOT AVAILABLE", "TELEPHONE": "(309) 833-4101", "TYPE": "GENERAL ACUTE CARE", "STATUS": "OPEN", "POPULATION": 95, "COUNTY": "MCDONOUGH", "COUNTYFIPS": "17109", "COUNTRY": "USA", "LATITUDE": 40.447165610000098, "LONGITUDE": -90.664406474000003, "NAICS_CODE": "622110", "NAICS_DESC": "GENERAL MEDICAL AND SURGICAL HOSPITALS", "SOURCE": "https://data.illinois.gov/", "SOURCEDATE": "2018-08-09T00:00:00.000Z", "VAL_METHOD": "IMAGERY", "VAL_DATE": "2014-01-17T00:00:00.000Z", "WEBSITE": "http://www.mdh.org", "STATE_ID": "140089", "ALT_NAME": "NOT AVAILABLE", "ST_FIPS": "17", "OWNER": "GOVERNMENT - DISTRICT/AUTHORITY", "TTL_STAFF": -999, "BEDS": 95, "TRAUMA": "NOT AVAILABLE", "HELIPAD": "Y" }, "geometry": { "type": "Polygon", "coordinates": [ [ [ -90.677128, 40.381844 ], [ -90.780077, 40.429702 ], [ -90.693865, 40.537344 ], [ -90.673635, 40.559759 ], [ -90.656809, 40.550699 ], [ -90.552375, 40.45503 ], [ -90.619028, 40.381642 ], [ -90.677128, 40.381844 ] ] ] } },
{ "type": "Feature", "properties": { "OBJECTID": 4418, "ID": "0097962702", "NAME": "VIBRA HOSPITAL OF SPRINGFIELD, LLC", "ADDRESS": "701 N. WALNUT STREET", "CITY": "SPRINGFIELD", "STATE": "IL", "ZIP": "62702", "ZIP4": "NOT AVAILABLE", "TELEPHONE": "(217) 528-1217", "TYPE": "LONG TERM CARE", "STATUS": "OPEN", "POPULATION": 50, "COUNTY": "SANGAMON", "COUNTYFIPS": "17167", "COUNTRY": "USA", "LATITUDE": 39.809421532999998, "LONGITUDE": -89.664578165999998, "NAICS_CODE": "622110", "NAICS_DESC": "GENERAL MEDICAL AND SURGICAL HOSPITALS", "SOURCE": "https://data.illinois.gov/", "SOURCEDATE": "2018-08-09T00:00:00.000Z", "VAL_METHOD": "IMAGERY/OTHER", "VAL_DATE": "2016-04-26T00:00:00.000Z", "WEBSITE": "http://www.vhspringfield.com/", "STATE_ID": "NOT AVAILABLE", "ALT_NAME": "NOT AVAILABLE", "ST_FIPS": "17", "OWNER": "NOT AVAILABLE", "TTL_STAFF": -999, "BEDS": 50, "TRAUMA": "NOT AVAILABLE", "HELIPAD": "N" }, "geometry": { "type": "Polygon", "coordinates": [ [ [ -89.6750437, 39.735246900000014 ], [ -89.7061935, 39.744952799999965 ], [ -89.7064757, 39.745048199999985 ], [ -89.7322762, 39.7563732 ], [ -89.7624896, 39.786519299999959 ], [ -89.7727229, 39.8325664 ], [ -89.6736154, 39.912970599999987 ], [ -89.6056429, 39.892268699999967 ], [ -89.6052706, 39.892074799999968 ], [ -89.6048212, 39.891834 ], [ -89.5587397, 39.8232551 ], [ -89.5537853, 39.8024416 ], [ -89.571459500000017, 39.767312399999966 ], [ -89.6444709, 39.735184 ], [ -89.6750437, 39.735246900000014 ] ] ] } },
{ "type": "Feature", "properties": { "OBJECTID": 396, "ID": "0002962650", "NAME": "PASSAVANT AREA HOSPITAL", "ADDRESS": "1600 W WALNUT ST", "CITY": "JACKSONVILLE", "STATE": "IL", "ZIP": "62650", "ZIP4": "NOT AVAILABLE", "TELEPHONE": "(217) 245-9551", "TYPE": "GENERAL ACUTE CARE", "STATUS": "OPEN", "POPULATION": 108, "COUNTY": "MORGAN", "COUNTYFIPS": "17137", "COUNTRY": "USA", "LATITUDE": 39.746084993000103, "LONGITUDE": -90.260486635999897, "NAICS_CODE": "622110", "NAICS_DESC": "GENERAL MEDICAL AND SURGICAL HOSPITALS", "SOURCE": "https://data.illinois.gov/", "SOURCEDATE": "2018-08-09T00:00:00.000Z", "VAL_METHOD": "IMAGERY", "VAL_DATE": "2014-02-10T00:00:00.000Z", "WEBSITE": "http://www.passavanthospital.com", "STATE_ID": "140058", "ALT_NAME": "NOT AVAILABLE", "ST_FIPS": "17", "OWNER": "NON-PROFIT", "TTL_STAFF": -999, "BEDS": 108, "TRAUMA": "NOT AVAILABLE", "HELIPAD": "Y" }, "geometry": { "type": "Polygon", "coordinates": [ [ [ -90.297405, 39.663160500000011 ], [ -90.341532, 39.701357 ], [ -90.389913, 39.77008 ], [ -90.3899085, 39.770519499999963 ], [ -90.3898955, 39.770725599999956 ], [ -90.302859, 39.798878 ], [ -90.285731, 39.803426 ], [ -90.217817, 39.808829 ], [ -90.182401, 39.766773 ], [ -90.167513, 39.737883 ], [ -90.170532, 39.723013300000027 ], [ -90.191647, 39.706491 ], [ -90.22738, 39.679222 ], [ -90.2900497, 39.6635345 ], [ -90.297405, 39.663160500000011 ] ] ] } },
{ "type": "Feature", "properties": { "OBJECTID": 475, "ID": "0001261856", "NAME": "KIRBY MEDICAL CENTER", "ADDRESS": "1000 MEDICAL CENTER DRIVE", "CITY": "MONTICELLO", "STATE": "IL", "ZIP": "61856", "ZIP4": "NOT AVAILABLE", "TELEPHONE": "(217) 762-2115", "TYPE": "CRITICAL ACCESS", "STATUS": "OPEN", "POPULATION": 16, "COUNTY": "PIATT", "COUNTYFIPS": "17147", "COUNTRY": "USA", "LATITUDE": 40.06044805, "LONGITUDE": -88.558821703999996, "NAICS_CODE": "622110", "NAICS_DESC": "GENERAL MEDICAL AND SURGICAL HOSPITALS", "SOURCE": "https://data.illinois.gov/", "SOURCEDATE": "2018-08-09T00:00:00.000Z", "VAL_METHOD": "IMAGERY", "VAL_DATE": "2014-02-10T00:00:00.000Z", "WEBSITE": "http://www.kirbyhealth.org", "STATE_ID": "0005785", "ALT_NAME": "NOT AVAILABLE", "ST_FIPS": "17", "OWNER": "NON-PROFIT", "TTL_STAFF": -999, "BEDS": 16, "TRAUMA": "NOT AVAILABLE", "HELIPAD": "Y" }, "geometry": { "type": "Polygon", "coordinates": [ [ [ -88.5748012, 39.988516699999984 ], [ -88.6268141, 40.0175772 ], [ -88.6311987, 40.020414299999977 ], [ -88.6314269, 40.0277979 ], [ -88.6316864, 40.0545295 ], [ -88.6232167, 40.0761975 ], [ -88.5742223, 40.114712 ], [ -88.5586387, 40.1160326 ], [ -88.5105215, 40.1150994 ], [ -88.4886349, 40.105765800000029 ], [ -88.5295921, 40.025220599999983 ], [ -88.5748012, 39.988516699999984 ] ] ] } },
{ "type": "Feature", "properties": { "OBJECTID": 540, "ID": "0001562401", "NAME": "ST ANTHONYS MEMORIAL HOSPITAL", "ADDRESS": "503 N MAPLE STREET", "CITY": "EFFINGHAM", "STATE": "IL", "ZIP": "62401", "ZIP4": "NOT AVAILABLE", "TELEPHONE": "(217) 342-2121", "TYPE": "GENERAL ACUTE CARE", "STATUS": "OPEN", "POPULATION": 146, "COUNTY": "EFFINGHAM", "COUNTYFIPS": "17049", "COUNTRY": "USA", "LATITUDE": 39.125776017000099, "LONGITUDE": -88.550125218999895, "NAICS_CODE": "622110", "NAICS_DESC": "GENERAL MEDICAL AND SURGICAL HOSPITALS", "SOURCE": "https://data.illinois.gov/", "SOURCEDATE": "2018-08-09T00:00:00.000Z", "VAL_METHOD": "IMAGERY", "VAL_DATE": "2014-03-12T00:00:00.000Z", "WEBSITE": "http://www.stanthonyshospital.org", "STATE_ID": "140032", "ALT_NAME": "NOT AVAILABLE", "ST_FIPS": "17", "OWNER": "NON-PROFIT", "TTL_STAFF": -999, "BEDS": 146, "TRAUMA": "NOT AVAILABLE", "HELIPAD": "Y" }, "geometry": { "type": "Polygon", "coordinates": [ [ [ -88.543553, 39.039458 ], [ -88.6736837, 39.06641620000002 ], [ -88.638437, 39.172258 ], [ -88.618925, 39.182616 ], [ -88.504581, 39.207838 ], [ -88.444581, 39.138993 ], [ -88.444614, 39.1331 ], [ -88.45458, 39.099049 ], [ -88.540361, 39.04065 ], [ -88.543553, 39.039458 ] ] ] } },
{ "type": "Feature", "properties": { "OBJECTID": 546, "ID": "0007262702", "NAME": "MEMORIAL MEDICAL CENTER", "ADDRESS": "701 N FIRST ST", "CITY": "SPRINGFIELD", "STATE": "IL", "ZIP": "62702", "ZIP4": "NOT AVAILABLE", "TELEPHONE": "(217) 788-3000", "TYPE": "GENERAL ACUTE CARE", "STATUS": "OPEN", "POPULATION": 473, "COUNTY": "SANGAMON", "COUNTYFIPS": "17167", "COUNTRY": "USA", "LATITUDE": 39.80936884, "LONGITUDE": -89.655779101999897, "NAICS_CODE": "622110", "NAICS_DESC": "GENERAL MEDICAL AND SURGICAL HOSPITALS", "SOURCE": "https://data.illinois.gov/", "SOURCEDATE": "2018-08-09T00:00:00.000Z", "VAL_METHOD": "IMAGERY", "VAL_DATE": "2014-03-12T00:00:00.000Z", "WEBSITE": "http://www.memorialmedical.com", "STATE_ID": "140148", "ALT_NAME": "NOT AVAILABLE", "ST_FIPS": "17", "OWNER": "NON-PROFIT", "TTL_STAFF": -999, "BEDS": 473, "TRAUMA": "LEVEL I", "HELIPAD": "Y" }, "geometry": { "type": "Polygon", "coordinates": [ [ [ -89.6444709, 39.735184 ], [ -89.6731741, 39.73929619999997 ], [ -89.7236652, 39.7565519 ], [ -89.7536479, 39.786572800000044 ], [ -89.7727229, 39.8325664 ], [ -89.6734097, 39.9035181 ], [ -89.6105823, 39.88471549999997 ], [ -89.5557359, 39.828588300000035 ], [ -89.534862300000015, 39.802561699999949 ], [ -89.571459500000017, 39.767312399999966 ], [ -89.5787073, 39.762414699999951 ], [ -89.6444709, 39.735184 ] ] ] } },
{ "type": "Feature", "properties": { "OBJECTID": 548, "ID": "0004661801", "NAME": "THE CARLE FOUNDATION HOSPITAL", "ADDRESS": "611 WEST PARK STREET", "CITY": "URBANA", "STATE": "IL", "ZIP": "61801", "ZIP4": "NOT AVAILABLE", "TELEPHONE": "(217) 383-3311", "TYPE": "GENERAL ACUTE CARE", "STATUS": "OPEN", "POPULATION": 322, "COUNTY": "CHAMPAIGN", "COUNTYFIPS": "17019", "COUNTRY": "USA", "LATITUDE": 40.117041763000003, "LONGITUDE": -88.214948659999905, "NAICS_CODE": "622110", "NAICS_DESC": "GENERAL MEDICAL AND SURGICAL HOSPITALS", "SOURCE": "https://data.illinois.gov/", "SOURCEDATE": "2018-08-09T00:00:00.000Z", "VAL_METHOD": "IMAGERY", "VAL_DATE": "2016-04-26T00:00:00.000Z", "WEBSITE": "http://www.carle.com/hospital", "STATE_ID": "140091", "ALT_NAME": "NOT AVAILABLE", "ST_FIPS": "17", "OWNER": "NON-PROFIT", "TTL_STAFF": -999, "BEDS": 322, "TRAUMA": "LEVEL I", "HELIPAD": "Y" }, "geometry": { "type": "Polygon", "coordinates": [ [ [ -88.2522692, 40.049313499999975 ], [ -88.318009, 40.113268 ], [ -88.314655, 40.127795 ], [ -88.2962969, 40.151355300000027 ], [ -88.2871785, 40.162913300000014 ], [ -88.253703, 40.185606 ], [ -88.1824653, 40.2035322 ], [ -88.1822814, 40.203533299999968 ], [ -88.039374, 40.120222 ], [ -88.036959, 40.116828 ], [ -88.040525, 40.113163 ], [ -88.190181, 40.054662 ], [ -88.2522692, 40.049313499999975 ] ] ] } },
{ "type": "Feature", "properties": { "OBJECTID": 561, "ID": "0014662644", "NAME": "MASON DISTRICT HOSPITAL", "ADDRESS": "615 NORTH PROMENADE STREET, P O BOX 530", "CITY": "HAVANA", "STATE": "IL", "ZIP": "62644", "ZIP4": "NOT AVAILABLE", "TELEPHONE": "(309) 543-4431", "TYPE": "CRITICAL ACCESS", "STATUS": "OPEN", "POPULATION": 20, "COUNTY": "MASON", "COUNTYFIPS": "17125", "COUNTRY": "USA", "LATITUDE": 40.305423138000002, "LONGITUDE": -90.054090695999903, "NAICS_CODE": "622110", "NAICS_DESC": "GENERAL MEDICAL AND SURGICAL HOSPITALS", "SOURCE": "https://data.illinois.gov/", "SOURCEDATE": "2018-08-09T00:00:00.000Z", "VAL_METHOD": "IMAGERY", "VAL_DATE": "2014-03-12T00:00:00.000Z", "WEBSITE": "http://www.masondistricthospital.org", "STATE_ID": "141313", "ALT_NAME": "NOT AVAILABLE", "ST_FIPS": "17", "OWNER": "GOVERNMENT - DISTRICT/AUTHORITY", "TTL_STAFF": -999, "BEDS": 20, "TRAUMA": "NOT AVAILABLE", "HELIPAD": "Y" }, "geometry": { "type": "Polygon", "coordinates": [ [ [ -90.008779, 40.231915 ], [ -90.111379, 40.236761 ], [ -90.055071, 40.321301 ], [ -90.045482, 40.332856 ], [ -90.04519, 40.3332 ], [ -90.036825, 40.341825 ], [ -90.030396, 40.347488 ], [ -90.022504, 40.3526771 ], [ -89.998622, 40.341581 ], [ -89.948226, 40.297476 ], [ -89.9482052, 40.2964048 ], [ -90.008779, 40.231915 ] ] ] } },
{ "type": "Feature", "properties": { "OBJECTID": 571, "ID": "0006762526", "NAME": "DECATUR MEMORIAL HOSPITAL", "ADDRESS": "2300 NORTH EDWARD STREET", "CITY": "DECATUR", "STATE": "IL", "ZIP": "62526", "ZIP4": "NOT AVAILABLE", "TELEPHONE": "(217) 877-8121", "TYPE": "GENERAL ACUTE CARE", "STATUS": "OPEN", "POPULATION": 188, "COUNTY": "MACON", "COUNTYFIPS": "17115", "COUNTRY": "USA", "LATITUDE": 39.867253398000102, "LONGITUDE": -88.960982947000005, "NAICS_CODE": "622110", "NAICS_DESC": "GENERAL MEDICAL AND SURGICAL HOSPITALS", "SOURCE": "https://data.illinois.gov/", "SOURCEDATE": "2018-08-09T00:00:00.000Z", "VAL_METHOD": "IMAGERY/OTHER", "VAL_DATE": "2014-03-12T00:00:00.000Z", "WEBSITE": "http://www.dmhcares.org", "STATE_ID": "140135", "ALT_NAME": "NOT AVAILABLE", "ST_FIPS": "17", "OWNER": "NON-PROFIT", "TTL_STAFF": -999, "BEDS": 188, "TRAUMA": "LEVEL II", "HELIPAD": "Y" }, "geometry": { "type": "Polygon", "coordinates": [ [ [ -88.981351298406466, 39.770630690425804 ], [ -89.055234537946717, 39.83721581076049 ], [ -89.028788826881751, 39.909579152746524 ], [ -88.956291600395275, 39.964227039513084 ], [ -88.956030400529514, 39.964221939958762 ], [ -88.889642663342201, 39.915039186121241 ], [ -88.881156625097418, 39.907866009082326 ], [ -88.870338486503385, 39.883344052344121 ], [ -88.869505089195997, 39.849174482570291 ], [ -88.877667827034102, 39.820741783190847 ], [ -88.87825832313888, 39.820034682070649 ], [ -88.892144784502179, 39.8125380479066 ], [ -88.962255222078241, 39.777235550654723 ], [ -88.981351298406466, 39.770630690425804 ] ] ] } },
{ "type": "Feature", "properties": { "OBJECTID": 630, "ID": "0016562681", "NAME": "SARAH D CULBERTSON MEMORIAL HOSPITAL", "ADDRESS": "238 SOUTH CONGRESS STREET", "CITY": "RUSHVILLE", "STATE": "IL", "ZIP": "62681", "ZIP4": "NOT AVAILABLE", "TELEPHONE": "(217) 322-4321", "TYPE": "CRITICAL ACCESS", "STATUS": "OPEN", "POPULATION": 46, "COUNTY": "SCHUYLER", "COUNTYFIPS": "17169", "COUNTRY": "USA", "LATITUDE": 40.118162796999997, "LONGITUDE": -90.5643155, "NAICS_CODE": "622110", "NAICS_DESC": "GENERAL MEDICAL AND SURGICAL HOSPITALS", "SOURCE": "https://data.illinois.gov/", "SOURCEDATE": "2018-08-09T00:00:00.000Z", "VAL_METHOD": "IMAGERY", "VAL_DATE": "2014-01-21T00:00:00.000Z", "WEBSITE": "http://www.cmhospital.com", "STATE_ID": "141333", "ALT_NAME": "NOT AVAILABLE", "ST_FIPS": "17", "OWNER": "GOVERNMENT - DISTRICT/AUTHORITY", "TTL_STAFF": -999, "BEDS": 46, "TRAUMA": "NOT AVAILABLE", "HELIPAD": "N" }, "geometry": { "type": "Polygon", "coordinates": [ [ [ -90.572329, 40.040034 ], [ -90.615243, 40.044506 ], [ -90.624481, 40.058249 ], [ -90.634096, 40.073896 ], [ -90.66245720000002, 40.1393864 ], [ -90.593334900000016, 40.234110100000017 ], [ -90.5017049, 40.175966200000019 ], [ -90.481102, 40.135226 ], [ -90.478259, 40.116296 ], [ -90.47084, 40.053777 ], [ -90.491704, 40.043211 ], [ -90.572329, 40.040034 ] ] ] } },
{ "type": "Feature", "properties": { "OBJECTID": 631, "ID": "0015462812", "NAME": "ABRAHAM LINCOLN MEMORIAL HOSPITAL", "ADDRESS": "200 STAHLHUT DRIVE", "CITY": "LINCOLN", "STATE": "IL", "ZIP": "62656", "ZIP4": "NOT AVAILABLE", "TELEPHONE": "(217) 732-2161", "TYPE": "CRITICAL ACCESS", "STATUS": "OPEN", "POPULATION": 25, "COUNTY": "LOGAN", "COUNTYFIPS": "17107", "COUNTRY": "USA", "LATITUDE": 40.153786502000102, "LONGITUDE": -89.389893552999993, "NAICS_CODE": "622110", "NAICS_DESC": "GENERAL MEDICAL AND SURGICAL HOSPITALS", "SOURCE": "https://data.illinois.gov/", "SOURCEDATE": "2018-08-09T00:00:00.000Z", "VAL_METHOD": "IMAGERY", "VAL_DATE": "2014-03-12T00:00:00.000Z", "WEBSITE": "http://www.almh.org", "STATE_ID": "141322", "ALT_NAME": "NOT AVAILABLE", "ST_FIPS": "17", "OWNER": "NON-PROFIT", "TTL_STAFF": -999, "BEDS": 25, "TRAUMA": "NOT AVAILABLE", "HELIPAD": "Y" }, "geometry": { "type": "Polygon", "coordinates": [ [ [ -89.4380045, 40.06368269999998 ], [ -89.444810500000017, 40.0647543 ], [ -89.447682, 40.067109 ], [ -89.485571, 40.165155199999958 ], [ -89.4855798, 40.1653604 ], [ -89.485652, 40.1702 ], [ -89.485678, 40.173153 ], [ -89.4627593, 40.249482 ], [ -89.46097, 40.251795 ], [ -89.3055053, 40.200977 ], [ -89.3029224, 40.199715399999981 ], [ -89.285243, 40.179026 ], [ -89.282254, 40.149898 ], [ -89.310644, 40.106582 ], [ -89.317643, 40.099371 ], [ -89.404699, 40.070451 ], [ -89.4380045, 40.06368269999998 ] ] ] } },
{ "type": "Feature", "properties": { "OBJECTID": 7239, "ID": "0017162568", "NAME": "TAYLORVILLE MEMORIAL HOSPITAL", "ADDRESS": "201 EAST PLEASANT STREET", "CITY": "TAYLORVILLE", "STATE": "IL", "ZIP": "62568", "ZIP4": "NOT AVAILABLE", "TELEPHONE": "(217) 824-3331", "TYPE": "CRITICAL ACCESS", "STATUS": "OPEN", "POPULATION": 45, "COUNTY": "CHRISTIAN", "COUNTYFIPS": "17021", "COUNTRY": "USA", "LATITUDE": 39.555325371000002, "LONGITUDE": -89.294259542999995, "NAICS_CODE": "622110", "NAICS_DESC": "GENERAL MEDICAL AND SURGICAL HOSPITALS", "SOURCE": "https://data.illinois.gov/", "SOURCEDATE": "2018-08-09T00:00:00.000Z", "VAL_METHOD": "IMAGERY", "VAL_DATE": "2014-03-12T00:00:00.000Z", "WEBSITE": "http://www.taylorvillememorial.org", "STATE_ID": "141339", "ALT_NAME": "NOT AVAILABLE", "ST_FIPS": "17", "OWNER": "NON-PROFIT", "TTL_STAFF": -999, "BEDS": 45, "TRAUMA": "NOT AVAILABLE", "HELIPAD": "Y" }, "geometry": { "type": "Polygon", "coordinates": [ [ [ -89.297182, 39.47993 ], [ -89.3582267, 39.4988926 ], [ -89.3904573, 39.567954900000018 ], [ -89.3687197, 39.6330105 ], [ -89.3685466, 39.633175 ], [ -89.2200739, 39.611618200000017 ], [ -89.2135213, 39.545499199999945 ], [ -89.208688, 39.4948281 ], [ -89.297182, 39.47993 ] ] ] } },
{ "type": "Feature", "properties": { "OBJECTID": 5248, "ID": "0014960936", "NAME": "GIBSON COMMUNITY HOSPITAL", "ADDRESS": "1120 N MELVIN STREET", "CITY": "GIBSON CITY", "STATE": "IL", "ZIP": "60936", "ZIP4": "NOT AVAILABLE", "TELEPHONE": "(217) 784-4251", "TYPE": "CRITICAL ACCESS", "STATUS": "OPEN", "POPULATION": 67, "COUNTY": "FORD", "COUNTYFIPS": "17053", "COUNTRY": "USA", "LATITUDE": 40.478366976000103, "LONGITUDE": -88.370264992000003, "NAICS_CODE": "622110", "NAICS_DESC": "GENERAL MEDICAL AND SURGICAL HOSPITALS", "SOURCE": "https://data.illinois.gov/", "SOURCEDATE": "2018-08-09T00:00:00.000Z", "VAL_METHOD": "IMAGERY", "VAL_DATE": "2014-03-12T00:00:00.000Z", "WEBSITE": "http://www.gibsonhospital.org", "STATE_ID": "141317", "ALT_NAME": "NOT AVAILABLE", "ST_FIPS": "17", "OWNER": "NON-PROFIT", "TTL_STAFF": -999, "BEDS": 67, "TRAUMA": "NOT AVAILABLE", "HELIPAD": "Y" }, "geometry": { "type": "Polygon", "coordinates": [ [ [ -88.375585, 40.403885 ], [ -88.4387726, 40.4132322 ], [ -88.4593436, 40.465548299999959 ], [ -88.461174, 40.471734 ], [ -88.459227, 40.486243 ], [ -88.38505, 40.55892 ], [ -88.290967, 40.534567 ], [ -88.27205, 40.472049 ], [ -88.288449, 40.457372 ], [ -88.329137, 40.427726 ], [ -88.375585, 40.403885 ] ] ] } },
{ "type": "Feature", "properties": { "OBJECTID": 5249, "ID": "0000161520", "NAME": "GRAHAM HOSPITAL ASSOCIATION", "ADDRESS": "210 WEST WALNUT STREET", "CITY": "CANTON", "STATE": "IL", "ZIP": "61520", "ZIP4": "NOT AVAILABLE", "TELEPHONE": "(309) 647-5240", "TYPE": "GENERAL ACUTE CARE", "STATUS": "OPEN", "POPULATION": 93, "COUNTY": "FULTON", "COUNTYFIPS": "17057", "COUNTRY": "USA", "LATITUDE": 40.552669086999998, "LONGITUDE": -90.038829973999995, "NAICS_CODE": "622110", "NAICS_DESC": "GENERAL MEDICAL AND SURGICAL HOSPITALS", "SOURCE": "https://data.illinois.gov/", "SOURCEDATE": "2018-08-09T00:00:00.000Z", "VAL_METHOD": "IMAGERY", "VAL_DATE": "2014-03-12T00:00:00.000Z", "WEBSITE": "http://www.grahamhospital.org", "STATE_ID": "140001", "ALT_NAME": "NOT AVAILABLE", "ST_FIPS": "17", "OWNER": "NON-PROFIT", "TTL_STAFF": -999, "BEDS": 93, "TRAUMA": "NOT AVAILABLE", "HELIPAD": "Y" }, "geometry": { "type": "Polygon", "coordinates": [ [ [ -90.030068, 40.473397 ], [ -90.0582273, 40.486336599999959 ], [ -90.107029, 40.524138 ], [ -90.141875, 40.560343 ], [ -90.046075334272103, 40.625743003425043 ], [ -90.036992354505941, 40.62935902928669 ], [ -90.031856356592556, 40.629326042397338 ], [ -90.025629344353661, 40.625782056035781 ], [ -90.00462329949697, 40.61174210222454 ], [ -89.950703, 40.568014 ], [ -89.944729, 40.542897 ], [ -90.030068, 40.473397 ] ] ] } },
{ "type": "Feature", "properties": { "OBJECTID": 5269, "ID": "0013861727", "NAME": "DR JOHN WARNER HOSPITAL", "ADDRESS": "422 W WHITE ST", "CITY": "CLINTON", "STATE": "IL", "ZIP": "61727", "ZIP4": "NOT AVAILABLE", "TELEPHONE": "(217) 935-9571", "TYPE": "CRITICAL ACCESS", "STATUS": "OPEN", "POPULATION": 25, "COUNTY": "DE WITT", "COUNTYFIPS": "17039", "COUNTRY": "USA", "LATITUDE": 40.148417520000102, "LONGITUDE": -88.964608206999998, "NAICS_CODE": "622110", "NAICS_DESC": "GENERAL MEDICAL AND SURGICAL HOSPITALS", "SOURCE": "https://data.illinois.gov/", "SOURCEDATE": "2018-08-09T00:00:00.000Z", "VAL_METHOD": "IMAGERY", "VAL_DATE": "2014-02-10T00:00:00.000Z", "WEBSITE": "http://www.djwhospital.org", "STATE_ID": "141303", "ALT_NAME": "NOT AVAILABLE", "ST_FIPS": "17", "OWNER": "GOVERNMENT - LOCAL", "TTL_STAFF": -999, "BEDS": 25, "TRAUMA": "NOT AVAILABLE", "HELIPAD": "N" }, "geometry": { "type": "Polygon", "coordinates": [ [ [ -88.965328185984234, 40.037121182994539 ], [ -89.067635297605634, 40.110278508704653 ], [ -89.062097447243502, 40.152493643140296 ], [ -88.977096888088383, 40.264639036720801 ], [ -88.976895888929178, 40.264642037184586 ], [ -88.975873893284998, 40.264636039467838 ], [ -88.865790090382063, 40.17814990278584 ], [ -88.855462908971944, 40.127541683569362 ], [ -88.96061359245472, 40.037243790873866 ], [ -88.962365690025862, 40.037190387910883 ], [ -88.965328185984234, 40.037121182994539 ] ] ] } },
{ "type": "Feature", "properties": { "OBJECTID": 5279, "ID": "0002762703", "NAME": "ST JOHNS HOSPITAL", "ADDRESS": "800 E CARPENTER ST", "CITY": "SPRINGFIELD", "STATE": "IL", "ZIP": "62702", "ZIP4": "NOT AVAILABLE", "TELEPHONE": "(217) 544-6464", "TYPE": "GENERAL ACUTE CARE", "STATUS": "OPEN", "POPULATION": 434, "COUNTY": "SANGAMON", "COUNTYFIPS": "17167", "COUNTRY": "USA", "LATITUDE": 39.805439016000001, "LONGITUDE": -89.644008037999996, "NAICS_CODE": "622110", "NAICS_DESC": "GENERAL MEDICAL AND SURGICAL HOSPITALS", "SOURCE": "https://data.illinois.gov/", "SOURCEDATE": "2018-08-09T00:00:00.000Z", "VAL_METHOD": "IMAGERY", "VAL_DATE": "2014-03-12T00:00:00.000Z", "WEBSITE": "www.st-johns.org", "STATE_ID": "140053", "ALT_NAME": "NOT AVAILABLE", "ST_FIPS": "17", "OWNER": "NON-PROFIT", "TTL_STAFF": -999, "BEDS": 434, "TRAUMA": "LEVEL I, LEVEL II PEDIATRIC", "HELIPAD": "Y" }, "geometry": { "type": "Polygon", "coordinates": [ [ [ -89.6439033, 39.708909400000017 ], [ -89.715326100000013, 39.759990699999989 ], [ -89.7390388, 39.7866431 ], [ -89.7481053, 39.8011124 ], [ -89.7585261, 39.8286807 ], [ -89.6719797, 39.870275 ], [ -89.608528, 39.8886756 ], [ -89.520221, 39.846149 ], [ -89.5153782, 39.837679900000012 ], [ -89.5044795, 39.802734299999976 ], [ -89.5044793, 39.802026399999967 ], [ -89.5384648, 39.750609800000014 ], [ -89.5385474, 39.750516200000021 ], [ -89.5388386, 39.750239899999983 ], [ -89.6439033, 39.708909400000017 ] ] ] } },
{ "type": "Feature", "properties": { "OBJECTID": 5282, "ID": "0009561938", "NAME": "SARAH BUSH LINCOLN HEALTH CENTER", "ADDRESS": "1000 HEALTH CENTER DRIVE, P O BOX 372", "CITY": "MATTOON", "STATE": "IL", "ZIP": "61938", "ZIP4": "NOT AVAILABLE", "TELEPHONE": "(217) 258-2572", "TYPE": "GENERAL ACUTE CARE", "STATUS": "OPEN", "POPULATION": 118, "COUNTY": "COLES", "COUNTYFIPS": "17029", "COUNTRY": "USA", "LATITUDE": 39.488541184, "LONGITUDE": -88.273108637999897, "NAICS_CODE": "622110", "NAICS_DESC": "GENERAL MEDICAL AND SURGICAL HOSPITALS", "SOURCE": "https://data.illinois.gov/", "SOURCEDATE": "2018-08-09T00:00:00.000Z", "VAL_METHOD": "IMAGERY", "VAL_DATE": "2014-03-12T00:00:00.000Z", "WEBSITE": "http://www.sarahbush.org", "STATE_ID": "140189", "ALT_NAME": "NOT AVAILABLE", "ST_FIPS": "17", "OWNER": "NON-PROFIT", "TTL_STAFF": -999, "BEDS": 118, "TRAUMA": "NOT AVAILABLE", "HELIPAD": "Y" }, "geometry": { "type": "Polygon", "coordinates": [ [ [ -88.3783242, 39.428148400000019 ], [ -88.3909908, 39.489444200000015 ], [ -88.322548, 39.535584 ], [ -88.2664316, 39.565041500000014 ], [ -88.2099152, 39.520832500000033 ], [ -88.1644404, 39.4844681 ], [ -88.168557, 39.4814949 ], [ -88.1766692, 39.4760341 ], [ -88.214649, 39.455703 ], [ -88.242718, 39.441004 ], [ -88.266797, 39.429304 ], [ -88.3783242, 39.428148400000019 ] ] ] } },
{ "type": "Feature", "properties": { "OBJECTID": 5307, "ID": "0008162521", "NAME": "ST MARYS HOSPITAL", "ADDRESS": "1800 E LAKE SHORE DR", "CITY": "DECATUR", "STATE": "IL", "ZIP": "62521", "ZIP4": "NOT AVAILABLE", "TELEPHONE": "(217) 464-7000", "TYPE": "GENERAL ACUTE CARE", "STATUS": "OPEN", "POPULATION": -999, "COUNTY": "MACON", "COUNTYFIPS": "17115", "COUNTRY": "USA", "LATITUDE": 39.827452951000097, "LONGITUDE": -88.931682630999902, "NAICS_CODE": "622110", "NAICS_DESC": "GENERAL MEDICAL AND SURGICAL HOSPITALS", "SOURCE": "https://data.illinois.gov/", "SOURCEDATE": "2018-08-09T00:00:00.000Z", "VAL_METHOD": "IMAGERY", "VAL_DATE": "2014-03-12T00:00:00.000Z", "WEBSITE": "https://www.stmarysdecatur.com/", "STATE_ID": "140166", "ALT_NAME": "NOT AVAILABLE", "ST_FIPS": "17", "OWNER": "NON-PROFIT", "TTL_STAFF": -999, "BEDS": -999, "TRAUMA": "NOT AVAILABLE", "HELIPAD": "Y" }, "geometry": { "type": "Polygon", "coordinates": [ [ [ -88.981351298406466, 39.770630690425804 ], [ -88.999790347204708, 39.778338932891948 ], [ -89.009793068952561, 39.798316863789516 ], [ -89.00985906910735, 39.798448864007931 ], [ -89.029372980232793, 39.847013135108632 ], [ -89.028860590071545, 39.848143433877141 ], [ -88.95507835622584, 39.89860285267941 ], [ -88.917707011474931, 39.907201831278051 ], [ -88.895357628585487, 39.909176677910715 ], [ -88.841106588836993, 39.849517755728556 ], [ -88.840275255071958, 39.810277199193798 ], [ -88.840283850419979, 39.809495599991877 ], [ -88.869743643136459, 39.789256831446764 ], [ -88.981351298406466, 39.770630690425804 ] ] ] } },
{ "type": "Feature", "properties": { "OBJECTID": 5445, "ID": "0013661856", "NAME": "JOHN & MARY KIRBY HOSPITAL", "ADDRESS": "1111 N STATE ST", "CITY": "MONTICELLO", "STATE": "IL", "ZIP": "61856", "ZIP4": "NOT AVAILABLE", "TELEPHONE": "(217) 762-2115", "TYPE": "CRITICAL ACCESS", "STATUS": "CLOSED", "POPULATION": -999, "COUNTY": "PIATT", "COUNTYFIPS": "17147", "COUNTRY": "USA", "LATITUDE": 40.034074085999997, "LONGITUDE": -88.568703408999994, "NAICS_CODE": "622110", "NAICS_DESC": "GENERAL MEDICAL AND SURGICAL HOSPITALS", "SOURCE": "https://data.illinois.gov/", "SOURCEDATE": "2012-07-27T00:00:00.000Z", "VAL_METHOD": "IMAGERY", "VAL_DATE": "2014-02-10T00:00:00.000Z", "WEBSITE": "http://www.kirbyhospital.org/", "STATE_ID": "141301", "ALT_NAME": "NOT AVAILABLE", "ST_FIPS": "17", "OWNER": "NON-PROFIT", "TTL_STAFF": -999, "BEDS": -999, "TRAUMA": "NOT AVAILABLE", "HELIPAD": "N" }, "geometry": { "type": "Polygon", "coordinates": [ [ [ -88.5748466, 39.9372576 ], [ -88.6663812, 40.021860299999965 ], [ -88.6664863, 40.0222892 ], [ -88.6310249, 40.076260699999942 ], [ -88.5542499, 40.105286 ], [ -88.5209689, 40.1080128 ], [ -88.5013925, 40.106657199999972 ], [ -88.4886349, 40.105765800000029 ], [ -88.4693653, 40.025627199999953 ], [ -88.5748466, 39.9372576 ] ] ] } },
{ "type": "Feature", "properties": { "OBJECTID": 3468, "ID": "0003261820", "NAME": "THE PAVILION FOUNDATION", "ADDRESS": "809 WEST CHURCH STREET", "CITY": "CHAMPAIGN", "STATE": "IL", "ZIP": "61820", "ZIP4": "NOT AVAILABLE", "TELEPHONE": "(217) 373-1700", "TYPE": "PSYCHIATRIC", "STATUS": "OPEN", "POPULATION": 46, "COUNTY": "CHAMPAIGN", "COUNTYFIPS": "17019", "COUNTRY": "USA", "LATITUDE": 40.117707705999997, "LONGITUDE": -88.257536742999903, "NAICS_CODE": "622210", "NAICS_DESC": "PSYCHIATRIC AND SUBSTANCE ABUSE HOSPITALS", "SOURCE": "https://data.illinois.gov/", "SOURCEDATE": "2018-08-09T00:00:00.000Z", "VAL_METHOD": "IMAGERY/OTHER", "VAL_DATE": "2014-02-10T00:00:00.000Z", "WEBSITE": "http://www.pavilionhospital.com", "STATE_ID": "0004689", "ALT_NAME": "NOT AVAILABLE", "ST_FIPS": "17", "OWNER": "PROPRIETARY", "TTL_STAFF": -999, "BEDS": 46, "TRAUMA": "NOT AVAILABLE", "HELIPAD": "N" }, "geometry": { "type": "Polygon", "coordinates": [ [ [ -88.303742, 40.029524 ], [ -88.40745, 40.113202 ], [ -88.407505, 40.127686 ], [ -88.393171, 40.196427 ], [ -88.365326, 40.201143 ], [ -88.220553, 40.1888 ], [ -88.181862, 40.171122 ], [ -88.163039, 40.156705 ], [ -88.1436455, 40.1133575 ], [ -88.181579, 40.081536 ], [ -88.182732, 40.080606 ], [ -88.2382013, 40.041588299999979 ], [ -88.255182, 40.029697 ], [ -88.303742, 40.029524 ] ] ] } },
{ "type": "Feature", "properties": { "OBJECTID": 3469, "ID": "0005361801", "NAME": "PRESENCE COVENANT MEDICAL CENTER", "ADDRESS": "1400 WEST PARK AVENUE", "CITY": "URBANA", "STATE": "IL", "ZIP": "61801", "ZIP4": "NOT AVAILABLE", "TELEPHONE": "(217) 337-2000", "TYPE": "GENERAL ACUTE CARE", "STATUS": "OPEN", "POPULATION": 181, "COUNTY": "CHAMPAIGN", "COUNTYFIPS": "17019", "COUNTRY": "USA", "LATITUDE": 40.117971109000102, "LONGITUDE": -88.227107261, "NAICS_CODE": "622110", "NAICS_DESC": "GENERAL MEDICAL AND SURGICAL HOSPITALS", "SOURCE": "https://data.illinois.gov/", "SOURCEDATE": "2018-08-09T00:00:00.000Z", "VAL_METHOD": "IMAGERY", "VAL_DATE": "2014-02-10T00:00:00.000Z", "WEBSITE": "http://www.provena.org/covenant", "STATE_ID": "140113", "ALT_NAME": "NOT AVAILABLE", "ST_FIPS": "17", "OWNER": "NON-PROFIT", "TTL_STAFF": -999, "BEDS": 181, "TRAUMA": "NOT AVAILABLE", "HELIPAD": "N" }, "geometry": { "type": "Polygon", "coordinates": [ [ [ -88.254238, 40.035615 ], [ -88.254462, 40.035637 ], [ -88.3333018, 40.112205300000014 ], [ -88.333299, 40.113312 ], [ -88.314752, 40.160386 ], [ -88.269368, 40.185719 ], [ -88.220553, 40.1888 ], [ -88.182295, 40.189304 ], [ -88.182093, 40.189302 ], [ -88.048187, 40.120312 ], [ -88.254238, 40.035615 ] ] ] } },
{ "type": "Feature", "properties": { "OBJECTID": 3473, "ID": "0001162565", "NAME": "SHELBY MEMORIAL HOSPITAL", "ADDRESS": "200 S CEDAR ST", "CITY": "SHELBYVILLE", "STATE": "IL", "ZIP": "62565", "ZIP4": "NOT AVAILABLE", "TELEPHONE": "(217) 774-3961", "TYPE": "GENERAL ACUTE CARE", "STATUS": "OPEN", "POPULATION": 30, "COUNTY": "SHELBY", "COUNTYFIPS": "17173", "COUNTRY": "USA", "LATITUDE": 39.405781830000102, "LONGITUDE": -88.807950641000005, "NAICS_CODE": "622110", "NAICS_DESC": "GENERAL MEDICAL AND SURGICAL HOSPITALS", "SOURCE": "https://data.illinois.gov/", "SOURCEDATE": "2018-08-09T00:00:00.000Z", "VAL_METHOD": "IMAGERY", "VAL_DATE": "2014-03-12T00:00:00.000Z", "WEBSITE": "http://www.mysmh.org", "STATE_ID": "140019", "ALT_NAME": "NOT AVAILABLE", "ST_FIPS": "17", "OWNER": "NON-PROFIT", "TTL_STAFF": -999, "BEDS": 30, "TRAUMA": "NOT AVAILABLE", "HELIPAD": "Y" }, "geometry": { "type": "Polygon", "coordinates": [ [ [ -88.801277517712037, 39.342168855872885 ], [ -88.861946112749806, 39.362240917834207 ], [ -88.926939980540652, 39.405601713920611 ], [ -88.831170524878075, 39.471119731610024 ], [ -88.807780395744672, 39.485802254063096 ], [ -88.7904457361211, 39.476365285710571 ], [ -88.6864446, 39.404392400000042 ], [ -88.771652, 39.350875 ], [ -88.7778289, 39.3474214 ], [ -88.801277517712037, 39.342168855872885 ] ] ] } }
]
}
