{
"type": "FeatureCollection",
"crs": { "type": "name", "properties": { "name": "urn:ogc:def:crs:OGC:1.3:CRS84" } },
"features": [
{ "type": "Feature", "properties": { "OBJECTID": 1528, "ID": "0007162450", "NAME": "RICHLAND MEMORIAL HOSPITAL", "ADDRESS": "800 EAST LOCUST", "CITY": "OLNEY", "STATE": "IL", "ZIP": "62450", "ZIP4": "NOT AVAILABLE", "TELEPHONE": "(618) 395-2131", "TYPE": "GENERAL ACUTE CARE", "STATUS": "OPEN", "POPULATION": 90, "COUNTY": "RICHLAND", "COUNTYFIPS": "17159", "COUNTRY": "USA", "LATITUDE": 38.736543571, "LONGITUDE": -88.077172888999897, "NAICS_CODE": "622110", "NAICS_DESC": "GENERAL MEDICAL AND SURGICAL HOSPITALS", "SOURCE": "https://data.illinois.gov/", "SOURCEDATE": "2018-08-09T00:00:00.000Z", "VAL_METHOD": "IMAGERY", "VAL_DATE": "2014-03-12T00:00:00.000Z", "WEBSITE": "http://www.richlandmemorial.com", "STATE_ID": "140147", "ALT_NAME": "NOT AVAILABLE", "ST_FIPS": "17", "OWNER": "NON-PROFIT", "TTL_STAFF": -999, "BEDS": 90, "TRAUMA": "NOT AVAILABLE", "HELIPAD": "Y" }, "geometry": { "type": "Polygon", "coordinates": [ [ [ -88.084691, 38.642888 ], [ -88.186125, 38.698668 ], [ -88.195385, 38.70796 ], [ -88.0945441, 38.833706399999983 ], [ -87.9372343, 38.7323855 ], [ -88.084691, 38.642888 ] ] ] } },
{ "type": "Feature", "properties": { "OBJECTID": 1532, "ID": "0012662062", "NAME": "ANDERSON HOSPITAL", "ADDRESS": "6800 STATE ROUTE 162", "CITY": "MARYVILLE", "STATE": "IL", "ZIP": "62062", "ZIP4": "NOT AVAILABLE", "TELEPHONE": "(618) 288-5711", "TYPE": "GENERAL ACUTE CARE", "STATUS": "OPEN", "POPULATION": 154, "COUNTY": "MADISON", "COUNTYFIPS": "17119", "COUNTRY": "USA", "LATITUDE": 38.736770578000097, "LONGITUDE": -89.946707681000007, "NAICS_CODE": "622110", "NAICS_DESC": "GENERAL MEDICAL AND SURGICAL HOSPITALS", "SOURCE": "https://data.illinois.gov/", "SOURCEDATE": "2018-08-09T00:00:00.000Z", "VAL_METHOD": "IMAGERY", "VAL_DATE": "2014-03-12T00:00:00.000Z", "WEBSITE": "http://www.andersonhospital.org", "STATE_ID": "140289", "ALT_NAME": "NOT AVAILABLE", "ST_FIPS": "17", "OWNER": "NON-PROFIT", "TTL_STAFF": -999, "BEDS": 154, "TRAUMA": "NOT AVAILABLE", "HELIPAD": "Y" }, "geometry": { "type": "Polygon", "coordinates": [ [ [ -90.017326, 38.658169 ], [ -90.0523701, 38.666631899999942 ], [ -90.0744, 38.761379 ], [ -90.0438944, 38.782143599999976 ], [ -89.9545228, 38.8185066 ], [ -89.945892, 38.818333 ], [ -89.871876, 38.802992 ], [ -89.800714, 38.76415 ], [ -89.796763, 38.761954 ], [ -89.821595, 38.7161 ], [ -89.87592, 38.688362 ], [ -89.9810426, 38.658153899999967 ], [ -89.98941, 38.657608 ], [ -90.017326, 38.658169 ] ] ] } },
{ "type": "Feature", "properties": { "OBJECTID": 1540, "ID": "0016462049", "NAME": "HILLSBORO AREA HOSPITAL", "ADDRESS": "1200 E TREMONT STREET", "CITY": "HILLSBORO", "STATE": "IL", "ZIP": "62049", "ZIP4": "NOT AVAILABLE", "TELEPHONE": "(217) 532-6111", "TYPE": "CRITICAL ACCESS", "STATUS": "OPEN", "POPULATION": 25, "COUNTY": "MONTGOMERY", "COUNTYFIPS": "17135", "COUNTRY": "USA", "LATITUDE": 39.150930343, "LONGITUDE": -89.480043109999897, "NAICS_CODE": "622110", "NAICS_DESC": "GENERAL MEDICAL AND SURGICAL HOSPITALS", "SOURCE": "https://data.illinois.gov/", "SOURCEDATE": "2018-08-09T00:00:00.000Z", "VAL_METHOD": "IMAGERY", "VAL_DATE": "2014-03-12T00:00:00.000Z", "WEBSITE": "http://www.hillsborohealth.org", "STATE_ID": "141332", "ALT_NAME": "NOT AVAILABLE", "ST_FIPS": "17", "OWNER": "NON-PROFIT", "TTL_STAFF": -999, "BEDS": 25, "TRAUMA": "NOT AVAILABLE", "HELIPAD": "Y" }, "geometry": { "type": "Polygon", "coordinates": [ [ [ -89.487249, 39.068052 ], [ -89.568644, 39.133499 ], [ -89.589399, 39.174183 ], [ -89.539176, 39.217257 ], [ -89.401495, 39.209799 ], [ -89.400484, 39.209725 ], [ -89.382486, 39.173175 ], [ -89.377456, 39.151482 ], [ -89.409932, 39.100232 ], [ -89.487249, 39.068052 ] ] ] } },
{ "type": "Feature", "properties": { "OBJECTID": 1541, "ID": "0016662966", "NAME": "ST JOSEPH MEMORIAL HOSPITAL", "ADDRESS": "2 SOUTH HOSPITAL DRIVE", "CITY": "MURPHYSBORO", "STATE": "IL", "ZIP": "62966", "ZIP4": "NOT AVAILABLE", "TELEPHONE": "(618) 684-3156", "TYPE": "CRITICAL ACCESS", "STATUS": "OPEN", "POPULATION": 25, "COUNTY": "JACKSON", "COUNTYFIPS": "17077", "COUNTRY": "USA", "LATITUDE": 37.773712337000099, "LONGITUDE": -89.324755013999905, "NAICS_CODE": "622110", "NAICS_DESC": "GENERAL MEDICAL AND SURGICAL HOSPITALS", "SOURCE": "https://data.illinois.gov/", "SOURCEDATE": "2018-08-09T00:00:00.000Z", "VAL_METHOD": "IMAGERY", "VAL_DATE": "2014-02-10T00:00:00.000Z", "WEBSITE": "http://www.sih.net", "STATE_ID": "141334", "ALT_NAME": "NOT AVAILABLE", "ST_FIPS": "17", "OWNER": "NON-PROFIT", "TTL_STAFF": -999, "BEDS": 25, "TRAUMA": "NOT AVAILABLE", "HELIPAD": "Y" }, "geometry": { "type": "Polygon", "coordinates": [ [ [ -89.320997, 37.683837 ], [ -89.322227, 37.68404 ], [ -89.3743434, 37.717224100000024 ], [ -89.385026, 37.726638 ], [ -89.431445, 37.768556 ], [ -89.431057, 37.769938 ], [ -89.391778, 37.815762 ], [ -89.326046, 37.877829 ], [ -89.189407, 37.829957 ], [ -89.188984, 37.829542 ], [ -89.211937, 37.725655 ], [ -89.216479, 37.719753 ], [ -89.2283023, 37.712904199999983 ], [ -89.313341, 37.686059 ], [ -89.320997, 37.683837 ] ] ] } },
{ "type": "Feature", "properties": { "OBJECTID": 1542, "ID": "0015962863", "NAME": "WABASH GENERAL HOSPITAL", "ADDRESS": "1418 COLLEGE DRIVE", "CITY": "MOUNT CARMEL", "STATE": "IL", "ZIP": "62863", "ZIP4": "NOT AVAILABLE", "TELEPHONE": "(618) 262-8621", "TYPE": "CRITICAL ACCESS", "STATUS": "OPEN", "POPULATION": 25, "COUNTY": "WABASH", "COUNTYFIPS": "17185", "COUNTRY": "USA", "LATITUDE": 38.420606927000101, "LONGITUDE": -87.769388840999994, "NAICS_CODE": "622110", "NAICS_DESC": "GENERAL MEDICAL AND SURGICAL HOSPITALS", "SOURCE": "https://data.illinois.gov/", "SOURCEDATE": "2018-08-09T00:00:00.000Z", "VAL_METHOD": "IMAGERY", "VAL_DATE": "2014-03-12T00:00:00.000Z", "WEBSITE": "http://www.wabashgeneral.com", "STATE_ID": "141327", "ALT_NAME": "NOT AVAILABLE", "ST_FIPS": "17", "OWNER": "GOVERNMENT - LOCAL", "TTL_STAFF": -999, "BEDS": 25, "TRAUMA": "NOT AVAILABLE", "HELIPAD": "Y" }, "geometry": { "type": "Polygon", "coordinates": [ [ [ -87.854531, 38.362349 ], [ -87.87865, 38.405847 ], [ -87.879797, 38.408741 ], [ -87.831927, 38.470166 ], [ -87.815933, 38.48076 ], [ -87.763931, 38.496983 ], [ -87.760345, 38.497911 ], [ -87.728381, 38.505664 ], [ -87.7449842, 38.416717799999986 ], [ -87.7498414, 38.39506729999998 ], [ -87.791448, 38.379101 ], [ -87.809765, 38.372638 ], [ -87.854531, 38.362349 ] ] ] } },
{ "type": "Feature", "properties": { "OBJECTID": 1644, "ID": "0100062249", "NAME": "ST. JOSEPH'S HOSPITAL", "ADDRESS": "12886 TROXLER AVENUE", "CITY": "HIGHLAND", "STATE": "IL", "ZIP": "62249", "ZIP4": "NOT AVAILABLE", "TELEPHONE": "(618) 651-2600", "TYPE": "CRITICAL ACCESS", "STATUS": "OPEN", "POPULATION": -999, "COUNTY": "MADISON", "COUNTYFIPS": "17119", "COUNTRY": "USA", "LATITUDE": 38.754583744999998, "LONGITUDE": -89.667598384000001, "NAICS_CODE": "622110", "NAICS_DESC": "GENERAL MEDICAL AND SURGICAL HOSPITALS", "SOURCE": "https://data.illinois.gov/", "SOURCEDATE": "2018-08-09T00:00:00.000Z", "VAL_METHOD": "IMAGERY/OTHER", "VAL_DATE": "2015-01-17T00:00:00.000Z", "WEBSITE": "NOT AVAILABLE", "STATE_ID": "NOT AVAILABLE", "ALT_NAME": "NOT AVAILABLE", "ST_FIPS": "17", "OWNER": "NON-PROFIT", "TTL_STAFF": -999, "BEDS": -999, "TRAUMA": "NOT AVAILABLE", "HELIPAD": "Y" }, "geometry": { "type": "Polygon", "coordinates": [ [ [ -89.688219, 38.676963 ], [ -89.76824, 38.706647 ], [ -89.7755639, 38.7152442 ], [ -89.804369, 38.762032 ], [ -89.786124, 38.786566 ], [ -89.7836087, 38.788651799999961 ], [ -89.777707, 38.793081 ], [ -89.669185100000021, 38.851274200000063 ], [ -89.667158, 38.851278 ], [ -89.573464, 38.812943 ], [ -89.558022, 38.778742 ], [ -89.5957444, 38.7261053 ], [ -89.601481, 38.721457 ], [ -89.633207, 38.699334 ], [ -89.688219, 38.676963 ] ] ] } },
{ "type": "Feature", "properties": { "OBJECTID": 1889, "ID": "0097262906", "NAME": "ANNA HOSPITAL CORPORATION - DBA UNION COUNTY HOSPITAL", "ADDRESS": "517 NORTH MAIN STREET", "CITY": "ANNA", "STATE": "IL", "ZIP": "62906", "ZIP4": "NOT AVAILABLE", "TELEPHONE": "(618) 833-4511", "TYPE": "CRITICAL ACCESS", "STATUS": "OPEN", "POPULATION": 47, "COUNTY": "UNION", "COUNTYFIPS": "17181", "COUNTRY": "USA", "LATITUDE": 37.465026627999997, "LONGITUDE": -89.2455412, "NAICS_CODE": "622110", "NAICS_DESC": "GENERAL MEDICAL AND SURGICAL HOSPITALS", "SOURCE": "https://data.illinois.gov/", "SOURCEDATE": "2018-08-09T00:00:00.000Z", "VAL_METHOD": "IMAGERY/OTHER", "VAL_DATE": "2015-02-21T00:00:00.000Z", "WEBSITE": "http://www.unioncountyhospital.com", "STATE_ID": "NOT AVAILABLE", "ALT_NAME": "NOT AVAILABLE", "ST_FIPS": "17", "OWNER": "PROPRIETARY", "TTL_STAFF": -999, "BEDS": 47, "TRAUMA": "NOT AVAILABLE", "HELIPAD": "Y" }, "geometry": { "type": "Polygon", "coordinates": [ [ [ -89.160067, 37.382249 ], [ -89.28432, 37.400946 ], [ -89.292435, 37.405736 ], [ -89.334296, 37.453738 ], [ -89.300111, 37.511904 ], [ -89.298514, 37.512925 ], [ -89.254702, 37.5345932 ], [ -89.2233384, 37.540723200000016 ], [ -89.221252, 37.540225 ], [ -89.152858, 37.485031 ], [ -89.13581, 37.446826 ], [ -89.160067, 37.382249 ] ] ] } },
{ "type": "Feature", "properties": { "OBJECTID": 2506, "ID": "0014462837", "NAME": "FAIRFIELD MEMORIAL HOSPITAL", "ADDRESS": "303 N W 11TH STREET", "CITY": "FAIRFIELD", "STATE": "IL", "ZIP": "62837", "ZIP4": "NOT AVAILABLE", "TELEPHONE": "(618) 842-2611", "TYPE": "CRITICAL ACCESS", "STATUS": "OPEN", "POPULATION": 55, "COUNTY": "WAYNE", "COUNTYFIPS": "17191", "COUNTRY": "USA", "LATITUDE": 38.381248192999998, "LONGITUDE": -88.37526611, "NAICS_CODE": "622110", "NAICS_DESC": "GENERAL MEDICAL AND SURGICAL HOSPITALS", "SOURCE": "https://data.illinois.gov/", "SOURCEDATE": "2018-08-09T00:00:00.000Z", "VAL_METHOD": "IMAGERY", "VAL_DATE": "2016-04-25T00:00:00.000Z", "WEBSITE": "http://www.fairfieldmemorial.org", "STATE_ID": "141311", "ALT_NAME": "NOT AVAILABLE", "ST_FIPS": "17", "OWNER": "NON-PROFIT", "TTL_STAFF": -999, "BEDS": 55, "TRAUMA": "NOT AVAILABLE", "HELIPAD": "Y" }, "geometry": { "type": "Polygon", "coordinates": [ [ [ -88.351551, 38.284427 ], [ -88.474367, 38.362906 ], [ -88.4837477, 38.370645499999981 ], [ -88.408569, 38.447162 ], [ -88.349316, 38.44448 ], [ -88.259337, 38.376033 ], [ -88.259363, 38.370166 ], [ -88.351551, 38.284427 ] ] ] } },
{ "type": "Feature", "properties": { "OBJECTID": 6259, "ID": "0003762207", "NAME": "TOUCHETTE REGIONAL HOSPITAL INC", "ADDRESS": "5900 BOND AVENUE", "CITY": "CENTREVILLE", "STATE": "IL", "ZIP": "62207", "ZIP4": "NOT AVAILABLE", "TELEPHONE": "(618) 332-3060", "TYPE": "GENERAL ACUTE CARE", "STATUS": "OPEN", "POPULATION": 119, "COUNTY": "ST. CLAIR", "COUNTYFIPS": "17163", "COUNTRY": "USA", "LATITUDE": 38.5701499850001, "LONGITUDE": -90.108482486999904, "NAICS_CODE": "622110", "NAICS_DESC": "GENERAL MEDICAL AND SURGICAL HOSPITALS", "SOURCE": "https://data.illinois.gov/", "SOURCEDATE": "2018-08-09T00:00:00.000Z", "VAL_METHOD": "IMAGERY", "VAL_DATE": "2014-03-12T00:00:00.000Z", "WEBSITE": "http://www.touchette.org", "STATE_ID": "140077", "ALT_NAME": "NOT AVAILABLE", "ST_FIPS": "17", "OWNER": "NON-PROFIT", "TTL_STAFF": -999, "BEDS": 119, "TRAUMA": "NOT AVAILABLE", "HELIPAD": "Y" }, "geometry": { "type": "Polygon", "coordinates": [ [ [ -90.0947795, 38.484354500000016 ], [ -90.205013099999988, 38.505124599999959 ], [ -90.207131, 38.50612790000001 ], [ -90.210098, 38.511932 ], [ -90.2095601, 38.514384199999945 ], [ -90.196144, 38.569393 ], [ -90.1730054, 38.628597400000025 ], [ -90.1729241, 38.628798 ], [ -90.1726688, 38.6291531 ], [ -90.1491101, 38.636722900000038 ], [ -90.123939, 38.63821 ], [ -90.121315, 38.638187 ], [ -90.034485, 38.625919 ], [ -90.0127245, 38.5938217 ], [ -89.9988776, 38.541521899999935 ], [ -90.0085627, 38.509215800000021 ], [ -90.0089899, 38.509027400000051 ], [ -90.0092166, 38.508929499999944 ], [ -90.091492, 38.484341 ], [ -90.0947795, 38.484354500000016 ] ] ] } },
{ "type": "Feature", "properties": { "OBJECTID": 4297, "ID": "0015862859", "NAME": "HAMILTON MEMORIAL HOSPITAL DISTRICT", "ADDRESS": "611 S MARSHALL AVENUE", "CITY": "MCLEANSBORO", "STATE": "IL", "ZIP": "62859", "ZIP4": "NOT AVAILABLE", "TELEPHONE": "(618) 643-2361", "TYPE": "CRITICAL ACCESS", "STATUS": "OPEN", "POPULATION": 25, "COUNTY": "HAMILTON", "COUNTYFIPS": "17065", "COUNTRY": "USA", "LATITUDE": 38.086851989000003, "LONGITUDE": -88.540504100999996, "NAICS_CODE": "622110", "NAICS_DESC": "GENERAL MEDICAL AND SURGICAL HOSPITALS", "SOURCE": "https://data.illinois.gov/", "SOURCEDATE": "2018-08-09T00:00:00.000Z", "VAL_METHOD": "IMAGERY", "VAL_DATE": "2014-03-12T00:00:00.000Z", "WEBSITE": "http://www.hmhospital.org", "STATE_ID": "141326", "ALT_NAME": "NOT AVAILABLE", "ST_FIPS": "17", "OWNER": "GOVERNMENT - DISTRICT/AUTHORITY", "TTL_STAFF": -999, "BEDS": 25, "TRAUMA": "NOT AVAILABLE", "HELIPAD": "Y" }, "geometry": { "type": "Polygon", "coordinates": [ [ [ -88.507876, 38.009796 ], [ -88.567478, 38.031653 ], [ -88.627127, 38.06342 ], [ -88.658314, 38.081364 ], [ -88.658308, 38.08355 ], [ -88.6123253, 38.154209099999953 ], [ -88.538681, 38.173166 ], [ -88.428196, 38.082408 ], [ -88.501409, 38.009717 ], [ -88.507876, 38.009796 ] ] ] } },
{ "type": "Feature", "properties": { "OBJECTID": 4298, "ID": "0016362832", "NAME": "MARSHALL BROWNING HOSPITAL", "ADDRESS": "900 NORTH WASHINGTON STREET", "CITY": "DU QUOIN", "STATE": "IL", "ZIP": "62832", "ZIP4": "NOT AVAILABLE", "TELEPHONE": "(618) 542-2146", "TYPE": "CRITICAL ACCESS", "STATUS": "OPEN", "POPULATION": 25, "COUNTY": "PERRY", "COUNTYFIPS": "17145", "COUNTRY": "USA", "LATITUDE": 38.025268461000103, "LONGITUDE": -89.236474973, "NAICS_CODE": "622110", "NAICS_DESC": "GENERAL MEDICAL AND SURGICAL HOSPITALS", "SOURCE": "https://data.illinois.gov/", "SOURCEDATE": "2018-08-09T00:00:00.000Z", "VAL_METHOD": "IMAGERY", "VAL_DATE": "2014-03-12T00:00:00.000Z", "WEBSITE": "http://www.mbhdq.com", "STATE_ID": "141331", "ALT_NAME": "NOT AVAILABLE", "ST_FIPS": "17", "OWNER": "NON-PROFIT", "TTL_STAFF": -999, "BEDS": 25, "TRAUMA": "NOT AVAILABLE", "HELIPAD": "Y" }, "geometry": { "type": "Polygon", "coordinates": [ [ [ -89.232481, 37.935402 ], [ -89.236349, 37.935636 ], [ -89.240157, 37.938222 ], [ -89.3345395, 38.002571699999955 ], [ -89.2782872, 38.082393699999983 ], [ -89.242073500000018, 38.112518499999972 ], [ -89.2408585, 38.112533199999966 ], [ -89.205049, 38.0828107 ], [ -89.1779173, 38.053136500000022 ], [ -89.1692068, 38.016355299999972 ], [ -89.1860041, 37.974386100000011 ], [ -89.232481, 37.935402 ] ] ] } },
{ "type": "Feature", "properties": { "OBJECTID": 4299, "ID": "0015662930", "NAME": "FERRELL HOSPITAL COMMUNITY FOUNDATIONS", "ADDRESS": "1201 PINE STREET", "CITY": "ELDORADO", "STATE": "IL", "ZIP": "62930", "ZIP4": "NOT AVAILABLE", "TELEPHONE": "(618) 273-3361", "TYPE": "CRITICAL ACCESS", "STATUS": "OPEN", "POPULATION": 25, "COUNTY": "SALINE", "COUNTYFIPS": "17165", "COUNTRY": "USA", "LATITUDE": 37.815510447000101, "LONGITUDE": -88.442171544000004, "NAICS_CODE": "622110", "NAICS_DESC": "GENERAL MEDICAL AND SURGICAL HOSPITALS", "SOURCE": "https://data.illinois.gov/", "SOURCEDATE": "2018-08-09T00:00:00.000Z", "VAL_METHOD": "IMAGERY", "VAL_DATE": "2014-02-10T00:00:00.000Z", "WEBSITE": "http://www.ferrellhosp.org", "STATE_ID": "141324", "ALT_NAME": "NOT AVAILABLE", "ST_FIPS": "17", "OWNER": "NON-PROFIT", "TTL_STAFF": -999, "BEDS": 25, "TRAUMA": "NOT AVAILABLE", "HELIPAD": "N" }, "geometry": { "type": "Polygon", "coordinates": [ [ [ -88.5284658, 37.742122799999983 ], [ -88.5521006, 37.828338 ], [ -88.548808, 37.834614 ], [ -88.453079, 37.907133 ], [ -88.3904455, 37.881213 ], [ -88.374356, 37.856542 ], [ -88.369385, 37.819643 ], [ -88.360256, 37.748157 ], [ -88.5284658, 37.742122799999983 ] ] ] } },
{ "type": "Feature", "properties": { "OBJECTID": 4302, "ID": "0018162286", "NAME": "SPARTA COMMUNITY HOSPITAL", "ADDRESS": "818 E BROADWAY", "CITY": "SPARTA", "STATE": "IL", "ZIP": "62286", "ZIP4": "NOT AVAILABLE", "TELEPHONE": "(618) 443-2177", "TYPE": "CRITICAL ACCESS", "STATUS": "OPEN", "POPULATION": 25, "COUNTY": "RANDOLPH", "COUNTYFIPS": "17157", "COUNTRY": "USA", "LATITUDE": 38.124114993, "LONGITUDE": -89.691538529999903, "NAICS_CODE": "622110", "NAICS_DESC": "GENERAL MEDICAL AND SURGICAL HOSPITALS", "SOURCE": "https://data.illinois.gov/", "SOURCEDATE": "2018-08-09T00:00:00.000Z", "VAL_METHOD": "IMAGERY", "VAL_DATE": "2014-01-21T00:00:00.000Z", "WEBSITE": "http://www.spartahospital.com", "STATE_ID": "141349", "ALT_NAME": "NOT AVAILABLE", "ST_FIPS": "17", "OWNER": "GOVERNMENT - DISTRICT/AUTHORITY", "TTL_STAFF": -999, "BEDS": 25, "TRAUMA": "NOT AVAILABLE", "HELIPAD": "N" }, "geometry": { "type": "Polygon", "coordinates": [ [ [ -89.705832, 38.04442 ], [ -89.708137, 38.044573 ], [ -89.74161, 38.055815 ], [ -89.778385, 38.105887 ], [ -89.782981, 38.124736 ], [ -89.790589, 38.168893 ], [ -89.703268, 38.215866 ], [ -89.604815, 38.187126 ], [ -89.603803, 38.186318 ], [ -89.602749, 38.184666 ], [ -89.60237, 38.18311 ], [ -89.602186, 38.182279 ], [ -89.592847, 38.087699 ], [ -89.592864, 38.086151 ], [ -89.6999399, 38.044521200000041 ], [ -89.705832, 38.04442 ] ] ] } },
{ "type": "Feature", "properties": { "OBJECTID": 4318, "ID": "0015362812", "NAME": "FRANKLIN HOSPITAL", "ADDRESS": "201 BAILEY LANE", "CITY": "BENTON", "STATE": "IL", "ZIP": "62812", "ZIP4": "NOT AVAILABLE", "TELEPHONE": "(618) 439-3761", "TYPE": "CRITICAL ACCESS", "STATUS": "OPEN", "POPULATION": 25, "COUNTY": "FRANKLIN", "COUNTYFIPS": "17055", "COUNTRY": "USA", "LATITUDE": 38.010103782000002, "LONGITUDE": -88.918215190999902, "NAICS_CODE": "622110", "NAICS_DESC": "GENERAL MEDICAL AND SURGICAL HOSPITALS", "SOURCE": "https://data.illinois.gov/", "SOURCEDATE": "2018-08-09T00:00:00.000Z", "VAL_METHOD": "IMAGERY", "VAL_DATE": "2014-03-12T00:00:00.000Z", "WEBSITE": "http://www.franklinhospital.net", "STATE_ID": "141321", "ALT_NAME": "NOT AVAILABLE", "ST_FIPS": "17", "OWNER": "GOVERNMENT - DISTRICT/AUTHORITY", "TTL_STAFF": -999, "BEDS": 25, "TRAUMA": "NOT AVAILABLE", "HELIPAD": "Y" }, "geometry": { "type": "Polygon", "coordinates": [ [ [ -88.94298901610729, 37.895823012718097 ], [ -88.956074912226484, 37.896731809641864 ], [ -88.9591774113089, 37.89701940891463 ], [ -89.025655999982149, 37.980427999997758 ], [ -88.952342966843389, 38.058857038053297 ], [ -88.932932459362362, 38.07840265271232 ], [ -88.924160957025165, 38.08615775886382 ], [ -88.911281956686594, 38.08923906110418 ], [ -88.907617456869545, 38.089261361018131 ], [ -88.901492, 38.089298 ], [ -88.898655, 38.089285 ], [ -88.889463, 38.089054 ], [ -88.816366, 38.048412 ], [ -88.816417, 38.037466 ], [ -88.835406, 37.968873 ], [ -88.840197, 37.960427 ], [ -88.937635017267965, 37.897050013611455 ], [ -88.941953016378903, 37.895902012931131 ], [ -88.94298901610729, 37.895823012718097 ] ] ] } },
{ "type": "Feature", "properties": { "OBJECTID": 4319, "ID": "0018362839", "NAME": "CLAY COUNTY HOSPITAL", "ADDRESS": "911 STACY BURK DRIVE", "CITY": "FLORA", "STATE": "IL", "ZIP": "62839", "ZIP4": "NOT AVAILABLE", "TELEPHONE": "(618) 662-2131", "TYPE": "CRITICAL ACCESS", "STATUS": "OPEN", "POPULATION": 18, "COUNTY": "CLAY", "COUNTYFIPS": "17025", "COUNTRY": "USA", "LATITUDE": 38.680850808000102, "LONGITUDE": -88.47281706, "NAICS_CODE": "622110", "NAICS_DESC": "GENERAL MEDICAL AND SURGICAL HOSPITALS", "SOURCE": "https://data.illinois.gov/", "SOURCEDATE": "2018-08-09T00:00:00.000Z", "VAL_METHOD": "IMAGERY", "VAL_DATE": "2014-03-12T00:00:00.000Z", "WEBSITE": "http://www.claycountyhospital.org", "STATE_ID": "141351", "ALT_NAME": "NOT AVAILABLE", "ST_FIPS": "17", "OWNER": "GOVERNMENT - LOCAL", "TTL_STAFF": -999, "BEDS": 18, "TRAUMA": "NOT AVAILABLE", "HELIPAD": "Y" }, "geometry": { "type": "Polygon", "coordinates": [ [ [ -88.489069, 38.612205 ], [ -88.60257, 38.6506 ], [ -88.583623, 38.680264 ], [ -88.580735, 38.682994 ], [ -88.563779, 38.698521 ], [ -88.535008, 38.723557 ], [ -88.5079648, 38.7450522 ], [ -88.470396, 38.73757 ], [ -88.33166, 38.689152899999975 ], [ -88.33166, 38.687369199999949 ], [ -88.42875, 38.610364 ], [ -88.447722, 38.610578 ], [ -88.489069, 38.612205 ] ] ] } },
{ "type": "Feature", "properties": { "OBJECTID": 4320, "ID": "0017662439", "NAME": "LAWRENCE COUNTY MEMORIAL HOSPITAL", "ADDRESS": "2200 W STATE ST", "CITY": "LAWRENCEVILLE", "STATE": "IL", "ZIP": "62439", "ZIP4": "NOT AVAILABLE", "TELEPHONE": "(618) 943-1000", "TYPE": "CRITICAL ACCESS", "STATUS": "OPEN", "POPULATION": 25, "COUNTY": "LAWRENCE", "COUNTYFIPS": "17101", "COUNTRY": "USA", "LATITUDE": 38.728615177999998, "LONGITUDE": -87.693873249000006, "NAICS_CODE": "622110", "NAICS_DESC": "GENERAL MEDICAL AND SURGICAL HOSPITALS", "SOURCE": "https://data.illinois.gov/", "SOURCEDATE": "2018-08-09T00:00:00.000Z", "VAL_METHOD": "IMAGERY", "VAL_DATE": "2014-03-12T00:00:00.000Z", "WEBSITE": "http://www.lcmhosp.org", "STATE_ID": "141344", "ALT_NAME": "NOT AVAILABLE", "ST_FIPS": "17", "OWNER": "NON-PROFIT", "TTL_STAFF": -999, "BEDS": 25, "TRAUMA": "NOT AVAILABLE", "HELIPAD": "Y" }, "geometry": { "type": "Polygon", "coordinates": [ [ [ -87.694298, 38.64357 ], [ -87.847695, 38.731463 ], [ -87.684557, 38.822282 ], [ -87.5545568, 38.713537700000025 ], [ -87.5538211, 38.712723899999943 ], [ -87.5550275, 38.698545800000041 ], [ -87.694298, 38.64357 ] ] ] } },
{ "type": "Feature", "properties": { "OBJECTID": 4321, "ID": "0017962626", "NAME": "CARLINVILLE AREA HOSPITAL", "ADDRESS": "20733 N BROAD STREET", "CITY": "CARLINVILLE", "STATE": "IL", "ZIP": "62626", "ZIP4": "NOT AVAILABLE", "TELEPHONE": "(217) 854-3141", "TYPE": "CRITICAL ACCESS", "STATUS": "OPEN", "POPULATION": 25, "COUNTY": "MACOUPIN", "COUNTYFIPS": "17117", "COUNTRY": "USA", "LATITUDE": 39.299409837, "LONGITUDE": -89.883075664000003, "NAICS_CODE": "622110", "NAICS_DESC": "GENERAL MEDICAL AND SURGICAL HOSPITALS", "SOURCE": "https://data.illinois.gov/", "SOURCEDATE": "2018-08-09T00:00:00.000Z", "VAL_METHOD": "IMAGERY", "VAL_DATE": "2014-03-12T00:00:00.000Z", "WEBSITE": "http://www.cahcare.com", "STATE_ID": "141347", "ALT_NAME": "NOT AVAILABLE", "ST_FIPS": "17", "OWNER": "NON-PROFIT", "TTL_STAFF": -999, "BEDS": 25, "TRAUMA": "NOT AVAILABLE", "HELIPAD": "Y" }, "geometry": { "type": "Polygon", "coordinates": [ [ [ -89.862895, 39.227602 ], [ -89.929252, 39.237533 ], [ -89.931257, 39.238389 ], [ -89.932948, 39.239537 ], [ -89.948476, 39.259255 ], [ -89.970806, 39.289086 ], [ -89.942979, 39.324777 ], [ -89.9158346, 39.3475356 ], [ -89.868147, 39.383686 ], [ -89.858934, 39.376843 ], [ -89.816463, 39.337139 ], [ -89.788372, 39.278755 ], [ -89.805374, 39.243893 ], [ -89.813336, 39.233552 ], [ -89.862895, 39.227602 ] ] ] } },
{ "type": "Feature", "properties": { "OBJECTID": 4419, "ID": "0098062471", "NAME": "FAYETTE COUNTY HOSPITAL", "ADDRESS": "650 W. TAYLOR STREET", "CITY": "VANDALIA", "STATE": "IL", "ZIP": "62471", "ZIP4": "NOT AVAILABLE", "TELEPHONE": "(618) 283-1231", "TYPE": "CRITICAL ACCESS", "STATUS": "OPEN", "POPULATION": 110, "COUNTY": "FAYETTE", "COUNTYFIPS": "17051", "COUNTRY": "USA", "LATITUDE": 38.969851264000098, "LONGITUDE": -89.098628481999995, "NAICS_CODE": "622110", "NAICS_DESC": "GENERAL MEDICAL AND SURGICAL HOSPITALS", "SOURCE": "https://data.illinois.gov/", "SOURCEDATE": "2018-08-09T00:00:00.000Z", "VAL_METHOD": "IMAGERY/OTHER", "VAL_DATE": "2016-04-26T00:00:00.000Z", "WEBSITE": "http://www.fayettecountyhospital.org", "STATE_ID": "NOT AVAILABLE", "ALT_NAME": "NOT AVAILABLE", "ST_FIPS": "17", "OWNER": "GOVERNMENT - LOCAL", "TTL_STAFF": -999, "BEDS": 110, "TRAUMA": "NOT AVAILABLE", "HELIPAD": "Y" }, "geometry": { "type": "Polygon", "coordinates": [ [ [ -89.088352552689742, 38.885534623146533 ], [ -89.19529, 38.928913 ], [ -89.1940777, 38.987108800000016 ], [ -89.1851143, 39.013594299999951 ], [ -89.08847384836524, 39.060289962801953 ], [ -89.080551850017287, 39.058289950996517 ], [ -88.929348939217576, 38.990831211114511 ], [ -88.974540132754996, 38.95574167234048 ], [ -89.085848550404023, 38.885455620932838 ], [ -89.088352552689742, 38.885534623146533 ] ] ] } },
{ "type": "Feature", "properties": { "OBJECTID": 4423, "ID": "0100962263", "NAME": "WASHINGTON COUNTY HOSPITAL", "ADDRESS": "705 SOUTH GRAND AVENUE", "CITY": "NASHVILLE", "STATE": "IL", "ZIP": "62263", "ZIP4": "NOT AVAILABLE", "TELEPHONE": "(618) 327-8236", "TYPE": "CRITICAL ACCESS", "STATUS": "OPEN", "POPULATION": -999, "COUNTY": "WASHINGTON", "COUNTYFIPS": "17189", "COUNTRY": "USA", "LATITUDE": 38.338942501000098, "LONGITUDE": -89.391279284999897, "NAICS_CODE": "622110", "NAICS_DESC": "GENERAL MEDICAL AND SURGICAL HOSPITALS", "SOURCE": "https://data.illinois.gov/", "SOURCEDATE": "2018-08-09T00:00:00.000Z", "VAL_METHOD": "IMAGERY/OTHER", "VAL_DATE": "2015-01-17T00:00:00.000Z", "WEBSITE": "NOT AVAILABLE", "STATE_ID": "NOT AVAILABLE", "ALT_NAME": "NOT AVAILABLE", "ST_FIPS": "17", "OWNER": "GOVERNMENT - LOCAL", "TTL_STAFF": -999, "BEDS": -999, "TRAUMA": "NOT AVAILABLE", "HELIPAD": "Y" }, "geometry": { "type": "Polygon", "coordinates": [ [ [ -89.3802102, 38.251091200000012 ], [ -89.4166398, 38.276773100000014 ], [ -89.455183, 38.312305 ], [ -89.4950524, 38.362428500000028 ], [ -89.3706862, 38.427110400000011 ], [ -89.2897178, 38.3518273 ], [ -89.285167, 38.3470202 ], [ -89.3802102, 38.251091200000012 ] ] ] } },
{ "type": "Feature", "properties": { "OBJECTID": 4535, "ID": "0006362040", "NAME": "GATEWAY REGIONAL MEDICAL CENTER", "ADDRESS": "2100 MADISON AVENUE", "CITY": "GRANITE CITY", "STATE": "IL", "ZIP": "62040", "ZIP4": "NOT AVAILABLE", "TELEPHONE": "(618) 798-3000", "TYPE": "GENERAL ACUTE CARE", "STATUS": "OPEN", "POPULATION": 337, "COUNTY": "MADISON", "COUNTYFIPS": "17119", "COUNTRY": "USA", "LATITUDE": 38.700660317000001, "LONGITUDE": -90.143674970999896, "NAICS_CODE": "622110", "NAICS_DESC": "GENERAL MEDICAL AND SURGICAL HOSPITALS", "SOURCE": "https://data.illinois.gov/", "SOURCEDATE": "2018-08-09T00:00:00.000Z", "VAL_METHOD": "IMAGERY", "VAL_DATE": "2016-04-25T00:00:00.000Z", "WEBSITE": "http://www.gatewayregional.net", "STATE_ID": "140125", "ALT_NAME": "NOT AVAILABLE", "ST_FIPS": "17", "OWNER": "PROPRIETARY", "TTL_STAFF": -999, "BEDS": 337, "TRAUMA": "NOT AVAILABLE", "HELIPAD": "Y" }, "geometry": { "type": "Polygon", "coordinates": [ [ [ -90.1660912, 38.621248299999969 ], [ -90.1759042, 38.628601300000014 ], [ -90.1903887, 38.66389 ], [ -90.185124, 38.692599 ], [ -90.180153100000013, 38.702690200000028 ], [ -90.1428028, 38.761618700000035 ], [ -90.114467, 38.776823 ], [ -90.089707, 38.778231 ], [ -90.088318, 38.778111 ], [ -90.042767, 38.75683 ], [ -90.0399233, 38.693660600000015 ], [ -90.134163, 38.624145 ], [ -90.1581067, 38.621947 ], [ -90.1660912, 38.621248299999969 ] ] ] } },
{ "type": "Feature", "properties": { "OBJECTID": 4536, "ID": "0016862249", "NAME": "ST JOSEPH'S HOSPITAL", "ADDRESS": "1515 MAIN STREET", "CITY": "HIGHLAND", "STATE": "IL", "ZIP": "62249", "ZIP4": "NOT AVAILABLE", "TELEPHONE": "(618) 654-7421", "TYPE": "CRITICAL ACCESS", "STATUS": "CLOSED", "POPULATION": 25, "COUNTY": "MADISON", "COUNTYFIPS": "17119", "COUNTRY": "USA", "LATITUDE": 38.741203243000001, "LONGITUDE": -89.672044713000005, "NAICS_CODE": "622110", "NAICS_DESC": "GENERAL MEDICAL AND SURGICAL HOSPITALS", "SOURCE": "https://data.illinois.gov/", "SOURCEDATE": "2012-07-27T00:00:00.000Z", "VAL_METHOD": "IMAGERY", "VAL_DATE": "2014-02-10T00:00:00.000Z", "WEBSITE": "http://www.stjosephshighland.com", "STATE_ID": "141336", "ALT_NAME": "NOT AVAILABLE", "ST_FIPS": "17", "OWNER": "NON-PROFIT", "TTL_STAFF": -999, "BEDS": 25, "TRAUMA": "NOT AVAILABLE", "HELIPAD": "N" }, "geometry": { "type": "Polygon", "coordinates": [ [ [ -89.687694, 38.662433 ], [ -89.76824, 38.706647 ], [ -89.7755639, 38.7152442 ], [ -89.7755886, 38.7165513 ], [ -89.775603599999982, 38.717346199999966 ], [ -89.7637426, 38.782194499999967 ], [ -89.760011, 38.785229 ], [ -89.669075, 38.840948 ], [ -89.598713, 38.808103 ], [ -89.576615, 38.77925 ], [ -89.576615, 38.779061 ], [ -89.600568, 38.706999 ], [ -89.60546, 38.699631 ], [ -89.6326967, 38.682614 ], [ -89.687694, 38.662433 ] ] ] } },
{ "type": "Feature", "properties": { "OBJECTID": 463, "ID": "0013062864", "NAME": "CROSSROADS COMMUNITY HOSPITAL", "ADDRESS": "8 DOCTORS PARK ROAD", "CITY": "MOUNT VERNON", "STATE": "IL", "ZIP": "62864", "ZIP4": "NOT AVAILABLE", "TELEPHONE": "(618) 244-5500", "TYPE": "GENERAL ACUTE CARE", "STATUS": "OPEN", "POPULATION": 41, "COUNTY": "JEFFERSON", "COUNTYFIPS": "17081", "COUNTRY": "USA", "LATITUDE": 38.311645161000101, "LONGITUDE": -88.93688084, "NAICS_CODE": "622110", "NAICS_DESC": "GENERAL MEDICAL AND SURGICAL HOSPITALS", "SOURCE": "https://data.illinois.gov/", "SOURCEDATE": "2018-08-09T00:00:00.000Z", "VAL_METHOD": "IMAGERY", "VAL_DATE": "2014-03-12T00:00:00.000Z", "WEBSITE": "http://www.crossroadscommunityhospital.com", "STATE_ID": "140294", "ALT_NAME": "NOT AVAILABLE", "ST_FIPS": "17", "OWNER": "PROPRIETARY", "TTL_STAFF": -999, "BEDS": 41, "TRAUMA": "NOT AVAILABLE", "HELIPAD": "Y" }, "geometry": { "type": "Polygon", "coordinates": [ [ [ -88.901760217518571, 38.239840294429619 ], [ -88.954599491313033, 38.243099884462509 ], [ -89.039615407498388, 38.301256308538207 ], [ -89.041266813743178, 38.314497996642999 ], [ -89.042652631937926, 38.357921260749478 ], [ -89.042587533319775, 38.361480157957601 ], [ -89.03449453472453, 38.378240451823686 ], [ -88.950106544394373, 38.440050845089218 ], [ -88.949634944461792, 38.439956945239196 ], [ -88.8261601, 38.339506099999987 ], [ -88.8215544, 38.326769300000016 ], [ -88.8215517, 38.326129700000031 ], [ -88.846153700000016, 38.2696271 ], [ -88.901760217518571, 38.239840294429619 ] ] ] } },
{ "type": "Feature", "properties": { "OBJECTID": 540, "ID": "0001562401", "NAME": "ST ANTHONYS MEMORIAL HOSPITAL", "ADDRESS": "503 N MAPLE STREET", "CITY": "EFFINGHAM", "STATE": "IL", "ZIP": "62401", "ZIP4": "NOT AVAILABLE", "TELEPHONE": "(217) 342-2121", "TYPE": "GENERAL ACUTE CARE", "STATUS": "OPEN", "POPULATION": 146, "COUNTY": "EFFINGHAM", "COUNTYFIPS": "17049", "COUNTRY": "USA", "LATITUDE": 39.125776017000099, "LONGITUDE": -88.550125218999895, "NAICS_CODE": "622110", "NAICS_DESC": "GENERAL MEDICAL AND SURGICAL HOSPITALS", "SOURCE": "https://data.illinois.gov/", "SOURCEDATE": "2018-08-09T00:00:00.000Z", "VAL_METHOD": "IMAGERY", "VAL_DATE": "2014-03-12T00:00:00.000Z", "WEBSITE": "http://www.stanthonyshospital.org", "STATE_ID": "140032", "ALT_NAME": "NOT AVAILABLE", "ST_FIPS": "17", "OWNER": "NON-PROFIT", "TTL_STAFF": -999, "BEDS": 146, "TRAUMA": "NOT AVAILABLE", "HELIPAD": "Y" }, "geometry": { "type": "Polygon", "coordinates": [ [ [ -88.543797900000015, 39.0320821 ], [ -88.6736837, 39.06641620000002 ], [ -88.651608, 39.172339 ], [ -88.649383, 39.177522 ], [ -88.6187778, 39.187407100000016 ], [ -88.508253, 39.207865 ], [ -88.503664, 39.207839 ], [ -88.444765, 39.1476 ], [ -88.444581, 39.138993 ], [ -88.444614, 39.1331 ], [ -88.451708, 39.096606 ], [ -88.543797900000015, 39.0320821 ] ] ] } },
{ "type": "Feature", "properties": { "OBJECTID": 626, "ID": "0018262056", "NAME": "ST FRANCIS HOSPITAL", "ADDRESS": "1215 FRANCISCAN DR", "CITY": "LITCHFIELD", "STATE": "IL", "ZIP": "62056", "ZIP4": "NOT AVAILABLE", "TELEPHONE": "(217) 324-2191", "TYPE": "CRITICAL ACCESS", "STATUS": "OPEN", "POPULATION": 25, "COUNTY": "MONTGOMERY", "COUNTYFIPS": "17135", "COUNTRY": "USA", "LATITUDE": 39.181213555000099, "LONGITUDE": -89.639055748000004, "NAICS_CODE": "622110", "NAICS_DESC": "GENERAL MEDICAL AND SURGICAL HOSPITALS", "SOURCE": "https://data.illinois.gov/", "SOURCEDATE": "2018-08-09T00:00:00.000Z", "VAL_METHOD": "IMAGERY", "VAL_DATE": "2014-03-12T00:00:00.000Z", "WEBSITE": "http://www.stfrancis-litchfield.org", "STATE_ID": "141350", "ALT_NAME": "NOT AVAILABLE", "ST_FIPS": "17", "OWNER": "NON-PROFIT", "TTL_STAFF": -999, "BEDS": 25, "TRAUMA": "NOT AVAILABLE", "HELIPAD": "Y" }, "geometry": { "type": "Polygon", "coordinates": [ [ [ -89.642286, 39.116629 ], [ -89.699642, 39.124696 ], [ -89.74775, 39.169785 ], [ -89.747763, 39.175285 ], [ -89.660874, 39.241855 ], [ -89.641861, 39.248725 ], [ -89.640901, 39.248634 ], [ -89.524712, 39.173381 ], [ -89.543087, 39.15885 ], [ -89.642286, 39.116629 ] ] ] } },
{ "type": "Feature", "properties": { "OBJECTID": 632, "ID": "0015562960", "NAME": "MASSAC MEMORIAL HOSPITAL", "ADDRESS": "28 CHICK STREET, PO BOX 850", "CITY": "METROPOLIS", "STATE": "IL", "ZIP": "62960", "ZIP4": "NOT AVAILABLE", "TELEPHONE": "(618) 524-2176", "TYPE": "CRITICAL ACCESS", "STATUS": "OPEN", "POPULATION": 25, "COUNTY": "MASSAC", "COUNTYFIPS": "17127", "COUNTRY": "USA", "LATITUDE": 37.166374757, "LONGITUDE": -88.740048665000003, "NAICS_CODE": "622110", "NAICS_DESC": "GENERAL MEDICAL AND SURGICAL HOSPITALS", "SOURCE": "https://data.illinois.gov/", "SOURCEDATE": "2018-08-09T00:00:00.000Z", "VAL_METHOD": "IMAGERY", "VAL_DATE": "2016-04-25T00:00:00.000Z", "WEBSITE": "http://www.massachealth.org", "STATE_ID": "141323", "ALT_NAME": "NOT AVAILABLE", "ST_FIPS": "17", "OWNER": "GOVERNMENT - DISTRICT/AUTHORITY", "TTL_STAFF": -999, "BEDS": 25, "TRAUMA": "NOT AVAILABLE", "HELIPAD": "N" }, "geometry": { "type": "Polygon", "coordinates": [ [ [ -88.719116, 37.1419 ], [ -88.7206323, 37.142027299999974 ], [ -88.725644, 37.143328 ], [ -88.730877, 37.144831 ], [ -88.7368338, 37.147479 ], [ -88.7409349, 37.149339599999934 ], [ -88.838747, 37.198662 ], [ -88.846311, 37.203545 ], [ -88.845933, 37.206186 ], [ -88.844385, 37.213721 ], [ -88.829974, 37.230772 ], [ -88.819254, 37.242738 ], [ -88.746597, 37.23078 ], [ -88.7344059, 37.227945200000022 ], [ -88.676437, 37.201976 ], [ -88.639711, 37.16687 ], [ -88.630892, 37.154321 ], [ -88.630635, 37.150324 ], [ -88.657969, 37.146142 ], [ -88.719116, 37.1419 ] ] ] } },
{ "type": "Feature", "properties": { "OBJECTID": 757, "ID": "0096962002", "NAME": "SAINT CLARE'S HOSPITAL", "ADDRESS": "915 EAST 5TH STREET", "CITY": "ALTON", "STATE": "IL", "ZIP": "62002", "ZIP4": "NOT AVAILABLE", "TELEPHONE": "(618) 463-5150", "TYPE": "GENERAL ACUTE CARE", "STATUS": "OPEN", "POPULATION": -999, "COUNTY": "MADISON", "COUNTYFIPS": "17119", "COUNTRY": "USA", "LATITUDE": 38.890804962000097, "LONGITUDE": -90.170929283999996, "NAICS_CODE": "622110", "NAICS_DESC": "GENERAL MEDICAL AND SURGICAL HOSPITALS", "SOURCE": "https://data.illinois.gov/", "SOURCEDATE": "2018-08-09T00:00:00.000Z", "VAL_METHOD": "IMAGERY/OTHER", "VAL_DATE": "2015-02-21T00:00:00.000Z", "WEBSITE": "NOT AVAILABLE", "STATE_ID": "NOT AVAILABLE", "ALT_NAME": "NOT AVAILABLE", "ST_FIPS": "17", "OWNER": "NOT AVAILABLE", "TTL_STAFF": -999, "BEDS": -999, "TRAUMA": "NOT AVAILABLE", "HELIPAD": "N" }, "geometry": { "type": "Polygon", "coordinates": [ [ [ -90.098436, 38.82663 ], [ -90.0994948, 38.827047899999982 ], [ -90.275695, 38.935118 ], [ -90.273962, 38.936236 ], [ -90.195256, 38.975784699999956 ], [ -90.180764, 38.973401 ], [ -90.140275, 38.961263 ], [ -90.0789602, 38.923779299999978 ], [ -90.054975, 38.900697 ], [ -90.061355500000019, 38.869754199999974 ], [ -90.066105, 38.859604 ], [ -90.091224, 38.829198 ], [ -90.092967, 38.827907 ], [ -90.095912, 38.826642 ], [ -90.098436, 38.82663 ] ] ] } },
{ "type": "Feature", "properties": { "OBJECTID": 772, "ID": "0101262864", "NAME": "GOOD SAMARITAN REGIONAL HEALTH CENTER", "ADDRESS": "1 GOOD SAMARITAN WAY", "CITY": "MT. VERNON", "STATE": "IL", "ZIP": "62864", "ZIP4": "NOT AVAILABLE", "TELEPHONE": "(618) 242-4600", "TYPE": "GENERAL ACUTE CARE", "STATUS": "OPEN", "POPULATION": -999, "COUNTY": "JEFFERSON", "COUNTYFIPS": "17081", "COUNTRY": "USA", "LATITUDE": 38.297417698000103, "LONGITUDE": -88.938580384999995, "NAICS_CODE": "622110", "NAICS_DESC": "GENERAL MEDICAL AND SURGICAL HOSPITALS", "SOURCE": "https://data.illinois.gov/", "SOURCEDATE": "2018-08-09T00:00:00.000Z", "VAL_METHOD": "IMAGERY/OTHER", "VAL_DATE": "2015-01-17T00:00:00.000Z", "WEBSITE": "NOT AVAILABLE", "STATE_ID": "NOT AVAILABLE", "ALT_NAME": "NOT AVAILABLE", "ST_FIPS": "17", "OWNER": "NOT AVAILABLE", "TTL_STAFF": -999, "BEDS": -999, "TRAUMA": "NOT AVAILABLE", "HELIPAD": "Y" }, "geometry": { "type": "Polygon", "coordinates": [ [ [ -88.967659791468918, 38.228725370208089 ], [ -89.039601309858313, 38.307218603800308 ], [ -89.034617132483092, 38.372327556384519 ], [ -88.921470732960415, 38.367822806286206 ], [ -88.8472366, 38.3327938 ], [ -88.8323812, 38.268576299999985 ], [ -88.897978619281503, 38.239906695387418 ], [ -88.948865399778583, 38.22860977421103 ], [ -88.958909495348223, 38.228650272056001 ], [ -88.967659791468918, 38.228725370208089 ] ] ] } },
{ "type": "Feature", "properties": { "OBJECTID": 7162, "ID": "0013562016", "NAME": "THOMAS H BOYD MEMORIAL HOSPITAL", "ADDRESS": "800 SCHOOL ST", "CITY": "CARROLLTON", "STATE": "IL", "ZIP": "62016", "ZIP4": "NOT AVAILABLE", "TELEPHONE": "(217) 942-6946", "TYPE": "CRITICAL ACCESS", "STATUS": "OPEN", "POPULATION": 286, "COUNTY": "GREENE", "COUNTYFIPS": "17061", "COUNTRY": "USA", "LATITUDE": 39.296802593000102, "LONGITUDE": -90.412764007999996, "NAICS_CODE": "622110", "NAICS_DESC": "GENERAL MEDICAL AND SURGICAL HOSPITALS", "SOURCE": "https://data.illinois.gov/", "SOURCEDATE": "2018-08-09T00:00:00.000Z", "VAL_METHOD": "IMAGERY", "VAL_DATE": "2014-03-12T00:00:00.000Z", "WEBSITE": "www.boydhcs.org/", "STATE_ID": "141300", "ALT_NAME": "NOT AVAILABLE", "ST_FIPS": "17", "OWNER": "NON-PROFIT", "TTL_STAFF": -999, "BEDS": 286, "TRAUMA": "NOT AVAILABLE", "HELIPAD": "Y" }, "geometry": { "type": "Polygon", "coordinates": [ [ [ -90.38438, 39.210918 ], [ -90.526629, 39.293043 ], [ -90.408859, 39.389791 ], [ -90.29698, 39.307806 ], [ -90.297053, 39.305135 ], [ -90.38438, 39.210918 ] ] ] } },
{ "type": "Feature", "properties": { "OBJECTID": 7163, "ID": "0009162959", "NAME": "HEARTLAND REGIONAL MEDICAL CENTER", "ADDRESS": "3333 W DE YOUNG", "CITY": "MARION", "STATE": "IL", "ZIP": "62959", "ZIP4": "NOT AVAILABLE", "TELEPHONE": "(618) 998-7000", "TYPE": "GENERAL ACUTE CARE", "STATUS": "OPEN", "POPULATION": 92, "COUNTY": "WILLIAMSON", "COUNTYFIPS": "17199", "COUNTRY": "USA", "LATITUDE": 37.742843168999997, "LONGITUDE": -88.991335578999994, "NAICS_CODE": "622110", "NAICS_DESC": "GENERAL MEDICAL AND SURGICAL HOSPITALS", "SOURCE": "https://data.illinois.gov/", "SOURCEDATE": "2018-08-09T00:00:00.000Z", "VAL_METHOD": "IMAGERY", "VAL_DATE": "2014-03-12T00:00:00.000Z", "WEBSITE": "http://www.heartlandregional.com", "STATE_ID": "140184", "ALT_NAME": "NOT AVAILABLE", "ST_FIPS": "17", "OWNER": "PROPRIETARY", "TTL_STAFF": -999, "BEDS": 92, "TRAUMA": "NOT AVAILABLE", "HELIPAD": "Y" }, "geometry": { "type": "Polygon", "coordinates": [ [ [ -88.987913602033558, 37.621423703913585 ], [ -89.1468873, 37.742802699999956 ], [ -89.14984, 37.745691 ], [ -89.149798, 37.746178 ], [ -89.027718999828409, 37.825878999978556 ], [ -88.941923034535833, 37.82796902845606 ], [ -88.931355040779451, 37.828098033599261 ], [ -88.929982041885282, 37.827197034519486 ], [ -88.919993, 37.817515 ], [ -88.8552649, 37.729796 ], [ -88.85511, 37.721443 ], [ -88.987913602033558, 37.621423703913585 ] ] ] } },
{ "type": "Feature", "properties": { "OBJECTID": 7174, "ID": "0003062052", "NAME": "JERSEY COMMUNITY HOSPITAL", "ADDRESS": "400 MAPLE SUMMIT ROAD", "CITY": "JERSEYVILLE", "STATE": "IL", "ZIP": "62052", "ZIP4": "NOT AVAILABLE", "TELEPHONE": "(618) 498-6402", "TYPE": "GENERAL ACUTE CARE", "STATUS": "OPEN", "POPULATION": 49, "COUNTY": "JERSEY", "COUNTYFIPS": "17083", "COUNTRY": "USA", "LATITUDE": 39.11054067, "LONGITUDE": -90.342887161999997, "NAICS_CODE": "622110", "NAICS_DESC": "GENERAL MEDICAL AND SURGICAL HOSPITALS", "SOURCE": "https://data.illinois.gov/", "SOURCEDATE": "2018-08-09T00:00:00.000Z", "VAL_METHOD": "IMAGERY", "VAL_DATE": "2014-03-12T00:00:00.000Z", "WEBSITE": "http://www.jch.org", "STATE_ID": "140059", "ALT_NAME": "NOT AVAILABLE", "ST_FIPS": "17", "OWNER": "GOVERNMENT - DISTRICT/AUTHORITY", "TTL_STAFF": -999, "BEDS": 49, "TRAUMA": "NOT AVAILABLE", "HELIPAD": "Y" }, "geometry": { "type": "Polygon", "coordinates": [ [ [ -90.3241984, 39.0286834 ], [ -90.394346, 39.071632 ], [ -90.4598474, 39.112775300000038 ], [ -90.363429, 39.174424 ], [ -90.295025200000012, 39.15950710000002 ], [ -90.2841652, 39.152228199999968 ], [ -90.239399, 39.116167 ], [ -90.2692214, 39.055392600000012 ], [ -90.3241984, 39.0286834 ] ] ] } },
{ "type": "Feature", "properties": { "OBJECTID": 7217, "ID": "0009262226", "NAME": "MEMORIAL HOSPITAL", "ADDRESS": "4500 MEMORIAL DRIVE", "CITY": "BELLEVILLE", "STATE": "IL", "ZIP": "62226", "ZIP4": "NOT AVAILABLE", "TELEPHONE": "(618) 233-7750", "TYPE": "GENERAL ACUTE CARE", "STATUS": "OPEN", "POPULATION": 345, "COUNTY": "ST. CLAIR", "COUNTYFIPS": "17163", "COUNTRY": "USA", "LATITUDE": 38.549818487000003, "LONGITUDE": -90.021616557000002, "NAICS_CODE": "622110", "NAICS_DESC": "GENERAL MEDICAL AND SURGICAL HOSPITALS", "SOURCE": "https://data.illinois.gov/", "SOURCEDATE": "2018-08-09T00:00:00.000Z", "VAL_METHOD": "IMAGERY", "VAL_DATE": "2014-03-12T00:00:00.000Z", "WEBSITE": "http://www.memhosp.com", "STATE_ID": "140185", "ALT_NAME": "NOT AVAILABLE", "ST_FIPS": "17", "OWNER": "NON-PROFIT", "TTL_STAFF": -999, "BEDS": 345, "TRAUMA": "NOT AVAILABLE", "HELIPAD": "Y" }, "geometry": { "type": "Polygon", "coordinates": [ [ [ -89.9833565, 38.4752558 ], [ -90.042923, 38.480026 ], [ -90.1097542, 38.5296422 ], [ -90.111771, 38.534061 ], [ -90.1177808, 38.551515700000024 ], [ -90.1111808, 38.585692399999971 ], [ -90.0972342, 38.6056128 ], [ -90.0927166, 38.608456 ], [ -90.0750403, 38.6128463 ], [ -90.040040799999986, 38.620794 ], [ -89.9850473, 38.615137599999962 ], [ -89.9524294, 38.596100299999975 ], [ -89.9259294, 38.570431899999981 ], [ -89.921616, 38.548157 ], [ -89.9236219, 38.519494699999967 ], [ -89.9285599, 38.514002600000019 ], [ -89.9590043, 38.490060100000036 ], [ -89.9833565, 38.4752558 ] ] ] } },
{ "type": "Feature", "properties": { "OBJECTID": 7237, "ID": "0017562454", "NAME": "CRAWFORD MEMORIAL HOSPITAL", "ADDRESS": "1000 NORTH ALLEN STREET", "CITY": "ROBINSON", "STATE": "IL", "ZIP": "62454", "ZIP4": "NOT AVAILABLE", "TELEPHONE": "(618) 546-2514", "TYPE": "CRITICAL ACCESS", "STATUS": "OPEN", "POPULATION": 63, "COUNTY": "CRAWFORD", "COUNTYFIPS": "17033", "COUNTRY": "USA", "LATITUDE": 39.0145414610001, "LONGITUDE": -87.750416764999997, "NAICS_CODE": "622110", "NAICS_DESC": "GENERAL MEDICAL AND SURGICAL HOSPITALS", "SOURCE": "https://data.illinois.gov/", "SOURCEDATE": "2018-08-09T00:00:00.000Z", "VAL_METHOD": "IMAGERY", "VAL_DATE": "2014-03-12T00:00:00.000Z", "WEBSITE": "http://www.crawfordmh.org", "STATE_ID": "141343", "ALT_NAME": "NOT AVAILABLE", "ST_FIPS": "17", "OWNER": "GOVERNMENT - DISTRICT/AUTHORITY", "TTL_STAFF": -999, "BEDS": 63, "TRAUMA": "NOT AVAILABLE", "HELIPAD": "Y" }, "geometry": { "type": "Polygon", "coordinates": [ [ [ -87.744847, 38.946155 ], [ -87.862128, 39.002748 ], [ -87.802322, 39.050303 ], [ -87.768784, 39.065054 ], [ -87.749279, 39.073592 ], [ -87.7307605, 39.066308599999985 ], [ -87.72136, 39.062485 ], [ -87.684573, 39.044617 ], [ -87.639898, 39.007517 ], [ -87.684749, 38.978416 ], [ -87.744847, 38.946155 ] ] ] } },
{ "type": "Feature", "properties": { "OBJECTID": 7238, "ID": "0018062278", "NAME": "RED BUD REGIONAL HOSPITAL", "ADDRESS": "325 SPRING STREET", "CITY": "RED BUD", "STATE": "IL", "ZIP": "62278", "ZIP4": "NOT AVAILABLE", "TELEPHONE": "(618) 282-3831", "TYPE": "CRITICAL ACCESS", "STATUS": "OPEN", "POPULATION": 140, "COUNTY": "RANDOLPH", "COUNTYFIPS": "17157", "COUNTRY": "USA", "LATITUDE": 38.209037213000002, "LONGITUDE": -89.996853051999906, "NAICS_CODE": "622110", "NAICS_DESC": "GENERAL MEDICAL AND SURGICAL HOSPITALS", "SOURCE": "https://data.illinois.gov/", "SOURCEDATE": "2018-08-09T00:00:00.000Z", "VAL_METHOD": "IMAGERY", "VAL_DATE": "2014-03-12T00:00:00.000Z", "WEBSITE": "http://www.redbudhospital.com", "STATE_ID": "141348", "ALT_NAME": "NOT AVAILABLE", "ST_FIPS": "17", "OWNER": "PROPRIETARY", "TTL_STAFF": -999, "BEDS": 140, "TRAUMA": "NOT AVAILABLE", "HELIPAD": "Y" }, "geometry": { "type": "Polygon", "coordinates": [ [ [ -89.985273, 38.119642 ], [ -90.011169, 38.127377 ], [ -90.013107, 38.128399 ], [ -90.0168529, 38.130530500000027 ], [ -90.025711, 38.147342 ], [ -90.036243, 38.168491 ], [ -90.036385, 38.212235 ], [ -90.016642, 38.21958 ], [ -90.0084785, 38.222548599999989 ], [ -89.9434759, 38.235346 ], [ -89.879092, 38.187328 ], [ -89.879562, 38.186015 ], [ -89.985273, 38.119642 ] ] ] } },
{ "type": "Feature", "properties": { "OBJECTID": 7240, "ID": "0017762881", "NAME": "SALEM TOWNSHIP HOSPITAL", "ADDRESS": "1201 RICKER DRIVE", "CITY": "SALEM", "STATE": "IL", "ZIP": "62881", "ZIP4": "NOT AVAILABLE", "TELEPHONE": "(618) 548-3194", "TYPE": "CRITICAL ACCESS", "STATUS": "OPEN", "POPULATION": 22, "COUNTY": "MARION", "COUNTYFIPS": "17121", "COUNTRY": "USA", "LATITUDE": 38.641479887000102, "LONGITUDE": -88.948550053000005, "NAICS_CODE": "622110", "NAICS_DESC": "GENERAL MEDICAL AND SURGICAL HOSPITALS", "SOURCE": "https://data.illinois.gov/", "SOURCEDATE": "2018-08-09T00:00:00.000Z", "VAL_METHOD": "IMAGERY", "VAL_DATE": "2014-03-12T00:00:00.000Z", "WEBSITE": "http://www.sthcares.org", "STATE_ID": "141345", "ALT_NAME": "NOT AVAILABLE", "ST_FIPS": "17", "OWNER": "GOVERNMENT - LOCAL", "TTL_STAFF": -999, "BEDS": 22, "TRAUMA": "NOT AVAILABLE", "HELIPAD": "Y" }, "geometry": { "type": "Polygon", "coordinates": [ [ [ -88.940674978962946, 38.549719047576517 ], [ -89.051170433851084, 38.619454992168684 ], [ -89.023514031234711, 38.65390315692288 ], [ -89.014217030294859, 38.663398175255558 ], [ -88.981823032974376, 38.692930209080508 ], [ -88.940013036580481, 38.722094210881025 ], [ -88.939965036571294, 38.722093210844932 ], [ -88.911735030597001, 38.719543188046771 ], [ -88.841069, 38.626594 ], [ -88.940674978962946, 38.549719047576517 ] ] ] } },
{ "type": "Feature", "properties": { "OBJECTID": 7408, "ID": "0098662233", "NAME": "MEMORIAL HOSPITAL", "ADDRESS": "1900 STATE STREET", "CITY": "CHESTER", "STATE": "IL", "ZIP": "62233", "ZIP4": "NOT AVAILABLE", "TELEPHONE": "(618) 826-4581", "TYPE": "CRITICAL ACCESS", "STATUS": "OPEN", "POPULATION": -999, "COUNTY": "RANDOLPH", "COUNTYFIPS": "17157", "COUNTRY": "USA", "LATITUDE": 37.917707923000101, "LONGITUDE": -89.813132691000007, "NAICS_CODE": "622110", "NAICS_DESC": "GENERAL MEDICAL AND SURGICAL HOSPITALS", "SOURCE": "https://data.illinois.gov/", "SOURCEDATE": "2018-08-09T00:00:00.000Z", "VAL_METHOD": "IMAGERY/OTHER", "VAL_DATE": "2015-02-21T00:00:00.000Z", "WEBSITE": "NOT AVAILABLE", "STATE_ID": "NOT AVAILABLE", "ALT_NAME": "NOT AVAILABLE", "ST_FIPS": "17", "OWNER": "NOT AVAILABLE", "TTL_STAFF": -999, "BEDS": -999, "TRAUMA": "NOT AVAILABLE", "HELIPAD": "Y" }, "geometry": { "type": "Polygon", "coordinates": [ [ [ -89.771256, 37.877172 ], [ -89.802666, 37.885879 ], [ -89.805038, 37.886675 ], [ -89.837200700000011, 37.902270800000011 ], [ -89.885967, 37.936255 ], [ -89.895307, 37.955755 ], [ -89.883647, 37.975034 ], [ -89.880417, 37.976281 ], [ -89.821046, 37.978856 ], [ -89.749845, 37.978794 ], [ -89.727727, 37.978656 ], [ -89.729715, 37.91633 ], [ -89.740361, 37.905618 ], [ -89.771256, 37.877172 ] ] ] } },
{ "type": "Feature", "properties": { "OBJECTID": 7558, "ID": "0016062982", "NAME": "HARDIN COUNTY GENERAL HOSPITAL", "ADDRESS": "FERRELL ROAD", "CITY": "ROSICLARE", "STATE": "IL", "ZIP": "62982", "ZIP4": "NOT AVAILABLE", "TELEPHONE": "(618) 285-6634", "TYPE": "CRITICAL ACCESS", "STATUS": "OPEN", "POPULATION": 25, "COUNTY": "HARDIN", "COUNTYFIPS": "17069", "COUNTRY": "USA", "LATITUDE": 37.422280418000099, "LONGITUDE": -88.351724942999994, "NAICS_CODE": "622110", "NAICS_DESC": "GENERAL MEDICAL AND SURGICAL HOSPITALS", "SOURCE": "https://data.illinois.gov/", "SOURCEDATE": "2018-08-09T00:00:00.000Z", "VAL_METHOD": "IMAGERY", "VAL_DATE": "2016-04-26T00:00:00.000Z", "WEBSITE": "http://www.ilhcgh.org", "STATE_ID": "141328", "ALT_NAME": "NOT AVAILABLE", "ST_FIPS": "17", "OWNER": "NON-PROFIT", "TTL_STAFF": -999, "BEDS": 25, "TRAUMA": "NOT AVAILABLE", "HELIPAD": "Y" }, "geometry": { "type": "Polygon", "coordinates": [ [ [ -88.3551551, 37.409640099999976 ], [ -88.373845, 37.419899 ], [ -88.4148548, 37.459517199999972 ], [ -88.4147456, 37.4740643 ], [ -88.3417431, 37.4918354 ], [ -88.289432, 37.4686468 ], [ -88.2936724, 37.4497885 ], [ -88.3527773, 37.410490699999983 ], [ -88.3551551, 37.409640099999976 ] ] ] } },
{ "type": "Feature", "properties": { "OBJECTID": 5297, "ID": "0001762801", "NAME": "ST MARYS HOSPITAL", "ADDRESS": "400 NORTH PLEASANT AVENUE", "CITY": "CENTRALIA", "STATE": "IL", "ZIP": "62801", "ZIP4": "NOT AVAILABLE", "TELEPHONE": "(618) 436-8000", "TYPE": "GENERAL ACUTE CARE", "STATUS": "OPEN", "POPULATION": 113, "COUNTY": "MARION", "COUNTYFIPS": "17121", "COUNTRY": "USA", "LATITUDE": 38.530281432000002, "LONGITUDE": -89.117206304999996, "NAICS_CODE": "622110", "NAICS_DESC": "GENERAL MEDICAL AND SURGICAL HOSPITALS", "SOURCE": "https://data.illinois.gov/", "SOURCEDATE": "2018-08-09T00:00:00.000Z", "VAL_METHOD": "IMAGERY", "VAL_DATE": "2014-03-12T00:00:00.000Z", "WEBSITE": "http://www.smgsi.com", "STATE_ID": "140034", "ALT_NAME": "NOT AVAILABLE", "ST_FIPS": "17", "OWNER": "NON-PROFIT", "TTL_STAFF": -999, "BEDS": 113, "TRAUMA": "NOT AVAILABLE", "HELIPAD": "Y" }, "geometry": { "type": "Polygon", "coordinates": [ [ [ -89.1465994, 38.45227909999997 ], [ -89.1962834, 38.5277562 ], [ -89.1933347, 38.534886800000045 ], [ -89.1680057, 38.5654994 ], [ -89.119965, 38.609063 ], [ -89.1144577, 38.6140074 ], [ -89.086967346276012, 38.590604323862735 ], [ -89.012115974218943, 38.522583006663254 ], [ -89.012153972679812, 38.518576001784297 ], [ -89.080601803773277, 38.467680534268524 ], [ -89.098182012651023, 38.45866232425923 ], [ -89.1465994, 38.45227909999997 ] ] ] } },
{ "type": "Feature", "properties": { "OBJECTID": 5306, "ID": "0014062088", "NAME": "COMMUNITY MEMORIAL HOSPITAL", "ADDRESS": "400 CALDWELL", "CITY": "STAUNTON", "STATE": "IL", "ZIP": "62088", "ZIP4": "NOT AVAILABLE", "TELEPHONE": "(618) 635-2200", "TYPE": "CRITICAL ACCESS", "STATUS": "OPEN", "POPULATION": 25, "COUNTY": "MACOUPIN", "COUNTYFIPS": "17117", "COUNTRY": "USA", "LATITUDE": 39.015280714, "LONGITUDE": -89.78938694, "NAICS_CODE": "622110", "NAICS_DESC": "GENERAL MEDICAL AND SURGICAL HOSPITALS", "SOURCE": "https://data.illinois.gov/", "SOURCEDATE": "2018-08-09T00:00:00.000Z", "VAL_METHOD": "IMAGERY", "VAL_DATE": "2014-03-12T00:00:00.000Z", "WEBSITE": "http://www.stauntonhospital.org", "STATE_ID": "141306", "ALT_NAME": "NOT AVAILABLE", "ST_FIPS": "17", "OWNER": "NON-PROFIT", "TTL_STAFF": -999, "BEDS": 25, "TRAUMA": "NOT AVAILABLE", "HELIPAD": "Y" }, "geometry": { "type": "Polygon", "coordinates": [ [ [ -89.801386, 38.927158 ], [ -89.8041462, 38.929138699999989 ], [ -89.922793, 39.042252 ], [ -89.81634, 39.104183 ], [ -89.731856100000016, 39.0847468 ], [ -89.719721, 39.073032 ], [ -89.718683, 39.071994 ], [ -89.69419, 39.021123 ], [ -89.757382, 38.96485 ], [ -89.801386, 38.927158 ] ] ] } },
{ "type": "Feature", "properties": { "OBJECTID": 5308, "ID": "0000262002", "NAME": "ALTON MEMORIAL HOSPITAL", "ADDRESS": "ONE MEMORIAL DRIVE", "CITY": "ALTON", "STATE": "IL", "ZIP": "62002", "ZIP4": "NOT AVAILABLE", "TELEPHONE": "(618) 463-7300", "TYPE": "GENERAL ACUTE CARE", "STATUS": "OPEN", "POPULATION": 253, "COUNTY": "MADISON", "COUNTYFIPS": "17119", "COUNTRY": "USA", "LATITUDE": 38.899584323000099, "LONGITUDE": -90.159149643999996, "NAICS_CODE": "622110", "NAICS_DESC": "GENERAL MEDICAL AND SURGICAL HOSPITALS", "SOURCE": "https://data.illinois.gov/", "SOURCEDATE": "2018-08-09T00:00:00.000Z", "VAL_METHOD": "IMAGERY", "VAL_DATE": "2014-02-10T00:00:00.000Z", "WEBSITE": "http://www.altonmemorialhospital.org", "STATE_ID": "140002", "ALT_NAME": "NOT AVAILABLE", "ST_FIPS": "17", "OWNER": "NON-PROFIT", "TTL_STAFF": -999, "BEDS": 253, "TRAUMA": "NOT AVAILABLE", "HELIPAD": "Y" }, "geometry": { "type": "Polygon", "coordinates": [ [ [ -90.098992, 38.831853 ], [ -90.252078, 38.927281 ], [ -90.256398, 38.942235 ], [ -90.2006876, 38.978951299999977 ], [ -90.1805415, 38.9776424 ], [ -90.179334, 38.977485 ], [ -90.134089, 38.967533 ], [ -90.0648343, 38.923769300000025 ], [ -90.047177, 38.907224 ], [ -90.042888, 38.901215 ], [ -90.0711272, 38.859256500000065 ], [ -90.092794, 38.837016 ], [ -90.098992, 38.831853 ] ] ] } },
{ "type": "Feature", "properties": { "OBJECTID": 5309, "ID": "0002662002", "NAME": "SAINT ANTHONY'S HEALTH CENTER", "ADDRESS": "ST ANTHONY'S WAY", "CITY": "ALTON", "STATE": "IL", "ZIP": "62002", "ZIP4": "NOT AVAILABLE", "TELEPHONE": "(618) 465-2571", "TYPE": "GENERAL ACUTE CARE", "STATUS": "OPEN", "POPULATION": 199, "COUNTY": "MADISON", "COUNTYFIPS": "17119", "COUNTRY": "USA", "LATITUDE": 38.907995874999997, "LONGITUDE": -90.173293380999993, "NAICS_CODE": "622110", "NAICS_DESC": "GENERAL MEDICAL AND SURGICAL HOSPITALS", "SOURCE": "https://data.illinois.gov/", "SOURCEDATE": "2018-08-09T00:00:00.000Z", "VAL_METHOD": "IMAGERY", "VAL_DATE": "2014-02-10T00:00:00.000Z", "WEBSITE": "http://www.sahc.org", "STATE_ID": "140052", "ALT_NAME": "NOT AVAILABLE", "ST_FIPS": "17", "OWNER": "NON-PROFIT", "TTL_STAFF": -999, "BEDS": 199, "TRAUMA": "NOT AVAILABLE", "HELIPAD": "Y" }, "geometry": { "type": "Polygon", "coordinates": [ [ [ -90.097159, 38.838736 ], [ -90.192672, 38.892497 ], [ -90.2559942, 38.928503699999986 ], [ -90.26068, 38.931252 ], [ -90.262117, 38.953058 ], [ -90.2305847, 38.996551500000024 ], [ -90.230345, 38.99665 ], [ -90.214557, 38.993253 ], [ -90.172371, 38.980802 ], [ -90.13809, 38.965432700000072 ], [ -90.122877, 38.955927 ], [ -90.0742502, 38.92380440000003 ], [ -90.051215900000017, 38.9079184 ], [ -90.049213199999983, 38.9059102 ], [ -90.046728, 38.901049 ], [ -90.0605696, 38.8775953 ], [ -90.094471, 38.840908 ], [ -90.097159, 38.838736 ] ] ] } },
{ "type": "Feature", "properties": { "OBJECTID": 5831, "ID": "0007062230", "NAME": "ST JOSEPHS HOSPITAL", "ADDRESS": "9515 HOLY CROSS LN", "CITY": "BREESE", "STATE": "IL", "ZIP": "62230", "ZIP4": "NOT AVAILABLE", "TELEPHONE": "(618) 526-4511", "TYPE": "GENERAL ACUTE CARE", "STATUS": "OPEN", "POPULATION": -999, "COUNTY": "CLINTON", "COUNTYFIPS": "17027", "COUNTRY": "USA", "LATITUDE": 38.626224967, "LONGITUDE": -89.523731346999995, "NAICS_CODE": "622110", "NAICS_DESC": "GENERAL MEDICAL AND SURGICAL HOSPITALS", "SOURCE": "https://data.illinois.gov/", "SOURCEDATE": "2018-08-09T00:00:00.000Z", "VAL_METHOD": "IMAGERY", "VAL_DATE": "2014-03-12T00:00:00.000Z", "WEBSITE": "http://www.stjoebreese.com/", "STATE_ID": "140145", "ALT_NAME": "NOT AVAILABLE", "ST_FIPS": "17", "OWNER": "NON-PROFIT", "TTL_STAFF": -999, "BEDS": -999, "TRAUMA": "NOT AVAILABLE", "HELIPAD": "Y" }, "geometry": { "type": "Polygon", "coordinates": [ [ [ -89.535404, 38.557119 ], [ -89.649911300000014, 38.607815599999959 ], [ -89.6501768, 38.6191859 ], [ -89.5184501, 38.719383199999982 ], [ -89.4101713, 38.616739400000021 ], [ -89.4253489, 38.6049265 ], [ -89.4427343, 38.5944467 ], [ -89.535404, 38.557119 ] ] ] } },
{ "type": "Feature", "properties": { "OBJECTID": 3356, "ID": "0008062901", "NAME": "MEMORIAL HOSPITAL OF CARBONDALE", "ADDRESS": "405 W JACKSON", "CITY": "CARBONDALE", "STATE": "IL", "ZIP": "62901", "ZIP4": "NOT AVAILABLE", "TELEPHONE": "(618) 549-0721", "TYPE": "GENERAL ACUTE CARE", "STATUS": "OPEN", "POPULATION": 159, "COUNTY": "JACKSON", "COUNTYFIPS": "17077", "COUNTRY": "USA", "LATITUDE": 37.727445549000002, "LONGITUDE": -89.220592530999994, "NAICS_CODE": "622110", "NAICS_DESC": "GENERAL MEDICAL AND SURGICAL HOSPITALS", "SOURCE": "https://data.illinois.gov/", "SOURCEDATE": "2018-08-09T00:00:00.000Z", "VAL_METHOD": "IMAGERY", "VAL_DATE": "2016-04-25T00:00:00.000Z", "WEBSITE": "http://www.sih.net", "STATE_ID": "140164", "ALT_NAME": "NOT AVAILABLE", "ST_FIPS": "17", "OWNER": "NON-PROFIT", "TTL_STAFF": -999, "BEDS": 159, "TRAUMA": "NOT AVAILABLE", "HELIPAD": "Y" }, "geometry": { "type": "Polygon", "coordinates": [ [ [ -89.238808, 37.641713 ], [ -89.301767, 37.714399 ], [ -89.3366335, 37.7643295 ], [ -89.334486, 37.766569 ], [ -89.331724, 37.768936 ], [ -89.3264998, 37.773182499999983 ], [ -89.2312, 37.82059 ], [ -89.227504, 37.821723 ], [ -89.227049, 37.821716 ], [ -89.221293, 37.820988 ], [ -89.151677, 37.773956 ], [ -89.144166, 37.746363 ], [ -89.1418506, 37.736818199999981 ], [ -89.142749, 37.733534 ], [ -89.167195, 37.676044 ], [ -89.1713406, 37.67193 ], [ -89.20452, 37.654179 ], [ -89.23488, 37.643083 ], [ -89.238493, 37.641766 ], [ -89.238808, 37.641713 ] ] ] } },
{ "type": "Feature", "properties": { "OBJECTID": 3378, "ID": "0000662948", "NAME": "HERRIN HOSPITAL", "ADDRESS": "201 S 14TH ST", "CITY": "HERRIN", "STATE": "IL", "ZIP": "62948", "ZIP4": "NOT AVAILABLE", "TELEPHONE": "(618) 942-2171", "TYPE": "GENERAL ACUTE CARE", "STATUS": "OPEN", "POPULATION": 114, "COUNTY": "WILLIAMSON", "COUNTYFIPS": "17199", "COUNTRY": "USA", "LATITUDE": 37.8010121, "LONGITUDE": -89.026313269, "NAICS_CODE": "622110", "NAICS_DESC": "GENERAL MEDICAL AND SURGICAL HOSPITALS", "SOURCE": "https://data.illinois.gov/", "SOURCEDATE": "2018-08-09T00:00:00.000Z", "VAL_METHOD": "IMAGERY", "VAL_DATE": "2014-03-12T00:00:00.000Z", "WEBSITE": "http://www.sih.net", "STATE_ID": "140011", "ALT_NAME": "NOT AVAILABLE", "ST_FIPS": "17", "OWNER": "NON-PROFIT", "TTL_STAFF": -999, "BEDS": 114, "TRAUMA": "NOT AVAILABLE", "HELIPAD": "Y" }, "geometry": { "type": "Polygon", "coordinates": [ [ [ -89.02751799879492, 37.715621999752159 ], [ -89.077201699068027, 37.7378386998938 ], [ -89.084429999161031, 37.745360999901585 ], [ -89.123869, 37.80351 ], [ -89.128642, 37.817083 ], [ -89.061650999713819, 37.869443999964261 ], [ -89.051205999762004, 37.869282999970267 ], [ -89.002307999988673, 37.862008999998594 ], [ -89.001397999993102, 37.861472999999137 ], [ -88.995361002121342, 37.857827001728076 ], [ -88.935224041548594, 37.817803034328556 ], [ -88.934258042504482, 37.816691035128066 ], [ -88.944600049469898, 37.763120041275371 ], [ -88.965284131526261, 37.739648326507783 ], [ -89.021670598809422, 37.715406999738391 ], [ -89.02751799879492, 37.715621999752159 ] ] ] } },
{ "type": "Feature", "properties": { "OBJECTID": 3383, "ID": "0004562959", "NAME": "MARION IL VA MEDICAL CENTER", "ADDRESS": "2401 WEST MAIN", "CITY": "MARION", "STATE": "IL", "ZIP": "62959", "ZIP4": "NOT AVAILABLE", "TELEPHONE": "(618) 997-5311", "TYPE": "MILITARY", "STATUS": "OPEN", "POPULATION": 225, "COUNTY": "WILLIAMSON", "COUNTYFIPS": "17199", "COUNTRY": "USA", "LATITUDE": 37.7243142680001, "LONGITUDE": -88.954815996999997, "NAICS_CODE": "622110", "NAICS_DESC": "GENERAL MEDICAL AND SURGICAL HOSPITALS", "SOURCE": "https://data.illinois.gov/", "SOURCEDATE": "2018-08-09T00:00:00.000Z", "VAL_METHOD": "IMAGERY", "VAL_DATE": "2014-03-12T00:00:00.000Z", "WEBSITE": "http://www.marion.va.gov", "STATE_ID": "14008F", "ALT_NAME": "NOT AVAILABLE", "ST_FIPS": "17", "OWNER": "GOVERNMENT - FEDERAL", "TTL_STAFF": -999, "BEDS": 225, "TRAUMA": "NOT AVAILABLE", "HELIPAD": "Y" }, "geometry": { "type": "Polygon", "coordinates": [ [ [ -88.97954800486211, 37.607321006439584 ], [ -88.997706997055147, 37.622081999826555 ], [ -89.005694696252974, 37.632037799007719 ], [ -89.082722099174887, 37.74535629990266 ], [ -89.077145599318797, 37.751648299914898 ], [ -88.983491010621705, 37.817373008776904 ], [ -88.932688035709347, 37.841915029288693 ], [ -88.928816038235666, 37.840473031377186 ], [ -88.907726, 37.822698 ], [ -88.827573, 37.72955110000003 ], [ -88.97954800486211, 37.607321006439584 ] ] ] } },
{ "type": "Feature", "properties": { "OBJECTID": 3409, "ID": "0002162864", "NAME": "GOOD SAMARITAN REGIONAL HLTH CENTER", "ADDRESS": "605 N 12TH STREET", "CITY": "MOUNT VERNON", "STATE": "IL", "ZIP": "62864", "ZIP4": "NOT AVAILABLE", "TELEPHONE": "(618) 242-4600", "TYPE": "GENERAL ACUTE CARE", "STATUS": "CLOSED", "POPULATION": 146, "COUNTY": "JEFFERSON", "COUNTYFIPS": "17081", "COUNTRY": "USA", "LATITUDE": 38.322314596000098, "LONGITUDE": -88.91029407000001, "NAICS_CODE": "622110", "NAICS_DESC": "GENERAL MEDICAL AND SURGICAL HOSPITALS", "SOURCE": "https://data.illinois.gov/", "SOURCEDATE": "2012-07-27T00:00:00.000Z", "VAL_METHOD": "IMAGERY/OTHER", "VAL_DATE": "2014-03-12T00:00:00.000Z", "WEBSITE": "http://www.smgsi.com", "STATE_ID": "140046", "ALT_NAME": "NOT AVAILABLE", "ST_FIPS": "17", "OWNER": "NON-PROFIT", "TTL_STAFF": -999, "BEDS": 146, "TRAUMA": "NOT AVAILABLE", "HELIPAD": "Y" }, "geometry": { "type": "Polygon", "coordinates": [ [ [ -88.903064319860789, 38.228767984323014 ], [ -88.951319191230979, 38.253904987773552 ], [ -89.020864398888207, 38.307437118740893 ], [ -89.028570624578549, 38.362049869815692 ], [ -88.933462241994874, 38.417749065146488 ], [ -88.7934149, 38.334530400000041 ], [ -88.8323812, 38.268576299999985 ], [ -88.848753, 38.258139 ], [ -88.903064319860789, 38.228767984323014 ] ] ] } },
{ "type": "Feature", "properties": { "OBJECTID": 3426, "ID": "0014162274", "NAME": "PINCKNEYVILLE COMMUNITY HOSPITAL", "ADDRESS": "101 N WALNUT", "CITY": "PINCKNEYVILLE", "STATE": "IL", "ZIP": "62274", "ZIP4": "NOT AVAILABLE", "TELEPHONE": "(618) 357-2187", "TYPE": "CRITICAL ACCESS", "STATUS": "OPEN", "POPULATION": 25, "COUNTY": "PERRY", "COUNTYFIPS": "17145", "COUNTRY": "USA", "LATITUDE": 38.081069737000099, "LONGITUDE": -89.383319384999893, "NAICS_CODE": "622110", "NAICS_DESC": "GENERAL MEDICAL AND SURGICAL HOSPITALS", "SOURCE": "https://data.illinois.gov/", "SOURCEDATE": "2018-08-09T00:00:00.000Z", "VAL_METHOD": "IMAGERY", "VAL_DATE": "2014-01-21T00:00:00.000Z", "WEBSITE": "http://pvillehosp.org/", "STATE_ID": "141307", "ALT_NAME": "NOT AVAILABLE", "ST_FIPS": "17", "OWNER": "GOVERNMENT - DISTRICT/AUTHORITY", "TTL_STAFF": -999, "BEDS": 25, "TRAUMA": "NOT AVAILABLE", "HELIPAD": "Y" }, "geometry": { "type": "Polygon", "coordinates": [ [ [ -89.364273900000015, 37.966594500000028 ], [ -89.5043737, 38.0830504 ], [ -89.470658, 38.136802 ], [ -89.3818734, 38.2028804 ], [ -89.3800689, 38.203145300000038 ], [ -89.3754924, 38.202071 ], [ -89.269099, 38.089629 ], [ -89.2691309, 38.0825485 ], [ -89.3458151, 37.966368900000042 ], [ -89.364273900000015, 37.966594500000028 ] ] ] } },
{ "type": "Feature", "properties": { "OBJECTID": 3466, "ID": "0009462220", "NAME": "ST ELIZABETH HOSPITAL", "ADDRESS": "211 S THIRD ST", "CITY": "BELLEVILLE", "STATE": "IL", "ZIP": "62220", "ZIP4": "NOT AVAILABLE", "TELEPHONE": "(618) 234-2120", "TYPE": "GENERAL ACUTE CARE", "STATUS": "OPEN", "POPULATION": 260, "COUNTY": "ST. CLAIR", "COUNTYFIPS": "17163", "COUNTRY": "USA", "LATITUDE": 38.511120443000003, "LONGITUDE": -89.989163978999997, "NAICS_CODE": "622110", "NAICS_DESC": "GENERAL MEDICAL AND SURGICAL HOSPITALS", "SOURCE": "https://data.illinois.gov/", "SOURCEDATE": "2018-08-09T00:00:00.000Z", "VAL_METHOD": "IMAGERY", "VAL_DATE": "2014-03-12T00:00:00.000Z", "WEBSITE": "http://www.steliz.org", "STATE_ID": "140187", "ALT_NAME": "NOT AVAILABLE", "ST_FIPS": "17", "OWNER": "NON-PROFIT", "TTL_STAFF": -999, "BEDS": 260, "TRAUMA": "NOT AVAILABLE", "HELIPAD": "Y" }, "geometry": { "type": "Polygon", "coordinates": [ [ [ -89.9895308, 38.417097 ], [ -90.0916842, 38.459778900000032 ], [ -90.093758, 38.461433 ], [ -90.0933156, 38.569452799999965 ], [ -90.0598909, 38.588453199999933 ], [ -89.9850729, 38.6056897 ], [ -89.9804015, 38.604198300000022 ], [ -89.9475548, 38.59015729999998 ], [ -89.894039100000015, 38.567062499999984 ], [ -89.890917, 38.563268799999982 ], [ -89.8641954, 38.519078799999988 ], [ -89.864037, 38.504414 ], [ -89.915412, 38.436944599999968 ], [ -89.9895308, 38.417097 ] ] ] } },
{ "type": "Feature", "properties": { "OBJECTID": 3467, "ID": "0010362946", "NAME": "HARRISBURG MEDICAL CENTER", "ADDRESS": "100 DOCTOR WARREN TUTTLE DR", "CITY": "HARRISBURG", "STATE": "IL", "ZIP": "62946", "ZIP4": "NOT AVAILABLE", "TELEPHONE": "(618) 253-7671", "TYPE": "GENERAL ACUTE CARE", "STATUS": "OPEN", "POPULATION": 73, "COUNTY": "SALINE", "COUNTYFIPS": "17165", "COUNTRY": "USA", "LATITUDE": 37.7310436060001, "LONGITUDE": -88.523133983999998, "NAICS_CODE": "622110", "NAICS_DESC": "GENERAL MEDICAL AND SURGICAL HOSPITALS", "SOURCE": "https://data.illinois.gov/", "SOURCEDATE": "2018-08-09T00:00:00.000Z", "VAL_METHOD": "IMAGERY", "VAL_DATE": "2014-03-12T00:00:00.000Z", "WEBSITE": "http://www.harrisburgmc.com", "STATE_ID": "140210", "ALT_NAME": "NOT AVAILABLE", "ST_FIPS": "17", "OWNER": "NON-PROFIT", "TTL_STAFF": -999, "BEDS": 73, "TRAUMA": "NOT AVAILABLE", "HELIPAD": "Y" }, "geometry": { "type": "Polygon", "coordinates": [ [ [ -88.52737, 37.639392 ], [ -88.532212, 37.641442 ], [ -88.622146, 37.683825 ], [ -88.6479338, 37.7326681 ], [ -88.64785, 37.73864 ], [ -88.539512, 37.821662 ], [ -88.456696, 37.808592 ], [ -88.4512717, 37.805566799999987 ], [ -88.410577, 37.743148 ], [ -88.52737, 37.639392 ] ] ] } },
{ "type": "Feature", "properties": { "OBJECTID": 3471, "ID": "0006862246", "NAME": "GREENVILLE REGIONAL HOSPITAL", "ADDRESS": "200 HEALTHCARE DR", "CITY": "GREENVILLE", "STATE": "IL", "ZIP": "62246", "ZIP4": "NOT AVAILABLE", "TELEPHONE": "(618) 664-1230", "TYPE": "GENERAL ACUTE CARE", "STATUS": "OPEN", "POPULATION": 150, "COUNTY": "BOND", "COUNTYFIPS": "17005", "COUNTRY": "USA", "LATITUDE": 38.903209711000002, "LONGITUDE": -89.407644824000002, "NAICS_CODE": "622110", "NAICS_DESC": "GENERAL MEDICAL AND SURGICAL HOSPITALS", "SOURCE": "https://data.illinois.gov/", "SOURCEDATE": "2018-08-09T00:00:00.000Z", "VAL_METHOD": "IMAGERY", "VAL_DATE": "2014-02-10T00:00:00.000Z", "WEBSITE": "http://www.greenvilleregionalhospital.com", "STATE_ID": "140137", "ALT_NAME": "NOT AVAILABLE", "ST_FIPS": "17", "OWNER": "NON-PROFIT", "TTL_STAFF": -999, "BEDS": 150, "TRAUMA": "NOT AVAILABLE", "HELIPAD": "Y" }, "geometry": { "type": "Polygon", "coordinates": [ [ [ -89.418147, 38.824073 ], [ -89.452953, 38.835549 ], [ -89.4783304, 38.846749399999986 ], [ -89.532622, 38.887695 ], [ -89.474044, 38.952482 ], [ -89.47051, 38.956249 ], [ -89.383889, 38.974802 ], [ -89.33224, 38.982527 ], [ -89.27999, 38.923339 ], [ -89.312569, 38.887699 ], [ -89.330438, 38.869495 ], [ -89.35809, 38.84352 ], [ -89.371239, 38.835147 ], [ -89.418147, 38.824073 ] ] ] } },
{ "type": "Feature", "properties": { "OBJECTID": 3972, "ID": "0177462269", "NAME": "MEMORIAL HOSPITAL EAST", "ADDRESS": "1404 CROSS ST", "CITY": "SHILOH", "STATE": "IL", "ZIP": "62269", "ZIP4": "NOT AVAILABLE", "TELEPHONE": "(618) 607-1000", "TYPE": "GENERAL ACUTE CARE", "STATUS": "OPEN", "POPULATION": 94, "COUNTY": "ST. CLAIR", "COUNTYFIPS": "17163", "COUNTRY": "USA", "LATITUDE": 38.573690015000103, "LONGITUDE": -89.905426336999895, "NAICS_CODE": "622110", "NAICS_DESC": "GENERAL MEDICAL AND SURGICAL HOSPITALS", "SOURCE": "https://data.illinois.gov/", "SOURCEDATE": "2018-08-09T00:00:00.000Z", "VAL_METHOD": "IMAGERY", "VAL_DATE": "2019-05-10T00:00:00.000Z", "WEBSITE": "https://www.memhospeast.com/", "STATE_ID": "NOT AVAILABLE", "ALT_NAME": "METRO EAST SERVICES INC - DBA MEMORIAL HOSPITAL EAST", "ST_FIPS": "17", "OWNER": "PROPRIETARY", "TTL_STAFF": -999, "BEDS": 94, "TRAUMA": "NOT AVAILABLE", "HELIPAD": "Y" }, "geometry": { "type": "Polygon", "coordinates": [ [ [ -89.9325879, 38.495158799999984 ], [ -89.9842207, 38.5126217 ], [ -89.9855739, 38.513602100000021 ], [ -89.9869097, 38.514586699999967 ], [ -90.0198993, 38.555402 ], [ -90.0518562, 38.617320399999976 ], [ -89.9449383, 38.640194300000068 ], [ -89.910561, 38.647381 ], [ -89.90305, 38.647113 ], [ -89.902466, 38.647083 ], [ -89.889549, 38.645878 ], [ -89.873916, 38.643913 ], [ -89.8117679, 38.6048957 ], [ -89.810387, 38.603912 ], [ -89.807602, 38.601078 ], [ -89.802193, 38.594952 ], [ -89.76844610000002, 38.548553700000049 ], [ -89.788499, 38.52381 ], [ -89.7930446, 38.5208884 ], [ -89.855979, 38.504291 ], [ -89.9325879, 38.495158799999984 ] ] ] } }
]
}
