{
"type": "FeatureCollection",
"crs": { "type": "name", "properties": { "name": "urn:ogc:def:crs:OGC:1.3:CRS84" } },
"features": [
{ "type": "Feature", "properties": { "OBJECTID": 1300, "ID": "0003643812", "NAME": "COSHOCTON COUNTY MEMORIAL HOSPITAL", "ADDRESS": "1460 ORANGE STREET", "CITY": "COSHOCTON", "STATE": "OH", "ZIP": "43812", "ZIP4": "NOT AVAILABLE", "TELEPHONE": "(740) 622-6411", "TYPE": "GENERAL ACUTE CARE", "STATUS": "OPEN", "POPULATION": 56, "COUNTY": "COSHOCTON", "COUNTYFIPS": "39031", "COUNTRY": "USA", "LATITUDE": 40.270846382000101, "LONGITUDE": -81.847763668, "NAICS_CODE": "622110", "NAICS_DESC": "GENERAL MEDICAL AND SURGICAL HOSPITALS", "SOURCE": "http://publicapps.odh.ohio.gov/EID/Provider_Search.aspx", "SOURCEDATE": "2018-08-10T00:00:00.000Z", "VAL_METHOD": "IMAGERY", "VAL_DATE": "2014-03-12T00:00:00.000Z", "WEBSITE": "http://www.ccmh.com", "STATE_ID": "1129", "ALT_NAME": "NOT AVAILABLE", "ST_FIPS": "39", "OWNER": "NON-PROFIT", "TTL_STAFF": -999, "BEDS": 56, "TRAUMA": "NOT AVAILABLE", "HELIPAD": "Y" }, "geometry": { "type": "Polygon", "coordinates": [ [ [ -81.8951832, 40.1931487 ], [ -81.962002, 40.251647 ], [ -81.932239, 40.308714 ], [ -81.910279, 40.316064 ], [ -81.8636923, 40.3309496 ], [ -81.827992, 40.335205 ], [ -81.805513, 40.319519 ], [ -81.764662, 40.277752 ], [ -81.7663492, 40.2180405 ], [ -81.785413, 40.20895 ], [ -81.8034511, 40.2048307 ], [ -81.8951832, 40.1931487 ] ] ] } },
{ "type": "Feature", "properties": { "OBJECTID": 1309, "ID": "0027844111", "NAME": "GRACE HOSPITAL AT FAIRVIEW", "ADDRESS": "18101 LORAIN AVENUE", "CITY": "CLEVELAND", "STATE": "OH", "ZIP": "44111", "ZIP4": "NOT AVAILABLE", "TELEPHONE": "(216) 456-3880", "TYPE": "LONG TERM CARE", "STATUS": "OPEN", "POPULATION": 29, "COUNTY": "CUYAHOGA", "COUNTYFIPS": "39035", "COUNTRY": "USA", "LATITUDE": 41.450244644000101, "LONGITUDE": -81.824139117000001, "NAICS_CODE": "622310", "NAICS_DESC": "EXTENDED CARE HOSPITALS (EXCEPT MENTAL, SUBSTANCE ABUSE)", "SOURCE": "http://publicapps.odh.ohio.gov/EID/Provider_Search.aspx", "SOURCEDATE": "2018-08-10T00:00:00.000Z", "VAL_METHOD": "IMAGERY/OTHER", "VAL_DATE": "2016-09-15T00:00:00.000Z", "WEBSITE": "http://www.gracehospital.org/", "STATE_ID": "1147", "ALT_NAME": "NOT AVAILABLE", "ST_FIPS": "39", "OWNER": "NON-PROFIT", "TTL_STAFF": -999, "BEDS": 29, "TRAUMA": "NOT AVAILABLE", "HELIPAD": "Y" }, "geometry": { "type": "Polygon", "coordinates": [ [ [ -81.8201499, 41.358866 ], [ -81.856167, 41.363321 ], [ -81.859372500000021, 41.3643971 ], [ -81.9148344, 41.4138279 ], [ -81.9449086, 41.468030099999986 ], [ -81.915812, 41.488244 ], [ -81.8069268, 41.495347899999963 ], [ -81.784338, 41.495663 ], [ -81.7330612, 41.4904177 ], [ -81.6782897, 41.4768702 ], [ -81.6956301, 41.4588475 ], [ -81.734402, 41.419765199999979 ], [ -81.8201499, 41.358866 ] ] ] } },
{ "type": "Feature", "properties": { "OBJECTID": 1318, "ID": "0001744106", "NAME": "UNIVERSITY HOSPITALS OF CLEVELAND", "ADDRESS": "11100 EUCLID AVENUE", "CITY": "CLEVELAND", "STATE": "OH", "ZIP": "44106", "ZIP4": "NOT AVAILABLE", "TELEPHONE": "(216) 844-1000", "TYPE": "GENERAL ACUTE CARE", "STATUS": "OPEN", "POPULATION": 1032, "COUNTY": "CUYAHOGA", "COUNTYFIPS": "39035", "COUNTRY": "USA", "LATITUDE": 41.506142050999998, "LONGITUDE": -81.605095434000006, "NAICS_CODE": "622110", "NAICS_DESC": "GENERAL MEDICAL AND SURGICAL HOSPITALS", "SOURCE": "http://publicapps.odh.ohio.gov/EID/Provider_Search.aspx", "SOURCEDATE": "2018-08-10T00:00:00.000Z", "VAL_METHOD": "IMAGERY", "VAL_DATE": "2014-03-12T00:00:00.000Z", "WEBSITE": "http://www.uhhospitals.org/cleveland", "STATE_ID": "1142", "ALT_NAME": "NOT AVAILABLE", "ST_FIPS": "39", "OWNER": "NON-PROFIT", "TTL_STAFF": -999, "BEDS": 1032, "TRAUMA": "LEVEL I", "HELIPAD": "Y" }, "geometry": { "type": "Polygon", "coordinates": [ [ [ -81.6540363, 41.445701400000019 ], [ -81.6568392, 41.4471398 ], [ -81.7087659, 41.4740755 ], [ -81.7004157, 41.504424200000038 ], [ -81.6951544, 41.509612799999964 ], [ -81.583555, 41.570377 ], [ -81.582283, 41.571024 ], [ -81.578786, 41.572626100000022 ], [ -81.5752204, 41.5724875 ], [ -81.539934, 41.564352 ], [ -81.5071927, 41.519786799999963 ], [ -81.5056077, 41.5013355 ], [ -81.527382700000018, 41.473793 ], [ -81.5383999, 41.4645603 ], [ -81.5648607, 41.452665 ], [ -81.5880035, 41.442273400000026 ], [ -81.595052, 41.439211 ], [ -81.6540363, 41.445701400000019 ] ] ] } },
{ "type": "Feature", "properties": { "OBJECTID": 1319, "ID": "0017044195", "NAME": "CLEVELAND CLINIC", "ADDRESS": "9500 EUCLID AVENUE", "CITY": "CLEVELAND", "STATE": "OH", "ZIP": "44195", "ZIP4": "NOT AVAILABLE", "TELEPHONE": "(216) 444-2200", "TYPE": "GENERAL ACUTE CARE", "STATUS": "OPEN", "POPULATION": 1268, "COUNTY": "CUYAHOGA", "COUNTYFIPS": "39035", "COUNTRY": "USA", "LATITUDE": 41.502750961000103, "LONGITUDE": -81.620792668999997, "NAICS_CODE": "622110", "NAICS_DESC": "GENERAL MEDICAL AND SURGICAL HOSPITALS", "SOURCE": "http://publicapps.odh.ohio.gov/EID/Provider_Search.aspx", "SOURCEDATE": "2018-08-10T00:00:00.000Z", "VAL_METHOD": "IMAGERY/OTHER", "VAL_DATE": "2014-02-10T00:00:00.000Z", "WEBSITE": "http://www.clevelandclinic.org", "STATE_ID": "1151", "ALT_NAME": "NOT AVAILABLE", "ST_FIPS": "39", "OWNER": "NON-PROFIT", "TTL_STAFF": -999, "BEDS": 1268, "TRAUMA": "NOT AVAILABLE", "HELIPAD": "Y" }, "geometry": { "type": "Polygon", "coordinates": [ [ [ -81.6455307, 41.425236 ], [ -81.7140874, 41.456454099999981 ], [ -81.734615, 41.4712221 ], [ -81.7106621, 41.498161099999969 ], [ -81.6991201, 41.5080575 ], [ -81.583555, 41.570377 ], [ -81.582283, 41.571024 ], [ -81.57801, 41.573094 ], [ -81.569490800000011, 41.5698252 ], [ -81.5527243, 41.555129100000023 ], [ -81.52466, 41.520607 ], [ -81.5127892, 41.5013549 ], [ -81.527382700000018, 41.473793 ], [ -81.534945, 41.464561 ], [ -81.5818241, 41.442767900000021 ], [ -81.585004, 41.441299 ], [ -81.595027, 41.437324 ], [ -81.6455307, 41.425236 ] ] ] } },
{ "type": "Feature", "properties": { "OBJECTID": 1320, "ID": "0010144122", "NAME": "UNIVERSITY HOSPITALS AHUJA MEDICAL CENTER", "ADDRESS": "3999 RICHMOND ROAD", "CITY": "BEACHWOOD", "STATE": "OH", "ZIP": "44122", "ZIP4": "NOT AVAILABLE", "TELEPHONE": "(216) 593-5500", "TYPE": "GENERAL ACUTE CARE", "STATUS": "OPEN", "POPULATION": 144, "COUNTY": "CUYAHOGA", "COUNTYFIPS": "39035", "COUNTRY": "USA", "LATITUDE": 41.452198872000103, "LONGITUDE": -81.494693568999907, "NAICS_CODE": "622110", "NAICS_DESC": "GENERAL MEDICAL AND SURGICAL HOSPITALS", "SOURCE": "http://publicapps.odh.ohio.gov/EID/Provider_Search.aspx", "SOURCEDATE": "2018-08-10T00:00:00.000Z", "VAL_METHOD": "IMAGERY", "VAL_DATE": "2014-02-10T00:00:00.000Z", "WEBSITE": "http://www.uhhospitals.org/ahuja/", "STATE_ID": "1497", "ALT_NAME": "NOT AVAILABLE", "ST_FIPS": "39", "OWNER": "NON-PROFIT", "TTL_STAFF": -999, "BEDS": 144, "TRAUMA": "NOT AVAILABLE", "HELIPAD": "Y" }, "geometry": { "type": "Polygon", "coordinates": [ [ [ -81.4890349, 41.34665 ], [ -81.512037, 41.350054 ], [ -81.531593, 41.354542 ], [ -81.53996, 41.358113 ], [ -81.6401193, 41.4077992 ], [ -81.618608, 41.448855 ], [ -81.593165, 41.48417 ], [ -81.523435400000011, 41.536158200000067 ], [ -81.478478, 41.541400600000024 ], [ -81.4388046, 41.540478 ], [ -81.414406, 41.519995 ], [ -81.394674600000016, 41.45965320000002 ], [ -81.394685, 41.459572 ], [ -81.398443200000017, 41.432135799999983 ], [ -81.42066, 41.387044 ], [ -81.4278023, 41.379943299999937 ], [ -81.4890349, 41.34665 ] ] ] } },
{ "type": "Feature", "properties": { "OBJECTID": 1321, "ID": "0014344129", "NAME": "PARMA COMMUNITY GENERAL HOSPITAL", "ADDRESS": "7007 POWERS BOULEVARD", "CITY": "PARMA", "STATE": "OH", "ZIP": "44129", "ZIP4": "NOT AVAILABLE", "TELEPHONE": "(440) 743-4900", "TYPE": "GENERAL ACUTE CARE", "STATUS": "OPEN", "POPULATION": 348, "COUNTY": "CUYAHOGA", "COUNTYFIPS": "39035", "COUNTRY": "USA", "LATITUDE": 41.382119836000101, "LONGITUDE": -81.731394676999997, "NAICS_CODE": "622110", "NAICS_DESC": "GENERAL MEDICAL AND SURGICAL HOSPITALS", "SOURCE": "http://publicapps.odh.ohio.gov/EID/Provider_Search.aspx", "SOURCEDATE": "2018-08-10T00:00:00.000Z", "VAL_METHOD": "IMAGERY/OTHER", "VAL_DATE": "2014-03-12T00:00:00.000Z", "WEBSITE": "www.parmahospital.org", "STATE_ID": "1007", "ALT_NAME": "NOT AVAILABLE", "ST_FIPS": "39", "OWNER": "NON-PROFIT", "TTL_STAFF": -999, "BEDS": 348, "TRAUMA": "NOT AVAILABLE", "HELIPAD": "Y" }, "geometry": { "type": "Polygon", "coordinates": [ [ [ -81.7478679, 41.30281709999997 ], [ -81.795986, 41.332445 ], [ -81.8204251, 41.3531707 ], [ -81.825401, 41.359296 ], [ -81.833559, 41.394979 ], [ -81.8173373, 41.420685899999988 ], [ -81.8012386, 41.43666070000004 ], [ -81.743679, 41.463968 ], [ -81.741395, 41.464853 ], [ -81.737398, 41.466345 ], [ -81.711844, 41.459915 ], [ -81.6893646, 41.448030199999984 ], [ -81.677247, 41.4374698 ], [ -81.6741377, 41.434052 ], [ -81.6542179, 41.408064399999986 ], [ -81.6461366, 41.395239900000043 ], [ -81.6462012, 41.361855 ], [ -81.649634600000013, 41.356964800000014 ], [ -81.6750148, 41.333605300000031 ], [ -81.7041924, 41.3137727 ], [ -81.724463, 41.3028536 ], [ -81.7299066, 41.301557699999989 ], [ -81.7478679, 41.30281709999997 ] ] ] } },
{ "type": "Feature", "properties": { "OBJECTID": 1367, "ID": "0129943725", "NAME": "CAMBRIDGE BEHAVORIAL HOSPITAL", "ADDRESS": "66755 STATE STREET", "CITY": "CAMBRIDGE", "STATE": "OH", "ZIP": "43725", "ZIP4": "NOT AVAILABLE", "TELEPHONE": "(813) 978-1933", "TYPE": "PSYCHIATRIC", "STATUS": "OPEN", "POPULATION": 66, "COUNTY": "GUERNSEY", "COUNTYFIPS": "39059", "COUNTRY": "USA", "LATITUDE": 40.066895838999997, "LONGITUDE": -81.582060309, "NAICS_CODE": "622210", "NAICS_DESC": "PSYCHIATRIC AND SUBSTANCE ABUSE HOSPITALS", "SOURCE": "http://publicapps.odh.ohio.gov/EID/Provider_Search.aspx", "SOURCEDATE": "2018-08-10T00:00:00.000Z", "VAL_METHOD": "IMAGERY/OTHER", "VAL_DATE": "2015-03-12T00:00:00.000Z", "WEBSITE": "http://www.cbhohio.com/", "STATE_ID": "1483", "ALT_NAME": "NOT AVAILABLE", "ST_FIPS": "39", "OWNER": "PROPRIETARY", "TTL_STAFF": -999, "BEDS": 66, "TRAUMA": "NOT AVAILABLE", "HELIPAD": "N" }, "geometry": { "type": "Polygon", "coordinates": [ [ [ -81.577928724669064, 39.996944815793753 ], [ -81.601522, 40.008033 ], [ -81.6167931, 40.015657399999981 ], [ -81.6220088, 40.036127 ], [ -81.610179, 40.067979 ], [ -81.5949683, 40.1053136 ], [ -81.5580469, 40.12601829999997 ], [ -81.5547659, 40.126893499999987 ], [ -81.5525553, 40.126268800000048 ], [ -81.4895852, 40.069079 ], [ -81.5259808, 40.021670599999979 ], [ -81.5274556, 40.019960400000016 ], [ -81.553695161375884, 39.995095868560078 ], [ -81.577928724669064, 39.996944815793753 ] ] ] } },
{ "type": "Feature", "properties": { "OBJECTID": 1368, "ID": "0002843725", "NAME": "SOUTHEASTERN OHIO REGIONAL MEDICAL CENTER", "ADDRESS": "1341 NORTH CLARK STREET", "CITY": "CAMBRIDGE", "STATE": "OH", "ZIP": "43725", "ZIP4": "NOT AVAILABLE", "TELEPHONE": "(740) 439-8112", "TYPE": "GENERAL ACUTE CARE", "STATUS": "OPEN", "POPULATION": 189, "COUNTY": "GUERNSEY", "COUNTYFIPS": "39059", "COUNTRY": "USA", "LATITUDE": 40.041473187000101, "LONGITUDE": -81.577392335999903, "NAICS_CODE": "622110", "NAICS_DESC": "GENERAL MEDICAL AND SURGICAL HOSPITALS", "SOURCE": "http://publicapps.odh.ohio.gov/EID/Provider_Search.aspx", "SOURCEDATE": "2018-08-10T00:00:00.000Z", "VAL_METHOD": "IMAGERY", "VAL_DATE": "2014-02-10T00:00:00.000Z", "WEBSITE": "http://www.seormc.org", "STATE_ID": "1181", "ALT_NAME": "NOT AVAILABLE", "ST_FIPS": "39", "OWNER": "NON-PROFIT", "TTL_STAFF": -999, "BEDS": 189, "TRAUMA": "NOT AVAILABLE", "HELIPAD": "Y" }, "geometry": { "type": "Polygon", "coordinates": [ [ [ -81.588254298308414, 39.956652950179681 ], [ -81.589816095219902, 39.957004646152626 ], [ -81.672416207799159, 39.99173492621285 ], [ -81.674678, 40.055017800000023 ], [ -81.554997500000013, 40.147229899999978 ], [ -81.546745, 40.147219 ], [ -81.5012663, 40.067554299999962 ], [ -81.4863251, 40.03523290000004 ], [ -81.499003633780106, 39.99514978030912 ], [ -81.522273888518058, 39.960003494128188 ], [ -81.588254298308414, 39.956652950179681 ] ] ] } },
{ "type": "Feature", "properties": { "OBJECTID": 1441, "ID": "0003744203", "NAME": "SUMMA HEALTH SYSTEM BARBERTON HOSPITAL", "ADDRESS": "155 5TH STREET N E", "CITY": "BARBERTON", "STATE": "OH", "ZIP": "44203", "ZIP4": "NOT AVAILABLE", "TELEPHONE": "(234) 312-5026", "TYPE": "GENERAL ACUTE CARE", "STATUS": "OPEN", "POPULATION": 271, "COUNTY": "SUMMIT", "COUNTYFIPS": "39153", "COUNTRY": "USA", "LATITUDE": 41.015071331000101, "LONGITUDE": -81.5889978229999, "NAICS_CODE": "622110", "NAICS_DESC": "GENERAL MEDICAL AND SURGICAL HOSPITALS", "SOURCE": "http://publicapps.odh.ohio.gov/EID/Provider_Search.aspx", "SOURCEDATE": "2018-08-10T00:00:00.000Z", "VAL_METHOD": "IMAGERY", "VAL_DATE": "2014-02-10T00:00:00.000Z", "WEBSITE": "http://www.summahealth.org/locations/hospitals/barberton", "STATE_ID": "1279", "ALT_NAME": "NOT AVAILABLE", "ST_FIPS": "39", "OWNER": "NON-PROFIT", "TTL_STAFF": -999, "BEDS": 271, "TRAUMA": "NOT AVAILABLE", "HELIPAD": "Y" }, "geometry": { "type": "Polygon", "coordinates": [ [ [ -81.565316145532236, 40.929788450383597 ], [ -81.569797124995233, 40.931218436647896 ], [ -81.580304075539928, 40.934589403877844 ], [ -81.586548044173639, 40.937296382140225 ], [ -81.631735789373934, 40.957706211888436 ], [ -81.68597379995964, 40.987497462754298 ], [ -81.6881491, 41.004141100000062 ], [ -81.679807, 41.054823 ], [ -81.6637513, 41.081376299999988 ], [ -81.586036, 41.104053 ], [ -81.516318, 41.089418 ], [ -81.479127, 41.062355 ], [ -81.4774247, 41.061084 ], [ -81.4612795, 41.027629 ], [ -81.493410843085016, 40.974752795633236 ], [ -81.565316145532236, 40.929788450383597 ] ] ] } },
{ "type": "Feature", "properties": { "OBJECTID": 1442, "ID": "0011344310", "NAME": "ST THOMAS HOSPITAL", "ADDRESS": "444 NORTH MAIN STREET", "CITY": "AKRON", "STATE": "OH", "ZIP": "44310", "ZIP4": "NOT AVAILABLE", "TELEPHONE": "(234) 312-5026", "TYPE": "GENERAL ACUTE CARE", "STATUS": "OPEN", "POPULATION": 392, "COUNTY": "SUMMIT", "COUNTYFIPS": "39153", "COUNTRY": "USA", "LATITUDE": 41.097634392000003, "LONGITUDE": -81.514073308999997, "NAICS_CODE": "622110", "NAICS_DESC": "GENERAL MEDICAL AND SURGICAL HOSPITALS", "SOURCE": "http://publicapps.odh.ohio.gov/EID/Provider_Search.aspx", "SOURCEDATE": "2018-08-10T00:00:00.000Z", "VAL_METHOD": "IMAGERY/OTHER", "VAL_DATE": "2014-02-10T00:00:00.000Z", "WEBSITE": "http://www.summahealth.org/locations/hospitals/stthomas", "STATE_ID": "1278", "ALT_NAME": "NOT AVAILABLE", "ST_FIPS": "39", "OWNER": "NON-PROFIT", "TTL_STAFF": -999, "BEDS": 392, "TRAUMA": "NOT AVAILABLE", "HELIPAD": "N" }, "geometry": { "type": "Polygon", "coordinates": [ [ [ -81.493875451490482, 40.990101468965435 ], [ -81.589402, 41.028545 ], [ -81.61174, 41.089575 ], [ -81.6106858, 41.1139395 ], [ -81.604564, 41.125582 ], [ -81.583655, 41.140846 ], [ -81.565003, 41.152741 ], [ -81.4816024, 41.2029538 ], [ -81.440382, 41.166717 ], [ -81.436328, 41.159443 ], [ -81.4060741, 41.075816 ], [ -81.421917, 41.059498 ], [ -81.493875451490482, 40.990101468965435 ] ] ] } },
{ "type": "Feature", "properties": { "OBJECTID": 1444, "ID": "0030044203", "NAME": "REGENCY HOSPITAL OF AKRON", "ADDRESS": "155 FIFTH STREET, NE", "CITY": "BARBERTON", "STATE": "OH", "ZIP": "44203", "ZIP4": "NOT AVAILABLE", "TELEPHONE": "(717) 975-4503", "TYPE": "LONG TERM CARE", "STATUS": "OPEN", "POPULATION": 45, "COUNTY": "SUMMIT", "COUNTYFIPS": "39153", "COUNTRY": "USA", "LATITUDE": 41.014583541, "LONGITUDE": -81.589116796, "NAICS_CODE": "622310", "NAICS_DESC": "EXTENDED CARE HOSPITALS (EXCEPT MENTAL, SUBSTANCE ABUSE)", "SOURCE": "http://publicapps.odh.ohio.gov/EID/Provider_Search.aspx", "SOURCEDATE": "2018-08-10T00:00:00.000Z", "VAL_METHOD": "IMAGERY", "VAL_DATE": "2016-09-21T00:00:00.000Z", "WEBSITE": "http://barberton.regencyhospital.com/", "STATE_ID": "1442", "ALT_NAME": "NOT AVAILABLE", "ST_FIPS": "39", "OWNER": "PROPRIETARY", "TTL_STAFF": -999, "BEDS": 45, "TRAUMA": "NOT AVAILABLE", "HELIPAD": "Y" }, "geometry": { "type": "Polygon", "coordinates": [ [ [ -81.565316145532236, 40.929788450383597 ], [ -81.60931093299746, 40.942372314152095 ], [ -81.695909972981909, 40.980778860381349 ], [ -81.695913471985762, 40.981002259512039 ], [ -81.679025, 41.051367 ], [ -81.6637513, 41.081376299999988 ], [ -81.586036, 41.104053 ], [ -81.516433, 41.088776 ], [ -81.479127, 41.062355 ], [ -81.4612795, 41.027629 ], [ -81.488949440241456, 40.974613483084752 ], [ -81.565316145532236, 40.929788450383597 ] ] ] } },
{ "type": "Feature", "properties": { "OBJECTID": 1482, "ID": "0001244106", "NAME": "LOUIS STOKES CLEVELAND VETERANS AFFAIRS MEDICAL CENTER", "ADDRESS": "10701 EAST BLVD", "CITY": "CLEVELAND", "STATE": "OH", "ZIP": "44106", "ZIP4": "NOT AVAILABLE", "TELEPHONE": "(216) 791-3800", "TYPE": "MILITARY", "STATUS": "OPEN", "POPULATION": 585, "COUNTY": "CUYAHOGA", "COUNTYFIPS": "39035", "COUNTRY": "USA", "LATITUDE": 41.513256388000102, "LONGITUDE": -81.613703544000003, "NAICS_CODE": "622110", "NAICS_DESC": "GENERAL MEDICAL AND SURGICAL HOSPITALS", "SOURCE": "http://publicapps.odh.ohio.gov/EID/Provider_Search.aspx", "SOURCEDATE": "2018-08-10T00:00:00.000Z", "VAL_METHOD": "IMAGERY", "VAL_DATE": "2014-02-04T00:00:00.000Z", "WEBSITE": "http://www.cleveland.va.gov/", "STATE_ID": "36001F", "ALT_NAME": "NOT AVAILABLE", "ST_FIPS": "39", "OWNER": "GOVERNMENT - FEDERAL", "TTL_STAFF": -999, "BEDS": 585, "TRAUMA": "NOT AVAILABLE", "HELIPAD": "N" }, "geometry": { "type": "Polygon", "coordinates": [ [ [ -81.650886600000021, 41.442097200000013 ], [ -81.6948313, 41.460686300000035 ], [ -81.713431, 41.475446 ], [ -81.7134353, 41.475666100000026 ], [ -81.7066946, 41.50000540000002 ], [ -81.6991201, 41.5080575 ], [ -81.572055, 41.581081 ], [ -81.5347008, 41.5832414 ], [ -81.5127892, 41.5013549 ], [ -81.5170542, 41.495439399999988 ], [ -81.5362052, 41.4725517 ], [ -81.5434905, 41.464556399999985 ], [ -81.549335, 41.461259 ], [ -81.5648663, 41.453494100000043 ], [ -81.595052, 41.439211 ], [ -81.650886600000021, 41.442097200000013 ] ] ] } },
{ "type": "Feature", "properties": { "OBJECTID": 1685, "ID": "0122544310", "NAME": "CRYSTAL CLINIC ORTHOPAEDIC CENTER", "ADDRESS": "444 NORTH MAIN STREET", "CITY": "AKRON", "STATE": "OH", "ZIP": "44310", "ZIP4": "NOT AVAILABLE", "TELEPHONE": "(330) 762-2262", "TYPE": "SPECIAL", "STATUS": "OPEN", "POPULATION": 94, "COUNTY": "SUMMIT", "COUNTYFIPS": "39153", "COUNTRY": "USA", "LATITUDE": 41.096930372000003, "LONGITUDE": -81.513451263999997, "NAICS_CODE": "622310", "NAICS_DESC": "ORTHOPEDIC HOSPITALS", "SOURCE": "http://publicapps.odh.ohio.gov/EID/Provider_Search.aspx", "SOURCEDATE": "2018-08-10T00:00:00.000Z", "VAL_METHOD": "IMAGERY/OTHER", "VAL_DATE": "2015-03-10T00:00:00.000Z", "WEBSITE": "http://www.crystalclinic.com/locations/akron", "STATE_ID": "1484", "ALT_NAME": "NOT AVAILABLE", "ST_FIPS": "39", "OWNER": "PROPRIETARY", "TTL_STAFF": -999, "BEDS": 94, "TRAUMA": "NOT AVAILABLE", "HELIPAD": "N" }, "geometry": { "type": "Polygon", "coordinates": [ [ [ -81.49281404846765, 40.985877973657395 ], [ -81.492983648605829, 40.98590117409659 ], [ -81.590795, 41.02757 ], [ -81.61174, 41.089575 ], [ -81.614244, 41.116085 ], [ -81.56603, 41.150528 ], [ -81.477666, 41.184642 ], [ -81.4740281, 41.183850600000028 ], [ -81.446537, 41.166716 ], [ -81.4416801, 41.159119399999966 ], [ -81.4060741, 41.075816 ], [ -81.416742, 41.058518 ], [ -81.49281404846765, 40.985877973657395 ] ] ] } },
{ "type": "Feature", "properties": { "OBJECTID": 1688, "ID": "0124244067", "NAME": "NORTHCOAST BEHAVIORAL HEALTHCARE NORTHFIELD CAMPUS", "ADDRESS": "1756 SAGAMORE ROAD", "CITY": "NORTHFIELD", "STATE": "OH", "ZIP": "44067", "ZIP4": "NOT AVAILABLE", "TELEPHONE": "(330) 467-7131", "TYPE": "PSYCHIATRIC", "STATUS": "OPEN", "POPULATION": -999, "COUNTY": "SUMMIT", "COUNTYFIPS": "39153", "COUNTRY": "USA", "LATITUDE": 41.348951599000003, "LONGITUDE": -81.572578469000007, "NAICS_CODE": "622210", "NAICS_DESC": "PSYCHIATRIC AND SUBSTANCE ABUSE HOSPITALS", "SOURCE": "http://publicapps.odh.ohio.gov/EID/Provider_Search.aspx", "SOURCEDATE": "2018-08-10T00:00:00.000Z", "VAL_METHOD": "IMAGERY/OTHER", "VAL_DATE": "2015-03-10T00:00:00.000Z", "WEBSITE": "http://mha.ohio.gov/default.aspx?tabid=190", "STATE_ID": "NOT AVAILABLE", "ALT_NAME": "NOT AVAILABLE", "ST_FIPS": "39", "OWNER": "GOVERNMENT - STATE", "TTL_STAFF": -999, "BEDS": -999, "TRAUMA": "NOT AVAILABLE", "HELIPAD": "N" }, "geometry": { "type": "Polygon", "coordinates": [ [ [ -81.5135788, 41.272758500000037 ], [ -81.5653037, 41.288716799999989 ], [ -81.6615584, 41.361723 ], [ -81.626997, 41.394704 ], [ -81.600924, 41.410032600000029 ], [ -81.580622, 41.41784 ], [ -81.5065615, 41.4109594 ], [ -81.499722, 41.409782 ], [ -81.498953, 41.409461 ], [ -81.4977876, 41.4088832 ], [ -81.4620801, 41.356733399999982 ], [ -81.461806, 41.328203 ], [ -81.5135788, 41.272758500000037 ] ] ] } },
{ "type": "Feature", "properties": { "OBJECTID": 1690, "ID": "0124744106", "NAME": "RAINBOW BABIES AND CHILDRENS HOSPITAL", "ADDRESS": "11100 EUCLID AVENUE", "CITY": "CLEVELAND", "STATE": "OH", "ZIP": "44106", "ZIP4": "NOT AVAILABLE", "TELEPHONE": "(216) 844-1000", "TYPE": "CHILDREN", "STATUS": "OPEN", "POPULATION": -999, "COUNTY": "CUYAHOGA", "COUNTYFIPS": "39035", "COUNTRY": "USA", "LATITUDE": 41.507561205999998, "LONGITUDE": -81.605813744000002, "NAICS_CODE": "622310", "NAICS_DESC": "CHILDREN'S HOSPITALS, SPECIALTY (EXCEPT PSYCHIATRIC, SUBSTANCE ABUSE)", "SOURCE": "http://publicapps.odh.ohio.gov/EID/Provider_Search.aspx", "SOURCEDATE": "2018-08-10T00:00:00.000Z", "VAL_METHOD": "IMAGERY/OTHER", "VAL_DATE": "2015-03-11T00:00:00.000Z", "WEBSITE": "http://www.uhhospitals.org/rainbow", "STATE_ID": "NOT AVAILABLE", "ALT_NAME": "NOT AVAILABLE", "ST_FIPS": "39", "OWNER": "NON-PROFIT", "TTL_STAFF": -999, "BEDS": -999, "TRAUMA": "LEVEL I PEDIATRIC", "HELIPAD": "Y" }, "geometry": { "type": "Polygon", "coordinates": [ [ [ -81.650886600000021, 41.442097200000013 ], [ -81.6948313, 41.460686300000035 ], [ -81.713431, 41.475446 ], [ -81.7134353, 41.475666100000026 ], [ -81.7032438, 41.500327899999981 ], [ -81.6991201, 41.5080575 ], [ -81.575344, 41.575844 ], [ -81.5356278, 41.568591900000015 ], [ -81.509774, 41.51976 ], [ -81.507966, 41.501358 ], [ -81.515861, 41.490858 ], [ -81.5276721, 41.47783210000005 ], [ -81.5434905, 41.464556399999985 ], [ -81.546924, 41.461971 ], [ -81.5848783, 41.443411100000034 ], [ -81.595052, 41.439211 ], [ -81.650886600000021, 41.442097200000013 ] ] ] } },
{ "type": "Feature", "properties": { "OBJECTID": 1695, "ID": "0128243953", "NAME": "LIFE LINE HOSPITAL", "ADDRESS": "200 SCHOOL STREET", "CITY": "WINTERSVILLE", "STATE": "OH", "ZIP": "43953", "ZIP4": "NOT AVAILABLE", "TELEPHONE": "(740) 346-2600", "TYPE": "LONG TERM CARE", "STATUS": "OPEN", "POPULATION": 36, "COUNTY": "JEFFERSON", "COUNTYFIPS": "39081", "COUNTRY": "USA", "LATITUDE": 40.372433896000103, "LONGITUDE": -80.701221360999995, "NAICS_CODE": "622310", "NAICS_DESC": "SPECIALTY (EXCEPT PSYCHIATRIC AND SUBSTANCE ABUSE) HOSPITALS", "SOURCE": "http://publicapps.odh.ohio.gov/EID/Provider_Search.aspx", "SOURCEDATE": "2018-08-10T00:00:00.000Z", "VAL_METHOD": "IMAGERY/OTHER", "VAL_DATE": "2015-03-11T00:00:00.000Z", "WEBSITE": "http://www.llhospital.com/", "STATE_ID": "1493", "ALT_NAME": "NOT AVAILABLE", "ST_FIPS": "39", "OWNER": "PROPRIETARY", "TTL_STAFF": -999, "BEDS": 36, "TRAUMA": "NOT AVAILABLE", "HELIPAD": "N" }, "geometry": { "type": "Polygon", "coordinates": [ [ [ -80.7325413, 40.3194971 ], [ -80.8312473, 40.3377286 ], [ -80.8321614, 40.341108900000023 ], [ -80.7904679, 40.409726 ], [ -80.7881449, 40.4129983 ], [ -80.7655142, 40.430381 ], [ -80.6157129, 40.429494699999978 ], [ -80.6065118, 40.3574073 ], [ -80.6217378, 40.33892960000005 ], [ -80.7325413, 40.3194971 ] ] ] } },
{ "type": "Feature", "properties": { "OBJECTID": 2309, "ID": "0125244460", "NAME": "SALEM REGIONAL MEDICAL CENTER", "ADDRESS": "1995 EAST STATE STREET", "CITY": "SALEM", "STATE": "OH", "ZIP": "44460", "ZIP4": "NOT AVAILABLE", "TELEPHONE": "(330) 332-7214", "TYPE": "GENERAL ACUTE CARE", "STATUS": "OPEN", "POPULATION": 199, "COUNTY": "COLUMBIANA", "COUNTYFIPS": "39029", "COUNTRY": "USA", "LATITUDE": 40.900491949000099, "LONGITUDE": -80.832439409999907, "NAICS_CODE": "622110", "NAICS_DESC": "GENERAL MEDICAL AND SURGICAL HOSPITALS", "SOURCE": "http://publicapps.odh.ohio.gov/EID/Provider_Search.aspx", "SOURCEDATE": "2018-08-10T00:00:00.000Z", "VAL_METHOD": "IMAGERY/OTHER", "VAL_DATE": "2015-03-11T00:00:00.000Z", "WEBSITE": "http://www.salemregional.com/", "STATE_ID": "1125", "ALT_NAME": "SALEM COMMUNITY HOSPITAL", "ST_FIPS": "39", "OWNER": "NOT AVAILABLE", "TTL_STAFF": -999, "BEDS": 199, "TRAUMA": "NOT AVAILABLE", "HELIPAD": "Y" }, "geometry": { "type": "Polygon", "coordinates": [ [ [ -80.904947367791578, 40.836847231511697 ], [ -80.928770222229218, 40.901198661711739 ], [ -80.905841909593832, 40.950024228775739 ], [ -80.855866885923234, 40.973482181955809 ], [ -80.793301961264874, 40.944025105550679 ], [ -80.74325153841211, 40.877291396745129 ], [ -80.765012067136794, 40.850730298701521 ], [ -80.788519098016465, 40.835200927319129 ], [ -80.805604016978052, 40.829338053963575 ], [ -80.904947367791578, 40.836847231511697 ] ] ] } },
{ "type": "Feature", "properties": { "OBJECTID": 2312, "ID": "0005744122", "NAME": "SOUTH POINTE HOSPITAL", "ADDRESS": "20000 HARVARD ROAD", "CITY": "WARRENSVILLE HEIGHTS", "STATE": "OH", "ZIP": "44122", "ZIP4": "NOT AVAILABLE", "TELEPHONE": "(216) 491-6000", "TYPE": "GENERAL ACUTE CARE", "STATUS": "OPEN", "POPULATION": 344, "COUNTY": "CUYAHOGA", "COUNTYFIPS": "39035", "COUNTRY": "USA", "LATITUDE": 41.447903845, "LONGITUDE": -81.537736486, "NAICS_CODE": "622110", "NAICS_DESC": "GENERAL MEDICAL AND SURGICAL HOSPITALS", "SOURCE": "http://publicapps.odh.ohio.gov/EID/Provider_Search.aspx", "SOURCEDATE": "2018-08-10T00:00:00.000Z", "VAL_METHOD": "IMAGERY", "VAL_DATE": "2014-02-10T00:00:00.000Z", "WEBSITE": "http://my.clevelandclinic.org/locations_directions/Regional-Locations/southpointe-hospital", "STATE_ID": "1297", "ALT_NAME": "NOT AVAILABLE", "ST_FIPS": "39", "OWNER": "NON-PROFIT", "TTL_STAFF": -999, "BEDS": 344, "TRAUMA": "NOT AVAILABLE", "HELIPAD": "Y" }, "geometry": { "type": "Polygon", "coordinates": [ [ [ -81.517239, 41.356161 ], [ -81.526684, 41.358092199999987 ], [ -81.6532887, 41.392395600000022 ], [ -81.6606578, 41.396893499999962 ], [ -81.6635465, 41.400094600000024 ], [ -81.6755136, 41.416574 ], [ -81.6755996, 41.4170185 ], [ -81.630177, 41.475637 ], [ -81.5728075, 41.525370100000025 ], [ -81.5228233, 41.536296100000023 ], [ -81.4440497, 41.523370300000025 ], [ -81.4404183, 41.520124800000019 ], [ -81.4248108, 41.460272300000042 ], [ -81.423104, 41.446045 ], [ -81.429142, 41.3975 ], [ -81.4297405, 41.3934851 ], [ -81.4377515, 41.3862367 ], [ -81.4938804, 41.3537265 ], [ -81.517239, 41.356161 ] ] ] } },
{ "type": "Feature", "properties": { "OBJECTID": 2319, "ID": "0028044122", "NAME": "HIGHLAND SPRINGS HOSPITAL", "ADDRESS": "4199 MILL POND DRIVE", "CITY": "HIGHLAND HILLS", "STATE": "OH", "ZIP": "44122", "ZIP4": "NOT AVAILABLE", "TELEPHONE": "(216) 302-3070", "TYPE": "PSYCHIATRIC", "STATUS": "OPEN", "POPULATION": 72, "COUNTY": "CUYAHOGA", "COUNTYFIPS": "39035", "COUNTRY": "USA", "LATITUDE": 41.450390944, "LONGITUDE": -81.52228096, "NAICS_CODE": "622210", "NAICS_DESC": "PSYCHIATRIC AND SUBSTANCE ABUSE HOSPITALS", "SOURCE": "http://publicapps.odh.ohio.gov/EID/Provider_Search.aspx", "SOURCEDATE": "2018-08-10T00:00:00.000Z", "VAL_METHOD": "IMAGERY/OTHER", "VAL_DATE": "2016-09-20T00:00:00.000Z", "WEBSITE": "http://www.highlandspringshealth.com/", "STATE_ID": "1520", "ALT_NAME": "NOT AVAILABLE", "ST_FIPS": "39", "OWNER": "PROPRIETARY", "TTL_STAFF": -999, "BEDS": 72, "TRAUMA": "NOT AVAILABLE", "HELIPAD": "N" }, "geometry": { "type": "Polygon", "coordinates": [ [ [ -81.512037, 41.350054 ], [ -81.6514421, 41.4002668 ], [ -81.6566898, 41.409189800000085 ], [ -81.642148, 41.448315 ], [ -81.637312, 41.456979 ], [ -81.623004, 41.472377 ], [ -81.609098, 41.486088 ], [ -81.601699900000014, 41.49247680000002 ], [ -81.5699262, 41.518288399999975 ], [ -81.533573, 41.542163 ], [ -81.531763, 41.542483 ], [ -81.4474948, 41.53893090000004 ], [ -81.4325912, 41.523128799999967 ], [ -81.4316023, 41.520140399999981 ], [ -81.410855, 41.44036 ], [ -81.411097, 41.438817 ], [ -81.4297405, 41.3934851 ], [ -81.437737, 41.385002 ], [ -81.4886686, 41.349515499999981 ], [ -81.4890005, 41.349395200000025 ], [ -81.512037, 41.350054 ] ] ] } },
{ "type": "Feature", "properties": { "OBJECTID": 2320, "ID": "0004644119", "NAME": "EUCLID HOSPITAL", "ADDRESS": "18901 LAKE SHORE BOULEVARD", "CITY": "EUCLID", "STATE": "OH", "ZIP": "44119", "ZIP4": "NOT AVAILABLE", "TELEPHONE": "(216) 531-9000", "TYPE": "GENERAL ACUTE CARE", "STATUS": "OPEN", "POPULATION": 371, "COUNTY": "CUYAHOGA", "COUNTYFIPS": "39035", "COUNTRY": "USA", "LATITUDE": 41.598894050000098, "LONGITUDE": -81.548777518999898, "NAICS_CODE": "622110", "NAICS_DESC": "GENERAL MEDICAL AND SURGICAL HOSPITALS", "SOURCE": "http://publicapps.odh.ohio.gov/EID/Provider_Search.aspx", "SOURCEDATE": "2018-08-10T00:00:00.000Z", "VAL_METHOD": "IMAGERY", "VAL_DATE": "2014-02-10T00:00:00.000Z", "WEBSITE": "http://www.euclidhospital.org", "STATE_ID": "1133", "ALT_NAME": "NOT AVAILABLE", "ST_FIPS": "39", "OWNER": "NON-PROFIT", "TTL_STAFF": -999, "BEDS": 371, "TRAUMA": "NOT AVAILABLE", "HELIPAD": "Y" }, "geometry": { "type": "Polygon", "coordinates": [ [ [ -81.6519807, 41.5290117 ], [ -81.6524306, 41.530493600000035 ], [ -81.6503178, 41.532264099999985 ], [ -81.543152, 41.604988 ], [ -81.5291409, 41.614037199999963 ], [ -81.5287601, 41.614257599999959 ], [ -81.469343, 41.6463247 ], [ -81.4671045, 41.646647200000011 ], [ -81.45538, 41.626444400000011 ], [ -81.46753, 41.603153899999967 ], [ -81.4948592, 41.552726800000023 ], [ -81.504926, 41.547079 ], [ -81.526108, 41.538184 ], [ -81.5826877, 41.529750599999964 ], [ -81.6016938, 41.52829770000001 ], [ -81.633606, 41.527842 ], [ -81.6391328, 41.528068899999973 ], [ -81.6519807, 41.5290117 ] ] ] } },
{ "type": "Feature", "properties": { "OBJECTID": 2347, "ID": "0129744710", "NAME": "ACUTE CARE SPECIALTY HOSPITAL - AULTMAN", "ADDRESS": "2000 SIXTH STREET", "CITY": "CANTON", "STATE": "OH", "ZIP": "44710", "ZIP4": "NOT AVAILABLE", "TELEPHONE": "(330) 363-4000", "TYPE": "LONG TERM CARE", "STATUS": "OPEN", "POPULATION": 30, "COUNTY": "STARK", "COUNTYFIPS": "39151", "COUNTRY": "USA", "LATITUDE": 40.796248234000103, "LONGITUDE": -81.404029590999997, "NAICS_CODE": "622310", "NAICS_DESC": "SPECIALTY (EXCEPT PSYCHIATRIC AND SUBSTANCE ABUSE) HOSPITALS", "SOURCE": "http://publicapps.odh.ohio.gov/EID/Provider_Search.aspx", "SOURCEDATE": "2018-08-10T00:00:00.000Z", "VAL_METHOD": "IMAGERY/OTHER", "VAL_DATE": "2015-03-12T00:00:00.000Z", "WEBSITE": "https://aultman.org/home/services/medical-services/acute-care/#/", "STATE_ID": "1454", "ALT_NAME": "NOT AVAILABLE", "ST_FIPS": "39", "OWNER": "NON-PROFIT", "TTL_STAFF": -999, "BEDS": 30, "TRAUMA": "NOT AVAILABLE", "HELIPAD": "Y" }, "geometry": { "type": "Polygon", "coordinates": [ [ [ -81.430954456168038, 40.715058587372887 ], [ -81.519679320419428, 40.75182491657872 ], [ -81.523324321565696, 40.760569896834113 ], [ -81.523448121582476, 40.767868381579646 ], [ -81.515518326855585, 40.789967842063845 ], [ -81.482166890259904, 40.860515768108833 ], [ -81.466624404098383, 40.878457587254076 ], [ -81.445935413070615, 40.899938486065331 ], [ -81.439009414170954, 40.903356459050862 ], [ -81.428763415903489, 40.902606728880635 ], [ -81.416594419031156, 40.898999397373956 ], [ -81.297599526716198, 40.847177097879289 ], [ -81.287629559295397, 40.832687084024592 ], [ -81.284116642497935, 40.787211129381454 ], [ -81.297096146740415, 40.773168491338467 ], [ -81.312443645544434, 40.757312264895873 ], [ -81.364580955202399, 40.724916915252507 ], [ -81.365152354269952, 40.724736716680901 ], [ -81.367275550830968, 40.724101422012822 ], [ -81.414841479814982, 40.714588540460873 ], [ -81.430954456168038, 40.715058587372887 ] ] ] } },
{ "type": "Feature", "properties": { "OBJECTID": 2490, "ID": "0010244307", "NAME": "AKRON GENERAL MEDICAL CENTER", "ADDRESS": "1 AKRON GENERAL AVENUE", "CITY": "AKRON", "STATE": "OH", "ZIP": "44307", "ZIP4": "NOT AVAILABLE", "TELEPHONE": "(330) 344-6000", "TYPE": "GENERAL ACUTE CARE", "STATUS": "OPEN", "POPULATION": 532, "COUNTY": "SUMMIT", "COUNTYFIPS": "39153", "COUNTRY": "USA", "LATITUDE": 41.078123172000097, "LONGITUDE": -81.531396771999894, "NAICS_CODE": "622110", "NAICS_DESC": "GENERAL MEDICAL AND SURGICAL HOSPITALS", "SOURCE": "http://publicapps.odh.ohio.gov/EID/Provider_Search.aspx", "SOURCEDATE": "2018-08-10T00:00:00.000Z", "VAL_METHOD": "IMAGERY", "VAL_DATE": "2014-03-12T00:00:00.000Z", "WEBSITE": "http://www.akrongeneral.org", "STATE_ID": "1276", "ALT_NAME": "NOT AVAILABLE", "ST_FIPS": "39", "OWNER": "NON-PROFIT", "TTL_STAFF": -999, "BEDS": 532, "TRAUMA": "LEVEL I", "HELIPAD": "Y" }, "geometry": { "type": "Polygon", "coordinates": [ [ [ -81.49281404846765, 40.985877973657395 ], [ -81.492983648605829, 40.98590117409659 ], [ -81.600579, 41.011248 ], [ -81.606374, 41.013653 ], [ -81.6409052, 41.0395957 ], [ -81.644537, 41.119521 ], [ -81.6363953, 41.126279500000017 ], [ -81.56603, 41.150528 ], [ -81.473677, 41.164738 ], [ -81.470455, 41.163253 ], [ -81.46097, 41.150963 ], [ -81.4060741, 41.075816 ], [ -81.49281404846765, 40.985877973657395 ] ] ] } },
{ "type": "Feature", "properties": { "OBJECTID": 6070, "ID": "0005344601", "NAME": "ALLIANCE COMMUNITY HOSPITAL", "ADDRESS": "200 EAST STATE STREET", "CITY": "ALLIANCE", "STATE": "OH", "ZIP": "44601", "ZIP4": "NOT AVAILABLE", "TELEPHONE": "(330) 596-6000", "TYPE": "GENERAL ACUTE CARE", "STATUS": "OPEN", "POPULATION": 255, "COUNTY": "STARK", "COUNTYFIPS": "39151", "COUNTRY": "USA", "LATITUDE": 40.902582625000001, "LONGITUDE": -81.102712914999998, "NAICS_CODE": "622110", "NAICS_DESC": "GENERAL MEDICAL AND SURGICAL HOSPITALS", "SOURCE": "http://publicapps.odh.ohio.gov/EID/Provider_Search.aspx", "SOURCEDATE": "2018-08-10T00:00:00.000Z", "VAL_METHOD": "IMAGERY", "VAL_DATE": "2014-02-10T00:00:00.000Z", "WEBSITE": "http://www.achosp.org", "STATE_ID": "1269", "ALT_NAME": "NOT AVAILABLE", "ST_FIPS": "39", "OWNER": "NON-PROFIT", "TTL_STAFF": -999, "BEDS": 255, "TRAUMA": "NOT AVAILABLE", "HELIPAD": "N" }, "geometry": { "type": "Polygon", "coordinates": [ [ [ -81.092939451903291, 40.803426632324232 ], [ -81.14799644695303, 40.833659731366595 ], [ -81.228407462983782, 40.878055862618844 ], [ -81.236060421085924, 40.90282785117946 ], [ -81.147991035674963, 40.995847580261284 ], [ -81.098721, 41.006488 ], [ -81.018966286958701, 40.924316483036783 ], [ -81.015593102506983, 40.917274980651413 ], [ -81.012189545038339, 40.901505583627241 ], [ -81.012189545238897, 40.901440383668493 ], [ -81.092939451903291, 40.803426632324232 ] ] ] } },
{ "type": "Feature", "properties": { "OBJECTID": 6071, "ID": "0029944646", "NAME": "AULTMAN HOSPITAL WEST", "ADDRESS": "2051 WALES AVENUE NW", "CITY": "MASSILLON", "STATE": "OH", "ZIP": "44646", "ZIP4": "NOT AVAILABLE", "TELEPHONE": "(330) 497-3966", "TYPE": "GENERAL ACUTE CARE", "STATUS": "OPEN", "POPULATION": 8, "COUNTY": "STARK", "COUNTYFIPS": "39151", "COUNTRY": "USA", "LATITUDE": 40.822193343000002, "LONGITUDE": -81.50451061, "NAICS_CODE": "622110", "NAICS_DESC": "GENERAL MEDICAL AND SURGICAL HOSPITALS", "SOURCE": "http://publicapps.odh.ohio.gov/EID/Provider_Search.aspx", "SOURCEDATE": "2018-08-10T00:00:00.000Z", "VAL_METHOD": "IMAGERY/OTHER", "VAL_DATE": "2016-09-21T00:00:00.000Z", "WEBSITE": "https://aultman.org", "STATE_ID": "1443", "ALT_NAME": "NOT AVAILABLE", "ST_FIPS": "39", "OWNER": "NON-PROFIT", "TTL_STAFF": -999, "BEDS": 8, "TRAUMA": "NOT AVAILABLE", "HELIPAD": "N" }, "geometry": { "type": "Polygon", "coordinates": [ [ [ -81.517395332777184, 40.739837881653855 ], [ -81.584775316300963, 40.767239847048451 ], [ -81.606066149950394, 40.845794604620991 ], [ -81.60544014769107, 40.847507600486338 ], [ -81.586602135297966, 40.880219537737453 ], [ -81.536781773907094, 40.905199469111473 ], [ -81.475447406310337, 40.896701582538192 ], [ -81.431845217653446, 40.887312863632189 ], [ -81.420315422840602, 40.882284435945081 ], [ -81.3961274427337, 40.862602391041555 ], [ -81.393661446752276, 40.858099390185131 ], [ -81.393270467235084, 40.82248644408277 ], [ -81.458850388963015, 40.752850279979711 ], [ -81.464319378817464, 40.751303801695364 ], [ -81.517395332777184, 40.739837881653855 ] ] ] } },
{ "type": "Feature", "properties": { "OBJECTID": 6094, "ID": "0126044308", "NAME": "SELECT SPECIALTY HOSPITAL-AKRON", "ADDRESS": "200 EAST MARKET STREET", "CITY": "AKRON", "STATE": "OH", "ZIP": "44308", "ZIP4": "NOT AVAILABLE", "TELEPHONE": "(330) 761-7500", "TYPE": "LONG TERM CARE", "STATUS": "OPEN", "POPULATION": 60, "COUNTY": "SUMMIT", "COUNTYFIPS": "39153", "COUNTRY": "USA", "LATITUDE": 41.082915889, "LONGITUDE": -81.511774101999904, "NAICS_CODE": "622310", "NAICS_DESC": "SPECIALTY (EXCEPT PSYCHIATRIC AND SUBSTANCE ABUSE) HOSPITALS", "SOURCE": "http://publicapps.odh.ohio.gov/EID/Provider_Search.aspx", "SOURCEDATE": "2018-08-10T00:00:00.000Z", "VAL_METHOD": "IMAGERY/OTHER", "VAL_DATE": "2015-03-11T00:00:00.000Z", "WEBSITE": "http://akron.selectspecialtyhospitals.com/", "STATE_ID": "1476", "ALT_NAME": "NOT AVAILABLE", "ST_FIPS": "39", "OWNER": "PROPRIETARY", "TTL_STAFF": -999, "BEDS": 60, "TRAUMA": "NOT AVAILABLE", "HELIPAD": "N" }, "geometry": { "type": "Polygon", "coordinates": [ [ [ -81.467889425014093, 40.965860437995261 ], [ -81.493559440769189, 40.970168504418822 ], [ -81.595018, 41.024195 ], [ -81.6119656, 41.04078890000001 ], [ -81.633846, 41.119321 ], [ -81.488616, 41.18107 ], [ -81.477666, 41.184642 ], [ -81.4740281, 41.183850600000028 ], [ -81.444667, 41.166721 ], [ -81.388715, 41.083195 ], [ -81.3929255, 41.066269899999966 ], [ -81.39974, 41.054215 ], [ -81.467889425014093, 40.965860437995261 ] ] ] } },
{ "type": "Feature", "properties": { "OBJECTID": 6110, "ID": "0129144304", "NAME": "SUMMA REHAB HOSPITAL", "ADDRESS": "29 NORTH ADAMS STREET", "CITY": "AKRON", "STATE": "OH", "ZIP": "44304", "ZIP4": "NOT AVAILABLE", "TELEPHONE": "(330) 572-7300", "TYPE": "REHABILITATION", "STATUS": "OPEN", "POPULATION": 60, "COUNTY": "SUMMIT", "COUNTYFIPS": "39153", "COUNTRY": "USA", "LATITUDE": 41.078176985, "LONGITUDE": -81.498049269000006, "NAICS_CODE": "622310", "NAICS_DESC": "REHABILITATION HOSPITALS (EXCEPT ALCOHOLISM, DRUG ADDICTION)", "SOURCE": "http://publicapps.odh.ohio.gov/EID/Provider_Search.aspx", "SOURCEDATE": "2018-08-10T00:00:00.000Z", "VAL_METHOD": "IMAGERY/OTHER", "VAL_DATE": "2015-03-12T00:00:00.000Z", "WEBSITE": "http://www.summahealth.org/locations/hospitals/summarehabhospital", "STATE_ID": "1503", "ALT_NAME": "NOT AVAILABLE", "ST_FIPS": "39", "OWNER": "PROPRIETARY", "TTL_STAFF": -999, "BEDS": 60, "TRAUMA": "NOT AVAILABLE", "HELIPAD": "N" }, "geometry": { "type": "Polygon", "coordinates": [ [ [ -81.467889425014093, 40.965860437995261 ], [ -81.493533441110799, 40.97084750310583 ], [ -81.555243, 41.008537 ], [ -81.5841145, 41.036992699999971 ], [ -81.599656, 41.08271 ], [ -81.601095, 41.087016 ], [ -81.581609, 41.114872 ], [ -81.554309, 41.133677 ], [ -81.4833222, 41.181201800000011 ], [ -81.477666, 41.184642 ], [ -81.4740281, 41.183850600000028 ], [ -81.450138, 41.166717 ], [ -81.388715, 41.083195 ], [ -81.387142, 41.066106 ], [ -81.397942, 41.049915 ], [ -81.467889425014093, 40.965860437995261 ] ] ] } },
{ "type": "Feature", "properties": { "OBJECTID": 6122, "ID": "0121944505", "NAME": "BELMONT PINES HOSPITAL", "ADDRESS": "615 CHURCHILL-HUBBARD RD", "CITY": "YOUNGSTOWN", "STATE": "OH", "ZIP": "44505", "ZIP4": "NOT AVAILABLE", "TELEPHONE": "(330) 759-2700", "TYPE": "PSYCHIATRIC", "STATUS": "OPEN", "POPULATION": 46, "COUNTY": "MAHONING", "COUNTYFIPS": "39099", "COUNTRY": "USA", "LATITUDE": 41.161310211999997, "LONGITUDE": -80.655643912999906, "NAICS_CODE": "622210", "NAICS_DESC": "PSYCHIATRIC AND SUBSTANCE ABUSE HOSPITALS", "SOURCE": "http://publicapps.odh.ohio.gov/EID/Provider_Search.aspx", "SOURCEDATE": "2018-08-10T00:00:00.000Z", "VAL_METHOD": "IMAGERY/OTHER", "VAL_DATE": "2015-03-10T00:00:00.000Z", "WEBSITE": "http://www.belmontpines.com/", "STATE_ID": "1545", "ALT_NAME": "NOT AVAILABLE", "ST_FIPS": "39", "OWNER": "PROPRIETARY", "TTL_STAFF": -999, "BEDS": 46, "TRAUMA": "NOT AVAILABLE", "HELIPAD": "N" }, "geometry": { "type": "Polygon", "coordinates": [ [ [ -80.675387918224175, 41.07871174571946 ], [ -80.711014, 41.083382 ], [ -80.755777, 41.099597 ], [ -80.7756385, 41.1239101 ], [ -80.772684, 41.180518 ], [ -80.771698, 41.184346 ], [ -80.769561, 41.19247 ], [ -80.75079, 41.233874900000018 ], [ -80.740545, 41.239528 ], [ -80.663785, 41.260465 ], [ -80.54132754808181, 41.206683839157414 ], [ -80.541108549009309, 41.206553839330155 ], [ -80.519117843399542, 41.171124230678807 ], [ -80.569077899835094, 41.119381759644327 ], [ -80.618704980692428, 41.084416742069976 ], [ -80.646230975089594, 41.076172744595787 ], [ -80.675387918224175, 41.07871174571946 ] ] ] } },
{ "type": "Feature", "properties": { "OBJECTID": 6255, "ID": "0002144125", "NAME": "MARYMOUNT HOSPITAL", "ADDRESS": "12300 MCCRACKEN ROAD", "CITY": "GARFIELD HEIGHTS", "STATE": "OH", "ZIP": "44125", "ZIP4": "NOT AVAILABLE", "TELEPHONE": "(216) 581-0500", "TYPE": "GENERAL ACUTE CARE", "STATUS": "OPEN", "POPULATION": 315, "COUNTY": "CUYAHOGA", "COUNTYFIPS": "39035", "COUNTRY": "USA", "LATITUDE": 41.421163966999998, "LONGITUDE": -81.598029018000005, "NAICS_CODE": "622110", "NAICS_DESC": "GENERAL MEDICAL AND SURGICAL HOSPITALS", "SOURCE": "http://publicapps.odh.ohio.gov/EID/Provider_Search.aspx", "SOURCEDATE": "2018-08-10T00:00:00.000Z", "VAL_METHOD": "IMAGERY", "VAL_DATE": "2014-03-12T00:00:00.000Z", "WEBSITE": "http://www.marymount.org", "STATE_ID": "1136", "ALT_NAME": "NOT AVAILABLE", "ST_FIPS": "39", "OWNER": "NON-PROFIT", "TTL_STAFF": -999, "BEDS": 315, "TRAUMA": "NOT AVAILABLE", "HELIPAD": "Y" }, "geometry": { "type": "Polygon", "coordinates": [ [ [ -81.648468, 41.33815 ], [ -81.657294, 41.341892 ], [ -81.6617442, 41.344824 ], [ -81.7344535, 41.4140766 ], [ -81.7384024, 41.418603600000019 ], [ -81.7398129, 41.4224428 ], [ -81.73527, 41.429466 ], [ -81.6932075, 41.464199 ], [ -81.67075939999998, 41.4793975 ], [ -81.6629002, 41.484087299999963 ], [ -81.6216586, 41.4943729 ], [ -81.611356, 41.493683 ], [ -81.4893612, 41.4672634 ], [ -81.4837456, 41.464818100000031 ], [ -81.4824553, 41.4638599 ], [ -81.4720875, 41.449008899999967 ], [ -81.4602669, 41.4244731 ], [ -81.4628103, 41.403088599999975 ], [ -81.511324, 41.367896 ], [ -81.648468, 41.33815 ] ] ] } },
{ "type": "Feature", "properties": { "OBJECTID": 6347, "ID": "0000000099", "NAME": "TRINITY MEDICAL CENTER WEST-ER", "ADDRESS": "4000 JOHNSON RD", "CITY": "STEUBENVILLE", "STATE": "OH", "ZIP": "43952", "ZIP4": "NOT AVAILABLE", "TELEPHONE": "(740) 264-8360", "TYPE": "GENERAL ACUTE CARE", "STATUS": "OPEN", "POPULATION": 256, "COUNTY": "JEFFERSON", "COUNTYFIPS": "39081", "COUNTRY": "USA", "LATITUDE": 40.367774109000003, "LONGITUDE": -80.659033898000004, "NAICS_CODE": "622110", "NAICS_DESC": "GENERAL MEDICAL AND SURGICAL HOSPITALS", "SOURCE": "http://publicapps.odh.ohio.gov/EID/Provider_Search.aspx", "SOURCEDATE": "2018-08-10T00:00:00.000Z", "VAL_METHOD": "IMAGERY/OTHER", "VAL_DATE": "2015-05-22T00:00:00.000Z", "WEBSITE": "http://www.trinityhealth.com/", "STATE_ID": "1004", "ALT_NAME": "NOT AVAILABLE", "ST_FIPS": "39", "OWNER": "NON-PROFIT", "TTL_STAFF": -999, "BEDS": 256, "TRAUMA": "NOT AVAILABLE", "HELIPAD": "Y" }, "geometry": { "type": "Polygon", "coordinates": [ [ [ -80.6196088, 40.297554600000034 ], [ -80.6265689, 40.299329599999986 ], [ -80.716045, 40.334822499999987 ], [ -80.770697700000014, 40.361076 ], [ -80.7508741, 40.4059796 ], [ -80.6159545, 40.454778 ], [ -80.6065118, 40.3574073 ], [ -80.605433, 40.323418100000048 ], [ -80.6054688, 40.323315400000013 ], [ -80.6058602, 40.3221992 ], [ -80.6076597, 40.31721670000001 ], [ -80.618465, 40.29861480000001 ], [ -80.6196088, 40.297554600000034 ] ] ] } },
{ "type": "Feature", "properties": { "OBJECTID": 6348, "ID": "0000000097", "NAME": "AKRON CHILDREN'S HOSP BEEGHLY", "ADDRESS": "6505 MARKET ST", "CITY": "BOARDMAN", "STATE": "OH", "ZIP": "44512", "ZIP4": "NOT AVAILABLE", "TELEPHONE": "(330) 543-8290", "TYPE": "CHILDREN", "STATUS": "OPEN", "POPULATION": 43, "COUNTY": "MAHONING", "COUNTYFIPS": "39099", "COUNTRY": "USA", "LATITUDE": 41.032554836000003, "LONGITUDE": -80.660481042000001, "NAICS_CODE": "622310", "NAICS_DESC": "CHILDREN'S HOSPITALS, SPECIALTY (EXCEPT PSYCHIATRIC, SUBSTANCE ABUSE)", "SOURCE": "http://publicapps.odh.ohio.gov/EID/Provider_Search.aspx", "SOURCEDATE": "2018-08-10T00:00:00.000Z", "VAL_METHOD": "IMAGERY/OTHER", "VAL_DATE": "2015-05-22T00:00:00.000Z", "WEBSITE": "https://www.akronchildrens.org/cms/fad_locations/beeghly_campus/", "STATE_ID": "1488", "ALT_NAME": "NOT AVAILABLE", "ST_FIPS": "39", "OWNER": "NON-PROFIT", "TTL_STAFF": -999, "BEDS": 43, "TRAUMA": "NOT AVAILABLE", "HELIPAD": "Y" }, "geometry": { "type": "Polygon", "coordinates": [ [ [ -80.635342404044962, 40.943959773193015 ], [ -80.659526375849296, 40.947345788859487 ], [ -80.726241961193779, 40.988107083909213 ], [ -80.760632, 41.014282 ], [ -80.768044, 41.020482 ], [ -80.773176, 41.043209 ], [ -80.716366, 41.100538 ], [ -80.712253, 41.1027 ], [ -80.684251, 41.114392 ], [ -80.6718847, 41.117809799999954 ], [ -80.658212761750221, 41.119271727792956 ], [ -80.631581817541658, 41.116087737734475 ], [ -80.630153823476377, 41.115265738298632 ], [ -80.624341852989005, 41.110734740419161 ], [ -80.596283003972687, 41.086987742548779 ], [ -80.57407513044933, 41.066660733737315 ], [ -80.567585300548828, 41.031279713945125 ], [ -80.567457334572651, 41.023799709938721 ], [ -80.576845437610032, 40.982720714312556 ], [ -80.635342404044962, 40.943959773193015 ] ] ] } },
{ "type": "Feature", "properties": { "OBJECTID": 6495, "ID": "0129644094", "NAME": "WINDSOR LAURELWOOD CENTER FOR BEHAVORIAL MEDICINE", "ADDRESS": "35900 EUCLID AVENUE", "CITY": "WILLOUGHBY", "STATE": "OH", "ZIP": "44094", "ZIP4": "NOT AVAILABLE", "TELEPHONE": "(440) 953-3000", "TYPE": "PSYCHIATRIC", "STATUS": "OPEN", "POPULATION": 159, "COUNTY": "LAKE", "COUNTYFIPS": "39085", "COUNTRY": "USA", "LATITUDE": 41.624742869000002, "LONGITUDE": -81.433562217000002, "NAICS_CODE": "622210", "NAICS_DESC": "PSYCHIATRIC AND SUBSTANCE ABUSE HOSPITALS", "SOURCE": "http://publicapps.odh.ohio.gov/EID/Provider_Search.aspx", "SOURCEDATE": "2018-08-10T00:00:00.000Z", "VAL_METHOD": "IMAGERY/OTHER", "VAL_DATE": "2015-03-12T00:00:00.000Z", "WEBSITE": "http://www.windsorlaurelwood.com/", "STATE_ID": "1538", "ALT_NAME": "NOT AVAILABLE", "ST_FIPS": "39", "OWNER": "PROPRIETARY", "TTL_STAFF": -999, "BEDS": 159, "TRAUMA": "NOT AVAILABLE", "HELIPAD": "Y" }, "geometry": { "type": "Polygon", "coordinates": [ [ [ -81.486287, 41.570049 ], [ -81.503028, 41.614574 ], [ -81.503039, 41.615457 ], [ -81.4988239, 41.622476 ], [ -81.494978, 41.6273846 ], [ -81.4395485, 41.674467899999961 ], [ -81.3778767, 41.6906733 ], [ -81.3465898, 41.6850213 ], [ -81.346249, 41.645065 ], [ -81.38097740000002, 41.583851 ], [ -81.417429, 41.56446 ], [ -81.486287, 41.570049 ] ] ] } },
{ "type": "Feature", "properties": { "OBJECTID": 6496, "ID": "0028844094", "NAME": "LAKE WEST HOSPITAL", "ADDRESS": "36000 EUCLID AVENUE", "CITY": "WILLOUGHBY", "STATE": "OH", "ZIP": "44094", "ZIP4": "NOT AVAILABLE", "TELEPHONE": "(440) 375-8100", "TYPE": "GENERAL ACUTE CARE", "STATUS": "OPEN", "POPULATION": 267, "COUNTY": "LAKE", "COUNTYFIPS": "39085", "COUNTRY": "USA", "LATITUDE": 41.625718448000001, "LONGITUDE": -81.432205924999906, "NAICS_CODE": "622110", "NAICS_DESC": "GENERAL MEDICAL AND SURGICAL HOSPITALS", "SOURCE": "http://publicapps.odh.ohio.gov/EID/Provider_Search.aspx", "SOURCEDATE": "2018-08-10T00:00:00.000Z", "VAL_METHOD": "IMAGERY/OTHER", "VAL_DATE": "2016-09-21T00:00:00.000Z", "WEBSITE": "http://www.lakehealth.org/Locations/West-Medical-Center", "STATE_ID": "1006", "ALT_NAME": "NOT AVAILABLE", "ST_FIPS": "39", "OWNER": "NON-PROFIT", "TTL_STAFF": -999, "BEDS": 267, "TRAUMA": "NOT AVAILABLE", "HELIPAD": "Y" }, "geometry": { "type": "Polygon", "coordinates": [ [ [ -81.486287, 41.570049 ], [ -81.511157, 41.610065 ], [ -81.514413, 41.61609 ], [ -81.4400342, 41.6749181 ], [ -81.4329734, 41.679308399999982 ], [ -81.4037596, 41.6946644 ], [ -81.3792127, 41.706957900000013 ], [ -81.3778226, 41.707413799999983 ], [ -81.3399612, 41.704072100000012 ], [ -81.3293293, 41.693211300000016 ], [ -81.3350728, 41.646575699999957 ], [ -81.38097740000002, 41.583851 ], [ -81.417429, 41.56446 ], [ -81.486287, 41.570049 ] ] ] } },
{ "type": "Feature", "properties": { "OBJECTID": 6505, "ID": "0015144512", "NAME": "SURGICAL HOSPITAL AT SOUTHWOODS", "ADDRESS": "7630 SOUTHERN BLVD", "CITY": "YOUNGSTOWN", "STATE": "OH", "ZIP": "44512", "ZIP4": "NOT AVAILABLE", "TELEPHONE": "(330) 729-8000", "TYPE": "GENERAL ACUTE CARE", "STATUS": "OPEN", "POPULATION": 36, "COUNTY": "MAHONING", "COUNTYFIPS": "39099", "COUNTRY": "USA", "LATITUDE": 41.015475655000003, "LONGITUDE": -80.655617676999995, "NAICS_CODE": "622110", "NAICS_DESC": "GENERAL MEDICAL AND SURGICAL HOSPITALS", "SOURCE": "http://publicapps.odh.ohio.gov/EID/Provider_Search.aspx", "SOURCEDATE": "2018-08-10T00:00:00.000Z", "VAL_METHOD": "IMAGERY", "VAL_DATE": "2014-02-10T00:00:00.000Z", "WEBSITE": "http://surgeryatsouthwoods.com/", "STATE_ID": "1485", "ALT_NAME": "NOT AVAILABLE", "ST_FIPS": "39", "OWNER": "PROPRIETARY", "TTL_STAFF": -999, "BEDS": 36, "TRAUMA": "NOT AVAILABLE", "HELIPAD": "N" }, "geometry": { "type": "Polygon", "coordinates": [ [ [ -80.655192391236312, 40.939568787540374 ], [ -80.669516371082935, 40.944055796262475 ], [ -80.736913949954243, 40.988146090213462 ], [ -80.760955, 41.024763 ], [ -80.711021, 41.072551 ], [ -80.671185836660072, 41.09821973473246 ], [ -80.645058872638884, 41.099253738060973 ], [ -80.621998934839382, 41.093428741730008 ], [ -80.607805983221198, 41.087610842362892 ], [ -80.601887004566194, 41.084926742077158 ], [ -80.577089108211666, 41.070540735960158 ], [ -80.574077126046689, 41.067633734182841 ], [ -80.573203131807503, 41.066660733572675 ], [ -80.552771351777324, 41.025060701494631 ], [ -80.552763357036184, 41.023900700702669 ], [ -80.576845437610032, 40.982720714312556 ], [ -80.62223811704115, 40.943572164470353 ], [ -80.631763413891889, 40.938489772412005 ], [ -80.655192391236312, 40.939568787540374 ] ] ] } },
{ "type": "Feature", "properties": { "OBJECTID": 6520, "ID": "0004944281", "NAME": "SUMMA WADSWORTH-RITTMAN HOSPITAL", "ADDRESS": "195 WADSWORTH ROAD", "CITY": "WADSWORTH", "STATE": "OH", "ZIP": "44281", "ZIP4": "NOT AVAILABLE", "TELEPHONE": "(330) 334-1504", "TYPE": "GENERAL ACUTE CARE", "STATUS": "CLOSED", "POPULATION": 50, "COUNTY": "MEDINA", "COUNTYFIPS": "39103", "COUNTRY": "USA", "LATITUDE": 41.028286811999997, "LONGITUDE": -81.75161518, "NAICS_CODE": "622110", "NAICS_DESC": "GENERAL MEDICAL AND SURGICAL HOSPITALS", "SOURCE": "http://publicapps.odh.ohio.gov/EID/Provider_Search.aspx", "SOURCEDATE": "2012-07-23T00:00:00.000Z", "VAL_METHOD": "IMAGERY", "VAL_DATE": "2014-03-12T00:00:00.000Z", "WEBSITE": "http://www.wrhhs.org", "STATE_ID": "1235", "ALT_NAME": "NOT AVAILABLE", "ST_FIPS": "39", "OWNER": "NON-PROFIT", "TTL_STAFF": -999, "BEDS": 50, "TRAUMA": "NOT AVAILABLE", "HELIPAD": "Y" }, "geometry": { "type": "Polygon", "coordinates": [ [ [ -81.763604931353171, 40.945990646071046 ], [ -81.906515, 41.026408 ], [ -81.9091208, 41.031027099999989 ], [ -81.807961300000017, 41.106540899999949 ], [ -81.7914682, 41.110652299999963 ], [ -81.735253, 41.117842 ], [ -81.6445064, 41.025801400000027 ], [ -81.707087865997309, 40.969071875786746 ], [ -81.732155323170957, 40.952510979183828 ], [ -81.744053707306321, 40.945169781517798 ], [ -81.763604931353171, 40.945990646071046 ] ] ] } },
{ "type": "Feature", "properties": { "OBJECTID": 6568, "ID": "0007544710", "NAME": "AULTMAN HOSPITAL", "ADDRESS": "2600 SIXTH STREET SW", "CITY": "CANTON", "STATE": "OH", "ZIP": "44710", "ZIP4": "NOT AVAILABLE", "TELEPHONE": "(330) 497-3966", "TYPE": "GENERAL ACUTE CARE", "STATUS": "OPEN", "POPULATION": 820, "COUNTY": "STARK", "COUNTYFIPS": "39151", "COUNTRY": "USA", "LATITUDE": 40.797319151000103, "LONGITUDE": -81.403062215000006, "NAICS_CODE": "622110", "NAICS_DESC": "GENERAL MEDICAL AND SURGICAL HOSPITALS", "SOURCE": "http://publicapps.odh.ohio.gov/EID/Provider_Search.aspx", "SOURCEDATE": "2018-08-10T00:00:00.000Z", "VAL_METHOD": "IMAGERY", "VAL_DATE": "2014-03-12T00:00:00.000Z", "WEBSITE": "http://www.aultman.com", "STATE_ID": "1270", "ALT_NAME": "NOT AVAILABLE", "ST_FIPS": "39", "OWNER": "NON-PROFIT", "TTL_STAFF": -999, "BEDS": 820, "TRAUMA": "LEVEL II", "HELIPAD": "Y" }, "geometry": { "type": "Polygon", "coordinates": [ [ [ -81.431365459229298, 40.707439566609118 ], [ -81.519679320419428, 40.75182491657872 ], [ -81.523324321565696, 40.760569896834113 ], [ -81.523448121582476, 40.767868381579646 ], [ -81.515518326855585, 40.789967842063845 ], [ -81.485132988465637, 40.860638777326976 ], [ -81.472915401469436, 40.878654606617538 ], [ -81.441484713646787, 40.90662236114887 ], [ -81.436702014185428, 40.907007645890175 ], [ -81.43526401435642, 40.906970041559653 ], [ -81.423693315783709, 40.906632006761569 ], [ -81.297418521475848, 40.850512093009186 ], [ -81.282251561493879, 40.834252064551919 ], [ -81.278343650243286, 40.787466109534009 ], [ -81.291308957384743, 40.772258472689266 ], [ -81.316743647940896, 40.749530289235786 ], [ -81.371000544593826, 40.721253428200889 ], [ -81.431365459229298, 40.707439566609118 ] ] ] } },
{ "type": "Feature", "properties": { "OBJECTID": 6659, "ID": "0010445750", "NAME": "MARIETTA MEMORIAL HOSPITAL", "ADDRESS": "401 MATTHEW STREET", "CITY": "MARIETTA", "STATE": "OH", "ZIP": "45750", "ZIP4": "NOT AVAILABLE", "TELEPHONE": "(740) 374-1411", "TYPE": "GENERAL ACUTE CARE", "STATUS": "OPEN", "POPULATION": 215, "COUNTY": "WASHINGTON", "COUNTYFIPS": "39167", "COUNTRY": "USA", "LATITUDE": 39.43170107, "LONGITUDE": -81.464163927000001, "NAICS_CODE": "622110", "NAICS_DESC": "GENERAL MEDICAL AND SURGICAL HOSPITALS", "SOURCE": "http://publicapps.odh.ohio.gov/EID/Provider_Search.aspx", "SOURCEDATE": "2018-08-10T00:00:00.000Z", "VAL_METHOD": "IMAGERY", "VAL_DATE": "2014-03-12T00:00:00.000Z", "WEBSITE": "http://www.mmhospital.org", "STATE_ID": "1289", "ALT_NAME": "NOT AVAILABLE", "ST_FIPS": "39", "OWNER": "NON-PROFIT", "TTL_STAFF": -999, "BEDS": 215, "TRAUMA": "LEVEL III", "HELIPAD": "Y" }, "geometry": { "type": "Polygon", "coordinates": [ [ [ -81.546822, 39.354108 ], [ -81.548672, 39.360816 ], [ -81.546657, 39.393728 ], [ -81.5339533, 39.445939 ], [ -81.480723100975268, 39.521037029458142 ], [ -81.424738078943406, 39.5016460490966 ], [ -81.422424076146442, 39.499079048399473 ], [ -81.375268, 39.432293 ], [ -81.397319200000013, 39.37508960000001 ], [ -81.3974392, 39.37505279999997 ], [ -81.546822, 39.354108 ] ] ] } },
{ "type": "Feature", "properties": { "OBJECTID": 6788, "ID": "0001044501", "NAME": "ST ELIZABETH YOUNGSTOWN HOSPITAL", "ADDRESS": "1044 BELMONT AVENUE", "CITY": "YOUNGSTOWN", "STATE": "OH", "ZIP": "44501", "ZIP4": "NOT AVAILABLE", "TELEPHONE": "(330) 746-7211", "TYPE": "GENERAL ACUTE CARE", "STATUS": "OPEN", "POPULATION": 626, "COUNTY": "MAHONING", "COUNTYFIPS": "39099", "COUNTRY": "USA", "LATITUDE": 41.114014996000002, "LONGITUDE": -80.657314546999899, "NAICS_CODE": "622110", "NAICS_DESC": "GENERAL MEDICAL AND SURGICAL HOSPITALS", "SOURCE": "http://publicapps.odh.ohio.gov/EID/Provider_Search.aspx", "SOURCEDATE": "2018-08-10T00:00:00.000Z", "VAL_METHOD": "IMAGERY/OTHER", "VAL_DATE": "2014-03-12T00:00:00.000Z", "WEBSITE": "http://www.hmpartners.org", "STATE_ID": "1230", "ALT_NAME": "NOT AVAILABLE", "ST_FIPS": "39", "OWNER": "NON-PROFIT", "TTL_STAFF": -999, "BEDS": 626, "TRAUMA": "LEVEL I", "HELIPAD": "Y" }, "geometry": { "type": "Polygon", "coordinates": [ [ [ -80.635405264360557, 41.015881754378327 ], [ -80.706896, 41.031016 ], [ -80.7629049, 41.087435199999938 ], [ -80.771947, 41.099602 ], [ -80.7791375, 41.11430710000004 ], [ -80.779141, 41.116771 ], [ -80.778336, 41.134069 ], [ -80.777503, 41.136289 ], [ -80.7161667, 41.228289099999984 ], [ -80.709429, 41.232731 ], [ -80.698605, 41.230769 ], [ -80.56829103264208, 41.178740790641292 ], [ -80.565673654709968, 41.174758791020352 ], [ -80.54403806911094, 41.090564746446546 ], [ -80.556773744819097, 41.04733041815966 ], [ -80.611739770036138, 41.022795837912511 ], [ -80.635405264360557, 41.015881754378327 ] ] ] } },
{ "type": "Feature", "properties": { "OBJECTID": 6790, "ID": "0015944667", "NAME": "AULTMAN ORRVILLE HOSPITAL", "ADDRESS": "832 SOUTH MAIN STREET", "CITY": "ORRVILLE", "STATE": "OH", "ZIP": "44667", "ZIP4": "NOT AVAILABLE", "TELEPHONE": "(330) 682-3010", "TYPE": "CRITICAL ACCESS", "STATUS": "OPEN", "POPULATION": 34, "COUNTY": "WAYNE", "COUNTYFIPS": "39169", "COUNTRY": "USA", "LATITUDE": 40.832182348000103, "LONGITUDE": -81.763682683, "NAICS_CODE": "622110", "NAICS_DESC": "GENERAL MEDICAL AND SURGICAL HOSPITALS", "SOURCE": "http://publicapps.odh.ohio.gov/EID/Provider_Search.aspx", "SOURCEDATE": "2018-08-10T00:00:00.000Z", "VAL_METHOD": "IMAGERY", "VAL_DATE": "2014-03-12T00:00:00.000Z", "WEBSITE": "http://www.aultmanorrville.org", "STATE_ID": "1291", "ALT_NAME": "NOT AVAILABLE", "ST_FIPS": "39", "OWNER": "NON-PROFIT", "TTL_STAFF": -999, "BEDS": 34, "TRAUMA": "NOT AVAILABLE", "HELIPAD": "Y" }, "geometry": { "type": "Polygon", "coordinates": [ [ [ -81.792271343758514, 40.768302653520891 ], [ -81.824259304857335, 40.785007516395005 ], [ -81.837121290910758, 40.792514459645361 ], [ -81.844048880790197, 40.797508825746704 ], [ -81.854897058316212, 40.807584264631117 ], [ -81.877484323029464, 40.828648240593793 ], [ -81.842573810637674, 40.861488276949686 ], [ -81.763130490309152, 40.916857073006376 ], [ -81.733974182395301, 40.902318987384945 ], [ -81.686525586080421, 40.86917080514435 ], [ -81.676700011093743, 40.843751513960243 ], [ -81.676873286945991, 40.824161785286044 ], [ -81.678201193772694, 40.796417685464704 ], [ -81.694922016260392, 40.788068402739569 ], [ -81.745236025367021, 40.763170770990428 ], [ -81.792271343758514, 40.768302653520891 ] ] ] } },
{ "type": "Feature", "properties": { "OBJECTID": 6919, "ID": "0002644024", "NAME": "UH GEAUGA MEDICAL CENTER", "ADDRESS": "13207 RAVENNA RD", "CITY": "CHARDON", "STATE": "OH", "ZIP": "44024", "ZIP4": "NOT AVAILABLE", "TELEPHONE": "(440) 285-6000", "TYPE": "GENERAL ACUTE CARE", "STATUS": "OPEN", "POPULATION": 225, "COUNTY": "GEAUGA", "COUNTYFIPS": "39055", "COUNTRY": "USA", "LATITUDE": 41.509257997000098, "LONGITUDE": -81.189092791999897, "NAICS_CODE": "622110", "NAICS_DESC": "GENERAL MEDICAL AND SURGICAL HOSPITALS", "SOURCE": "http://publicapps.odh.ohio.gov/EID/Provider_Search.aspx", "SOURCEDATE": "2018-08-10T00:00:00.000Z", "VAL_METHOD": "IMAGERY", "VAL_DATE": "2014-02-10T00:00:00.000Z", "WEBSITE": "http://www.uhhospitals.org/geauga/", "STATE_ID": "1001", "ALT_NAME": "NOT AVAILABLE", "ST_FIPS": "39", "OWNER": "NON-PROFIT", "TTL_STAFF": -999, "BEDS": 225, "TRAUMA": "LEVEL III", "HELIPAD": "Y" }, "geometry": { "type": "Polygon", "coordinates": [ [ [ -81.2099947, 41.425430099999971 ], [ -81.273459, 41.463241 ], [ -81.305984, 41.521557199999975 ], [ -81.296603, 41.536721 ], [ -81.253492, 41.569924 ], [ -81.2075816, 41.592752500000017 ], [ -81.198971, 41.58968 ], [ -81.103784, 41.543223 ], [ -81.089985, 41.53473 ], [ -81.1290386, 41.454060399999975 ], [ -81.2099947, 41.425430099999971 ] ] ] } },
{ "type": "Feature", "properties": { "OBJECTID": 6969, "ID": "0004444111", "NAME": "FAIRVIEW HOSPITAL", "ADDRESS": "18101 LORAIN AVENUE", "CITY": "CLEVELAND", "STATE": "OH", "ZIP": "44111", "ZIP4": "NOT AVAILABLE", "TELEPHONE": "(216) 476-4811", "TYPE": "GENERAL ACUTE CARE", "STATUS": "OPEN", "POPULATION": 516, "COUNTY": "CUYAHOGA", "COUNTYFIPS": "39035", "COUNTRY": "USA", "LATITUDE": 41.450542077000101, "LONGITUDE": -81.823425278999906, "NAICS_CODE": "622110", "NAICS_DESC": "GENERAL MEDICAL AND SURGICAL HOSPITALS", "SOURCE": "http://publicapps.odh.ohio.gov/EID/Provider_Search.aspx", "SOURCEDATE": "2018-08-10T00:00:00.000Z", "VAL_METHOD": "IMAGERY", "VAL_DATE": "2014-02-10T00:00:00.000Z", "WEBSITE": "http://www.fairviewhospital.org", "STATE_ID": "1145", "ALT_NAME": "NOT AVAILABLE", "ST_FIPS": "39", "OWNER": "NON-PROFIT", "TTL_STAFF": -999, "BEDS": 516, "TRAUMA": "LEVEL II", "HELIPAD": "Y" }, "geometry": { "type": "Polygon", "coordinates": [ [ [ -81.8201499, 41.358866 ], [ -81.856167, 41.363321 ], [ -81.859372500000021, 41.3643971 ], [ -81.9148344, 41.4138279 ], [ -81.9449086, 41.468030099999986 ], [ -81.915812, 41.488244 ], [ -81.8069268, 41.495347899999963 ], [ -81.784338, 41.495663 ], [ -81.7330612, 41.4904177 ], [ -81.6782897, 41.4768702 ], [ -81.6956301, 41.4588475 ], [ -81.734402, 41.419765199999979 ], [ -81.8201499, 41.358866 ] ] ] } },
{ "type": "Feature", "properties": { "OBJECTID": 6972, "ID": "0007744143", "NAME": "UHHS RICHMOND HEIGHTS HOSPITAL", "ADDRESS": "27100 CHARDON ROAD", "CITY": "RICHMOND HEIGHTS", "STATE": "OH", "ZIP": "44143", "ZIP4": "NOT AVAILABLE", "TELEPHONE": "(440) 585-6500", "TYPE": "GENERAL ACUTE CARE", "STATUS": "OPEN", "POPULATION": 213, "COUNTY": "CUYAHOGA", "COUNTYFIPS": "39035", "COUNTRY": "USA", "LATITUDE": 41.580752129000103, "LONGITUDE": -81.488910233999903, "NAICS_CODE": "622110", "NAICS_DESC": "GENERAL MEDICAL AND SURGICAL HOSPITALS", "SOURCE": "http://publicapps.odh.ohio.gov/EID/Provider_Search.aspx", "SOURCEDATE": "2018-08-10T00:00:00.000Z", "VAL_METHOD": "IMAGERY", "VAL_DATE": "2014-02-10T00:00:00.000Z", "WEBSITE": "www.uhhospitals.org/richmond", "STATE_ID": "1008", "ALT_NAME": "NOT AVAILABLE", "ST_FIPS": "39", "OWNER": "NON-PROFIT", "TTL_STAFF": -999, "BEDS": 213, "TRAUMA": "NOT AVAILABLE", "HELIPAD": "Y" }, "geometry": { "type": "Polygon", "coordinates": [ [ [ -81.4978074, 41.500484900000011 ], [ -81.5767718, 41.535266299999968 ], [ -81.6030423, 41.550975899999948 ], [ -81.6035368, 41.551496899999968 ], [ -81.5887536, 41.566524700000016 ], [ -81.5883417, 41.566884499999951 ], [ -81.572055, 41.581081 ], [ -81.543152, 41.604988 ], [ -81.5291409, 41.614037199999963 ], [ -81.5287601, 41.614257599999959 ], [ -81.4727551, 41.643561199999986 ], [ -81.4694416, 41.644291199999984 ], [ -81.4513374, 41.628176600000018 ], [ -81.431386, 41.552719 ], [ -81.4388032, 41.543844699999951 ], [ -81.449101, 41.534775800000013 ], [ -81.469379, 41.520042 ], [ -81.476636, 41.514846 ], [ -81.4978074, 41.500484900000011 ] ] ] } },
{ "type": "Feature", "properties": { "OBJECTID": 6974, "ID": "0006844115", "NAME": "ST VINCENT CHARITY MEDICAL CENTER", "ADDRESS": "2351 EAST 22ND STREET", "CITY": "CLEVELAND", "STATE": "OH", "ZIP": "44115", "ZIP4": "NOT AVAILABLE", "TELEPHONE": "(216) 861-6200", "TYPE": "GENERAL ACUTE CARE", "STATUS": "OPEN", "POPULATION": 448, "COUNTY": "CUYAHOGA", "COUNTYFIPS": "39035", "COUNTRY": "USA", "LATITUDE": 41.495850538000099, "LONGITUDE": -81.673114854999895, "NAICS_CODE": "622110", "NAICS_DESC": "GENERAL MEDICAL AND SURGICAL HOSPITALS", "SOURCE": "http://publicapps.odh.ohio.gov/EID/Provider_Search.aspx", "SOURCEDATE": "2018-08-10T00:00:00.000Z", "VAL_METHOD": "IMAGERY", "VAL_DATE": "2014-03-12T00:00:00.000Z", "WEBSITE": "https://www.stvincentcharity.com/", "STATE_ID": "1155", "ALT_NAME": "NOT AVAILABLE", "ST_FIPS": "39", "OWNER": "NON-PROFIT", "TTL_STAFF": -999, "BEDS": 448, "TRAUMA": "NOT AVAILABLE", "HELIPAD": "Y" }, "geometry": { "type": "Polygon", "coordinates": [ [ [ -81.6416649, 41.390059799999989 ], [ -81.660124, 41.392225399999987 ], [ -81.7344535, 41.4140766 ], [ -81.8028317, 41.4405448 ], [ -81.821834, 41.469234 ], [ -81.822663, 41.471402 ], [ -81.822882799999988, 41.4719785 ], [ -81.8221655, 41.4731833 ], [ -81.819174, 41.475179 ], [ -81.816806, 41.47643 ], [ -81.579684, 41.57213 ], [ -81.569490800000011, 41.5698252 ], [ -81.5689297, 41.501227 ], [ -81.5717355, 41.4817946 ], [ -81.5717812, 41.481578699999943 ], [ -81.5787651, 41.464382 ], [ -81.6129291, 41.41187810000001 ], [ -81.6154238, 41.409068200000021 ], [ -81.627016, 41.396416 ], [ -81.6415444, 41.390060200000022 ], [ -81.6416649, 41.390059799999989 ] ] ] } },
{ "type": "Feature", "properties": { "OBJECTID": 6975, "ID": "0011244146", "NAME": "UHHS BEDFORD MEDICAL CENTER", "ADDRESS": "44 BLAINE AVENUE", "CITY": "BEDFORD", "STATE": "OH", "ZIP": "44146", "ZIP4": "NOT AVAILABLE", "TELEPHONE": "(440) 735-3900", "TYPE": "GENERAL ACUTE CARE", "STATUS": "OPEN", "POPULATION": 88, "COUNTY": "CUYAHOGA", "COUNTYFIPS": "39035", "COUNTRY": "USA", "LATITUDE": 41.395143866000097, "LONGITUDE": -81.534072205000001, "NAICS_CODE": "622110", "NAICS_DESC": "GENERAL MEDICAL AND SURGICAL HOSPITALS", "SOURCE": "http://publicapps.odh.ohio.gov/EID/Provider_Search.aspx", "SOURCEDATE": "2018-08-10T00:00:00.000Z", "VAL_METHOD": "IMAGERY", "VAL_DATE": "2014-02-10T00:00:00.000Z", "WEBSITE": "http://www.uhhospitals.org/bedford", "STATE_ID": "1141", "ALT_NAME": "NOT AVAILABLE", "ST_FIPS": "39", "OWNER": "NON-PROFIT", "TTL_STAFF": -999, "BEDS": 88, "TRAUMA": "NOT AVAILABLE", "HELIPAD": "Y" }, "geometry": { "type": "Polygon", "coordinates": [ [ [ -81.527851400000017, 41.3235998 ], [ -81.5290039, 41.323948400000013 ], [ -81.536554, 41.326303 ], [ -81.562875, 41.340124 ], [ -81.610705, 41.366979199999989 ], [ -81.6412094, 41.393038200000042 ], [ -81.6401193, 41.4077992 ], [ -81.610571, 41.436403 ], [ -81.5590383, 41.466746400000012 ], [ -81.5363163, 41.477549900000021 ], [ -81.4860976, 41.490956099999963 ], [ -81.4344743, 41.408999900000012 ], [ -81.4334526, 41.394712 ], [ -81.4532538, 41.321738499999981 ], [ -81.4543401, 41.320874700000019 ], [ -81.489185, 41.319933 ], [ -81.527851400000017, 41.3235998 ] ] ] } },
{ "type": "Feature", "properties": { "OBJECTID": 4013, "ID": "0169844122", "NAME": "GRACE HOSPITAL SOUTH POINTE", "ADDRESS": "20000 HARVARD ROAD", "CITY": "WARRENSVILLE HEIGHTS", "STATE": "OH", "ZIP": "44122", "ZIP4": "NOT AVAILABLE", "TELEPHONE": "(216) 491-7295", "TYPE": "LONG TERM CARE", "STATUS": "OPEN", "POPULATION": -999, "COUNTY": "CUYAHOGA", "COUNTYFIPS": "39035", "COUNTRY": "USA", "LATITUDE": 41.448382117000101, "LONGITUDE": -81.537301044999893, "NAICS_CODE": "622310", "NAICS_DESC": "SPECIALTY (EXCEPT PSYCHIATRIC AND SUBSTANCE ABUSE) HOSPITALS", "SOURCE": "http://publicapps.odh.ohio.gov/EID/Provider_Search.aspx", "SOURCEDATE": "2018-08-10T00:00:00.000Z", "VAL_METHOD": "IMAGERY/OTHER", "VAL_DATE": "2019-05-09T00:00:00.000Z", "WEBSITE": "http://www.gracehospital.org", "STATE_ID": "NOT AVAILABLE", "ALT_NAME": "NOT AVAILABLE", "ST_FIPS": "39", "OWNER": "NOT AVAILABLE", "TTL_STAFF": -999, "BEDS": -999, "TRAUMA": "NOT AVAILABLE", "HELIPAD": "Y" }, "geometry": { "type": "Polygon", "coordinates": [ [ [ -81.517239, 41.356161 ], [ -81.6532887, 41.392395600000022 ], [ -81.6604995, 41.3969318 ], [ -81.6755136, 41.416574 ], [ -81.6755996, 41.4170185 ], [ -81.6421228, 41.4610914 ], [ -81.630177, 41.475637 ], [ -81.6051706, 41.497918 ], [ -81.5728075, 41.525370100000025 ], [ -81.524764, 41.535916 ], [ -81.5228233, 41.536296100000023 ], [ -81.4452011, 41.526799500000088 ], [ -81.4386955, 41.520114900000031 ], [ -81.42301, 41.460579 ], [ -81.419352, 41.444471 ], [ -81.4314157, 41.393122099999957 ], [ -81.4377515, 41.3862367 ], [ -81.4938804, 41.3537265 ], [ -81.517239, 41.356161 ] ] ] } },
{ "type": "Feature", "properties": { "OBJECTID": 4038, "ID": "0127744621", "NAME": "TEN LAKES CENTER, LLC", "ADDRESS": "819 NORTH FIRST STREET, 3RD FLOOR", "CITY": "DENNISON", "STATE": "OH", "ZIP": "44621", "ZIP4": "NOT AVAILABLE", "TELEPHONE": "(740) 922-7499", "TYPE": "PSYCHIATRIC", "STATUS": "OPEN", "POPULATION": 16, "COUNTY": "TUSCARAWAS", "COUNTYFIPS": "39157", "COUNTRY": "USA", "LATITUDE": 40.401256861999997, "LONGITUDE": -81.336345480999995, "NAICS_CODE": "622210", "NAICS_DESC": "PSYCHIATRIC AND SUBSTANCE ABUSE HOSPITALS", "SOURCE": "http://publicapps.odh.ohio.gov/EID/Provider_Search.aspx", "SOURCEDATE": "2018-08-10T00:00:00.000Z", "VAL_METHOD": "IMAGERY/OTHER", "VAL_DATE": "2015-03-11T00:00:00.000Z", "WEBSITE": "http://www.tenlakescenter.com/", "STATE_ID": "1469", "ALT_NAME": "NOT AVAILABLE", "ST_FIPS": "39", "OWNER": "PROPRIETARY", "TTL_STAFF": -999, "BEDS": 16, "TRAUMA": "NOT AVAILABLE", "HELIPAD": "Y" }, "geometry": { "type": "Polygon", "coordinates": [ [ [ -81.35826, 40.34184 ], [ -81.4343976, 40.3590506 ], [ -81.4393896, 40.364755299999949 ], [ -81.453362, 40.480925899999967 ], [ -81.4401183, 40.488728899999977 ], [ -81.4389709, 40.488725799999976 ], [ -81.3674975, 40.484918699999987 ], [ -81.3530476, 40.4817793 ], [ -81.3008856, 40.460932399999983 ], [ -81.233063, 40.404461 ], [ -81.228115, 40.362211 ], [ -81.228253, 40.361913 ], [ -81.28344, 40.34486 ], [ -81.3015386, 40.343337200000022 ], [ -81.3388565, 40.341375899999967 ], [ -81.35826, 40.34184 ] ] ] } },
{ "type": "Feature", "properties": { "OBJECTID": 4092, "ID": "0028144155", "NAME": "SELECT SPECIALTY HOSPITAL - CLEVELAND GATEWAY", "ADDRESS": "2351 EAST 22ND STREET, 7TH FLOOR", "CITY": "CLEVELAND", "STATE": "OH", "ZIP": "44155", "ZIP4": "NOT AVAILABLE", "TELEPHONE": "(216) 592-2858", "TYPE": "LONG TERM CARE", "STATUS": "OPEN", "POPULATION": 75, "COUNTY": "CUYAHOGA", "COUNTYFIPS": "39035", "COUNTRY": "USA", "LATITUDE": 41.496478716000098, "LONGITUDE": -81.672843596000007, "NAICS_CODE": "622310", "NAICS_DESC": "SPECIALTY (EXCEPT PSYCHIATRIC AND SUBSTANCE ABUSE) HOSPITALS", "SOURCE": "http://publicapps.odh.ohio.gov/EID/Provider_Search.aspx", "SOURCEDATE": "2018-08-10T00:00:00.000Z", "VAL_METHOD": "IMAGERY/OTHER", "VAL_DATE": "2016-09-20T00:00:00.000Z", "WEBSITE": "http://clevelandgateway.selectspecialtyhospitals.com/", "STATE_ID": "1434", "ALT_NAME": "NOT AVAILABLE", "ST_FIPS": "39", "OWNER": "PROPRIETARY", "TTL_STAFF": -999, "BEDS": 75, "TRAUMA": "NOT AVAILABLE", "HELIPAD": "Y" }, "geometry": { "type": "Polygon", "coordinates": [ [ [ -81.660124, 41.392225399999987 ], [ -81.7318982, 41.4153814 ], [ -81.7940312, 41.438683900000015 ], [ -81.822663, 41.471402 ], [ -81.822882799999988, 41.4719785 ], [ -81.582283, 41.571024 ], [ -81.5755165, 41.567181400000024 ], [ -81.571554, 41.501205 ], [ -81.5748459, 41.482185099999974 ], [ -81.5748951, 41.4819708 ], [ -81.580964, 41.46437310000001 ], [ -81.6129291, 41.41187810000001 ], [ -81.6154238, 41.409068200000021 ], [ -81.626423, 41.401138 ], [ -81.6416374, 41.3915805 ], [ -81.641773400000019, 41.391575700000018 ], [ -81.660124, 41.392225399999987 ] ] ] } },
{ "type": "Feature", "properties": { "OBJECTID": 4094, "ID": "0029344512", "NAME": "SELECT SPECIALTY HOSPITAL - YOUNGSTOWN BOARDMAN", "ADDRESS": "8401 MARKET STREET, 7TH FLOOR SOUTH", "CITY": "BOARDMAN", "STATE": "OH", "ZIP": "44512", "ZIP4": "NOT AVAILABLE", "TELEPHONE": "(330) 480-6664", "TYPE": "LONG TERM CARE", "STATUS": "OPEN", "POPULATION": 24, "COUNTY": "MAHONING", "COUNTYFIPS": "39099", "COUNTRY": "USA", "LATITUDE": 40.994313905000098, "LONGITUDE": -80.659695284999898, "NAICS_CODE": "622310", "NAICS_DESC": "SPECIALTY (EXCEPT PSYCHIATRIC AND SUBSTANCE ABUSE) HOSPITALS", "SOURCE": "http://publicapps.odh.ohio.gov/EID/Provider_Search.aspx", "SOURCEDATE": "2018-08-10T00:00:00.000Z", "VAL_METHOD": "IMAGERY/OTHER", "VAL_DATE": "2016-09-21T00:00:00.000Z", "WEBSITE": "https://boardman.selectspecialtyhospitals.com/", "STATE_ID": "1515", "ALT_NAME": "NOT AVAILABLE", "ST_FIPS": "39", "OWNER": "PROPRIETARY", "TTL_STAFF": -999, "BEDS": 24, "TRAUMA": "NOT AVAILABLE", "HELIPAD": "Y" }, "geometry": { "type": "Polygon", "coordinates": [ [ [ -80.694389411562682, 40.90913181554216 ], [ -80.77511991842475, 40.987652118395651 ], [ -80.775001917852066, 40.988239118738854 ], [ -80.773225914188984, 40.992726120688687 ], [ -80.760695, 41.005488 ], [ -80.7111226, 41.0518205 ], [ -80.675387918224175, 41.07871174571946 ], [ -80.656962943687716, 41.079425144256206 ], [ -80.628481787031618, 41.079645942624708 ], [ -80.623518909151031, 41.076460942531725 ], [ -80.591737170514577, 41.051712732971218 ], [ -80.589853183816601, 41.049419731649557 ], [ -80.578271317826591, 41.023772716775369 ], [ -80.562365461697965, 40.972979707864482 ], [ -80.59544646777816, 40.911462760272563 ], [ -80.614546456953747, 40.910594771224225 ], [ -80.694389411562682, 40.90913181554216 ] ] ] } },
{ "type": "Feature", "properties": { "OBJECTID": 4132, "ID": "0126744708", "NAME": "SELECT SPECIALTY HOSPITAL-NORTHEAST OHIO, INC", "ADDRESS": "1320 MERCY DRIVE, 6TH FLOOR", "CITY": "CANTON", "STATE": "OH", "ZIP": "44708", "ZIP4": "NOT AVAILABLE", "TELEPHONE": "(330) 489-8189", "TYPE": "LONG TERM CARE", "STATUS": "OPEN", "POPULATION": 30, "COUNTY": "STARK", "COUNTYFIPS": "39151", "COUNTRY": "USA", "LATITUDE": 40.812240893000101, "LONGITUDE": -81.395871928000005, "NAICS_CODE": "622310", "NAICS_DESC": "SPECIALTY (EXCEPT PSYCHIATRIC AND SUBSTANCE ABUSE) HOSPITALS", "SOURCE": "http://publicapps.odh.ohio.gov/EID/Provider_Search.aspx", "SOURCEDATE": "2018-08-10T00:00:00.000Z", "VAL_METHOD": "IMAGERY/OTHER", "VAL_DATE": "2015-03-11T00:00:00.000Z", "WEBSITE": "http://canton.selectspecialtyhospitals.com/", "STATE_ID": "1452", "ALT_NAME": "NOT AVAILABLE", "ST_FIPS": "39", "OWNER": "PROPRIETARY", "TTL_STAFF": -999, "BEDS": 30, "TRAUMA": "NOT AVAILABLE", "HELIPAD": "Y" }, "geometry": { "type": "Polygon", "coordinates": [ [ [ -81.431349459125997, 40.70770056731714 ], [ -81.523324321565696, 40.760569896834113 ], [ -81.523448121582476, 40.767868381579646 ], [ -81.513456345960421, 40.859727705696265 ], [ -81.499462390725583, 40.879574688090052 ], [ -81.475478506510143, 40.897332081515685 ], [ -81.43010411288823, 40.919400105292908 ], [ -81.429927512885129, 40.919398504762036 ], [ -81.405196414334242, 40.915014336980811 ], [ -81.263612530336374, 40.858527974932464 ], [ -81.261171573810657, 40.837662991900785 ], [ -81.282627644606549, 40.787216124337192 ], [ -81.299376449151524, 40.769397004010528 ], [ -81.312375648203599, 40.755560266984425 ], [ -81.364580955202399, 40.724916915252507 ], [ -81.365152354269952, 40.724736716680901 ], [ -81.367275550830968, 40.724101422012822 ], [ -81.431349459125997, 40.70770056731714 ] ] ] } },
{ "type": "Feature", "properties": { "OBJECTID": 4152, "ID": "0030144482", "NAME": "VIBRA MAHONING VALLEY HOSPITAL TRUMBULL CAMPUS", "ADDRESS": "1350 E MARKET ST, 9TH FLOOR", "CITY": "WARREN", "STATE": "OH", "ZIP": "44482", "ZIP4": "NOT AVAILABLE", "TELEPHONE": "(330) 726-5021", "TYPE": "LONG TERM CARE", "STATUS": "OPEN", "POPULATION": 34, "COUNTY": "TRUMBULL", "COUNTYFIPS": "39155", "COUNTRY": "USA", "LATITUDE": 41.2357678280001, "LONGITUDE": -80.799432587999902, "NAICS_CODE": "622310", "NAICS_DESC": "SPECIALTY (EXCEPT PSYCHIATRIC AND SUBSTANCE ABUSE) HOSPITALS", "SOURCE": "http://publicapps.odh.ohio.gov/EID/Provider_Search.aspx", "SOURCEDATE": "2018-08-10T00:00:00.000Z", "VAL_METHOD": "IMAGERY/OTHER", "VAL_DATE": "2016-09-22T00:00:00.000Z", "WEBSITE": "http://www.vhmvalley.com/trumbull_campus.aspx", "STATE_ID": "1449", "ALT_NAME": "MAHONING VALLEY HOSPITAL TRUMBULL CAMPUS", "ST_FIPS": "39", "OWNER": "PROPRIETARY", "TTL_STAFF": -999, "BEDS": 34, "TRAUMA": "LEVEL III", "HELIPAD": "Y" }, "geometry": { "type": "Polygon", "coordinates": [ [ [ -80.768844, 41.142338 ], [ -80.857064, 41.153985 ], [ -80.926451, 41.222354 ], [ -80.923285, 41.232869 ], [ -80.909363, 41.278616 ], [ -80.909238, 41.27878 ], [ -80.8576015, 41.316315 ], [ -80.855686, 41.317031 ], [ -80.850481, 41.318704 ], [ -80.729792, 41.321642 ], [ -80.661593, 41.234617 ], [ -80.659719, 41.230189 ], [ -80.659709, 41.227726 ], [ -80.685287, 41.184407 ], [ -80.688661, 41.182125 ], [ -80.768844, 41.142338 ] ] ] } },
{ "type": "Feature", "properties": { "OBJECTID": 4205, "ID": "0123044512", "NAME": "GREENBRIAR REHABILITATION HOSPITAL", "ADDRESS": "8064 SOUTH AVENUE, SUITE ONE", "CITY": "BOARDMAN", "STATE": "OH", "ZIP": "44512", "ZIP4": "NOT AVAILABLE", "TELEPHONE": "(330) 965-6432", "TYPE": "REHABILITATION", "STATUS": "OPEN", "POPULATION": 29, "COUNTY": "MAHONING", "COUNTYFIPS": "39099", "COUNTRY": "USA", "LATITUDE": 41.00301259, "LONGITUDE": -80.635042862000006, "NAICS_CODE": "622310", "NAICS_DESC": "REHABILITATION HOSPITALS (EXCEPT ALCOHOLISM, DRUG ADDICTION)", "SOURCE": "http://publicapps.odh.ohio.gov/EID/Provider_Search.aspx", "SOURCEDATE": "2018-08-10T00:00:00.000Z", "VAL_METHOD": "IMAGERY/OTHER", "VAL_DATE": "2015-03-10T00:00:00.000Z", "WEBSITE": "http://www.advancedspecialtyhospitals.com/Adv-spec-Greenbriar.htm", "STATE_ID": "1440", "ALT_NAME": "NOT AVAILABLE", "ST_FIPS": "39", "OWNER": "NOT AVAILABLE", "TTL_STAFF": -999, "BEDS": -999, "TRAUMA": "NOT AVAILABLE", "HELIPAD": "N" }, "geometry": { "type": "Polygon", "coordinates": [ [ [ -80.695833418081349, 40.905169816593364 ], [ -80.71524800406128, 40.942606042572784 ], [ -80.736913949954243, 40.988146090213462 ], [ -80.7296825, 41.0246689 ], [ -80.664025335786206, 41.100879734459546 ], [ -80.653127343514242, 41.102922135528914 ], [ -80.646425849942801, 41.103806736524405 ], [ -80.635664868936971, 41.103307738727771 ], [ -80.596283003972687, 41.086987742548779 ], [ -80.568456116211891, 41.071744735298481 ], [ -80.548695363327326, 41.023912698139561 ], [ -80.533203498745607, 40.973212684923709 ], [ -80.546954487320178, 40.950004709806414 ], [ -80.59544646777816, 40.911462760272563 ], [ -80.695426918350563, 40.905143916378051 ], [ -80.695833418081349, 40.905169816593364 ] ] ] } },
{ "type": "Feature", "properties": { "OBJECTID": 4258, "ID": "0125443952", "NAME": "ACUITY SPECIALTY OHIO VALLEY", "ADDRESS": "380 SUMMIT AVENUE, 3RD FLOOR", "CITY": "STEUBENVILLE", "STATE": "OH", "ZIP": "43952", "ZIP4": "NOT AVAILABLE", "TELEPHONE": "(740) 283-4799", "TYPE": "LONG TERM CARE", "STATUS": "CLOSED", "POPULATION": 24, "COUNTY": "JEFFERSON", "COUNTYFIPS": "39081", "COUNTRY": "USA", "LATITUDE": 40.355068850000102, "LONGITUDE": -80.625591309000001, "NAICS_CODE": "622310", "NAICS_DESC": "EXTENDED CARE HOSPITALS (EXCEPT MENTAL, SUBSTANCE ABUSE)", "SOURCE": "http://publicapps.odh.ohio.gov/EID/Default.aspx", "SOURCEDATE": "2016-09-14T00:00:00.000Z", "VAL_METHOD": "IMAGERY/OTHER", "VAL_DATE": "2015-03-11T00:00:00.000Z", "WEBSITE": "http://steubenville.acuityhealthcare.ccgproof.com/", "STATE_ID": "1466", "ALT_NAME": "NOT AVAILABLE", "ST_FIPS": "39", "OWNER": "PROPRIETARY", "TTL_STAFF": -999, "BEDS": 24, "TRAUMA": "NOT AVAILABLE", "HELIPAD": "N" }, "geometry": { "type": "Polygon", "coordinates": [ [ [ -80.6357538, 40.259012400000017 ], [ -80.6694725, 40.294222700000041 ], [ -80.7299796, 40.3894083 ], [ -80.7316184, 40.3953866 ], [ -80.6642275, 40.4339806 ], [ -80.6159545, 40.454778 ], [ -80.6065118, 40.3574073 ], [ -80.605433, 40.323418100000048 ], [ -80.6190034, 40.269616500000041 ], [ -80.6206676, 40.2673738 ], [ -80.6259578, 40.262345500000023 ], [ -80.6357538, 40.259012400000017 ] ] ] } },
{ "type": "Feature", "properties": { "OBJECTID": 4287, "ID": "0008144084", "NAME": "GLENBEIGH", "ADDRESS": "2863 STATE ROUTE 45", "CITY": "ROCK CREEK", "STATE": "OH", "ZIP": "44084", "ZIP4": "NOT AVAILABLE", "TELEPHONE": "(440) 563-3400", "TYPE": "PSYCHIATRIC", "STATUS": "OPEN", "POPULATION": 114, "COUNTY": "ASHTABULA", "COUNTYFIPS": "39007", "COUNTRY": "USA", "LATITUDE": 41.672648144999997, "LONGITUDE": -80.859290352000002, "NAICS_CODE": "622210", "NAICS_DESC": "HOSPITALS, SUBSTANCE ABUSE", "SOURCE": "http://publicapps.odh.ohio.gov/EID/Provider_Search.aspx", "SOURCEDATE": "2018-08-10T00:00:00.000Z", "VAL_METHOD": "IMAGERY", "VAL_DATE": "2014-02-10T00:00:00.000Z", "WEBSITE": "http://www.glenbeigh.com", "STATE_ID": "1812", "ALT_NAME": "NOT AVAILABLE", "ST_FIPS": "39", "OWNER": "NON-PROFIT", "TTL_STAFF": -999, "BEDS": 114, "TRAUMA": "NOT AVAILABLE", "HELIPAD": "N" }, "geometry": { "type": "Polygon", "coordinates": [ [ [ -80.866267, 41.55686 ], [ -80.953924, 41.661661 ], [ -80.958497, 41.667137 ], [ -80.953981, 41.689735 ], [ -80.884319, 41.767481899999979 ], [ -80.8546017, 41.7924649 ], [ -80.850002, 41.789663 ], [ -80.791314, 41.738289 ], [ -80.781072, 41.683738 ], [ -80.780975, 41.677293 ], [ -80.806402, 41.605645 ], [ -80.866267, 41.55686 ] ] ] } },
{ "type": "Feature", "properties": { "OBJECTID": 4294, "ID": "0029444484", "NAME": "SELECT SPECIALTY HOSPITAL WARREN CAMPUS", "ADDRESS": "667 EASTLAND AVE SE, 5TH FLOOR", "CITY": "WARREN", "STATE": "OH", "ZIP": "44484", "ZIP4": "NOT AVAILABLE", "TELEPHONE": "(330) 841-4750", "TYPE": "LONG TERM CARE", "STATUS": "OPEN", "POPULATION": 25, "COUNTY": "TRUMBULL", "COUNTYFIPS": "39155", "COUNTRY": "USA", "LATITUDE": 41.230447750000103, "LONGITUDE": -80.777083896999997, "NAICS_CODE": "622310", "NAICS_DESC": "SPECIALTY (EXCEPT PSYCHIATRIC AND SUBSTANCE ABUSE) HOSPITALS", "SOURCE": "http://publicapps.odh.ohio.gov/EID/Provider_Search.aspx", "SOURCEDATE": "2018-08-10T00:00:00.000Z", "VAL_METHOD": "IMAGERY/OTHER", "VAL_DATE": "2016-09-21T00:00:00.000Z", "WEBSITE": "http://warren.selectspecialtyhospitals.com/", "STATE_ID": "1475", "ALT_NAME": "NOT AVAILABLE", "ST_FIPS": "39", "OWNER": "PROPRIETARY", "TTL_STAFF": -999, "BEDS": 25, "TRAUMA": "NOT AVAILABLE", "HELIPAD": "Y" }, "geometry": { "type": "Polygon", "coordinates": [ [ [ -80.768832, 41.143869 ], [ -80.8575498, 41.183339900000028 ], [ -80.8901871, 41.235592300000015 ], [ -80.8903692, 41.243062199999954 ], [ -80.852403, 41.29148 ], [ -80.848415, 41.294213 ], [ -80.7792612, 41.308236 ], [ -80.741198, 41.311745 ], [ -80.731111, 41.308238 ], [ -80.663777, 41.24689 ], [ -80.657686, 41.237742 ], [ -80.652781, 41.227359 ], [ -80.652786, 41.227249 ], [ -80.6748326, 41.183876 ], [ -80.678658, 41.181015 ], [ -80.768832, 41.143869 ] ] ] } },
{ "type": "Feature", "properties": { "OBJECTID": 4449, "ID": "0123444120", "NAME": "SELECT SPECIALTY HOSPITAL - CLEVELAND FAIRHILL", "ADDRESS": "11900 FAIRHILL ROAD", "CITY": "CLEVELAND", "STATE": "OH", "ZIP": "44120", "ZIP4": "NOT AVAILABLE", "TELEPHONE": "(216) 231-2094", "TYPE": "LONG TERM CARE", "STATUS": "OPEN", "POPULATION": 68, "COUNTY": "CUYAHOGA", "COUNTYFIPS": "39035", "COUNTRY": "USA", "LATITUDE": 41.489979264000098, "LONGITUDE": -81.598482820999905, "NAICS_CODE": "622310", "NAICS_DESC": "SPECIALTY (EXCEPT PSYCHIATRIC AND SUBSTANCE ABUSE) HOSPITALS", "SOURCE": "http://publicapps.odh.ohio.gov/EID/Provider_Search.aspx", "SOURCEDATE": "2018-08-10T00:00:00.000Z", "VAL_METHOD": "IMAGERY/OTHER", "VAL_DATE": "2015-03-10T00:00:00.000Z", "WEBSITE": "http://clevelandfairhill.selectspecialtyhospitals.com/", "STATE_ID": "1468", "ALT_NAME": "NOT AVAILABLE", "ST_FIPS": "39", "OWNER": "PROPRIETARY", "TTL_STAFF": -999, "BEDS": 68, "TRAUMA": "NOT AVAILABLE", "HELIPAD": "N" }, "geometry": { "type": "Polygon", "coordinates": [ [ [ -81.615661, 41.430061 ], [ -81.620356, 41.430654 ], [ -81.631857, 41.432454 ], [ -81.65063, 41.43678 ], [ -81.6897723, 41.448388100000031 ], [ -81.705958, 41.4565981 ], [ -81.7244772, 41.474545599999956 ], [ -81.693257, 41.504654499999987 ], [ -81.6812309, 41.514995 ], [ -81.6394715, 41.538709600000011 ], [ -81.6380614, 41.539441599999982 ], [ -81.6068268, 41.5548697 ], [ -81.5922909, 41.561050200000047 ], [ -81.5624966, 41.5484681 ], [ -81.5271388, 41.52079820000003 ], [ -81.507966, 41.501358 ], [ -81.4953114, 41.486186200000027 ], [ -81.4978189, 41.464450100000036 ], [ -81.5170093, 41.448665799999979 ], [ -81.5275882, 41.442200799999988 ], [ -81.5648162, 41.427633199999988 ], [ -81.589666, 41.428149 ], [ -81.615661, 41.430061 ] ] ] } },
{ "type": "Feature", "properties": { "OBJECTID": 285, "ID": "0014244266", "NAME": "ROBINSON MEMORIAL HOSPITAL", "ADDRESS": "6847 N CHESTNUT", "CITY": "RAVENNA", "STATE": "OH", "ZIP": "44266", "ZIP4": "NOT AVAILABLE", "TELEPHONE": "(330) 297-2300", "TYPE": "GENERAL ACUTE CARE", "STATUS": "OPEN", "POPULATION": 302, "COUNTY": "PORTAGE", "COUNTYFIPS": "39133", "COUNTRY": "USA", "LATITUDE": 41.176057754000098, "LONGITUDE": -81.249017298999902, "NAICS_CODE": "622110", "NAICS_DESC": "GENERAL MEDICAL AND SURGICAL HOSPITALS", "SOURCE": "http://publicapps.odh.ohio.gov/EID/Provider_Search.aspx", "SOURCEDATE": "2018-08-10T00:00:00.000Z", "VAL_METHOD": "IMAGERY", "VAL_DATE": "2014-03-12T00:00:00.000Z", "WEBSITE": "http://www.uhhospitals.org/portage", "STATE_ID": "1255", "ALT_NAME": "UNIVERSITY HOSPITALS PORTAGE MEDICAL CENTER", "ST_FIPS": "39", "OWNER": "NON-PROFIT", "TTL_STAFF": -999, "BEDS": 302, "TRAUMA": "LEVEL III", "HELIPAD": "Y" }, "geometry": { "type": "Polygon", "coordinates": [ [ [ -81.2432017, 41.078833500000023 ], [ -81.3295933, 41.13461 ], [ -81.3484449, 41.1536965 ], [ -81.357373, 41.23949 ], [ -81.345436, 41.247419 ], [ -81.226214, 41.275399 ], [ -81.127709, 41.243346 ], [ -81.118161, 41.157 ], [ -81.145863, 41.09786 ], [ -81.220905, 41.08257 ], [ -81.2432017, 41.078833500000023 ] ] ] } },
{ "type": "Feature", "properties": { "OBJECTID": 330, "ID": "0009344221", "NAME": "EDWIN SHAW REHABILITATION INSTITUTE", "ADDRESS": "330 BROADWAY EAST", "CITY": "CUYAHOGA FALLS", "STATE": "OH", "ZIP": "44221", "ZIP4": "NOT AVAILABLE", "TELEPHONE": "(330) 436-0910", "TYPE": "REHABILITATION", "STATUS": "OPEN", "POPULATION": 139, "COUNTY": "SUMMIT", "COUNTYFIPS": "39153", "COUNTRY": "USA", "LATITUDE": 41.132146270000099, "LONGITUDE": -81.47737547, "NAICS_CODE": "622310", "NAICS_DESC": "REHABILITATION HOSPITALS (EXCEPT ALCOHOLISM, DRUG ADDICTION)", "SOURCE": "http://publicapps.odh.ohio.gov/EID/Provider_Search.aspx", "SOURCEDATE": "2018-08-10T00:00:00.000Z", "VAL_METHOD": "IMAGERY", "VAL_DATE": "2014-01-31T00:00:00.000Z", "WEBSITE": "http://www.edwinshaw.com", "STATE_ID": "1320", "ALT_NAME": "NOT AVAILABLE", "ST_FIPS": "39", "OWNER": "NON-PROFIT", "TTL_STAFF": -999, "BEDS": 139, "TRAUMA": "NOT AVAILABLE", "HELIPAD": "N" }, "geometry": { "type": "Polygon", "coordinates": [ [ [ -81.499783, 41.023453 ], [ -81.509219, 41.024993 ], [ -81.517515, 41.028819 ], [ -81.556092, 41.060106 ], [ -81.56805, 41.108997 ], [ -81.563149, 41.147229 ], [ -81.555689, 41.180872 ], [ -81.5026887, 41.2683361 ], [ -81.4402243, 41.2195472 ], [ -81.437981, 41.2174618 ], [ -81.408953, 41.188524 ], [ -81.3894801, 41.152372300000025 ], [ -81.378452, 41.117801 ], [ -81.404054, 41.074292 ], [ -81.488332, 41.02584 ], [ -81.499783, 41.023453 ] ] ] } },
{ "type": "Feature", "properties": { "OBJECTID": 332, "ID": "0014044481", "NAME": "ST JOSEPH HEALTH CENTER", "ADDRESS": "667 EASTLAND AVE SE", "CITY": "WARREN", "STATE": "OH", "ZIP": "44481", "ZIP4": "NOT AVAILABLE", "TELEPHONE": "(330) 841-4000", "TYPE": "GENERAL ACUTE CARE", "STATUS": "OPEN", "POPULATION": 219, "COUNTY": "TRUMBULL", "COUNTYFIPS": "39155", "COUNTRY": "USA", "LATITUDE": 41.2309117450001, "LONGITUDE": -80.777155281000006, "NAICS_CODE": "622110", "NAICS_DESC": "GENERAL MEDICAL AND SURGICAL HOSPITALS", "SOURCE": "http://publicapps.odh.ohio.gov/EID/Provider_Search.aspx", "SOURCEDATE": "2018-08-10T00:00:00.000Z", "VAL_METHOD": "IMAGERY", "VAL_DATE": "2014-02-10T00:00:00.000Z", "WEBSITE": "http://www.hmpartners.org", "STATE_ID": "1000", "ALT_NAME": "NOT AVAILABLE", "ST_FIPS": "39", "OWNER": "NON-PROFIT", "TTL_STAFF": -999, "BEDS": 219, "TRAUMA": "LEVEL III", "HELIPAD": "Y" }, "geometry": { "type": "Polygon", "coordinates": [ [ [ -80.768832, 41.143869 ], [ -80.8575498, 41.183339900000028 ], [ -80.8901871, 41.235592300000015 ], [ -80.8903692, 41.243062199999954 ], [ -80.852403, 41.29148 ], [ -80.848415, 41.294213 ], [ -80.7792612, 41.308236 ], [ -80.741198, 41.311745 ], [ -80.731111, 41.308238 ], [ -80.663777, 41.24689 ], [ -80.657686, 41.237742 ], [ -80.652781, 41.227359 ], [ -80.652786, 41.227249 ], [ -80.6748326, 41.183876 ], [ -80.678658, 41.181015 ], [ -80.768832, 41.143869 ] ] ] } },
{ "type": "Feature", "properties": { "OBJECTID": 333, "ID": "0002944482", "NAME": "TRUMBULL MEMORIAL HOSPITAL", "ADDRESS": "1350 EAST MARKET STREET", "CITY": "WARREN", "STATE": "OH", "ZIP": "44482", "ZIP4": "NOT AVAILABLE", "TELEPHONE": "(330) 841-9011", "TYPE": "GENERAL ACUTE CARE", "STATUS": "OPEN", "POPULATION": 346, "COUNTY": "TRUMBULL", "COUNTYFIPS": "39155", "COUNTRY": "USA", "LATITUDE": 41.235855923000003, "LONGITUDE": -80.798778258, "NAICS_CODE": "622110", "NAICS_DESC": "GENERAL MEDICAL AND SURGICAL HOSPITALS", "SOURCE": "http://publicapps.odh.ohio.gov/EID/Provider_Search.aspx", "SOURCEDATE": "2018-08-10T00:00:00.000Z", "VAL_METHOD": "IMAGERY", "VAL_DATE": "2014-02-04T00:00:00.000Z", "WEBSITE": "http://www.valleycarehealth.net", "STATE_ID": "1283", "ALT_NAME": "NOT AVAILABLE", "ST_FIPS": "39", "OWNER": "PROPRIETARY", "TTL_STAFF": -999, "BEDS": 346, "TRAUMA": "LEVEL III", "HELIPAD": "Y" }, "geometry": { "type": "Polygon", "coordinates": [ [ [ -80.768844, 41.142338 ], [ -80.857064, 41.153985 ], [ -80.926451, 41.222354 ], [ -80.923285, 41.232869 ], [ -80.909363, 41.278616 ], [ -80.909238, 41.27878 ], [ -80.8576015, 41.316315 ], [ -80.855686, 41.317031 ], [ -80.850481, 41.318704 ], [ -80.729792, 41.321642 ], [ -80.661593, 41.234617 ], [ -80.659719, 41.230189 ], [ -80.659709, 41.227726 ], [ -80.685287, 41.184407 ], [ -80.688661, 41.182125 ], [ -80.768844, 41.142338 ] ] ] } },
{ "type": "Feature", "properties": { "OBJECTID": 823, "ID": "0123344484", "NAME": "STEWARD HILLSIDE REHABILITATION HOSPITAL", "ADDRESS": "8747 SQUIRES LANE NE", "CITY": "WARREN", "STATE": "OH", "ZIP": "44484", "ZIP4": "NOT AVAILABLE", "TELEPHONE": "(330) 841-3720", "TYPE": "REHABILITATION", "STATUS": "OPEN", "POPULATION": 69, "COUNTY": "TRUMBULL", "COUNTYFIPS": "39155", "COUNTRY": "USA", "LATITUDE": 41.250753537000001, "LONGITUDE": -80.732462100999996, "NAICS_CODE": "622310", "NAICS_DESC": "REHABILITATION HOSPITALS (EXCEPT ALCOHOLISM, DRUG ADDICTION)", "SOURCE": "http://publicapps.odh.ohio.gov/EID/Provider_Search.aspx", "SOURCEDATE": "2018-08-10T00:00:00.000Z", "VAL_METHOD": "IMAGERY/OTHER", "VAL_DATE": "2015-03-10T00:00:00.000Z", "WEBSITE": "http://www.valleycareofohio.net/locations/hillside-rehabilitation-hospital", "STATE_ID": "1321", "ALT_NAME": "NOT AVAILABLE", "ST_FIPS": "39", "OWNER": "PROPRIETARY", "TTL_STAFF": -999, "BEDS": 69, "TRAUMA": "NOT AVAILABLE", "HELIPAD": "N" }, "geometry": { "type": "Polygon", "coordinates": [ [ [ -80.6753903, 41.151773299999974 ], [ -80.766844, 41.169575 ], [ -80.775525, 41.171839 ], [ -80.829092, 41.23401 ], [ -80.845743, 41.276292 ], [ -80.844296, 41.277347 ], [ -80.7315485, 41.3416417 ], [ -80.721935, 41.342291 ], [ -80.691844, 41.318682 ], [ -80.636353287199015, 41.231822714399627 ], [ -80.636337989921941, 41.231225314535322 ], [ -80.636333312270281, 41.226280715472328 ], [ -80.6753903, 41.151773299999974 ] ] ] } },
{ "type": "Feature", "properties": { "OBJECTID": 824, "ID": "0125744501", "NAME": "SELECT SPECIALTY HOSPITAL - YOUNGSTOWN", "ADDRESS": "1044 BELMONT AVE", "CITY": "YOUNGSTOWN", "STATE": "OH", "ZIP": "44501", "ZIP4": "NOT AVAILABLE", "TELEPHONE": "(330) 480-6664", "TYPE": "LONG TERM CARE", "STATUS": "OPEN", "POPULATION": 31, "COUNTY": "MAHONING", "COUNTYFIPS": "39099", "COUNTRY": "USA", "LATITUDE": 41.113934186000101, "LONGITUDE": -80.658406384000003, "NAICS_CODE": "622310", "NAICS_DESC": "SPECIALTY (EXCEPT PSYCHIATRIC AND SUBSTANCE ABUSE) HOSPITALS", "SOURCE": "http://publicapps.odh.ohio.gov/EID/Provider_Search.aspx", "SOURCEDATE": "2018-08-10T00:00:00.000Z", "VAL_METHOD": "IMAGERY/OTHER", "VAL_DATE": "2015-03-11T00:00:00.000Z", "WEBSITE": "http://youngstown.selectspecialtyhospitals.com/", "STATE_ID": "1432", "ALT_NAME": "NOT AVAILABLE", "ST_FIPS": "39", "OWNER": "PROPRIETARY", "TTL_STAFF": -999, "BEDS": 31, "TRAUMA": "NOT AVAILABLE", "HELIPAD": "Y" }, "geometry": { "type": "Polygon", "coordinates": [ [ [ -80.634329248896663, 41.019675752973875 ], [ -80.703215, 41.036555 ], [ -80.726548, 41.055705 ], [ -80.777186, 41.099589 ], [ -80.7791375, 41.11430710000004 ], [ -80.779141, 41.116771 ], [ -80.778336, 41.134069 ], [ -80.777503, 41.136289 ], [ -80.7161667, 41.228289099999984 ], [ -80.709429, 41.232731 ], [ -80.698605, 41.230769 ], [ -80.56829103264208, 41.178740790641292 ], [ -80.565673654709968, 41.174758791020352 ], [ -80.557030049176674, 41.090501745639457 ], [ -80.556992058543145, 41.088443744335649 ], [ -80.556773744819097, 41.04733041815966 ], [ -80.629439257826732, 41.019387749701892 ], [ -80.634329248896663, 41.019675752973875 ] ] ] } },
{ "type": "Feature", "properties": { "OBJECTID": 7020, "ID": "0016144512", "NAME": "ST ELIZABETH BOARDMAN HEALTH CENTER", "ADDRESS": "8401 MARKET STREET", "CITY": "BOARDMAN", "STATE": "OH", "ZIP": "44512", "ZIP4": "NOT AVAILABLE", "TELEPHONE": "(330) 729-2929", "TYPE": "GENERAL ACUTE CARE", "STATUS": "OPEN", "POPULATION": 246, "COUNTY": "MAHONING", "COUNTYFIPS": "39099", "COUNTRY": "USA", "LATITUDE": 40.994884976000002, "LONGITUDE": -80.660028409999896, "NAICS_CODE": "622110", "NAICS_DESC": "GENERAL MEDICAL AND SURGICAL HOSPITALS", "SOURCE": "http://publicapps.odh.ohio.gov/EID/Provider_Search.aspx", "SOURCEDATE": "2018-08-10T00:00:00.000Z", "VAL_METHOD": "IMAGERY", "VAL_DATE": "2014-02-10T00:00:00.000Z", "WEBSITE": "http://www.mercy.com/Youngstown/ho_sebhc.aspx", "STATE_ID": "1471", "ALT_NAME": "NOT AVAILABLE", "ST_FIPS": "39", "OWNER": "NON-PROFIT", "TTL_STAFF": -999, "BEDS": 246, "TRAUMA": "NOT AVAILABLE", "HELIPAD": "Y" }, "geometry": { "type": "Polygon", "coordinates": [ [ [ -80.694389411562682, 40.90913181554216 ], [ -80.77511991842475, 40.987652118395651 ], [ -80.775001917852066, 40.988239118738854 ], [ -80.773225914188984, 40.992726120688687 ], [ -80.760695, 41.005488 ], [ -80.7111226, 41.0518205 ], [ -80.675387918224175, 41.07871174571946 ], [ -80.656962943687716, 41.079425144256206 ], [ -80.628481787031618, 41.079645942624708 ], [ -80.623518909151031, 41.076460942531725 ], [ -80.591737170514577, 41.051712732971218 ], [ -80.589853183816601, 41.049419731649557 ], [ -80.578271317826591, 41.023772716775369 ], [ -80.562365461697965, 40.972979707864482 ], [ -80.59544646777816, 40.911462760272563 ], [ -80.614546456953747, 40.910594771224225 ], [ -80.694389411562682, 40.90913181554216 ] ] ] } },
{ "type": "Feature", "properties": { "OBJECTID": 7042, "ID": "0004744223", "NAME": "SUMMA WESTERN RESERVE HOSPITAL", "ADDRESS": "1900 23RD STREET", "CITY": "CUYAHOGA FALLS", "STATE": "OH", "ZIP": "44223", "ZIP4": "NOT AVAILABLE", "TELEPHONE": "(330) 971-7000", "TYPE": "GENERAL ACUTE CARE", "STATUS": "OPEN", "POPULATION": 272, "COUNTY": "SUMMIT", "COUNTYFIPS": "39153", "COUNTRY": "USA", "LATITUDE": 41.132990966000101, "LONGITUDE": -81.511095847000007, "NAICS_CODE": "622110", "NAICS_DESC": "GENERAL MEDICAL AND SURGICAL HOSPITALS", "SOURCE": "http://publicapps.odh.ohio.gov/EID/Provider_Search.aspx", "SOURCEDATE": "2018-08-10T00:00:00.000Z", "VAL_METHOD": "IMAGERY", "VAL_DATE": "2014-01-31T00:00:00.000Z", "WEBSITE": "http://www.westernreservehospital.org", "STATE_ID": "1280", "ALT_NAME": "NOT AVAILABLE", "ST_FIPS": "39", "OWNER": "PROPRIETARY", "TTL_STAFF": -999, "BEDS": 272, "TRAUMA": "NOT AVAILABLE", "HELIPAD": "N" }, "geometry": { "type": "Polygon", "coordinates": [ [ [ -81.505481, 41.054974 ], [ -81.537888, 41.068768 ], [ -81.538422, 41.069183 ], [ -81.541632, 41.072408 ], [ -81.567005, 41.098402 ], [ -81.570975, 41.103235 ], [ -81.597302, 41.139108 ], [ -81.56962, 41.16901 ], [ -81.514886, 41.200944 ], [ -81.4843344, 41.205699499999987 ], [ -81.472177, 41.202961 ], [ -81.457392, 41.194783 ], [ -81.43385, 41.175067 ], [ -81.427594, 41.166709 ], [ -81.4245345, 41.159103500000036 ], [ -81.4249411, 41.11818490000001 ], [ -81.4346834, 41.099888500000027 ], [ -81.436749, 41.09832 ], [ -81.505481, 41.054974 ] ] ] } },
{ "type": "Feature", "properties": { "OBJECTID": 7045, "ID": "0015844621", "NAME": "TRINITY HOSPITAL TWIN CITY", "ADDRESS": "819 NORTH FIRST STREET", "CITY": "DENNISON", "STATE": "OH", "ZIP": "44621", "ZIP4": "NOT AVAILABLE", "TELEPHONE": "(740) 922-2800", "TYPE": "CRITICAL ACCESS", "STATUS": "OPEN", "POPULATION": 25, "COUNTY": "TUSCARAWAS", "COUNTYFIPS": "39157", "COUNTRY": "USA", "LATITUDE": 40.401621594000098, "LONGITUDE": -81.336686131999997, "NAICS_CODE": "622110", "NAICS_DESC": "GENERAL MEDICAL AND SURGICAL HOSPITALS", "SOURCE": "http://publicapps.odh.ohio.gov/EID/Provider_Search.aspx", "SOURCEDATE": "2018-08-10T00:00:00.000Z", "VAL_METHOD": "IMAGERY", "VAL_DATE": "2014-03-12T00:00:00.000Z", "WEBSITE": "http://www.trinitytwincity.org", "STATE_ID": "1284", "ALT_NAME": "NOT AVAILABLE", "ST_FIPS": "39", "OWNER": "NON-PROFIT", "TTL_STAFF": -999, "BEDS": 25, "TRAUMA": "NOT AVAILABLE", "HELIPAD": "Y" }, "geometry": { "type": "Polygon", "coordinates": [ [ [ -81.3388565, 40.341375899999967 ], [ -81.4343976, 40.3590506 ], [ -81.4393896, 40.364755299999949 ], [ -81.453362, 40.480925899999967 ], [ -81.4401183, 40.488728899999977 ], [ -81.4389709, 40.488725799999976 ], [ -81.3674975, 40.484918699999987 ], [ -81.3530476, 40.4817793 ], [ -81.3008856, 40.460932399999983 ], [ -81.233063, 40.404461 ], [ -81.228115, 40.362211 ], [ -81.228253, 40.361913 ], [ -81.3015386, 40.343337200000022 ], [ -81.3388565, 40.341375899999967 ] ] ] } },
{ "type": "Feature", "properties": { "OBJECTID": 7427, "ID": "0122944113", "NAME": "GRACE HOSPITAL", "ADDRESS": "2307 WEST 14TH STREET", "CITY": "CLEVELAND", "STATE": "OH", "ZIP": "44113", "ZIP4": "NOT AVAILABLE", "TELEPHONE": "(216) 456-3891", "TYPE": "GENERAL ACUTE CARE", "STATUS": "CLOSED", "POPULATION": -999, "COUNTY": "CUYAHOGA", "COUNTYFIPS": "39035", "COUNTRY": "USA", "LATITUDE": 41.480695298999997, "LONGITUDE": -81.690868471000002, "NAICS_CODE": "622110", "NAICS_DESC": "GENERAL MEDICAL AND SURGICAL HOSPITALS", "SOURCE": "http://publicapps.odh.ohio.gov", "SOURCEDATE": "2015-03-03T00:00:00.000Z", "VAL_METHOD": "IMAGERY/OTHER", "VAL_DATE": "2015-03-10T00:00:00.000Z", "WEBSITE": "NOT AVAILABLE", "STATE_ID": "NOT AVAILABLE", "ALT_NAME": "NOT AVAILABLE", "ST_FIPS": "39", "OWNER": "NOT AVAILABLE", "TTL_STAFF": -999, "BEDS": -999, "TRAUMA": "NOT AVAILABLE", "HELIPAD": "N" }, "geometry": { "type": "Polygon", "coordinates": [ [ [ -81.687368, 41.395664 ], [ -81.734551600000017, 41.4064962 ], [ -81.8174203, 41.4283093 ], [ -81.8599519, 41.473498800000023 ], [ -81.82501, 41.486131 ], [ -81.5891378, 41.563551899999965 ], [ -81.5837737, 41.483068499999987 ], [ -81.587217, 41.463875 ], [ -81.6129291, 41.41187810000001 ], [ -81.6154238, 41.409068200000021 ], [ -81.6412094, 41.393038200000042 ], [ -81.6532887, 41.392395600000022 ], [ -81.687368, 41.395664 ] ] ] } },
{ "type": "Feature", "properties": { "OBJECTID": 7430, "ID": "0128844512", "NAME": "VIBRA HOSPITAL OF MAHONING VALLEY", "ADDRESS": "8049 SOUTH AVENUE", "CITY": "BOARDMAN", "STATE": "OH", "ZIP": "44512", "ZIP4": "NOT AVAILABLE", "TELEPHONE": "(330) 726-5021", "TYPE": "LONG TERM CARE", "STATUS": "OPEN", "POPULATION": 45, "COUNTY": "MAHONING", "COUNTYFIPS": "39099", "COUNTRY": "USA", "LATITUDE": 41.0051693, "LONGITUDE": -80.632972307000003, "NAICS_CODE": "622310", "NAICS_DESC": "SPECIALTY (EXCEPT PSYCHIATRIC AND SUBSTANCE ABUSE) HOSPITALS", "SOURCE": "http://publicapps.odh.ohio.gov/EID/Provider_Search.aspx", "SOURCEDATE": "2018-08-10T00:00:00.000Z", "VAL_METHOD": "IMAGERY/OTHER", "VAL_DATE": "2015-03-12T00:00:00.000Z", "WEBSITE": "http://www.mahoningvalleyhospital.com/", "STATE_ID": "1428", "ALT_NAME": "MAHONING VALLEY HOSPITAL BOARDMAN CAMPUS", "ST_FIPS": "39", "OWNER": "PROPRIETARY", "TTL_STAFF": -999, "BEDS": 45, "TRAUMA": "NOT AVAILABLE", "HELIPAD": "N" }, "geometry": { "type": "Polygon", "coordinates": [ [ [ -80.694389411562682, 40.90913181554216 ], [ -80.71524800406128, 40.942606042572784 ], [ -80.736913949954243, 40.988146090213462 ], [ -80.7344068, 41.02469330000001 ], [ -80.670892826597182, 41.100548733500432 ], [ -80.667424826143488, 41.101843733403086 ], [ -80.658182526857715, 41.104868633775638 ], [ -80.652327429236252, 41.106358234462554 ], [ -80.631488851069207, 41.108699738782889 ], [ -80.592539004764149, 41.088101742927314 ], [ -80.568083102119118, 41.074989736933787 ], [ -80.566674118846777, 41.071775735072443 ], [ -80.556773744819097, 41.04733041815966 ], [ -80.548695363327326, 41.023912698139561 ], [ -80.538295492267096, 40.973166688936388 ], [ -80.551397480992946, 40.95572370951745 ], [ -80.59544646777816, 40.911462760272563 ], [ -80.614546456953747, 40.910594771224225 ], [ -80.694389411562682, 40.90913181554216 ] ] ] } },
{ "type": "Feature", "properties": { "OBJECTID": 5162, "ID": "0013944622", "NAME": "UNION HOSPITAL", "ADDRESS": "659 BOULEVARD", "CITY": "DOVER", "STATE": "OH", "ZIP": "44622", "ZIP4": "NOT AVAILABLE", "TELEPHONE": "(330) 343-3311", "TYPE": "GENERAL ACUTE CARE", "STATUS": "OPEN", "POPULATION": 157, "COUNTY": "TUSCARAWAS", "COUNTYFIPS": "39157", "COUNTRY": "USA", "LATITUDE": 40.51436785, "LONGITUDE": -81.455854044999995, "NAICS_CODE": "622110", "NAICS_DESC": "GENERAL MEDICAL AND SURGICAL HOSPITALS", "SOURCE": "http://publicapps.odh.ohio.gov/EID/Provider_Search.aspx", "SOURCEDATE": "2018-08-10T00:00:00.000Z", "VAL_METHOD": "IMAGERY", "VAL_DATE": "2014-03-12T00:00:00.000Z", "WEBSITE": "http://www.unionhospital.org", "STATE_ID": "1285", "ALT_NAME": "NOT AVAILABLE", "ST_FIPS": "39", "OWNER": "NON-PROFIT", "TTL_STAFF": -999, "BEDS": 157, "TRAUMA": "NOT AVAILABLE", "HELIPAD": "Y" }, "geometry": { "type": "Polygon", "coordinates": [ [ [ -81.37845, 40.43427 ], [ -81.448059, 40.445972 ], [ -81.4720989, 40.4563606 ], [ -81.4970434, 40.468532200000013 ], [ -81.554728699999984, 40.5057963 ], [ -81.5766127, 40.5575581 ], [ -81.5336575, 40.602504900000042 ], [ -81.5310784, 40.6044701 ], [ -81.5298055, 40.605073700000027 ], [ -81.5287543, 40.605027 ], [ -81.39691, 40.55175 ], [ -81.388425, 40.541072 ], [ -81.3593357, 40.480693200000012 ], [ -81.37576, 40.43845 ], [ -81.37845, 40.43427 ] ] ] } },
{ "type": "Feature", "properties": { "OBJECTID": 5847, "ID": "0016244041", "NAME": "UHHS MEMORIAL HOSPITAL OF GENEVA", "ADDRESS": "870 WEST MAIN STREET", "CITY": "GENEVA", "STATE": "OH", "ZIP": "44041", "ZIP4": "NOT AVAILABLE", "TELEPHONE": "(440) 466-1141", "TYPE": "CRITICAL ACCESS", "STATUS": "OPEN", "POPULATION": 25, "COUNTY": "ASHTABULA", "COUNTYFIPS": "39007", "COUNTRY": "USA", "LATITUDE": 41.799473821, "LONGITUDE": -80.962191348999994, "NAICS_CODE": "622110", "NAICS_DESC": "GENERAL MEDICAL AND SURGICAL HOSPITALS", "SOURCE": "http://publicapps.odh.ohio.gov/EID/Provider_Search.aspx", "SOURCEDATE": "2018-08-10T00:00:00.000Z", "VAL_METHOD": "IMAGERY", "VAL_DATE": "2014-02-10T00:00:00.000Z", "WEBSITE": "http://www.uhhs.com", "STATE_ID": "1108", "ALT_NAME": "NOT AVAILABLE", "ST_FIPS": "39", "OWNER": "NON-PROFIT", "TTL_STAFF": -999, "BEDS": 25, "TRAUMA": "NOT AVAILABLE", "HELIPAD": "Y" }, "geometry": { "type": "Polygon", "coordinates": [ [ [ -80.952384, 41.730474 ], [ -81.0472074, 41.7547414 ], [ -81.0717002, 41.768572 ], [ -81.001407, 41.852723 ], [ -80.999969, 41.852988 ], [ -80.9513676, 41.8618047 ], [ -80.927805, 41.863766299999988 ], [ -80.846853, 41.83998 ], [ -80.849609, 41.82366 ], [ -80.85878, 41.784615 ], [ -80.884319, 41.767481899999979 ], [ -80.94026, 41.730514 ], [ -80.952384, 41.730474 ] ] ] } },
{ "type": "Feature", "properties": { "OBJECTID": 5862, "ID": "0003844030", "NAME": "UNIVERSITY HOSPITALS CONNEAUT MEDICAL CENTER", "ADDRESS": "158 WEST MAIN ROAD, PO BOX 648", "CITY": "CONNEAUT", "STATE": "OH", "ZIP": "44030", "ZIP4": "NOT AVAILABLE", "TELEPHONE": "(440) 593-1131", "TYPE": "CRITICAL ACCESS", "STATUS": "OPEN", "POPULATION": 25, "COUNTY": "ASHTABULA", "COUNTYFIPS": "39007", "COUNTRY": "USA", "LATITUDE": 41.937568685000002, "LONGITUDE": -80.586828815000004, "NAICS_CODE": "622110", "NAICS_DESC": "GENERAL MEDICAL AND SURGICAL HOSPITALS", "SOURCE": "http://publicapps.odh.ohio.gov/EID/Provider_Search.aspx", "SOURCEDATE": "2018-08-10T00:00:00.000Z", "VAL_METHOD": "IMAGERY", "VAL_DATE": "2014-02-10T00:00:00.000Z", "WEBSITE": "http://www.uhhospitals.org", "STATE_ID": "1107", "ALT_NAME": "NOT AVAILABLE", "ST_FIPS": "39", "OWNER": "NON-PROFIT", "TTL_STAFF": -999, "BEDS": 25, "TRAUMA": "NOT AVAILABLE", "HELIPAD": "Y" }, "geometry": { "type": "Polygon", "coordinates": [ [ [ -80.666431, 41.879642 ], [ -80.7058971, 41.898446299999961 ], [ -80.695381, 41.917208499999973 ], [ -80.675424, 41.931615400000048 ], [ -80.6518309, 41.940660500000028 ], [ -80.552674, 41.971389 ], [ -80.5297163, 41.9534866 ], [ -80.5187588, 41.944076 ], [ -80.5184719, 41.9248487 ], [ -80.5292683, 41.907514500000019 ], [ -80.5723734, 41.8701931 ], [ -80.666431, 41.879642 ] ] ] } },
{ "type": "Feature", "properties": { "OBJECTID": 5880, "ID": "0007044004", "NAME": "ASHTABULA COUNTY MEDICAL CENTER", "ADDRESS": "2420 LAKE AVENUE", "CITY": "ASHTABULA", "STATE": "OH", "ZIP": "44004", "ZIP4": "NOT AVAILABLE", "TELEPHONE": "(440) 997-2262", "TYPE": "GENERAL ACUTE CARE", "STATUS": "OPEN", "POPULATION": 249, "COUNTY": "ASHTABULA", "COUNTYFIPS": "39007", "COUNTRY": "USA", "LATITUDE": 41.880536555, "LONGITUDE": -80.7949268, "NAICS_CODE": "622110", "NAICS_DESC": "GENERAL MEDICAL AND SURGICAL HOSPITALS", "SOURCE": "http://publicapps.odh.ohio.gov/EID/Provider_Search.aspx", "SOURCEDATE": "2018-08-10T00:00:00.000Z", "VAL_METHOD": "IMAGERY", "VAL_DATE": "2014-03-12T00:00:00.000Z", "WEBSITE": "http://www.acmchealth.org", "STATE_ID": "1106", "ALT_NAME": "NOT AVAILABLE", "ST_FIPS": "39", "OWNER": "NON-PROFIT", "TTL_STAFF": -999, "BEDS": 249, "TRAUMA": "NOT AVAILABLE", "HELIPAD": "Y" }, "geometry": { "type": "Polygon", "coordinates": [ [ [ -80.764077, 41.796396 ], [ -80.866149, 41.81781 ], [ -80.8985668, 41.869092599999981 ], [ -80.8845846, 41.874428600000016 ], [ -80.8724693, 41.878935199999944 ], [ -80.807193, 41.9030428 ], [ -80.7257401, 41.917856500000028 ], [ -80.692079, 41.909573 ], [ -80.6872754, 41.907426299999955 ], [ -80.6866335, 41.906836199999987 ], [ -80.6884914, 41.9019591 ], [ -80.6964222, 41.8848979 ], [ -80.733873, 41.833018 ], [ -80.75442, 41.804677 ], [ -80.764077, 41.796396 ] ] ] } },
{ "type": "Feature", "properties": { "OBJECTID": 5883, "ID": "0027644041", "NAME": "GENERATIONS BEHAVIORAL HEALTH - GENEVA, LLC", "ADDRESS": "60 WEST STREET", "CITY": "GENEVA", "STATE": "OH", "ZIP": "44041", "ZIP4": "NOT AVAILABLE", "TELEPHONE": "(216) 970-9088", "TYPE": "PSYCHIATRIC", "STATUS": "OPEN", "POPULATION": 16, "COUNTY": "ASHTABULA", "COUNTYFIPS": "39007", "COUNTRY": "USA", "LATITUDE": 41.798383473000101, "LONGITUDE": -80.963909716000003, "NAICS_CODE": "622210", "NAICS_DESC": "PSYCHIATRIC AND SUBSTANCE ABUSE HOSPITALS", "SOURCE": "http://publicapps.odh.ohio.gov/EID/Provider_Search.aspx", "SOURCEDATE": "2018-08-10T00:00:00.000Z", "VAL_METHOD": "IMAGERY/OTHER", "VAL_DATE": "2016-09-14T00:00:00.000Z", "WEBSITE": "http://www.generationsbehavioralhealth.com/", "STATE_ID": "1519", "ALT_NAME": "NOT AVAILABLE", "ST_FIPS": "39", "OWNER": "PROPRIETARY", "TTL_STAFF": -999, "BEDS": 16, "TRAUMA": "NOT AVAILABLE", "HELIPAD": "Y" }, "geometry": { "type": "Polygon", "coordinates": [ [ [ -80.952384, 41.730474 ], [ -81.0472074, 41.7547414 ], [ -81.0717002, 41.768572 ], [ -81.000515, 41.852885 ], [ -80.999969, 41.852988 ], [ -80.9513676, 41.8618047 ], [ -80.9502399, 41.861835099999986 ], [ -80.949288, 41.861815 ], [ -80.9284034, 41.8611461 ], [ -80.846853, 41.83998 ], [ -80.849609, 41.82366 ], [ -80.85878, 41.784615 ], [ -80.884319, 41.767481899999979 ], [ -80.94026, 41.730514 ], [ -80.952384, 41.730474 ] ] ] } },
{ "type": "Feature", "properties": { "OBJECTID": 5889, "ID": "0013743713", "NAME": "BARNESVILLE HOSPITAL ASSOCIATION, INC", "ADDRESS": "639 WEST MAIN STREET, PO BOX 309", "CITY": "BARNESVILLE", "STATE": "OH", "ZIP": "43713", "ZIP4": "NOT AVAILABLE", "TELEPHONE": "(740) 425-5101", "TYPE": "CRITICAL ACCESS", "STATUS": "OPEN", "POPULATION": 25, "COUNTY": "BELMONT", "COUNTYFIPS": "39013", "COUNTRY": "USA", "LATITUDE": 39.9929949530001, "LONGITUDE": -81.188990165999897, "NAICS_CODE": "622110", "NAICS_DESC": "GENERAL MEDICAL AND SURGICAL HOSPITALS", "SOURCE": "http://publicapps.odh.ohio.gov/EID/Provider_Search.aspx", "SOURCEDATE": "2018-08-10T00:00:00.000Z", "VAL_METHOD": "IMAGERY", "VAL_DATE": "2014-02-10T00:00:00.000Z", "WEBSITE": "http://www.barnesvillehospital.com", "STATE_ID": "1112", "ALT_NAME": "NOT AVAILABLE", "ST_FIPS": "39", "OWNER": "NON-PROFIT", "TTL_STAFF": -999, "BEDS": 25, "TRAUMA": "NOT AVAILABLE", "HELIPAD": "N" }, "geometry": { "type": "Polygon", "coordinates": [ [ [ -81.222375623708203, 39.929413608453849 ], [ -81.250779599997244, 39.934877514394401 ], [ -81.253069762584985, 39.956857001349775 ], [ -81.244198, 40.002477 ], [ -81.235556, 40.028706 ], [ -81.158662, 40.043343 ], [ -81.082557, 40.019877 ], [ -81.082305, 40.019316 ], [ -81.11412664088158, 39.956467016974003 ], [ -81.130997650191659, 39.943754932344589 ], [ -81.155669659965056, 39.928523826649879 ], [ -81.222375623708203, 39.929413608453849 ] ] ] } },
{ "type": "Feature", "properties": { "OBJECTID": 5891, "ID": "0016543935", "NAME": "EAST OHIO REGIONAL HOSPITAL", "ADDRESS": "90 NORTH FOURTH STREET", "CITY": "MARTINS FERRY", "STATE": "OH", "ZIP": "43935", "ZIP4": "NOT AVAILABLE", "TELEPHONE": "(740) 633-4151", "TYPE": "GENERAL ACUTE CARE", "STATUS": "OPEN", "POPULATION": 161, "COUNTY": "BELMONT", "COUNTYFIPS": "39013", "COUNTRY": "USA", "LATITUDE": 40.098488782000103, "LONGITUDE": -80.720614901999994, "NAICS_CODE": "622110", "NAICS_DESC": "GENERAL MEDICAL AND SURGICAL HOSPITALS", "SOURCE": "http://publicapps.odh.ohio.gov/EID/Provider_Search.aspx", "SOURCEDATE": "2018-08-10T00:00:00.000Z", "VAL_METHOD": "IMAGERY", "VAL_DATE": "2014-02-10T00:00:00.000Z", "WEBSITE": "http://www.ovmc-eorh.com", "STATE_ID": "1114", "ALT_NAME": "NOT AVAILABLE", "ST_FIPS": "39", "OWNER": "NON-PROFIT", "TTL_STAFF": -999, "BEDS": 161, "TRAUMA": "NOT AVAILABLE", "HELIPAD": "N" }, "geometry": { "type": "Polygon", "coordinates": [ [ [ -80.742789907370337, 39.977812882038037 ], [ -80.872967, 40.072001 ], [ -80.801184, 40.145345 ], [ -80.795837, 40.147707 ], [ -80.6935968, 40.190962 ], [ -80.6864047, 40.192674899999957 ], [ -80.6828502, 40.1932005 ], [ -80.6807949, 40.1917859 ], [ -80.740588908125062, 39.978973877846563 ], [ -80.742789907370337, 39.977812882038037 ] ] ] } },
{ "type": "Feature", "properties": { "OBJECTID": 5894, "ID": "0027743906", "NAME": "ACUITY SPECIALTY HOSPITAL - OHIO VALLEY AT BELMONT", "ADDRESS": "4697 HARRISON STREET", "CITY": "BELLAIRE", "STATE": "OH", "ZIP": "43906", "ZIP4": "NOT AVAILABLE", "TELEPHONE": "(740) 671-1438", "TYPE": "LONG TERM CARE", "STATUS": "OPEN", "POPULATION": 15, "COUNTY": "BELMONT", "COUNTYFIPS": "39013", "COUNTRY": "USA", "LATITUDE": 40.030521076000099, "LONGITUDE": -80.740910776000007, "NAICS_CODE": "622310", "NAICS_DESC": "SPECIALTY (EXCEPT PSYCHIATRIC AND SUBSTANCE ABUSE) HOSPITALS", "SOURCE": "http://publicapps.odh.ohio.gov/EID/Provider_Search.aspx", "SOURCEDATE": "2018-08-10T00:00:00.000Z", "VAL_METHOD": "IMAGERY/OTHER", "VAL_DATE": "2016-09-14T00:00:00.000Z", "WEBSITE": "http://belmont.acuityhealthcare.net/", "STATE_ID": "1490", "ALT_NAME": "NOT AVAILABLE", "ST_FIPS": "39", "OWNER": "PROPRIETARY", "TTL_STAFF": -999, "BEDS": 15, "TRAUMA": "NOT AVAILABLE", "HELIPAD": "N" }, "geometry": { "type": "Polygon", "coordinates": [ [ [ -80.760442065035221, 39.914159706324313 ], [ -80.761352864732586, 39.914356808498837 ], [ -80.77515296104508, 39.920402748122306 ], [ -80.827992835863938, 39.990424131434679 ], [ -80.872967, 40.072001 ], [ -80.873372, 40.073132 ], [ -80.873728, 40.074182 ], [ -80.874342, 40.078304 ], [ -80.713093, 40.14359 ], [ -80.7081039, 40.11187319999997 ], [ -80.740588908125062, 39.978973877846563 ], [ -80.758013866404099, 39.914724802620732 ], [ -80.760442065035221, 39.914159706324313 ] ] ] } },
{ "type": "Feature", "properties": { "OBJECTID": 5906, "ID": "0011043920", "NAME": "EAST LIVERPOOL CITY HOSPITAL", "ADDRESS": "425 WEST 5TH STREET", "CITY": "EAST LIVERPOOL", "STATE": "OH", "ZIP": "43920", "ZIP4": "NOT AVAILABLE", "TELEPHONE": "(330) 385-7200", "TYPE": "GENERAL ACUTE CARE", "STATUS": "OPEN", "POPULATION": 152, "COUNTY": "COLUMBIANA", "COUNTYFIPS": "39029", "COUNTRY": "USA", "LATITUDE": 40.6218555150001, "LONGITUDE": -80.585970466999996, "NAICS_CODE": "622110", "NAICS_DESC": "GENERAL MEDICAL AND SURGICAL HOSPITALS", "SOURCE": "http://publicapps.odh.ohio.gov/EID/Provider_Search.aspx", "SOURCEDATE": "2018-08-10T00:00:00.000Z", "VAL_METHOD": "IMAGERY", "VAL_DATE": "2014-03-12T00:00:00.000Z", "WEBSITE": "http://www.elch.org", "STATE_ID": "1127", "ALT_NAME": "NOT AVAILABLE", "ST_FIPS": "39", "OWNER": "NON-PROFIT", "TTL_STAFF": -999, "BEDS": 152, "TRAUMA": "NOT AVAILABLE", "HELIPAD": "Y" }, "geometry": { "type": "Polygon", "coordinates": [ [ [ -80.668693200000021, 40.582302899999974 ], [ -80.703208009125149, 40.59712095473941 ], [ -80.710188151144308, 40.619153951943055 ], [ -80.693928492110544, 40.710858662086096 ], [ -80.633392092543218, 40.727146347278008 ], [ -80.546754138628032, 40.713888756113462 ], [ -80.518952813344626, 40.642549501049203 ], [ -80.524124897127521, 40.639135213511686 ], [ -80.573741992269902, 40.616328930385848 ], [ -80.668693200000021, 40.582302899999974 ] ] ] } },
{ "type": "Feature", "properties": { "OBJECTID": 5909, "ID": "0014144124", "NAME": "HILLCREST HOSPITAL", "ADDRESS": "6780 MAYFIELD ROAD", "CITY": "MAYFIELD HEIGHTS", "STATE": "OH", "ZIP": "44124", "ZIP4": "NOT AVAILABLE", "TELEPHONE": "(440) 312-4415", "TYPE": "GENERAL ACUTE CARE", "STATUS": "OPEN", "POPULATION": 500, "COUNTY": "CUYAHOGA", "COUNTYFIPS": "39035", "COUNTRY": "USA", "LATITUDE": 41.518299927000001, "LONGITUDE": -81.436247882000004, "NAICS_CODE": "622110", "NAICS_DESC": "GENERAL MEDICAL AND SURGICAL HOSPITALS", "SOURCE": "http://publicapps.odh.ohio.gov/EID/Provider_Search.aspx", "SOURCEDATE": "2018-08-10T00:00:00.000Z", "VAL_METHOD": "IMAGERY/OTHER", "VAL_DATE": "2014-03-12T00:00:00.000Z", "WEBSITE": "http://my.clevelandclinic.org/locations_directions/Regional-Locations/hillcrest-hospital", "STATE_ID": "1019", "ALT_NAME": "NOT AVAILABLE", "ST_FIPS": "39", "OWNER": "NON-PROFIT", "TTL_STAFF": -999, "BEDS": 500, "TRAUMA": "LEVEL II", "HELIPAD": "Y" }, "geometry": { "type": "Polygon", "coordinates": [ [ [ -81.5090771, 41.419378599999973 ], [ -81.5226821, 41.424482199999986 ], [ -81.5383999, 41.4645603 ], [ -81.5430663, 41.501361 ], [ -81.544508, 41.520657 ], [ -81.531763, 41.542483 ], [ -81.497988, 41.5653 ], [ -81.4177505, 41.591337200000027 ], [ -81.327541, 41.53402 ], [ -81.331355, 41.521289 ], [ -81.3393378, 41.507420399999965 ], [ -81.411097, 41.438817 ], [ -81.441246, 41.430108 ], [ -81.5090771, 41.419378599999973 ] ] ] } },
{ "type": "Feature", "properties": { "OBJECTID": 5914, "ID": "0003544107", "NAME": "LAKEWOOD HOSPITAL", "ADDRESS": "14519 DETROIT AVENUE", "CITY": "LAKEWOOD", "STATE": "OH", "ZIP": "44107", "ZIP4": "NOT AVAILABLE", "TELEPHONE": "(216) 521-4200", "TYPE": "GENERAL ACUTE CARE", "STATUS": "CLOSED", "POPULATION": 263, "COUNTY": "CUYAHOGA", "COUNTYFIPS": "39035", "COUNTRY": "USA", "LATITUDE": 41.484190705000103, "LONGITUDE": -81.796605577999998, "NAICS_CODE": "622110", "NAICS_DESC": "GENERAL MEDICAL AND SURGICAL HOSPITALS", "SOURCE": "http://publicapps.odh.ohio.gov/EID/Default.aspx", "SOURCEDATE": "2016-09-14T00:00:00.000Z", "VAL_METHOD": "IMAGERY", "VAL_DATE": "2014-02-10T00:00:00.000Z", "WEBSITE": "http://my.clevelandclinic.org/locations_directions/Regional-Locations/lakewood", "STATE_ID": "1134", "ALT_NAME": "NOT AVAILABLE", "ST_FIPS": "39", "OWNER": "NON-PROFIT", "TTL_STAFF": -999, "BEDS": 263, "TRAUMA": "NOT AVAILABLE", "HELIPAD": "N" }, "geometry": { "type": "Polygon", "coordinates": [ [ [ -81.819660900000017, 41.402417700000036 ], [ -81.8202551, 41.402534600000024 ], [ -81.835889200000011, 41.40612519999997 ], [ -81.9449086, 41.468030099999986 ], [ -81.915812, 41.488244 ], [ -81.8069268, 41.495347899999963 ], [ -81.702943, 41.500361199999986 ], [ -81.6650874, 41.479616200000073 ], [ -81.6649217, 41.4791835 ], [ -81.6908506, 41.4549519 ], [ -81.735322, 41.43655 ], [ -81.817939800000019, 41.402579800000026 ], [ -81.819660900000017, 41.402417700000036 ] ] ] } },
{ "type": "Feature", "properties": { "OBJECTID": 5916, "ID": "0027944130", "NAME": "REGENCY HOSPITAL OF CLEVELAND WEST", "ADDRESS": "6990 ENGLE ROAD", "CITY": "MIDDLEBURG HEIGHTS", "STATE": "OH", "ZIP": "44130", "ZIP4": "NOT AVAILABLE", "TELEPHONE": "(717) 975-4503", "TYPE": "LONG TERM CARE", "STATUS": "OPEN", "POPULATION": 43, "COUNTY": "CUYAHOGA", "COUNTYFIPS": "39035", "COUNTRY": "USA", "LATITUDE": 41.377357492999998, "LONGITUDE": -81.827592706999994, "NAICS_CODE": "622310", "NAICS_DESC": "SPECIALTY (EXCEPT PSYCHIATRIC AND SUBSTANCE ABUSE) HOSPITALS", "SOURCE": "http://publicapps.odh.ohio.gov/EID/Provider_Search.aspx", "SOURCEDATE": "2018-08-10T00:00:00.000Z", "VAL_METHOD": "IMAGERY/OTHER", "VAL_DATE": "2016-09-15T00:00:00.000Z", "WEBSITE": "http://clevelandwest.regencyhospital.com/", "STATE_ID": "1478", "ALT_NAME": "NOT AVAILABLE", "ST_FIPS": "39", "OWNER": "PROPRIETARY", "TTL_STAFF": -999, "BEDS": 43, "TRAUMA": "NOT AVAILABLE", "HELIPAD": "N" }, "geometry": { "type": "Polygon", "coordinates": [ [ [ -81.812427, 41.288406 ], [ -81.816143, 41.29052 ], [ -81.853426, 41.312496 ], [ -81.9029395, 41.350795 ], [ -81.913601, 41.364362 ], [ -81.9186826, 41.3723433 ], [ -81.9186585, 41.372686099999989 ], [ -81.892629, 41.406433 ], [ -81.877586, 41.4232704 ], [ -81.800258, 41.457477 ], [ -81.778643, 41.452083 ], [ -81.7653732, 41.4476375 ], [ -81.7398984, 41.422284900000029 ], [ -81.7342198, 41.363957299999981 ], [ -81.735656, 41.358997 ], [ -81.7772209, 41.306915499999967 ], [ -81.80531, 41.290738 ], [ -81.811009, 41.288392 ], [ -81.812427, 41.288406 ] ] ] } },
{ "type": "Feature", "properties": { "OBJECTID": 5931, "ID": "0004544130", "NAME": "SOUTHWEST GENERAL HEALTH CENTER", "ADDRESS": "18697 BAGLEY ROAD", "CITY": "MIDDLEBURG HEIGHTS", "STATE": "OH", "ZIP": "44130", "ZIP4": "NOT AVAILABLE", "TELEPHONE": "(440) 816-6702", "TYPE": "GENERAL ACUTE CARE", "STATUS": "OPEN", "POPULATION": 362, "COUNTY": "CUYAHOGA", "COUNTYFIPS": "39035", "COUNTRY": "USA", "LATITUDE": 41.370992435000097, "LONGITUDE": -81.832077990999906, "NAICS_CODE": "622110", "NAICS_DESC": "GENERAL MEDICAL AND SURGICAL HOSPITALS", "SOURCE": "http://publicapps.odh.ohio.gov/EID/Provider_Search.aspx", "SOURCEDATE": "2018-08-10T00:00:00.000Z", "VAL_METHOD": "IMAGERY", "VAL_DATE": "2014-02-10T00:00:00.000Z", "WEBSITE": "http://www.swgeneral.com", "STATE_ID": "1140", "ALT_NAME": "NOT AVAILABLE", "ST_FIPS": "39", "OWNER": "NON-PROFIT", "TTL_STAFF": -999, "BEDS": 362, "TRAUMA": "LEVEL III", "HELIPAD": "Y" }, "geometry": { "type": "Polygon", "coordinates": [ [ [ -81.810904, 41.275999 ], [ -81.906873, 41.332594 ], [ -81.9230665, 41.357170700000026 ], [ -81.9246157, 41.360058399999986 ], [ -81.923231, 41.372678 ], [ -81.92193, 41.382406 ], [ -81.9018535, 41.4144165 ], [ -81.88159, 41.43616 ], [ -81.81364, 41.464546 ], [ -81.798369, 41.466811 ], [ -81.789929, 41.464699 ], [ -81.773723, 41.460329 ], [ -81.758851, 41.456256 ], [ -81.7459224, 41.447530800000074 ], [ -81.7177131, 41.421453299999982 ], [ -81.709135, 41.363565 ], [ -81.7671482, 41.302544 ], [ -81.785184, 41.28511 ], [ -81.810904, 41.275999 ] ] ] } },
{ "type": "Feature", "properties": { "OBJECTID": 5933, "ID": "0007244109", "NAME": "METRO HEALTH MEDICAL CENTER", "ADDRESS": "2500 METROHEALTH DRIVE", "CITY": "CLEVELAND", "STATE": "OH", "ZIP": "44109", "ZIP4": "NOT AVAILABLE", "TELEPHONE": "(216) 778-7800", "TYPE": "GENERAL ACUTE CARE", "STATUS": "OPEN", "POPULATION": 731, "COUNTY": "CUYAHOGA", "COUNTYFIPS": "39035", "COUNTRY": "USA", "LATITUDE": 41.460912763000103, "LONGITUDE": -81.697602075999995, "NAICS_CODE": "622110", "NAICS_DESC": "GENERAL MEDICAL AND SURGICAL HOSPITALS", "SOURCE": "http://publicapps.odh.ohio.gov/EID/Provider_Search.aspx", "SOURCEDATE": "2018-08-10T00:00:00.000Z", "VAL_METHOD": "IMAGERY", "VAL_DATE": "2014-03-12T00:00:00.000Z", "WEBSITE": "http://www.metrohealth.org", "STATE_ID": "1150", "ALT_NAME": "NOT AVAILABLE", "ST_FIPS": "39", "OWNER": "GOVERNMENT - LOCAL", "TTL_STAFF": -999, "BEDS": 731, "TRAUMA": "LEVEL I", "HELIPAD": "Y" }, "geometry": { "type": "Polygon", "coordinates": [ [ [ -81.649634600000013, 41.356964800000014 ], [ -81.835889200000011, 41.40612519999997 ], [ -81.8437595, 41.422461900000023 ], [ -81.8440848, 41.4245679 ], [ -81.841258, 41.470960199999951 ], [ -81.840410700000021, 41.471446199999974 ], [ -81.822812, 41.480429 ], [ -81.6380614, 41.539441599999982 ], [ -81.630918800000018, 41.538739499999977 ], [ -81.6017217, 41.4899261 ], [ -81.586644, 41.417114 ], [ -81.649634600000013, 41.356964800000014 ] ] ] } },
{ "type": "Feature", "properties": { "OBJECTID": 5998, "ID": "0123244024", "NAME": "REHAB HOSPITAL AT HEATHER HILL CARE COMMUNITIES", "ADDRESS": "12340 BASS LAKE ROAD", "CITY": "CHARDON", "STATE": "OH", "ZIP": "44024", "ZIP4": "NOT AVAILABLE", "TELEPHONE": "(440) 285-4040", "TYPE": "REHABILITATION", "STATUS": "OPEN", "POPULATION": 56, "COUNTY": "GEAUGA", "COUNTYFIPS": "39055", "COUNTRY": "USA", "LATITUDE": 41.535708596000099, "LONGITUDE": -81.223012292000007, "NAICS_CODE": "622310", "NAICS_DESC": "REHABILITATION HOSPITALS (EXCEPT ALCOHOLISM, DRUG ADDICTION)", "SOURCE": "http://publicapps.odh.ohio.gov/EID/Provider_Search.aspx", "SOURCEDATE": "2018-08-10T00:00:00.000Z", "VAL_METHOD": "IMAGERY/OTHER", "VAL_DATE": "2015-03-10T00:00:00.000Z", "WEBSITE": "http://www.heatherhillcare.com/", "STATE_ID": "1420", "ALT_NAME": "NOT AVAILABLE", "ST_FIPS": "39", "OWNER": "PROPRIETARY", "TTL_STAFF": -999, "BEDS": 56, "TRAUMA": "NOT AVAILABLE", "HELIPAD": "N" }, "geometry": { "type": "Polygon", "coordinates": [ [ [ -81.244531, 41.454289 ], [ -81.268662, 41.463248 ], [ -81.3628322, 41.534049 ], [ -81.362828, 41.53627 ], [ -81.261207, 41.626513 ], [ -81.2430529, 41.629776600000014 ], [ -81.167167, 41.594856 ], [ -81.089985, 41.53473 ], [ -81.171128, 41.470821 ], [ -81.196927, 41.457302 ], [ -81.244531, 41.454289 ] ] ] } },
{ "type": "Feature", "properties": { "OBJECTID": 3002, "ID": "0017244654", "NAME": "POMERENE HOSPITAL", "ADDRESS": "981 WOOSTER ROAD", "CITY": "MILLERSBURG", "STATE": "OH", "ZIP": "44654", "ZIP4": "NOT AVAILABLE", "TELEPHONE": "(330) 674-1015", "TYPE": "GENERAL ACUTE CARE", "STATUS": "OPEN", "POPULATION": 69, "COUNTY": "HOLMES", "COUNTYFIPS": "39075", "COUNTRY": "USA", "LATITUDE": 40.565094540000104, "LONGITUDE": -81.919906730999998, "NAICS_CODE": "622110", "NAICS_DESC": "GENERAL MEDICAL AND SURGICAL HOSPITALS", "SOURCE": "http://publicapps.odh.ohio.gov/EID/Provider_Search.aspx", "SOURCEDATE": "2018-08-10T00:00:00.000Z", "VAL_METHOD": "IMAGERY", "VAL_DATE": "2014-01-31T00:00:00.000Z", "WEBSITE": "http://www.pomerenehospital.org", "STATE_ID": "1202", "ALT_NAME": "NOT AVAILABLE", "ST_FIPS": "39", "OWNER": "GOVERNMENT - LOCAL", "TTL_STAFF": -999, "BEDS": 69, "TRAUMA": "NOT AVAILABLE", "HELIPAD": "N" }, "geometry": { "type": "Polygon", "coordinates": [ [ [ -81.9281404, 40.486268799999976 ], [ -81.986572, 40.534183 ], [ -82.012359, 40.573936 ], [ -81.93898, 40.627967 ], [ -81.9256535, 40.6307917 ], [ -81.9069785, 40.63470740000006 ], [ -81.825019, 40.613739 ], [ -81.820953, 40.5554 ], [ -81.88211, 40.499015 ], [ -81.9281404, 40.486268799999976 ] ] ] } },
{ "type": "Feature", "properties": { "OBJECTID": 3006, "ID": "0011844501", "NAME": "NORTHSIDE MEDICAL CENTER", "ADDRESS": "500 GYPSY LANE", "CITY": "YOUNGSTOWN", "STATE": "OH", "ZIP": "44501", "ZIP4": "NOT AVAILABLE", "TELEPHONE": "(330) 884-3090", "TYPE": "GENERAL ACUTE CARE", "STATUS": "OPEN", "POPULATION": 398, "COUNTY": "MAHONING", "COUNTYFIPS": "39099", "COUNTRY": "USA", "LATITUDE": 41.135005074, "LONGITUDE": -80.658038387999994, "NAICS_CODE": "622110", "NAICS_DESC": "GENERAL MEDICAL AND SURGICAL HOSPITALS", "SOURCE": "http://publicapps.odh.ohio.gov/EID/Provider_Search.aspx", "SOURCEDATE": "2018-08-10T00:00:00.000Z", "VAL_METHOD": "IMAGERY", "VAL_DATE": "2014-02-04T00:00:00.000Z", "WEBSITE": "http://www.northsidemedicalcenter.net", "STATE_ID": "1231", "ALT_NAME": "NOT AVAILABLE", "ST_FIPS": "39", "OWNER": "PROPRIETARY", "TTL_STAFF": -999, "BEDS": 398, "TRAUMA": "NOT AVAILABLE", "HELIPAD": "Y" }, "geometry": { "type": "Polygon", "coordinates": [ [ [ -80.640281119227325, 41.046320750895454 ], [ -80.684103006521426, 41.056153761691803 ], [ -80.711028, 41.06664 ], [ -80.763263, 41.093965 ], [ -80.765689, 41.0954 ], [ -80.771947, 41.099602 ], [ -80.779129, 41.115088499999985 ], [ -80.779141, 41.116771 ], [ -80.778336, 41.134069 ], [ -80.777503, 41.136289 ], [ -80.73506, 41.230182 ], [ -80.728364, 41.232106 ], [ -80.6638128, 41.2377488 ], [ -80.661488, 41.237733 ], [ -80.553197563349443, 41.199239819147756 ], [ -80.553179564327124, 41.199029819027565 ], [ -80.555453569785584, 41.174932100658694 ], [ -80.557988716884452, 41.163647791246724 ], [ -80.586739130788303, 41.062222734680851 ], [ -80.634903127948562, 41.046245748758835 ], [ -80.640281119227325, 41.046320750895454 ] ] ] } },
{ "type": "Feature", "properties": { "OBJECTID": 3036, "ID": "0002444708", "NAME": "MERCY MEDICAL CENTER", "ADDRESS": "1320 MERCY DRIVE NW", "CITY": "CANTON", "STATE": "OH", "ZIP": "44708", "ZIP4": "NOT AVAILABLE", "TELEPHONE": "(330) 489-1000", "TYPE": "GENERAL ACUTE CARE", "STATUS": "OPEN", "POPULATION": 441, "COUNTY": "STARK", "COUNTYFIPS": "39151", "COUNTRY": "USA", "LATITUDE": 40.812157906000003, "LONGITUDE": -81.394875462999906, "NAICS_CODE": "622110", "NAICS_DESC": "GENERAL MEDICAL AND SURGICAL HOSPITALS", "SOURCE": "http://publicapps.odh.ohio.gov/EID/Provider_Search.aspx", "SOURCEDATE": "2018-08-10T00:00:00.000Z", "VAL_METHOD": "IMAGERY", "VAL_DATE": "2014-03-12T00:00:00.000Z", "WEBSITE": "http://www.cantonmercy.org", "STATE_ID": "1271", "ALT_NAME": "NOT AVAILABLE", "ST_FIPS": "39", "OWNER": "NON-PROFIT", "TTL_STAFF": -999, "BEDS": 441, "TRAUMA": "LEVEL II", "HELIPAD": "Y" }, "geometry": { "type": "Polygon", "coordinates": [ [ [ -81.431349459125997, 40.70770056731714 ], [ -81.523324321565696, 40.760569896834113 ], [ -81.523448121582476, 40.767868381579646 ], [ -81.513456345960421, 40.859727705696265 ], [ -81.499462390725583, 40.879574688090052 ], [ -81.475478506510143, 40.897332081515685 ], [ -81.43010411288823, 40.919400105292908 ], [ -81.429927512885129, 40.919398504762036 ], [ -81.405196414334242, 40.915014336980811 ], [ -81.263612530336374, 40.858527974932464 ], [ -81.261171573810657, 40.837662991900785 ], [ -81.282627644606549, 40.787216124337192 ], [ -81.299376449151524, 40.769397004010528 ], [ -81.312375648203599, 40.755560266984425 ], [ -81.364580955202399, 40.724916915252507 ], [ -81.365152354269952, 40.724736716680901 ], [ -81.367275550830968, 40.724101422012822 ], [ -81.431349459125997, 40.70770056731714 ] ] ] } },
{ "type": "Feature", "properties": { "OBJECTID": 3169, "ID": "0001545750", "NAME": "SELBY GENERAL HOSPITAL", "ADDRESS": "1106 COLEGATE DRIVE", "CITY": "MARIETTA", "STATE": "OH", "ZIP": "45750", "ZIP4": "NOT AVAILABLE", "TELEPHONE": "(740) 568-2040", "TYPE": "CRITICAL ACCESS", "STATUS": "OPEN", "POPULATION": 25, "COUNTY": "WASHINGTON", "COUNTYFIPS": "39167", "COUNTRY": "USA", "LATITUDE": 39.440090955000102, "LONGITUDE": -81.444011728000007, "NAICS_CODE": "622110", "NAICS_DESC": "GENERAL MEDICAL AND SURGICAL HOSPITALS", "SOURCE": "http://publicapps.odh.ohio.gov/EID/Provider_Search.aspx", "SOURCEDATE": "2018-08-10T00:00:00.000Z", "VAL_METHOD": "IMAGERY", "VAL_DATE": "2014-03-12T00:00:00.000Z", "WEBSITE": "http://www.selbygeneral.org", "STATE_ID": "1288", "ALT_NAME": "NOT AVAILABLE", "ST_FIPS": "39", "OWNER": "NON-PROFIT", "TTL_STAFF": -999, "BEDS": 25, "TRAUMA": "NOT AVAILABLE", "HELIPAD": "Y" }, "geometry": { "type": "Polygon", "coordinates": [ [ [ -81.505311, 39.373455 ], [ -81.516571, 39.436865 ], [ -81.497931469608673, 39.48402254867699 ], [ -81.480723100975268, 39.521037029458142 ], [ -81.42334807600831, 39.509309070903015 ], [ -81.3604748, 39.432558199999988 ], [ -81.3610162, 39.431379699999979 ], [ -81.391434, 39.377078 ], [ -81.395473, 39.371708 ], [ -81.505311, 39.373455 ] ] ] } },
{ "type": "Feature", "properties": { "OBJECTID": 3225, "ID": "0017143907", "NAME": "HARRISON COMMUNITY HOSPITAL", "ADDRESS": "951 EAST MARKET STREET", "CITY": "CADIZ", "STATE": "OH", "ZIP": "43907", "ZIP4": "NOT AVAILABLE", "TELEPHONE": "(740) 942-4631", "TYPE": "CRITICAL ACCESS", "STATUS": "OPEN", "POPULATION": 25, "COUNTY": "HARRISON", "COUNTYFIPS": "39067", "COUNTRY": "USA", "LATITUDE": 40.257421470000097, "LONGITUDE": -80.977309374999905, "NAICS_CODE": "622110", "NAICS_DESC": "GENERAL MEDICAL AND SURGICAL HOSPITALS", "SOURCE": "http://publicapps.odh.ohio.gov/EID/Provider_Search.aspx", "SOURCEDATE": "2018-08-10T00:00:00.000Z", "VAL_METHOD": "IMAGERY", "VAL_DATE": "2014-02-10T00:00:00.000Z", "WEBSITE": "http://www.harrisoncommunity.com", "STATE_ID": "1022", "ALT_NAME": "NOT AVAILABLE", "ST_FIPS": "39", "OWNER": "NON-PROFIT", "TTL_STAFF": -999, "BEDS": 25, "TRAUMA": "NOT AVAILABLE", "HELIPAD": "Y" }, "geometry": { "type": "Polygon", "coordinates": [ [ [ -80.93509, 40.200676 ], [ -81.004263, 40.216747 ], [ -81.080259, 40.237353 ], [ -81.080773, 40.240308 ], [ -81.087525, 40.300554 ], [ -81.037475, 40.329886 ], [ -80.941717, 40.326913 ], [ -80.941557, 40.326878 ], [ -80.9308903, 40.324155200000028 ], [ -80.929255, 40.320795 ], [ -80.912815, 40.243529 ], [ -80.913076, 40.205117 ], [ -80.93509, 40.200676 ] ] ] } },
{ "type": "Feature", "properties": { "OBJECTID": 3245, "ID": "0004144113", "NAME": "LUTHERAN HOSPITAL", "ADDRESS": "1730 WEST 25TH STREET", "CITY": "CLEVELAND", "STATE": "OH", "ZIP": "44113", "ZIP4": "NOT AVAILABLE", "TELEPHONE": "(216) 696-4300", "TYPE": "GENERAL ACUTE CARE", "STATUS": "OPEN", "POPULATION": 203, "COUNTY": "CUYAHOGA", "COUNTYFIPS": "39035", "COUNTRY": "USA", "LATITUDE": 41.487633376000097, "LONGITUDE": -81.707262893000006, "NAICS_CODE": "622110", "NAICS_DESC": "GENERAL MEDICAL AND SURGICAL HOSPITALS", "SOURCE": "http://publicapps.odh.ohio.gov/EID/Provider_Search.aspx", "SOURCEDATE": "2018-08-10T00:00:00.000Z", "VAL_METHOD": "IMAGERY", "VAL_DATE": "2014-02-10T00:00:00.000Z", "WEBSITE": "http://www.lutheranhospital.org", "STATE_ID": "1149", "ALT_NAME": "NOT AVAILABLE", "ST_FIPS": "39", "OWNER": "NON-PROFIT", "TTL_STAFF": -999, "BEDS": 203, "TRAUMA": "NOT AVAILABLE", "HELIPAD": "N" }, "geometry": { "type": "Polygon", "coordinates": [ [ [ -81.7345099, 41.411262800000024 ], [ -81.8071129, 41.438537 ], [ -81.851067, 41.467442 ], [ -81.852402, 41.471741 ], [ -81.811721, 41.492973 ], [ -81.8069268, 41.495347899999963 ], [ -81.5878362, 41.567269899999978 ], [ -81.5852283, 41.566649100000049 ], [ -81.5813621, 41.565562900000039 ], [ -81.61152, 41.469875 ], [ -81.6424567, 41.4189326 ], [ -81.6542179, 41.408064399999986 ], [ -81.7345099, 41.411262800000024 ] ] ] } },
{ "type": "Feature", "properties": { "OBJECTID": 3607, "ID": "0011543906", "NAME": "BELMONT COMMUNITY HOSPITAL", "ADDRESS": "4697 HARRISON STREET", "CITY": "BELLAIRE", "STATE": "OH", "ZIP": "43906", "ZIP4": "NOT AVAILABLE", "TELEPHONE": "(740) 671-1200", "TYPE": "GENERAL ACUTE CARE", "STATUS": "OPEN", "POPULATION": 99, "COUNTY": "BELMONT", "COUNTYFIPS": "39013", "COUNTRY": "USA", "LATITUDE": 40.030140362000097, "LONGITUDE": -80.740970262999994, "NAICS_CODE": "622110", "NAICS_DESC": "GENERAL MEDICAL AND SURGICAL HOSPITALS", "SOURCE": "http://publicapps.odh.ohio.gov/EID/Provider_Search.aspx", "SOURCEDATE": "2018-08-10T00:00:00.000Z", "VAL_METHOD": "IMAGERY", "VAL_DATE": "2014-02-10T00:00:00.000Z", "WEBSITE": "http://www.wheelinghospital.org/facilities/bch/", "STATE_ID": "1113", "ALT_NAME": "NOT AVAILABLE", "ST_FIPS": "39", "OWNER": "NON-PROFIT", "TTL_STAFF": -999, "BEDS": 99, "TRAUMA": "NOT AVAILABLE", "HELIPAD": "N" }, "geometry": { "type": "Polygon", "coordinates": [ [ [ -80.760442065035221, 39.914159706324313 ], [ -80.761352864732586, 39.914356808498837 ], [ -80.767024763561437, 39.91726442544622 ], [ -80.827992835863938, 39.990424131434679 ], [ -80.872967, 40.072001 ], [ -80.873372, 40.073132 ], [ -80.873728, 40.074182 ], [ -80.872614, 40.077473 ], [ -80.714183600000013, 40.140031799999981 ], [ -80.7129207, 40.139226 ], [ -80.7128343, 40.139055 ], [ -80.7081039, 40.11187319999997 ], [ -80.740588908125062, 39.978973877846563 ], [ -80.758013866404099, 39.914724802620732 ], [ -80.760442065035221, 39.914159706324313 ] ] ] } },
{ "type": "Feature", "properties": { "OBJECTID": 3623, "ID": "0122244104", "NAME": "CLEVELAND CLINIC CHILDREN'S HOSPITAL FOR REHAB", "ADDRESS": "2801 MARTIN LUTHER KING, JR DRIVE", "CITY": "CLEVELAND", "STATE": "OH", "ZIP": "44104", "ZIP4": "NOT AVAILABLE", "TELEPHONE": "(216) 448-6440", "TYPE": "CHILDREN", "STATUS": "OPEN", "POPULATION": 52, "COUNTY": "CUYAHOGA", "COUNTYFIPS": "39035", "COUNTRY": "USA", "LATITUDE": 41.483056753, "LONGITUDE": -81.607779934000007, "NAICS_CODE": "622310", "NAICS_DESC": "CHILDREN'S HOSPITALS, SPECIALTY (EXCEPT PSYCHIATRIC, SUBSTANCE ABUSE)", "SOURCE": "http://publicapps.odh.ohio.gov/EID/Provider_Search.aspx", "SOURCEDATE": "2018-08-10T00:00:00.000Z", "VAL_METHOD": "IMAGERY/OTHER", "VAL_DATE": "2015-03-10T00:00:00.000Z", "WEBSITE": "http://my.clevelandclinic.org/childrens-hospital/specialties-services/therapy-rehab", "STATE_ID": "1416", "ALT_NAME": "NOT AVAILABLE", "ST_FIPS": "39", "OWNER": "NON-PROFIT", "TTL_STAFF": -999, "BEDS": 52, "TRAUMA": "NOT AVAILABLE", "HELIPAD": "N" }, "geometry": { "type": "Polygon", "coordinates": [ [ [ -81.6455307, 41.425236 ], [ -81.7140874, 41.456454099999981 ], [ -81.734615, 41.4712221 ], [ -81.6936351, 41.5079112 ], [ -81.6812309, 41.514995 ], [ -81.6394715, 41.538709600000011 ], [ -81.6380614, 41.539441599999982 ], [ -81.61553, 41.55019810000001 ], [ -81.6052267, 41.55320949999998 ], [ -81.5990203, 41.553079800000013 ], [ -81.5656443, 41.546221100000011 ], [ -81.531054, 41.520742 ], [ -81.5034009, 41.486215299999984 ], [ -81.4977702, 41.477917800000014 ], [ -81.4977705, 41.4774933 ], [ -81.4978189, 41.464450100000036 ], [ -81.5170093, 41.448665799999979 ], [ -81.5274479, 41.442272 ], [ -81.5275882, 41.442200799999988 ], [ -81.5648076, 41.425972300000041 ], [ -81.5828022, 41.4233308 ], [ -81.621387, 41.423525 ], [ -81.6455307, 41.425236 ] ] ] } },
{ "type": "Feature", "properties": { "OBJECTID": 3624, "ID": "0124844128", "NAME": "REGENCY HOSPITAL OF CLEVELAND EAST", "ADDRESS": "4200 INTERCHANGE CORPORATE CENTER ROAD", "CITY": "WARRENSVILLE HTS", "STATE": "OH", "ZIP": "44128", "ZIP4": "NOT AVAILABLE", "TELEPHONE": "(216) 910-3800", "TYPE": "LONG TERM CARE", "STATUS": "OPEN", "POPULATION": 44, "COUNTY": "CUYAHOGA", "COUNTYFIPS": "39035", "COUNTRY": "USA", "LATITUDE": 41.4322546920001, "LONGITUDE": -81.506586034999899, "NAICS_CODE": "622310", "NAICS_DESC": "SPECIALTY (EXCEPT PSYCHIATRIC AND SUBSTANCE ABUSE) HOSPITALS", "SOURCE": "http://publicapps.odh.ohio.gov/EID/Provider_Search.aspx", "SOURCEDATE": "2018-08-10T00:00:00.000Z", "VAL_METHOD": "IMAGERY/OTHER", "VAL_DATE": "2015-03-11T00:00:00.000Z", "WEBSITE": "http://clevelandeast.regencyhospital.com/", "STATE_ID": "1479", "ALT_NAME": "NOT AVAILABLE", "ST_FIPS": "39", "OWNER": "PROPRIETARY", "TTL_STAFF": -999, "BEDS": 44, "TRAUMA": "NOT AVAILABLE", "HELIPAD": "N" }, "geometry": { "type": "Polygon", "coordinates": [ [ [ -81.4890349, 41.34665 ], [ -81.512037, 41.350054 ], [ -81.531147, 41.35586 ], [ -81.5318492, 41.356078100000019 ], [ -81.536395, 41.358097 ], [ -81.6401193, 41.4077992 ], [ -81.5811297, 41.475667799999989 ], [ -81.519417, 41.517047 ], [ -81.484175, 41.530616 ], [ -81.4506387, 41.53894040000003 ], [ -81.4450313, 41.5389262 ], [ -81.4247074, 41.521111199999986 ], [ -81.4239953, 41.5201824 ], [ -81.42386, 41.519929 ], [ -81.40939, 41.459153 ], [ -81.403251600000019, 41.422080800000025 ], [ -81.4297405, 41.3934851 ], [ -81.4377515, 41.3862367 ], [ -81.4890349, 41.34665 ] ] ] } },
{ "type": "Feature", "properties": { "OBJECTID": 3627, "ID": "0129444122", "NAME": "UNIVERSITY HOSPITALS REHABILITATION HOSPITAL", "ADDRESS": "23333 HARVARD ROAD", "CITY": "BEACHWOOD", "STATE": "OH", "ZIP": "44122", "ZIP4": "NOT AVAILABLE", "TELEPHONE": "(216) 593-2200", "TYPE": "REHABILITATION", "STATUS": "OPEN", "POPULATION": 50, "COUNTY": "CUYAHOGA", "COUNTYFIPS": "39035", "COUNTRY": "USA", "LATITUDE": 41.451919723000103, "LONGITUDE": -81.510174129999896, "NAICS_CODE": "622310", "NAICS_DESC": "REHABILITATION HOSPITALS (EXCEPT ALCOHOLISM, DRUG ADDICTION)", "SOURCE": "http://publicapps.odh.ohio.gov/EID/Provider_Search.aspx", "SOURCEDATE": "2018-08-10T00:00:00.000Z", "VAL_METHOD": "IMAGERY/OTHER", "VAL_DATE": "2015-03-12T00:00:00.000Z", "WEBSITE": "http://www.uhhospitals.org/services/rehabilitation-services/uh-rehabilitation-hospital", "STATE_ID": "1509", "ALT_NAME": "NOT AVAILABLE", "ST_FIPS": "39", "OWNER": "PROPRIETARY", "TTL_STAFF": -999, "BEDS": 50, "TRAUMA": "NOT AVAILABLE", "HELIPAD": "N" }, "geometry": { "type": "Polygon", "coordinates": [ [ [ -81.4890349, 41.34665 ], [ -81.512037, 41.350054 ], [ -81.531593, 41.354542 ], [ -81.53996, 41.358113 ], [ -81.6401193, 41.4077992 ], [ -81.631603, 41.452101 ], [ -81.6029341, 41.485111899999971 ], [ -81.568146, 41.51388 ], [ -81.531763, 41.542483 ], [ -81.478478, 41.541400600000024 ], [ -81.4388046, 41.540478 ], [ -81.414406, 41.519995 ], [ -81.394674600000016, 41.45965320000002 ], [ -81.394685, 41.459572 ], [ -81.398443200000017, 41.432135799999983 ], [ -81.42066, 41.387044 ], [ -81.4278023, 41.379943299999937 ], [ -81.4890349, 41.34665 ] ] ] } },
{ "type": "Feature", "properties": { "OBJECTID": 3675, "ID": "0010043952", "NAME": "TRINITY MEDICAL CTR EAST", "ADDRESS": "380 SUMMIT AVENUE", "CITY": "STEUBENVILLE", "STATE": "OH", "ZIP": "43952", "ZIP4": "NOT AVAILABLE", "TELEPHONE": "(740) 264-8360", "TYPE": "GENERAL ACUTE CARE", "STATUS": "OPEN", "POPULATION": 244, "COUNTY": "JEFFERSON", "COUNTYFIPS": "39081", "COUNTRY": "USA", "LATITUDE": 40.354755529000002, "LONGITUDE": -80.62549638, "NAICS_CODE": "622110", "NAICS_DESC": "GENERAL MEDICAL AND SURGICAL HOSPITALS", "SOURCE": "http://publicapps.odh.ohio.gov/EID/Provider_Search.aspx", "SOURCEDATE": "2018-08-10T00:00:00.000Z", "VAL_METHOD": "IMAGERY", "VAL_DATE": "2014-02-10T00:00:00.000Z", "WEBSITE": "http://www.trinityhealth.com", "STATE_ID": "1208", "ALT_NAME": "NOT AVAILABLE", "ST_FIPS": "39", "OWNER": "NON-PROFIT", "TTL_STAFF": -999, "BEDS": 244, "TRAUMA": "NOT AVAILABLE", "HELIPAD": "N" }, "geometry": { "type": "Polygon", "coordinates": [ [ [ -80.6357538, 40.259012400000017 ], [ -80.6694725, 40.294222700000041 ], [ -80.7299796, 40.3894083 ], [ -80.7316184, 40.3953866 ], [ -80.6642275, 40.4339806 ], [ -80.6159545, 40.454778 ], [ -80.6065118, 40.3574073 ], [ -80.605433, 40.323418100000048 ], [ -80.6190034, 40.269616500000041 ], [ -80.6206676, 40.2673738 ], [ -80.6259578, 40.262345500000023 ], [ -80.6357538, 40.259012400000017 ] ] ] } },
{ "type": "Feature", "properties": { "OBJECTID": 3677, "ID": "0015044077", "NAME": "TRIPOINT MEDICAL CENTER", "ADDRESS": "7590 AUBURN ROAD", "CITY": "PAINESVILLE", "STATE": "OH", "ZIP": "44077", "ZIP4": "NOT AVAILABLE", "TELEPHONE": "(440) 375-8100", "TYPE": "GENERAL ACUTE CARE", "STATUS": "OPEN", "POPULATION": 135, "COUNTY": "LAKE", "COUNTYFIPS": "39085", "COUNTRY": "USA", "LATITUDE": 41.662609636000099, "LONGITUDE": -81.247080776999994, "NAICS_CODE": "622110", "NAICS_DESC": "GENERAL MEDICAL AND SURGICAL HOSPITALS", "SOURCE": "http://publicapps.odh.ohio.gov/EID/Provider_Search.aspx", "SOURCEDATE": "2018-08-10T00:00:00.000Z", "VAL_METHOD": "IMAGERY", "VAL_DATE": "2014-02-10T00:00:00.000Z", "WEBSITE": "http://www.lakehealth.org/Locations/TriPoint-Medical-Center", "STATE_ID": "1211", "ALT_NAME": "NOT AVAILABLE", "ST_FIPS": "39", "OWNER": "NON-PROFIT", "TTL_STAFF": -999, "BEDS": 135, "TRAUMA": "NOT AVAILABLE", "HELIPAD": "Y" }, "geometry": { "type": "Polygon", "coordinates": [ [ [ -81.250089, 41.569941 ], [ -81.3800331, 41.638429399999957 ], [ -81.3818063, 41.641082300000029 ], [ -81.3786608, 41.648075 ], [ -81.3077409, 41.727277100000016 ], [ -81.3031771, 41.730866099999972 ], [ -81.3029831, 41.731010800000014 ], [ -81.2695335, 41.751576199999946 ], [ -81.2181362, 41.74526580000002 ], [ -81.143349200000017, 41.720157 ], [ -81.14442, 41.7052638 ], [ -81.146504, 41.687015700000011 ], [ -81.151427, 41.6660185 ], [ -81.1686505, 41.6297151 ], [ -81.203817, 41.582197 ], [ -81.2068498, 41.58093 ], [ -81.2156889, 41.577585099999972 ], [ -81.242326100000014, 41.569991300000027 ], [ -81.2466925, 41.569959199999985 ], [ -81.250089, 41.569941 ] ] ] } },
{ "type": "Feature", "properties": { "OBJECTID": 3758, "ID": "0016344646", "NAME": "AFFINITY MEDICAL CENTER", "ADDRESS": "875 EIGHTH STREET NE", "CITY": "MASSILLON", "STATE": "OH", "ZIP": "44646", "ZIP4": "NOT AVAILABLE", "TELEPHONE": "(330) 837-6863", "TYPE": "GENERAL ACUTE CARE", "STATUS": "OPEN", "POPULATION": 156, "COUNTY": "STARK", "COUNTYFIPS": "39151", "COUNTRY": "USA", "LATITUDE": 40.806380245000099, "LONGITUDE": -81.517451361, "NAICS_CODE": "622110", "NAICS_DESC": "GENERAL MEDICAL AND SURGICAL HOSPITALS", "SOURCE": "http://publicapps.odh.ohio.gov/EID/Provider_Search.aspx", "SOURCEDATE": "2018-08-10T00:00:00.000Z", "VAL_METHOD": "IMAGERY", "VAL_DATE": "2014-03-12T00:00:00.000Z", "WEBSITE": "http://www.affinitymedicalcenter.com", "STATE_ID": "1272", "ALT_NAME": "NOT AVAILABLE", "ST_FIPS": "39", "OWNER": "PROPRIETARY", "TTL_STAFF": -999, "BEDS": 156, "TRAUMA": "NOT AVAILABLE", "HELIPAD": "Y" }, "geometry": { "type": "Polygon", "coordinates": [ [ [ -81.532333369788475, 40.717878797121671 ], [ -81.617518352989237, 40.750672878360476 ], [ -81.631895248288942, 40.790501745252584 ], [ -81.63482407389489, 40.85156354608263 ], [ -81.634771070637399, 40.852759542306224 ], [ -81.614588036690634, 40.887150468094596 ], [ -81.536781773907094, 40.905199469111473 ], [ -81.536066076496112, 40.905126070703503 ], [ -81.429140222325046, 40.865970090369665 ], [ -81.422580426639527, 40.863481173645262 ], [ -81.417457430829899, 40.859653463563831 ], [ -81.413817735435615, 40.852955162721294 ], [ -81.412787461871858, 40.78058357535749 ], [ -81.42917444246504, 40.751811278485825 ], [ -81.448422414437047, 40.739656715514244 ], [ -81.522537363851853, 40.718298798060871 ], [ -81.532333369788475, 40.717878797121671 ] ] ] } },
{ "type": "Feature", "properties": { "OBJECTID": 3764, "ID": "0130144648", "NAME": "HEARTLAND BEHAVIORAL HEALTHCARE", "ADDRESS": "3000 ERIE SW", "CITY": "MASSILLON", "STATE": "OH", "ZIP": "44648", "ZIP4": "NOT AVAILABLE", "TELEPHONE": "(330) 833-3135", "TYPE": "PSYCHIATRIC", "STATUS": "OPEN", "POPULATION": -999, "COUNTY": "STARK", "COUNTYFIPS": "39151", "COUNTRY": "USA", "LATITUDE": 40.768235694000097, "LONGITUDE": -81.507829957999903, "NAICS_CODE": "622210", "NAICS_DESC": "PSYCHIATRIC AND SUBSTANCE ABUSE HOSPITALS", "SOURCE": "http://publicapps.odh.ohio.gov/EID/Provider_Search.aspx", "SOURCEDATE": "2018-08-10T00:00:00.000Z", "VAL_METHOD": "IMAGERY/OTHER", "VAL_DATE": "2015-03-12T00:00:00.000Z", "WEBSITE": "http://mha.ohio.gov/Default.aspx?tabid=189", "STATE_ID": "NOT AVAILABLE", "ALT_NAME": "NOT AVAILABLE", "ST_FIPS": "39", "OWNER": "GOVERNMENT - STATE", "TTL_STAFF": -999, "BEDS": -999, "TRAUMA": "NOT AVAILABLE", "HELIPAD": "N" }, "geometry": { "type": "Polygon", "coordinates": [ [ [ -81.522778376203021, 40.709216763418716 ], [ -81.61308034615584, 40.753027873136823 ], [ -81.627303252380585, 40.790126750209893 ], [ -81.564709251061188, 40.83129369838236 ], [ -81.551566269283612, 40.83727370051848 ], [ -81.529117309752436, 40.846616709755239 ], [ -81.521033326870523, 40.849013716123494 ], [ -81.396411776013338, 40.799935089521206 ], [ -81.373246915689052, 40.78728533084373 ], [ -81.372187518227904, 40.785990429189724 ], [ -81.40249969109901, 40.750943687007513 ], [ -81.406903484100553, 40.747255597193735 ], [ -81.43324644334416, 40.734006649073706 ], [ -81.479691383802432, 40.716345730472177 ], [ -81.522778376203021, 40.709216763418716 ] ] ] } },
{ "type": "Feature", "properties": { "OBJECTID": 3765, "ID": "0012444309", "NAME": "SUMMA HEALTH SYSTEMS AKRON HOSPITAL", "ADDRESS": "525 EAST MARKET STREET", "CITY": "AKRON", "STATE": "OH", "ZIP": "44309", "ZIP4": "NOT AVAILABLE", "TELEPHONE": "(234) 312-5026", "TYPE": "GENERAL ACUTE CARE", "STATUS": "OPEN", "POPULATION": 657, "COUNTY": "SUMMIT", "COUNTYFIPS": "39153", "COUNTRY": "USA", "LATITUDE": 41.081126186000098, "LONGITUDE": -81.499818706, "NAICS_CODE": "622110", "NAICS_DESC": "GENERAL MEDICAL AND SURGICAL HOSPITALS", "SOURCE": "http://publicapps.odh.ohio.gov/EID/Provider_Search.aspx", "SOURCEDATE": "2018-08-10T00:00:00.000Z", "VAL_METHOD": "IMAGERY", "VAL_DATE": "2014-03-12T00:00:00.000Z", "WEBSITE": "http://www.summahealth.org", "STATE_ID": "1275", "ALT_NAME": "AKRON CITY HOSPITAL", "ST_FIPS": "39", "OWNER": "NON-PROFIT", "TTL_STAFF": -999, "BEDS": 657, "TRAUMA": "LEVEL I", "HELIPAD": "Y" }, "geometry": { "type": "Polygon", "coordinates": [ [ [ -81.493630439980151, 40.968591507499383 ], [ -81.555549, 41.006878 ], [ -81.583684, 41.032429 ], [ -81.586307, 41.035244 ], [ -81.587988, 41.038866 ], [ -81.60415, 41.088756 ], [ -81.583576, 41.115703 ], [ -81.556661, 41.134592 ], [ -81.4819236, 41.18297069999997 ], [ -81.477666, 41.184642 ], [ -81.4740281, 41.183850600000028 ], [ -81.445651, 41.166714 ], [ -81.388715, 41.083195 ], [ -81.387142, 41.066106 ], [ -81.397942, 41.049915 ], [ -81.467889425014093, 40.965860437995261 ], [ -81.493630439980151, 40.968591507499383 ] ] ] } },
{ "type": "Feature", "properties": { "OBJECTID": 3997, "ID": "0126144308", "NAME": "AKRON CHILDREN'S HOSPITAL", "ADDRESS": "214 W BOWERY ST", "CITY": "AKRON", "STATE": "OH", "ZIP": "44308", "ZIP4": "NOT AVAILABLE", "TELEPHONE": "(330) 543-2890", "TYPE": "CHILDREN", "STATUS": "OPEN", "POPULATION": 297, "COUNTY": "SUMMIT", "COUNTYFIPS": "39153", "COUNTRY": "USA", "LATITUDE": 41.079322093000002, "LONGITUDE": -81.525285346999993, "NAICS_CODE": "622310", "NAICS_DESC": "CHILDREN'S HOSPITALS, SPECIALTY (EXCEPT PSYCHIATRIC, SUBSTANCE ABUSE)", "SOURCE": "http://publicapps.odh.ohio.gov/EID/Provider_Search.aspx", "SOURCEDATE": "2018-08-10T00:00:00.000Z", "VAL_METHOD": "IMAGERY/OTHER", "VAL_DATE": "2015-03-11T00:00:00.000Z", "WEBSITE": "https://www.akronchildrens.org/cms/home/index.html", "STATE_ID": "1277", "ALT_NAME": "NOT AVAILABLE", "ST_FIPS": "39", "OWNER": "NON-PROFIT", "TTL_STAFF": -999, "BEDS": 297, "TRAUMA": "LEVEL II PEDIATRIC", "HELIPAD": "Y" }, "geometry": { "type": "Polygon", "coordinates": [ [ [ -81.486664041947307, 40.981555563999216 ], [ -81.589914, 41.010387 ], [ -81.605167, 41.016335 ], [ -81.6342531, 41.0394498 ], [ -81.644537, 41.119521 ], [ -81.6373072, 41.122472700000017 ], [ -81.563149, 41.147229 ], [ -81.548454, 41.151308 ], [ -81.473677, 41.164738 ], [ -81.462466, 41.165896 ], [ -81.404054, 41.074292 ], [ -81.416742, 41.058518 ], [ -81.486664041947307, 40.981555563999216 ] ] ] } }
]
}
