{
"type": "FeatureCollection",
"crs": { "type": "name", "properties": { "name": "urn:ogc:def:crs:OGC:1.3:CRS84" } },
"features": [
{ "type": "Feature", "properties": { "OBJECTID": 1502, "ID": "0005942437", "NAME": "METHODIST HOSPITAL UNION COUNTY", "ADDRESS": "4604 U.S. HWY. 60W", "CITY": "MORGANFIELD", "STATE": "KY", "ZIP": "42437", "ZIP4": "NOT AVAILABLE", "TELEPHONE": "(270) 389-3030", "TYPE": "GENERAL ACUTE CARE", "STATUS": "OPEN", "POPULATION": 25, "COUNTY": "UNION", "COUNTYFIPS": "21225", "COUNTRY": "USA", "LATITUDE": 37.628796461, "LONGITUDE": -87.94765598, "NAICS_CODE": "622110", "NAICS_DESC": "GENERAL MEDICAL AND SURGICAL HOSPITALS", "SOURCE": "https://chfs.ky.gov/agencies/os/oig/dhc/Documents/Directories/Hospital_Directory.pdf", "SOURCEDATE": "2018-08-11T00:00:00.000Z", "VAL_METHOD": "IMAGERY", "VAL_DATE": "2014-02-10T00:00:00.000Z", "WEBSITE": "http://www.methodisthospitaluc.net", "STATE_ID": "600057", "ALT_NAME": "NOT AVAILABLE", "ST_FIPS": "21", "OWNER": "NON-PROFIT", "TTL_STAFF": -999, "BEDS": 25, "TRAUMA": "LEVEL IV", "HELIPAD": "Y" }, "geometry": { "type": "Polygon", "coordinates": [ [ [ -87.989276, 37.532373 ], [ -88.002322, 37.550111 ], [ -88.006663, 37.616043 ], [ -87.9791715, 37.6836892 ], [ -87.968966, 37.700939 ], [ -87.92129, 37.7293 ], [ -87.876746, 37.719394 ], [ -87.8591925, 37.69477940000003 ], [ -87.871046, 37.602586 ], [ -87.873227, 37.590124 ], [ -87.938832, 37.552811 ], [ -87.976152, 37.535251 ], [ -87.989276, 37.532373 ] ] ] } },
{ "type": "Feature", "properties": { "OBJECTID": 1507, "ID": "0011042134", "NAME": "THE MEDICAL CENTER AT FRANKLIN", "ADDRESS": "1100 BROOKHAVEN ROAD", "CITY": "FRANKLIN", "STATE": "KY", "ZIP": "42134", "ZIP4": "NOT AVAILABLE", "TELEPHONE": "(270) 598-4800", "TYPE": "GENERAL ACUTE CARE", "STATUS": "OPEN", "POPULATION": 25, "COUNTY": "SIMPSON", "COUNTYFIPS": "21213", "COUNTRY": "USA", "LATITUDE": 36.700017579000097, "LONGITUDE": -86.576828386000003, "NAICS_CODE": "622110", "NAICS_DESC": "GENERAL MEDICAL AND SURGICAL HOSPITALS", "SOURCE": "https://chfs.ky.gov/agencies/os/oig/dhc/Documents/Directories/Hospital_Directory.pdf", "SOURCEDATE": "2018-08-11T00:00:00.000Z", "VAL_METHOD": "IMAGERY", "VAL_DATE": "2014-02-10T00:00:00.000Z", "WEBSITE": "http://www.themedicalcenterfranklin.org", "STATE_ID": "600069", "ALT_NAME": "NOT AVAILABLE", "ST_FIPS": "21", "OWNER": "NON-PROFIT", "TTL_STAFF": -999, "BEDS": 25, "TRAUMA": "NOT AVAILABLE", "HELIPAD": "Y" }, "geometry": { "type": "Polygon", "coordinates": [ [ [ -86.56388, 36.633553599999964 ], [ -86.644738, 36.668249 ], [ -86.684532, 36.715029 ], [ -86.675326, 36.73755 ], [ -86.626192, 36.789796 ], [ -86.563571, 36.792591 ], [ -86.512537, 36.767957 ], [ -86.478899, 36.742205 ], [ -86.46254, 36.707691 ], [ -86.462899, 36.705058 ], [ -86.525109, 36.650371 ], [ -86.5392105, 36.6419376 ], [ -86.56388, 36.633553599999964 ] ] ] } },
{ "type": "Feature", "properties": { "OBJECTID": 1528, "ID": "0007162450", "NAME": "RICHLAND MEMORIAL HOSPITAL", "ADDRESS": "800 EAST LOCUST", "CITY": "OLNEY", "STATE": "IL", "ZIP": "62450", "ZIP4": "NOT AVAILABLE", "TELEPHONE": "(618) 395-2131", "TYPE": "GENERAL ACUTE CARE", "STATUS": "OPEN", "POPULATION": 90, "COUNTY": "RICHLAND", "COUNTYFIPS": "17159", "COUNTRY": "USA", "LATITUDE": 38.736543571, "LONGITUDE": -88.077172888999897, "NAICS_CODE": "622110", "NAICS_DESC": "GENERAL MEDICAL AND SURGICAL HOSPITALS", "SOURCE": "https://data.illinois.gov/", "SOURCEDATE": "2018-08-09T00:00:00.000Z", "VAL_METHOD": "IMAGERY", "VAL_DATE": "2014-03-12T00:00:00.000Z", "WEBSITE": "http://www.richlandmemorial.com", "STATE_ID": "140147", "ALT_NAME": "NOT AVAILABLE", "ST_FIPS": "17", "OWNER": "NON-PROFIT", "TTL_STAFF": -999, "BEDS": 90, "TRAUMA": "NOT AVAILABLE", "HELIPAD": "Y" }, "geometry": { "type": "Polygon", "coordinates": [ [ [ -88.084691, 38.642888 ], [ -88.186125, 38.698668 ], [ -88.195385, 38.70796 ], [ -88.0945441, 38.833706399999983 ], [ -87.9372343, 38.7323855 ], [ -88.084691, 38.642888 ] ] ] } },
{ "type": "Feature", "properties": { "OBJECTID": 1530, "ID": "0001842240", "NAME": "CUMBERLAND HALL HOSPITAL", "ADDRESS": "270 WALTON WAY", "CITY": "HOPKINSVILLE", "STATE": "KY", "ZIP": "42240", "ZIP4": "NOT AVAILABLE", "TELEPHONE": "(270) 886-1919", "TYPE": "PSYCHIATRIC", "STATUS": "OPEN", "POPULATION": 97, "COUNTY": "CHRISTIAN", "COUNTYFIPS": "21047", "COUNTRY": "USA", "LATITUDE": 36.738251660000103, "LONGITUDE": -87.468403327000004, "NAICS_CODE": "622110", "NAICS_DESC": "GENERAL MEDICAL AND SURGICAL HOSPITALS", "SOURCE": "https://chfs.ky.gov/agencies/os/oig/dhc/Documents/Directories/Hospital_Directory.pdf", "SOURCEDATE": "2018-08-11T00:00:00.000Z", "VAL_METHOD": "IMAGERY/OTHER", "VAL_DATE": "2014-02-10T00:00:00.000Z", "WEBSITE": "http://www.cumberlandhallhospital.com", "STATE_ID": "100597", "ALT_NAME": "NOT AVAILABLE", "ST_FIPS": "21", "OWNER": "PROPRIETARY", "TTL_STAFF": -999, "BEDS": 97, "TRAUMA": "NOT AVAILABLE", "HELIPAD": "N" }, "geometry": { "type": "Polygon", "coordinates": [ [ [ -87.4363332, 36.6425426 ], [ -87.4396225, 36.643913200000021 ], [ -87.4932915, 36.6852161 ], [ -87.5178941, 36.7481307 ], [ -87.484494240630667, 36.818354108924936 ], [ -87.473086933390732, 36.828320814540149 ], [ -87.412134109836586, 36.761381068077029 ], [ -87.382576, 36.711819 ], [ -87.385674, 36.702099 ], [ -87.403028, 36.668307 ], [ -87.4099376, 36.658193500000017 ], [ -87.413978, 36.654732 ], [ -87.4363332, 36.6425426 ] ] ] } },
{ "type": "Feature", "properties": { "OBJECTID": 1531, "ID": "0003942241", "NAME": "JENNIE STUART MEDICAL CENTER", "ADDRESS": "320 WEST 18TH STREET", "CITY": "HOPKINSVILLE", "STATE": "KY", "ZIP": "42241", "ZIP4": "NOT AVAILABLE", "TELEPHONE": "(270) 887-0100", "TYPE": "GENERAL ACUTE CARE", "STATUS": "OPEN", "POPULATION": 194, "COUNTY": "CHRISTIAN", "COUNTYFIPS": "21047", "COUNTRY": "USA", "LATITUDE": 36.861187116000103, "LONGITUDE": -87.494951248000007, "NAICS_CODE": "622110", "NAICS_DESC": "GENERAL MEDICAL AND SURGICAL HOSPITALS", "SOURCE": "https://chfs.ky.gov/agencies/os/oig/dhc/Documents/Directories/Hospital_Directory.pdf", "SOURCEDATE": "2018-08-11T00:00:00.000Z", "VAL_METHOD": "IMAGERY", "VAL_DATE": "2014-02-10T00:00:00.000Z", "WEBSITE": "http://www.jsmc.org", "STATE_ID": "100068", "ALT_NAME": "NOT AVAILABLE", "ST_FIPS": "21", "OWNER": "NON-PROFIT", "TTL_STAFF": -999, "BEDS": 194, "TRAUMA": "NOT AVAILABLE", "HELIPAD": "Y" }, "geometry": { "type": "Polygon", "coordinates": [ [ [ -87.5178941, 36.7481307 ], [ -87.579211090848119, 36.79640708784617 ], [ -87.601072064434149, 36.820936093223153 ], [ -87.612129040668549, 36.882034108078898 ], [ -87.612041040670007, 36.882212108161063 ], [ -87.583311041182242, 36.921261133304597 ], [ -87.543849043588438, 36.943104163793414 ], [ -87.477917073391097, 36.954091194547637 ], [ -87.476299075376474, 36.953926194358573 ], [ -87.427861131455259, 36.93325817865896 ], [ -87.390214153012295, 36.900612155745357 ], [ -87.361806133467852, 36.85107712235186 ], [ -87.361953733070592, 36.850561322029407 ], [ -87.389262608959314, 36.802652492988486 ], [ -87.509575, 36.749297300000016 ], [ -87.5178941, 36.7481307 ] ] ] } },
{ "type": "Feature", "properties": { "OBJECTID": 1535, "ID": "0008543202", "NAME": "RIVER VALLEY BEHAVIORAL HEALTH", "ADDRESS": "1000 INDUSTRIAL DRIVE", "CITY": "OWENSBORO", "STATE": "KY", "ZIP": "43202", "ZIP4": "NOT AVAILABLE", "TELEPHONE": "(270) 689-6800", "TYPE": "PSYCHIATRIC", "STATUS": "OPEN", "POPULATION": 80, "COUNTY": "DAVIESS", "COUNTYFIPS": "21059", "COUNTRY": "USA", "LATITUDE": 37.784866924, "LONGITUDE": -87.157643566000004, "NAICS_CODE": "622110", "NAICS_DESC": "GENERAL MEDICAL AND SURGICAL HOSPITALS", "SOURCE": "https://chfs.ky.gov/agencies/os/oig/dhc/Documents/Directories/Hospital_Directory.pdf", "SOURCEDATE": "2018-08-11T00:00:00.000Z", "VAL_METHOD": "IMAGERY", "VAL_DATE": "2014-02-10T00:00:00.000Z", "WEBSITE": "http://www.rvbh.com", "STATE_ID": "100586", "ALT_NAME": "NOT AVAILABLE", "ST_FIPS": "21", "OWNER": "NON-PROFIT", "TTL_STAFF": -999, "BEDS": 80, "TRAUMA": "NOT AVAILABLE", "HELIPAD": "N" }, "geometry": { "type": "Polygon", "coordinates": [ [ [ -87.130727, 37.681472 ], [ -87.190589, 37.696794 ], [ -87.278691, 37.751854 ], [ -87.279505, 37.755038 ], [ -87.253862, 37.814946 ], [ -87.246551, 37.824254 ], [ -87.236409, 37.8349 ], [ -87.206733, 37.830009 ], [ -87.0490789, 37.80101590000001 ], [ -87.0461851, 37.799413 ], [ -87.050673, 37.750794400000018 ], [ -87.069211, 37.728495 ], [ -87.073755, 37.7231 ], [ -87.130727, 37.681472 ] ] ] } },
{ "type": "Feature", "properties": { "OBJECTID": 1889, "ID": "0097262906", "NAME": "ANNA HOSPITAL CORPORATION - DBA UNION COUNTY HOSPITAL", "ADDRESS": "517 NORTH MAIN STREET", "CITY": "ANNA", "STATE": "IL", "ZIP": "62906", "ZIP4": "NOT AVAILABLE", "TELEPHONE": "(618) 833-4511", "TYPE": "CRITICAL ACCESS", "STATUS": "OPEN", "POPULATION": 47, "COUNTY": "UNION", "COUNTYFIPS": "17181", "COUNTRY": "USA", "LATITUDE": 37.465026627999997, "LONGITUDE": -89.2455412, "NAICS_CODE": "622110", "NAICS_DESC": "GENERAL MEDICAL AND SURGICAL HOSPITALS", "SOURCE": "https://data.illinois.gov/", "SOURCEDATE": "2018-08-09T00:00:00.000Z", "VAL_METHOD": "IMAGERY/OTHER", "VAL_DATE": "2015-02-21T00:00:00.000Z", "WEBSITE": "http://www.unioncountyhospital.com", "STATE_ID": "NOT AVAILABLE", "ALT_NAME": "NOT AVAILABLE", "ST_FIPS": "17", "OWNER": "PROPRIETARY", "TTL_STAFF": -999, "BEDS": 47, "TRAUMA": "NOT AVAILABLE", "HELIPAD": "Y" }, "geometry": { "type": "Polygon", "coordinates": [ [ [ -89.268971, 37.387894 ], [ -89.292435, 37.405736 ], [ -89.339209, 37.452892 ], [ -89.340322, 37.454463 ], [ -89.327135, 37.48359 ], [ -89.319822, 37.499219 ], [ -89.300111, 37.511904 ], [ -89.298514, 37.512925 ], [ -89.255359, 37.536104 ], [ -89.2233384, 37.540723200000016 ], [ -89.221252, 37.540225 ], [ -89.206763, 37.530672 ], [ -89.152858, 37.485031 ], [ -89.135014, 37.463422 ], [ -89.132115, 37.446061 ], [ -89.160067, 37.382249 ], [ -89.268971, 37.387894 ] ] ] } },
{ "type": "Feature", "properties": { "OBJECTID": 2079, "ID": "0007742041", "NAME": "PARKWAY REGIONAL HOSPITAL", "ADDRESS": "2000 HOLIDAY LANE", "CITY": "FULTON", "STATE": "KY", "ZIP": "42041", "ZIP4": "NOT AVAILABLE", "TELEPHONE": "(270) 472-2522", "TYPE": "GENERAL ACUTE CARE", "STATUS": "CLOSED", "POPULATION": 70, "COUNTY": "FULTON", "COUNTYFIPS": "21075", "COUNTRY": "USA", "LATITUDE": 36.51903178, "LONGITUDE": -88.895674057999898, "NAICS_CODE": "622110", "NAICS_DESC": "GENERAL MEDICAL AND SURGICAL HOSPITALS", "SOURCE": "http://chfs.ky.gov/os/oig/directories.htm", "SOURCEDATE": "2012-08-01T00:00:00.000Z", "VAL_METHOD": "IMAGERY/OTHER", "VAL_DATE": "2014-02-10T00:00:00.000Z", "WEBSITE": "http://www.parkwayregionalhospital.com", "STATE_ID": "100131", "ALT_NAME": "NOT AVAILABLE", "ST_FIPS": "21", "OWNER": "PROPRIETARY", "TTL_STAFF": -999, "BEDS": 70, "TRAUMA": "NOT AVAILABLE", "HELIPAD": "Y" }, "geometry": { "type": "Polygon", "coordinates": [ [ [ -88.9648382, 36.495468500000023 ], [ -88.9858239, 36.5000014 ], [ -88.990246, 36.502579 ], [ -89.0086364, 36.517576799999972 ], [ -88.971916, 36.549572 ], [ -88.92093, 36.576404 ], [ -88.906071, 36.576929 ], [ -88.899081, 36.576004 ], [ -88.831218, 36.546806 ], [ -88.832953, 36.502892 ], [ -88.850586, 36.500038300000043 ], [ -88.9648382, 36.495468500000023 ] ] ] } },
{ "type": "Feature", "properties": { "OBJECTID": 2082, "ID": "0007242347", "NAME": "OHIO COUNTY HOSPITAL", "ADDRESS": "1211 OLD MAIN ST.", "CITY": "HARTFORD", "STATE": "KY", "ZIP": "42347", "ZIP4": "NOT AVAILABLE", "TELEPHONE": "(270) 298-7411", "TYPE": "CRITICAL ACCESS", "STATUS": "OPEN", "POPULATION": 25, "COUNTY": "OHIO", "COUNTYFIPS": "21183", "COUNTRY": "USA", "LATITUDE": 37.448466985000003, "LONGITUDE": -86.896447684999899, "NAICS_CODE": "622110", "NAICS_DESC": "GENERAL MEDICAL AND SURGICAL HOSPITALS", "SOURCE": "https://chfs.ky.gov/agencies/os/oig/dhc/Documents/Directories/Hospital_Directory.pdf", "SOURCEDATE": "2018-08-11T00:00:00.000Z", "VAL_METHOD": "IMAGERY", "VAL_DATE": "2014-02-10T00:00:00.000Z", "WEBSITE": "http://www.ohiocountyhospital.com", "STATE_ID": "600073", "ALT_NAME": "NOT AVAILABLE", "ST_FIPS": "21", "OWNER": "NON-PROFIT", "TTL_STAFF": -999, "BEDS": 25, "TRAUMA": "NOT AVAILABLE", "HELIPAD": "N" }, "geometry": { "type": "Polygon", "coordinates": [ [ [ -86.879816, 37.356038 ], [ -86.925476, 37.371835 ], [ -86.991929512753075, 37.413137305522646 ], [ -86.994170510106031, 37.417440305324675 ], [ -86.983547477559569, 37.49691231904216 ], [ -86.965968436870767, 37.524425299574666 ], [ -86.926777, 37.536376 ], [ -86.83529, 37.514931 ], [ -86.808418, 37.498998 ], [ -86.792062, 37.438891 ], [ -86.8083168, 37.385048100000056 ], [ -86.808666300000013, 37.3840514 ], [ -86.839033, 37.364614 ], [ -86.879816, 37.356038 ] ] ] } },
{ "type": "Feature", "properties": { "OBJECTID": 2502, "ID": "0005042276", "NAME": "LOGAN MEMORIAL HOSPITAL", "ADDRESS": "1625 NASHVILLE STREET", "CITY": "RUSSELLVILLE", "STATE": "KY", "ZIP": "42276", "ZIP4": "NOT AVAILABLE", "TELEPHONE": "(270) 726-4011", "TYPE": "GENERAL ACUTE CARE", "STATUS": "OPEN", "POPULATION": 75, "COUNTY": "LOGAN", "COUNTYFIPS": "21141", "COUNTRY": "USA", "LATITUDE": 36.815710006000103, "LONGITUDE": -86.881501633, "NAICS_CODE": "622110", "NAICS_DESC": "GENERAL MEDICAL AND SURGICAL HOSPITALS", "SOURCE": "https://chfs.ky.gov/agencies/os/oig/dhc/Documents/Directories/Hospital_Directory.pdf", "SOURCEDATE": "2018-08-11T00:00:00.000Z", "VAL_METHOD": "IMAGERY", "VAL_DATE": "2013-12-19T00:00:00.000Z", "WEBSITE": "http://www.loganmemorial.com", "STATE_ID": "100298", "ALT_NAME": "NOT AVAILABLE", "ST_FIPS": "21", "OWNER": "PROPRIETARY", "TTL_STAFF": -999, "BEDS": 75, "TRAUMA": "NOT AVAILABLE", "HELIPAD": "N" }, "geometry": { "type": "Polygon", "coordinates": [ [ [ -86.912941, 36.719072 ], [ -86.988662, 36.82694 ], [ -86.983928, 36.858307 ], [ -86.929783, 36.903082 ], [ -86.902592, 36.907599 ], [ -86.837433, 36.899925 ], [ -86.832854, 36.895382 ], [ -86.791271, 36.840172 ], [ -86.79776, 36.789479 ], [ -86.812431, 36.743674 ], [ -86.851211, 36.720283 ], [ -86.912941, 36.719072 ] ] ] } },
{ "type": "Feature", "properties": { "OBJECTID": 2504, "ID": "0011942003", "NAME": "BAPTIST HEALTH PADUCAH", "ADDRESS": "2501 KENTUCKY AVENUE", "CITY": "PADUCAH", "STATE": "KY", "ZIP": "42003", "ZIP4": "NOT AVAILABLE", "TELEPHONE": "(270) 575-2100", "TYPE": "GENERAL ACUTE CARE", "STATUS": "OPEN", "POPULATION": 349, "COUNTY": "MCCRACKEN", "COUNTYFIPS": "21145", "COUNTRY": "USA", "LATITUDE": 37.073759379000101, "LONGITUDE": -88.626597193999899, "NAICS_CODE": "622110", "NAICS_DESC": "GENERAL MEDICAL AND SURGICAL HOSPITALS", "SOURCE": "https://chfs.ky.gov/agencies/os/oig/dhc/Documents/Directories/Hospital_Directory.pdf", "SOURCEDATE": "2018-08-11T00:00:00.000Z", "VAL_METHOD": "IMAGERY", "VAL_DATE": "2014-02-10T00:00:00.000Z", "WEBSITE": "http://www.westernbaptist.com/", "STATE_ID": "100313", "ALT_NAME": "WESTERN BAPTIST HOSPITAL", "ST_FIPS": "21", "OWNER": "NON-PROFIT", "TTL_STAFF": -999, "BEDS": 349, "TRAUMA": "NOT AVAILABLE", "HELIPAD": "Y" }, "geometry": { "type": "Polygon", "coordinates": [ [ [ -88.677866208394434, 36.966543100747529 ], [ -88.755718, 37.028787 ], [ -88.7482865, 37.073266199999942 ], [ -88.719964, 37.121904 ], [ -88.626875, 37.1212059 ], [ -88.53704, 37.042485 ], [ -88.5316329, 37.036543200000018 ], [ -88.519064, 37.011884 ], [ -88.519194, 37.011789 ], [ -88.530978, 37.006826 ], [ -88.598653, 36.987247 ], [ -88.677866208394434, 36.966543100747529 ] ] ] } },
{ "type": "Feature", "properties": { "OBJECTID": 2506, "ID": "0014462837", "NAME": "FAIRFIELD MEMORIAL HOSPITAL", "ADDRESS": "303 N W 11TH STREET", "CITY": "FAIRFIELD", "STATE": "IL", "ZIP": "62837", "ZIP4": "NOT AVAILABLE", "TELEPHONE": "(618) 842-2611", "TYPE": "CRITICAL ACCESS", "STATUS": "OPEN", "POPULATION": 55, "COUNTY": "WAYNE", "COUNTYFIPS": "17191", "COUNTRY": "USA", "LATITUDE": 38.381248192999998, "LONGITUDE": -88.37526611, "NAICS_CODE": "622110", "NAICS_DESC": "GENERAL MEDICAL AND SURGICAL HOSPITALS", "SOURCE": "https://data.illinois.gov/", "SOURCEDATE": "2018-08-09T00:00:00.000Z", "VAL_METHOD": "IMAGERY", "VAL_DATE": "2016-04-25T00:00:00.000Z", "WEBSITE": "http://www.fairfieldmemorial.org", "STATE_ID": "141311", "ALT_NAME": "NOT AVAILABLE", "ST_FIPS": "17", "OWNER": "NON-PROFIT", "TTL_STAFF": -999, "BEDS": 55, "TRAUMA": "NOT AVAILABLE", "HELIPAD": "Y" }, "geometry": { "type": "Polygon", "coordinates": [ [ [ -88.351822, 38.277181 ], [ -88.4746152, 38.355528399999976 ], [ -88.483895, 38.363271 ], [ -88.4837477, 38.370645499999981 ], [ -88.473675, 38.385064 ], [ -88.417823, 38.442642 ], [ -88.408569, 38.447162 ], [ -88.406406, 38.44715 ], [ -88.349316, 38.44448 ], [ -88.240304, 38.371919 ], [ -88.351822, 38.277181 ] ] ] } },
{ "type": "Feature", "properties": { "OBJECTID": 2866, "ID": "0011142164", "NAME": "THE MEDICAL CENTER AT SCOTTSVILLE", "ADDRESS": "456 BURNLEY ROAD", "CITY": "SCOTTSVILLE", "STATE": "KY", "ZIP": "42164", "ZIP4": "NOT AVAILABLE", "TELEPHONE": "(270) 622-2800", "TYPE": "CRITICAL ACCESS", "STATUS": "OPEN", "POPULATION": 25, "COUNTY": "ALLEN", "COUNTYFIPS": "21003", "COUNTRY": "USA", "LATITUDE": 36.761475029000103, "LONGITUDE": -86.2149691609999, "NAICS_CODE": "622110", "NAICS_DESC": "GENERAL MEDICAL AND SURGICAL HOSPITALS", "SOURCE": "https://chfs.ky.gov/agencies/os/oig/dhc/Documents/Directories/Hospital_Directory.pdf", "SOURCEDATE": "2018-08-11T00:00:00.000Z", "VAL_METHOD": "IMAGERY", "VAL_DATE": "2014-02-10T00:00:00.000Z", "WEBSITE": "http://www.themedicalcenterscottsville.org/", "STATE_ID": "600076", "ALT_NAME": "NOT AVAILABLE", "ST_FIPS": "21", "OWNER": "NON-PROFIT", "TTL_STAFF": -999, "BEDS": 25, "TRAUMA": "NOT AVAILABLE", "HELIPAD": "N" }, "geometry": { "type": "Polygon", "coordinates": [ [ [ -86.244691, 36.649846 ], [ -86.26189, 36.651919 ], [ -86.312193, 36.715476 ], [ -86.32115, 36.772348 ], [ -86.3195665, 36.835186 ], [ -86.315462, 36.837769 ], [ -86.176396, 36.844044 ], [ -86.120512, 36.809701 ], [ -86.101273, 36.761298 ], [ -86.119923, 36.721028 ], [ -86.244691, 36.649846 ] ] ] } },
{ "type": "Feature", "properties": { "OBJECTID": 2870, "ID": "0001142749", "NAME": "THE MEDICAL CENTER AT CAVERNA", "ADDRESS": "1501 S. DIXIE STREET", "CITY": "HORSE CAVE", "STATE": "KY", "ZIP": "42749", "ZIP4": "NOT AVAILABLE", "TELEPHONE": "(270) 786-2191", "TYPE": "CRITICAL ACCESS", "STATUS": "OPEN", "POPULATION": 25, "COUNTY": "HART", "COUNTYFIPS": "21099", "COUNTRY": "USA", "LATITUDE": 37.161306148000101, "LONGITUDE": -85.923038156000004, "NAICS_CODE": "622110", "NAICS_DESC": "GENERAL MEDICAL AND SURGICAL HOSPITALS", "SOURCE": "https://chfs.ky.gov/agencies/os/oig/dhc/Documents/Directories/Hospital_Directory.pdf", "SOURCEDATE": "2018-08-11T00:00:00.000Z", "VAL_METHOD": "IMAGERY", "VAL_DATE": "2014-02-10T00:00:00.000Z", "WEBSITE": "http://www.cavernahospital.com", "STATE_ID": "600065", "ALT_NAME": "CAVERNA MEMORIAL HOSPITAL", "ST_FIPS": "21", "OWNER": "NON-PROFIT", "TTL_STAFF": -999, "BEDS": 25, "TRAUMA": "NOT AVAILABLE", "HELIPAD": "Y" }, "geometry": { "type": "Polygon", "coordinates": [ [ [ -85.903304, 37.106139 ], [ -85.962249, 37.120544 ], [ -85.9644814, 37.121533499999963 ], [ -85.97441, 37.135625 ], [ -85.970023, 37.216762 ], [ -85.967468, 37.225171 ], [ -85.926624100000012, 37.244878600000021 ], [ -85.887895, 37.253229 ], [ -85.853005, 37.227061 ], [ -85.821113, 37.197505 ], [ -85.795868, 37.168913 ], [ -85.802215, 37.163092 ], [ -85.892063, 37.110634 ], [ -85.903304, 37.106139 ] ] ] } },
{ "type": "Feature", "properties": { "OBJECTID": 4297, "ID": "0015862859", "NAME": "HAMILTON MEMORIAL HOSPITAL DISTRICT", "ADDRESS": "611 S MARSHALL AVENUE", "CITY": "MCLEANSBORO", "STATE": "IL", "ZIP": "62859", "ZIP4": "NOT AVAILABLE", "TELEPHONE": "(618) 643-2361", "TYPE": "CRITICAL ACCESS", "STATUS": "OPEN", "POPULATION": 25, "COUNTY": "HAMILTON", "COUNTYFIPS": "17065", "COUNTRY": "USA", "LATITUDE": 38.086851989000003, "LONGITUDE": -88.540504100999996, "NAICS_CODE": "622110", "NAICS_DESC": "GENERAL MEDICAL AND SURGICAL HOSPITALS", "SOURCE": "https://data.illinois.gov/", "SOURCEDATE": "2018-08-09T00:00:00.000Z", "VAL_METHOD": "IMAGERY", "VAL_DATE": "2014-03-12T00:00:00.000Z", "WEBSITE": "http://www.hmhospital.org", "STATE_ID": "141326", "ALT_NAME": "NOT AVAILABLE", "ST_FIPS": "17", "OWNER": "GOVERNMENT - DISTRICT/AUTHORITY", "TTL_STAFF": -999, "BEDS": 25, "TRAUMA": "NOT AVAILABLE", "HELIPAD": "Y" }, "geometry": { "type": "Polygon", "coordinates": [ [ [ -88.491495, 37.994803 ], [ -88.667474, 38.081287 ], [ -88.616096, 38.156726 ], [ -88.538585, 38.187342 ], [ -88.409861, 38.082242 ], [ -88.491495, 37.994803 ] ] ] } },
{ "type": "Feature", "properties": { "OBJECTID": 4299, "ID": "0015662930", "NAME": "FERRELL HOSPITAL COMMUNITY FOUNDATIONS", "ADDRESS": "1201 PINE STREET", "CITY": "ELDORADO", "STATE": "IL", "ZIP": "62930", "ZIP4": "NOT AVAILABLE", "TELEPHONE": "(618) 273-3361", "TYPE": "CRITICAL ACCESS", "STATUS": "OPEN", "POPULATION": 25, "COUNTY": "SALINE", "COUNTYFIPS": "17165", "COUNTRY": "USA", "LATITUDE": 37.815510447000101, "LONGITUDE": -88.442171544000004, "NAICS_CODE": "622110", "NAICS_DESC": "GENERAL MEDICAL AND SURGICAL HOSPITALS", "SOURCE": "https://data.illinois.gov/", "SOURCEDATE": "2018-08-09T00:00:00.000Z", "VAL_METHOD": "IMAGERY", "VAL_DATE": "2014-02-10T00:00:00.000Z", "WEBSITE": "http://www.ferrellhosp.org", "STATE_ID": "141324", "ALT_NAME": "NOT AVAILABLE", "ST_FIPS": "17", "OWNER": "NON-PROFIT", "TTL_STAFF": -999, "BEDS": 25, "TRAUMA": "NOT AVAILABLE", "HELIPAD": "N" }, "geometry": { "type": "Polygon", "coordinates": [ [ [ -88.532641, 37.738358 ], [ -88.567572, 37.834657 ], [ -88.453079, 37.907133 ], [ -88.3904455, 37.881213 ], [ -88.374356, 37.856542 ], [ -88.355757, 37.747449 ], [ -88.355537, 37.743288 ], [ -88.532641, 37.738358 ] ] ] } },
{ "type": "Feature", "properties": { "OBJECTID": 4318, "ID": "0015362812", "NAME": "FRANKLIN HOSPITAL", "ADDRESS": "201 BAILEY LANE", "CITY": "BENTON", "STATE": "IL", "ZIP": "62812", "ZIP4": "NOT AVAILABLE", "TELEPHONE": "(618) 439-3761", "TYPE": "CRITICAL ACCESS", "STATUS": "OPEN", "POPULATION": 25, "COUNTY": "FRANKLIN", "COUNTYFIPS": "17055", "COUNTRY": "USA", "LATITUDE": 38.010103782000002, "LONGITUDE": -88.918215190999902, "NAICS_CODE": "622110", "NAICS_DESC": "GENERAL MEDICAL AND SURGICAL HOSPITALS", "SOURCE": "https://data.illinois.gov/", "SOURCEDATE": "2018-08-09T00:00:00.000Z", "VAL_METHOD": "IMAGERY", "VAL_DATE": "2014-03-12T00:00:00.000Z", "WEBSITE": "http://www.franklinhospital.net", "STATE_ID": "141321", "ALT_NAME": "NOT AVAILABLE", "ST_FIPS": "17", "OWNER": "GOVERNMENT - DISTRICT/AUTHORITY", "TTL_STAFF": -999, "BEDS": 25, "TRAUMA": "NOT AVAILABLE", "HELIPAD": "Y" }, "geometry": { "type": "Polygon", "coordinates": [ [ [ -88.937621017751596, 37.895378014024786 ], [ -88.956074912226484, 37.896731809641864 ], [ -88.9591774113089, 37.89701940891463 ], [ -89.034993999974446, 37.97946099999686 ], [ -88.948147554720762, 38.089398562294555 ], [ -88.947741954655072, 38.089620462461795 ], [ -88.898655, 38.089285 ], [ -88.88487, 38.088965 ], [ -88.816332, 38.055777 ], [ -88.816366, 38.048412 ], [ -88.816417, 38.037466 ], [ -88.823448, 37.958082 ], [ -88.931747018617273, 37.897945014656308 ], [ -88.937621017751596, 37.895378014024786 ] ] ] } },
{ "type": "Feature", "properties": { "OBJECTID": 4319, "ID": "0018362839", "NAME": "CLAY COUNTY HOSPITAL", "ADDRESS": "911 STACY BURK DRIVE", "CITY": "FLORA", "STATE": "IL", "ZIP": "62839", "ZIP4": "NOT AVAILABLE", "TELEPHONE": "(618) 662-2131", "TYPE": "CRITICAL ACCESS", "STATUS": "OPEN", "POPULATION": 18, "COUNTY": "CLAY", "COUNTYFIPS": "17025", "COUNTRY": "USA", "LATITUDE": 38.680850808000102, "LONGITUDE": -88.47281706, "NAICS_CODE": "622110", "NAICS_DESC": "GENERAL MEDICAL AND SURGICAL HOSPITALS", "SOURCE": "https://data.illinois.gov/", "SOURCEDATE": "2018-08-09T00:00:00.000Z", "VAL_METHOD": "IMAGERY", "VAL_DATE": "2014-03-12T00:00:00.000Z", "WEBSITE": "http://www.claycountyhospital.org", "STATE_ID": "141351", "ALT_NAME": "NOT AVAILABLE", "ST_FIPS": "17", "OWNER": "GOVERNMENT - LOCAL", "TTL_STAFF": -999, "BEDS": 18, "TRAUMA": "NOT AVAILABLE", "HELIPAD": "Y" }, "geometry": { "type": "Polygon", "coordinates": [ [ [ -88.489065, 38.604851 ], [ -88.605949, 38.64758 ], [ -88.583623, 38.680264 ], [ -88.53848, 38.723642 ], [ -88.5079648, 38.7450522 ], [ -88.470396, 38.73757 ], [ -88.354117, 38.699229 ], [ -88.33166, 38.689152899999975 ], [ -88.33166, 38.687369199999949 ], [ -88.348537, 38.664848 ], [ -88.428881, 38.603098 ], [ -88.489065, 38.604851 ] ] ] } },
{ "type": "Feature", "properties": { "OBJECTID": 4423, "ID": "0100962263", "NAME": "WASHINGTON COUNTY HOSPITAL", "ADDRESS": "705 SOUTH GRAND AVENUE", "CITY": "NASHVILLE", "STATE": "IL", "ZIP": "62263", "ZIP4": "NOT AVAILABLE", "TELEPHONE": "(618) 327-8236", "TYPE": "CRITICAL ACCESS", "STATUS": "OPEN", "POPULATION": -999, "COUNTY": "WASHINGTON", "COUNTYFIPS": "17189", "COUNTRY": "USA", "LATITUDE": 38.338942501000098, "LONGITUDE": -89.391279284999897, "NAICS_CODE": "622110", "NAICS_DESC": "GENERAL MEDICAL AND SURGICAL HOSPITALS", "SOURCE": "https://data.illinois.gov/", "SOURCEDATE": "2018-08-09T00:00:00.000Z", "VAL_METHOD": "IMAGERY/OTHER", "VAL_DATE": "2015-01-17T00:00:00.000Z", "WEBSITE": "NOT AVAILABLE", "STATE_ID": "NOT AVAILABLE", "ALT_NAME": "NOT AVAILABLE", "ST_FIPS": "17", "OWNER": "GOVERNMENT - LOCAL", "TTL_STAFF": -999, "BEDS": -999, "TRAUMA": "NOT AVAILABLE", "HELIPAD": "Y" }, "geometry": { "type": "Polygon", "coordinates": [ [ [ -89.38012, 38.245833 ], [ -89.4165254, 38.273144200000019 ], [ -89.5087507, 38.3627691 ], [ -89.4861082, 38.376653 ], [ -89.3706546, 38.434656199999957 ], [ -89.294072, 38.360591 ], [ -89.285167, 38.3470202 ], [ -89.309915, 38.3167387 ], [ -89.38012, 38.245833 ] ] ] } },
{ "type": "Feature", "properties": { "OBJECTID": 393, "ID": "0011442754", "NAME": "TWIN LAKES REGIONAL MEDICAL CENTER", "ADDRESS": "910 WALLACE AVENUE", "CITY": "LEITCHFIELD", "STATE": "KY", "ZIP": "42754", "ZIP4": "NOT AVAILABLE", "TELEPHONE": "(270) 259-9400", "TYPE": "GENERAL ACUTE CARE", "STATUS": "OPEN", "POPULATION": 75, "COUNTY": "GRAYSON", "COUNTYFIPS": "21085", "COUNTRY": "USA", "LATITUDE": 37.472515304000098, "LONGITUDE": -86.288593089000003, "NAICS_CODE": "622110", "NAICS_DESC": "GENERAL MEDICAL AND SURGICAL HOSPITALS", "SOURCE": "https://chfs.ky.gov/agencies/os/oig/dhc/Documents/Directories/Hospital_Directory.pdf", "SOURCEDATE": "2018-08-11T00:00:00.000Z", "VAL_METHOD": "IMAGERY", "VAL_DATE": "2014-02-10T00:00:00.000Z", "WEBSITE": "http://www.tlrmc.com", "STATE_ID": "100151", "ALT_NAME": "NOT AVAILABLE", "ST_FIPS": "21", "OWNER": "NON-PROFIT", "TTL_STAFF": -999, "BEDS": 75, "TRAUMA": "LEVEL IV", "HELIPAD": "Y" }, "geometry": { "type": "Polygon", "coordinates": [ [ [ -86.274042, 37.402644 ], [ -86.277933, 37.40297 ], [ -86.359304, 37.422102 ], [ -86.38129, 37.449838 ], [ -86.393808, 37.501644 ], [ -86.342019, 37.541328 ], [ -86.298466, 37.558552 ], [ -86.234794, 37.542731 ], [ -86.183669, 37.517471800000031 ], [ -86.176469, 37.475862 ], [ -86.1971544, 37.444768299999971 ], [ -86.252304, 37.406727 ], [ -86.262073, 37.402404 ], [ -86.274042, 37.402644 ] ] ] } },
{ "type": "Feature", "properties": { "OBJECTID": 420, "ID": "0010942101", "NAME": "THE MEDICAL CENTER AT BOWLING GREEN", "ADDRESS": "250 PARK STREET", "CITY": "BOWLING GREEN", "STATE": "KY", "ZIP": "42101", "ZIP4": "NOT AVAILABLE", "TELEPHONE": "(270) 745-1000", "TYPE": "GENERAL ACUTE CARE", "STATUS": "OPEN", "POPULATION": 337, "COUNTY": "WARREN", "COUNTYFIPS": "21227", "COUNTRY": "USA", "LATITUDE": 36.995971505000099, "LONGITUDE": -86.42975938, "NAICS_CODE": "622110", "NAICS_DESC": "GENERAL MEDICAL AND SURGICAL HOSPITALS", "SOURCE": "https://chfs.ky.gov/agencies/os/oig/dhc/Documents/Directories/Hospital_Directory.pdf", "SOURCEDATE": "2018-08-11T00:00:00.000Z", "VAL_METHOD": "IMAGERY/OTHER", "VAL_DATE": "2014-03-12T00:00:00.000Z", "WEBSITE": "http://www.themedicalcenter.org", "STATE_ID": "100404", "ALT_NAME": "NOT AVAILABLE", "ST_FIPS": "21", "OWNER": "NON-PROFIT", "TTL_STAFF": -999, "BEDS": 337, "TRAUMA": "NOT AVAILABLE", "HELIPAD": "Y" }, "geometry": { "type": "Polygon", "coordinates": [ [ [ -86.424833600000014, 36.908593099999962 ], [ -86.432227, 36.9092923 ], [ -86.496323, 36.928681 ], [ -86.5209693, 36.946604399999948 ], [ -86.522171, 36.949466900000033 ], [ -86.536484, 36.996092 ], [ -86.520543, 37.05542 ], [ -86.448566, 37.088332 ], [ -86.31, 37.051345 ], [ -86.3102766, 37.033096 ], [ -86.32975, 36.943434 ], [ -86.4041363, 36.911671799999979 ], [ -86.4165766, 36.909581599999989 ], [ -86.424833600000014, 36.908593099999962 ] ] ] } },
{ "type": "Feature", "properties": { "OBJECTID": 428, "ID": "0004942078", "NAME": "LIVINGSTON HOSPITAL AND HEALTHCARE SERVICES", "ADDRESS": "131 HOSPITAL DRIVE", "CITY": "SALEM", "STATE": "KY", "ZIP": "42078", "ZIP4": "NOT AVAILABLE", "TELEPHONE": "(270) 988-2299", "TYPE": "CRITICAL ACCESS", "STATUS": "OPEN", "POPULATION": 25, "COUNTY": "LIVINGSTON", "COUNTYFIPS": "21139", "COUNTRY": "USA", "LATITUDE": 37.263053189000097, "LONGITUDE": -88.228502458999998, "NAICS_CODE": "622110", "NAICS_DESC": "GENERAL MEDICAL AND SURGICAL HOSPITALS", "SOURCE": "https://chfs.ky.gov/agencies/os/oig/dhc/Documents/Directories/Hospital_Directory.pdf", "SOURCEDATE": "2018-08-11T00:00:00.000Z", "VAL_METHOD": "IMAGERY", "VAL_DATE": "2014-02-10T00:00:00.000Z", "WEBSITE": "http://www.lhhs.org", "STATE_ID": "600071", "ALT_NAME": "NOT AVAILABLE", "ST_FIPS": "21", "OWNER": "NON-PROFIT", "TTL_STAFF": -999, "BEDS": 25, "TRAUMA": "LEVEL IV", "HELIPAD": "Y" }, "geometry": { "type": "Polygon", "coordinates": [ [ [ -88.239706, 37.186825 ], [ -88.36839, 37.23937 ], [ -88.326131, 37.329672 ], [ -88.175961, 37.333735 ], [ -88.121401, 37.332828 ], [ -88.117376, 37.327201 ], [ -88.149802, 37.247164 ], [ -88.154928, 37.238103 ], [ -88.2013325, 37.208516600000046 ], [ -88.239706, 37.186825 ] ] ] } },
{ "type": "Feature", "properties": { "OBJECTID": 463, "ID": "0013062864", "NAME": "CROSSROADS COMMUNITY HOSPITAL", "ADDRESS": "8 DOCTORS PARK ROAD", "CITY": "MOUNT VERNON", "STATE": "IL", "ZIP": "62864", "ZIP4": "NOT AVAILABLE", "TELEPHONE": "(618) 244-5500", "TYPE": "GENERAL ACUTE CARE", "STATUS": "OPEN", "POPULATION": 41, "COUNTY": "JEFFERSON", "COUNTYFIPS": "17081", "COUNTRY": "USA", "LATITUDE": 38.311645161000101, "LONGITUDE": -88.93688084, "NAICS_CODE": "622110", "NAICS_DESC": "GENERAL MEDICAL AND SURGICAL HOSPITALS", "SOURCE": "https://data.illinois.gov/", "SOURCEDATE": "2018-08-09T00:00:00.000Z", "VAL_METHOD": "IMAGERY", "VAL_DATE": "2014-03-12T00:00:00.000Z", "WEBSITE": "http://www.crossroadscommunityhospital.com", "STATE_ID": "140294", "ALT_NAME": "NOT AVAILABLE", "ST_FIPS": "17", "OWNER": "PROPRIETARY", "TTL_STAFF": -999, "BEDS": 41, "TRAUMA": "NOT AVAILABLE", "HELIPAD": "Y" }, "geometry": { "type": "Polygon", "coordinates": [ [ [ -88.901760217518571, 38.239840294429619 ], [ -88.954599491313033, 38.243099884462509 ], [ -89.062561423504036, 38.30746068508531 ], [ -89.042587533319775, 38.361480157957601 ], [ -89.03449453472453, 38.378240451823686 ], [ -88.950106544394373, 38.440050845089218 ], [ -88.949634944461792, 38.439956945239196 ], [ -88.818564, 38.338364 ], [ -88.812304, 38.330229 ], [ -88.812329, 38.329101 ], [ -88.846153700000016, 38.2696271 ], [ -88.897978619281503, 38.239906695387418 ], [ -88.901760217518571, 38.239840294429619 ] ] ] } },
{ "type": "Feature", "properties": { "OBJECTID": 552, "ID": "0006342345", "NAME": "MUHLENBERG COMMUNITY HOSPITAL", "ADDRESS": "440 HOPKINSVILLE STREET", "CITY": "GREENVILLE", "STATE": "KY", "ZIP": "42345", "ZIP4": "NOT AVAILABLE", "TELEPHONE": "(270) 338-8000", "TYPE": "GENERAL ACUTE CARE", "STATUS": "OPEN", "POPULATION": 90, "COUNTY": "MUHLENBERG", "COUNTYFIPS": "21177", "COUNTRY": "USA", "LATITUDE": 37.196535391000097, "LONGITUDE": -87.189294499, "NAICS_CODE": "622110", "NAICS_DESC": "GENERAL MEDICAL AND SURGICAL HOSPITALS", "SOURCE": "https://chfs.ky.gov/agencies/os/oig/dhc/Documents/Directories/Hospital_Directory.pdf", "SOURCEDATE": "2018-08-11T00:00:00.000Z", "VAL_METHOD": "IMAGERY", "VAL_DATE": "2014-02-10T00:00:00.000Z", "WEBSITE": "http://www.mchky.org", "STATE_ID": "100344", "ALT_NAME": "NOT AVAILABLE", "ST_FIPS": "21", "OWNER": "NON-PROFIT", "TTL_STAFF": -999, "BEDS": 90, "TRAUMA": "NOT AVAILABLE", "HELIPAD": "N" }, "geometry": { "type": "Polygon", "coordinates": [ [ [ -87.195419, 37.087693 ], [ -87.20763, 37.088654 ], [ -87.281968, 37.132293 ], [ -87.312796, 37.231437 ], [ -87.28005, 37.256704 ], [ -87.255061, 37.268782 ], [ -87.209139, 37.281016 ], [ -87.208849, 37.281073 ], [ -87.130242, 37.290278 ], [ -87.124834, 37.2855 ], [ -87.063844, 37.212817 ], [ -87.071676, 37.192901 ], [ -87.095537, 37.155946 ], [ -87.129026, 37.114919 ], [ -87.195419, 37.087693 ] ] ] } },
{ "type": "Feature", "properties": { "OBJECTID": 553, "ID": "0000742445", "NAME": "CALDWELL MEDICAL CENTER", "ADDRESS": "100 MEDICAL CENTER DRIVE", "CITY": "PRINCETON", "STATE": "KY", "ZIP": "42445", "ZIP4": "NOT AVAILABLE", "TELEPHONE": "(270) 365-0300", "TYPE": "CRITICAL ACCESS", "STATUS": "OPEN", "POPULATION": 25, "COUNTY": "CALDWELL", "COUNTYFIPS": "21033", "COUNTRY": "USA", "LATITUDE": 37.113674312999997, "LONGITUDE": -87.909600475999994, "NAICS_CODE": "622110", "NAICS_DESC": "GENERAL MEDICAL AND SURGICAL HOSPITALS", "SOURCE": "https://chfs.ky.gov/agencies/os/oig/dhc/Documents/Directories/Hospital_Directory.pdf", "SOURCEDATE": "2018-08-11T00:00:00.000Z", "VAL_METHOD": "IMAGERY", "VAL_DATE": "2014-02-10T00:00:00.000Z", "WEBSITE": "http://cmcky.org/", "STATE_ID": "600072", "ALT_NAME": "NOT AVAILABLE", "ST_FIPS": "21", "OWNER": "NON-PROFIT", "TTL_STAFF": -999, "BEDS": 25, "TRAUMA": "NOT AVAILABLE", "HELIPAD": "Y" }, "geometry": { "type": "Polygon", "coordinates": [ [ [ -87.879862, 37.034412 ], [ -88.0365737, 37.101964099999975 ], [ -88.0378626, 37.104452500000015 ], [ -87.98001, 37.160195 ], [ -87.907316, 37.20153 ], [ -87.871676, 37.19798 ], [ -87.84889, 37.194945 ], [ -87.848725, 37.19484 ], [ -87.797469, 37.13152 ], [ -87.811059, 37.072348 ], [ -87.879862, 37.034412 ] ] ] } },
{ "type": "Feature", "properties": { "OBJECTID": 554, "ID": "0010442141", "NAME": "T J SAMSON COMMUNITY HOSPITAL", "ADDRESS": "1301 NORTH RACE STREET", "CITY": "GLASGOW", "STATE": "KY", "ZIP": "42141", "ZIP4": "NOT AVAILABLE", "TELEPHONE": "(270) 651-4159", "TYPE": "GENERAL ACUTE CARE", "STATUS": "OPEN", "POPULATION": 180, "COUNTY": "BARREN", "COUNTYFIPS": "21009", "COUNTRY": "USA", "LATITUDE": 37.011392389000001, "LONGITUDE": -85.904513973999897, "NAICS_CODE": "622110", "NAICS_DESC": "GENERAL MEDICAL AND SURGICAL HOSPITALS", "SOURCE": "https://chfs.ky.gov/agencies/os/oig/dhc/Documents/Directories/Hospital_Directory.pdf", "SOURCEDATE": "2018-08-11T00:00:00.000Z", "VAL_METHOD": "IMAGERY", "VAL_DATE": "2014-02-10T00:00:00.000Z", "WEBSITE": "http://www.tjsamson.org", "STATE_ID": "100016", "ALT_NAME": "NOT AVAILABLE", "ST_FIPS": "21", "OWNER": "NON-PROFIT", "TTL_STAFF": -999, "BEDS": 180, "TRAUMA": "NOT AVAILABLE", "HELIPAD": "Y" }, "geometry": { "type": "Polygon", "coordinates": [ [ [ -85.917926, 36.906558 ], [ -85.995656, 36.928854 ], [ -86.011937, 36.987552 ], [ -86.001653, 37.03407 ], [ -85.972892, 37.092912 ], [ -85.870552, 37.111793 ], [ -85.791287, 37.01768 ], [ -85.829293, 36.940632 ], [ -85.869416, 36.922404 ], [ -85.917926, 36.906558 ] ] ] } },
{ "type": "Feature", "properties": { "OBJECTID": 562, "ID": "0012042240", "NAME": "WESTERN STATE HOSPITAL", "ADDRESS": "2400 RUSSELLVILLE ROAD", "CITY": "HOPKINSVILLE", "STATE": "KY", "ZIP": "42240", "ZIP4": "NOT AVAILABLE", "TELEPHONE": "(270) 889-6025", "TYPE": "PSYCHIATRIC", "STATUS": "OPEN", "POPULATION": 495, "COUNTY": "CHRISTIAN", "COUNTYFIPS": "21047", "COUNTRY": "USA", "LATITUDE": 36.864669216000003, "LONGITUDE": -87.451266716999996, "NAICS_CODE": "622110", "NAICS_DESC": "GENERAL MEDICAL AND SURGICAL HOSPITALS", "SOURCE": "https://chfs.ky.gov/agencies/os/oig/dhc/Documents/Directories/Hospital_Directory.pdf", "SOURCEDATE": "2018-08-11T00:00:00.000Z", "VAL_METHOD": "IMAGERY", "VAL_DATE": "2014-02-10T00:00:00.000Z", "WEBSITE": "http://ww2.westernstatehospital.org/?folio=9PO8QU3X6", "STATE_ID": "100072", "ALT_NAME": "NOT AVAILABLE", "ST_FIPS": "21", "OWNER": "GOVERNMENT - STATE", "TTL_STAFF": -999, "BEDS": 495, "TRAUMA": "NOT AVAILABLE", "HELIPAD": "N" }, "geometry": { "type": "Polygon", "coordinates": [ [ [ -87.5178941, 36.7481307 ], [ -87.57359007534906, 36.846294108298686 ], [ -87.57311207223259, 36.854644111762788 ], [ -87.567663065182757, 36.87883712342601 ], [ -87.561285056848064, 36.904302136893982 ], [ -87.528013056352265, 36.928825165050988 ], [ -87.485738068050338, 36.947224190607024 ], [ -87.47902007473796, 36.948737191212189 ], [ -87.410980151212215, 36.949063187845873 ], [ -87.355839179745701, 36.907589158304383 ], [ -87.308737131120907, 36.845673115705267 ], [ -87.382882804381481, 36.799068990291616 ], [ -87.509575, 36.749297300000016 ], [ -87.5178941, 36.7481307 ] ] ] } },
{ "type": "Feature", "properties": { "OBJECTID": 581, "ID": "0007642303", "NAME": "OWENSBORO HEALTH REGIONAL HOSPITAL", "ADDRESS": "811 E PARRISH AVE", "CITY": "OWENSBORO", "STATE": "KY", "ZIP": "42303", "ZIP4": "NOT AVAILABLE", "TELEPHONE": "(270) 688-2000", "TYPE": "GENERAL ACUTE CARE", "STATUS": "OPEN", "POPULATION": 447, "COUNTY": "DAVIESS", "COUNTYFIPS": "21059", "COUNTRY": "USA", "LATITUDE": 37.765791864999997, "LONGITUDE": -87.102328606999905, "NAICS_CODE": "622110", "NAICS_DESC": "GENERAL MEDICAL AND SURGICAL HOSPITALS", "SOURCE": "https://chfs.ky.gov/agencies/os/oig/dhc/Documents/Directories/Hospital_Directory.pdf", "SOURCEDATE": "2018-08-11T00:00:00.000Z", "VAL_METHOD": "IMAGERY/OTHER", "VAL_DATE": "2014-02-10T00:00:00.000Z", "WEBSITE": "http://www.owensborohealth.org", "STATE_ID": "100092", "ALT_NAME": "NOT AVAILABLE", "ST_FIPS": "21", "OWNER": "NON-PROFIT", "TTL_STAFF": -999, "BEDS": 447, "TRAUMA": "LEVEL III", "HELIPAD": "Y" }, "geometry": { "type": "Polygon", "coordinates": [ [ [ -87.129026, 37.669779 ], [ -87.153222, 37.681907 ], [ -87.255116, 37.757762 ], [ -87.227342, 37.799637 ], [ -87.0218076, 37.840305200000032 ], [ -87.018190902179313, 37.839478828698198 ], [ -87.017876702325594, 37.839371829170908 ], [ -87.01563690357672, 37.838304833368774 ], [ -86.992942944306137, 37.790769968507263 ], [ -86.979671017410325, 37.732200089780498 ], [ -86.981965022157908, 37.729286093409748 ], [ -87.035062, 37.67422 ], [ -87.129026, 37.669779 ] ] ] } },
{ "type": "Feature", "properties": { "OBJECTID": 632, "ID": "0015562960", "NAME": "MASSAC MEMORIAL HOSPITAL", "ADDRESS": "28 CHICK STREET, PO BOX 850", "CITY": "METROPOLIS", "STATE": "IL", "ZIP": "62960", "ZIP4": "NOT AVAILABLE", "TELEPHONE": "(618) 524-2176", "TYPE": "CRITICAL ACCESS", "STATUS": "OPEN", "POPULATION": 25, "COUNTY": "MASSAC", "COUNTYFIPS": "17127", "COUNTRY": "USA", "LATITUDE": 37.166374757, "LONGITUDE": -88.740048665000003, "NAICS_CODE": "622110", "NAICS_DESC": "GENERAL MEDICAL AND SURGICAL HOSPITALS", "SOURCE": "https://data.illinois.gov/", "SOURCEDATE": "2018-08-09T00:00:00.000Z", "VAL_METHOD": "IMAGERY", "VAL_DATE": "2016-04-25T00:00:00.000Z", "WEBSITE": "http://www.massachealth.org", "STATE_ID": "141323", "ALT_NAME": "NOT AVAILABLE", "ST_FIPS": "17", "OWNER": "GOVERNMENT - DISTRICT/AUTHORITY", "TTL_STAFF": -999, "BEDS": 25, "TRAUMA": "NOT AVAILABLE", "HELIPAD": "N" }, "geometry": { "type": "Polygon", "coordinates": [ [ [ -88.719116, 37.1419 ], [ -88.7206323, 37.142027299999974 ], [ -88.725644, 37.143328 ], [ -88.730877, 37.144831 ], [ -88.7368338, 37.147479 ], [ -88.7409349, 37.149339599999934 ], [ -88.838747, 37.198662 ], [ -88.846311, 37.203545 ], [ -88.845933, 37.206186 ], [ -88.844385, 37.213721 ], [ -88.829829, 37.232553 ], [ -88.819254, 37.242738 ], [ -88.735403, 37.231547 ], [ -88.676396, 37.21364 ], [ -88.622076, 37.15999 ], [ -88.630635, 37.150324 ], [ -88.657969, 37.146142 ], [ -88.719116, 37.1419 ] ] ] } },
{ "type": "Feature", "properties": { "OBJECTID": 772, "ID": "0101262864", "NAME": "GOOD SAMARITAN REGIONAL HEALTH CENTER", "ADDRESS": "1 GOOD SAMARITAN WAY", "CITY": "MT. VERNON", "STATE": "IL", "ZIP": "62864", "ZIP4": "NOT AVAILABLE", "TELEPHONE": "(618) 242-4600", "TYPE": "GENERAL ACUTE CARE", "STATUS": "OPEN", "POPULATION": -999, "COUNTY": "JEFFERSON", "COUNTYFIPS": "17081", "COUNTRY": "USA", "LATITUDE": 38.297417698000103, "LONGITUDE": -88.938580384999995, "NAICS_CODE": "622110", "NAICS_DESC": "GENERAL MEDICAL AND SURGICAL HOSPITALS", "SOURCE": "https://data.illinois.gov/", "SOURCEDATE": "2018-08-09T00:00:00.000Z", "VAL_METHOD": "IMAGERY/OTHER", "VAL_DATE": "2015-01-17T00:00:00.000Z", "WEBSITE": "NOT AVAILABLE", "STATE_ID": "NOT AVAILABLE", "ALT_NAME": "NOT AVAILABLE", "ST_FIPS": "17", "OWNER": "NOT AVAILABLE", "TTL_STAFF": -999, "BEDS": -999, "TRAUMA": "NOT AVAILABLE", "HELIPAD": "Y" }, "geometry": { "type": "Polygon", "coordinates": [ [ [ -88.967066298150129, 38.214299059206262 ], [ -89.039615407498388, 38.301256308538207 ], [ -89.039601309858313, 38.307218603800308 ], [ -89.03449453472453, 38.378240451823686 ], [ -88.920918733990078, 38.371448503560927 ], [ -88.8354525, 38.3400131 ], [ -88.8309701, 38.32372490000003 ], [ -88.8286219, 38.2713471 ], [ -88.8323812, 38.268576299999985 ], [ -88.903137721763201, 38.221526577900732 ], [ -88.967066298150129, 38.214299059206262 ] ] ] } },
{ "type": "Feature", "properties": { "OBJECTID": 780, "ID": "0102442431", "NAME": "BAPTIST HEALTH MADISONVILLE", "ADDRESS": "900 HOSPITAL DRIVE", "CITY": "MADISONVILLE", "STATE": "KY", "ZIP": "42431", "ZIP4": "NOT AVAILABLE", "TELEPHONE": "(270) 825-5100", "TYPE": "GENERAL ACUTE CARE", "STATUS": "OPEN", "POPULATION": 390, "COUNTY": "HOPKINS", "COUNTYFIPS": "21107", "COUNTRY": "USA", "LATITUDE": 37.340597840999997, "LONGITUDE": -87.493349445999996, "NAICS_CODE": "622110", "NAICS_DESC": "GENERAL MEDICAL AND SURGICAL HOSPITALS", "SOURCE": "https://chfs.ky.gov/agencies/os/oig/dhc/Documents/Directories/Hospital_Directory.pdf", "SOURCEDATE": "2018-08-11T00:00:00.000Z", "VAL_METHOD": "IMAGERY/OTHER", "VAL_DATE": "2015-05-12T00:00:00.000Z", "WEBSITE": "NOT AVAILABLE", "STATE_ID": "NOT AVAILABLE", "ALT_NAME": "NOT AVAILABLE", "ST_FIPS": "21", "OWNER": "PROPRIETARY", "TTL_STAFF": -999, "BEDS": 390, "TRAUMA": "NOT AVAILABLE", "HELIPAD": "Y" }, "geometry": { "type": "Polygon", "coordinates": [ [ [ -87.4438653, 37.220869599999979 ], [ -87.535745, 37.252411 ], [ -87.537452, 37.253141 ], [ -87.5850021, 37.282765 ], [ -87.598138, 37.353291 ], [ -87.602372, 37.378897 ], [ -87.523098, 37.43324 ], [ -87.486472, 37.443536 ], [ -87.48547, 37.443534 ], [ -87.473678, 37.43934 ], [ -87.430498, 37.414991 ], [ -87.418606, 37.403873 ], [ -87.395143, 37.352361 ], [ -87.388283, 37.32859 ], [ -87.4438653, 37.220869599999979 ] ] ] } },
{ "type": "Feature", "properties": { "OBJECTID": 7138, "ID": "0003742066", "NAME": "JACKSON PURCHASE MEDICAL CENTER", "ADDRESS": "1099 MEDICAL CENTER CIRCLE", "CITY": "MAYFIELD", "STATE": "KY", "ZIP": "42066", "ZIP4": "NOT AVAILABLE", "TELEPHONE": "(270) 251-4100", "TYPE": "GENERAL ACUTE CARE", "STATUS": "OPEN", "POPULATION": 107, "COUNTY": "GRAVES", "COUNTYFIPS": "21083", "COUNTRY": "USA", "LATITUDE": 36.759208991999998, "LONGITUDE": -88.65125908, "NAICS_CODE": "622110", "NAICS_DESC": "GENERAL MEDICAL AND SURGICAL HOSPITALS", "SOURCE": "https://chfs.ky.gov/agencies/os/oig/dhc/Documents/Directories/Hospital_Directory.pdf", "SOURCEDATE": "2018-08-11T00:00:00.000Z", "VAL_METHOD": "IMAGERY", "VAL_DATE": "2014-02-10T00:00:00.000Z", "WEBSITE": "http://www.jacksonpurchase.com", "STATE_ID": "100143", "ALT_NAME": "NOT AVAILABLE", "ST_FIPS": "21", "OWNER": "PROPRIETARY", "TTL_STAFF": -999, "BEDS": 107, "TRAUMA": "NOT AVAILABLE", "HELIPAD": "Y" }, "geometry": { "type": "Polygon", "coordinates": [ [ [ -88.75368, 36.645804 ], [ -88.755513500000021, 36.64680969999997 ], [ -88.756295, 36.647868 ], [ -88.755882, 36.774322 ], [ -88.741088, 36.814343 ], [ -88.731762, 36.835471 ], [ -88.680080984036593, 36.876563023025433 ], [ -88.67975798397957, 36.876553022940286 ], [ -88.567445, 36.810099 ], [ -88.5512302, 36.7749757 ], [ -88.550553, 36.723772 ], [ -88.5658787, 36.6937125 ], [ -88.632727, 36.671232 ], [ -88.75368, 36.645804 ] ] ] } },
{ "type": "Feature", "properties": { "OBJECTID": 7149, "ID": "0002942102", "NAME": "GREENVIEW REGIONAL HOSPITAL", "ADDRESS": "1801 ASHLEY CIRCLE", "CITY": "BOWLING GREEN", "STATE": "KY", "ZIP": "42102", "ZIP4": "NOT AVAILABLE", "TELEPHONE": "(270) 793-1000", "TYPE": "GENERAL ACUTE CARE", "STATUS": "OPEN", "POPULATION": 211, "COUNTY": "WARREN", "COUNTYFIPS": "21227", "COUNTRY": "USA", "LATITUDE": 36.965037616000103, "LONGITUDE": -86.435979771999897, "NAICS_CODE": "622110", "NAICS_DESC": "GENERAL MEDICAL AND SURGICAL HOSPITALS", "SOURCE": "https://chfs.ky.gov/agencies/os/oig/dhc/Documents/Directories/Hospital_Directory.pdf", "SOURCEDATE": "2018-08-11T00:00:00.000Z", "VAL_METHOD": "IMAGERY/OTHER", "VAL_DATE": "2014-02-10T00:00:00.000Z", "WEBSITE": "http://www.greenviewhospital.com", "STATE_ID": "100406", "ALT_NAME": "NOT AVAILABLE", "ST_FIPS": "21", "OWNER": "PROPRIETARY", "TTL_STAFF": -999, "BEDS": 211, "TRAUMA": "NOT AVAILABLE", "HELIPAD": "Y" }, "geometry": { "type": "Polygon", "coordinates": [ [ [ -86.4175154, 36.871547 ], [ -86.482604, 36.889594 ], [ -86.512541, 36.913234 ], [ -86.536249, 36.93757 ], [ -86.528, 36.994816 ], [ -86.490366, 37.026861 ], [ -86.438917, 37.052708 ], [ -86.327549, 37.011547 ], [ -86.3595184, 36.8811612 ], [ -86.3599767, 36.8807583 ], [ -86.4175154, 36.871547 ] ] ] } },
{ "type": "Feature", "properties": { "OBJECTID": 7150, "ID": "0008442103", "NAME": "RIVENDELL BEHAVIORAL HEALTH SERVICES", "ADDRESS": "1035 PORTER PIKE RD", "CITY": "BOWLING GREEN", "STATE": "KY", "ZIP": "42103", "ZIP4": "NOT AVAILABLE", "TELEPHONE": "(270) 843-1199", "TYPE": "PSYCHIATRIC", "STATUS": "OPEN", "POPULATION": 125, "COUNTY": "WARREN", "COUNTYFIPS": "21227", "COUNTRY": "USA", "LATITUDE": 36.997072008000004, "LONGITUDE": -86.383136953999994, "NAICS_CODE": "622110", "NAICS_DESC": "GENERAL MEDICAL AND SURGICAL HOSPITALS", "SOURCE": "https://chfs.ky.gov/agencies/os/oig/dhc/Documents/Directories/Hospital_Directory.pdf", "SOURCEDATE": "2018-08-11T00:00:00.000Z", "VAL_METHOD": "IMAGERY", "VAL_DATE": "2014-02-10T00:00:00.000Z", "WEBSITE": "http://www.rivendellbehavioral.com", "STATE_ID": "100564", "ALT_NAME": "NOT AVAILABLE", "ST_FIPS": "21", "OWNER": "PROPRIETARY", "TTL_STAFF": -999, "BEDS": 125, "TRAUMA": "NOT AVAILABLE", "HELIPAD": "N" }, "geometry": { "type": "Polygon", "coordinates": [ [ [ -86.4319804, 36.911174800000012 ], [ -86.472684, 36.97491 ], [ -86.488044, 37.000808 ], [ -86.4823904, 37.005645 ], [ -86.44087, 37.040689 ], [ -86.407833, 37.06227 ], [ -86.323497, 37.065947 ], [ -86.293881, 37.059846 ], [ -86.243844, 37.027865 ], [ -86.273977, 36.959633 ], [ -86.4319804, 36.911174800000012 ] ] ] } },
{ "type": "Feature", "properties": { "OBJECTID": 7163, "ID": "0009162959", "NAME": "HEARTLAND REGIONAL MEDICAL CENTER", "ADDRESS": "3333 W DE YOUNG", "CITY": "MARION", "STATE": "IL", "ZIP": "62959", "ZIP4": "NOT AVAILABLE", "TELEPHONE": "(618) 998-7000", "TYPE": "GENERAL ACUTE CARE", "STATUS": "OPEN", "POPULATION": 92, "COUNTY": "WILLIAMSON", "COUNTYFIPS": "17199", "COUNTRY": "USA", "LATITUDE": 37.742843168999997, "LONGITUDE": -88.991335578999994, "NAICS_CODE": "622110", "NAICS_DESC": "GENERAL MEDICAL AND SURGICAL HOSPITALS", "SOURCE": "https://data.illinois.gov/", "SOURCEDATE": "2018-08-09T00:00:00.000Z", "VAL_METHOD": "IMAGERY", "VAL_DATE": "2014-03-12T00:00:00.000Z", "WEBSITE": "http://www.heartlandregional.com", "STATE_ID": "140184", "ALT_NAME": "NOT AVAILABLE", "ST_FIPS": "17", "OWNER": "PROPRIETARY", "TTL_STAFF": -999, "BEDS": 92, "TRAUMA": "NOT AVAILABLE", "HELIPAD": "Y" }, "geometry": { "type": "Polygon", "coordinates": [ [ [ -88.987913602033558, 37.621423703913585 ], [ -88.989429701325818, 37.622401103318332 ], [ -89.1468873, 37.742802699999956 ], [ -89.14984, 37.745691 ], [ -89.149798, 37.746178 ], [ -89.027898999834534, 37.833189999979354 ], [ -89.026692999841728, 37.833247999980252 ], [ -88.931356040529081, 37.828889033385224 ], [ -88.928622042238871, 37.828598034796642 ], [ -88.918796, 37.818923 ], [ -88.8552649, 37.729796 ], [ -88.85511, 37.721443 ], [ -88.987913602033558, 37.621423703913585 ] ] ] } },
{ "type": "Feature", "properties": { "OBJECTID": 7221, "ID": "0006442071", "NAME": "MURRAY CALLOWAY COUNTY HOSPITAL", "ADDRESS": "803 POPLAR STREET", "CITY": "MURRAY", "STATE": "KY", "ZIP": "42071", "ZIP4": "NOT AVAILABLE", "TELEPHONE": "(270) 762-1100", "TYPE": "GENERAL ACUTE CARE", "STATUS": "OPEN", "POPULATION": 152, "COUNTY": "CALLOWAY", "COUNTYFIPS": "21035", "COUNTRY": "USA", "LATITUDE": 36.606888906000101, "LONGITUDE": -88.309993903999995, "NAICS_CODE": "622110", "NAICS_DESC": "GENERAL MEDICAL AND SURGICAL HOSPITALS", "SOURCE": "https://chfs.ky.gov/agencies/os/oig/dhc/Documents/Directories/Hospital_Directory.pdf", "SOURCEDATE": "2018-08-11T00:00:00.000Z", "VAL_METHOD": "IMAGERY/OTHER", "VAL_DATE": "2014-02-10T00:00:00.000Z", "WEBSITE": "http://www.murrayhospital.org", "STATE_ID": "100053", "ALT_NAME": "NOT AVAILABLE", "ST_FIPS": "21", "OWNER": "GOVERNMENT - LOCAL", "TTL_STAFF": -999, "BEDS": 152, "TRAUMA": "NOT AVAILABLE", "HELIPAD": "Y" }, "geometry": { "type": "Polygon", "coordinates": [ [ [ -88.325855, 36.503304 ], [ -88.327132, 36.504237 ], [ -88.432302, 36.589758 ], [ -88.433322, 36.590758 ], [ -88.413881, 36.64486 ], [ -88.300167, 36.717374 ], [ -88.299865, 36.717341 ], [ -88.205858, 36.656438 ], [ -88.196639, 36.62515 ], [ -88.209609, 36.565234 ], [ -88.237781, 36.550212 ], [ -88.325855, 36.503304 ] ] ] } },
{ "type": "Feature", "properties": { "OBJECTID": 7240, "ID": "0017762881", "NAME": "SALEM TOWNSHIP HOSPITAL", "ADDRESS": "1201 RICKER DRIVE", "CITY": "SALEM", "STATE": "IL", "ZIP": "62881", "ZIP4": "NOT AVAILABLE", "TELEPHONE": "(618) 548-3194", "TYPE": "CRITICAL ACCESS", "STATUS": "OPEN", "POPULATION": 22, "COUNTY": "MARION", "COUNTYFIPS": "17121", "COUNTRY": "USA", "LATITUDE": 38.641479887000102, "LONGITUDE": -88.948550053000005, "NAICS_CODE": "622110", "NAICS_DESC": "GENERAL MEDICAL AND SURGICAL HOSPITALS", "SOURCE": "https://data.illinois.gov/", "SOURCEDATE": "2018-08-09T00:00:00.000Z", "VAL_METHOD": "IMAGERY", "VAL_DATE": "2014-03-12T00:00:00.000Z", "WEBSITE": "http://www.sthcares.org", "STATE_ID": "141345", "ALT_NAME": "NOT AVAILABLE", "ST_FIPS": "17", "OWNER": "GOVERNMENT - LOCAL", "TTL_STAFF": -999, "BEDS": 22, "TRAUMA": "NOT AVAILABLE", "HELIPAD": "Y" }, "geometry": { "type": "Polygon", "coordinates": [ [ [ -88.94068097772228, 38.546016044058227 ], [ -89.059018038161767, 38.619262085585504 ], [ -89.014217030294859, 38.663398175255558 ], [ -88.958657036123782, 38.711207213417723 ], [ -88.940013036580481, 38.722094210881025 ], [ -88.936836036543511, 38.723761210114482 ], [ -88.909206031189981, 38.723121189180276 ], [ -88.908208030800822, 38.72242618787363 ], [ -88.836159, 38.626457 ], [ -88.94068097772228, 38.546016044058227 ] ] ] } },
{ "type": "Feature", "properties": { "OBJECTID": 7558, "ID": "0016062982", "NAME": "HARDIN COUNTY GENERAL HOSPITAL", "ADDRESS": "FERRELL ROAD", "CITY": "ROSICLARE", "STATE": "IL", "ZIP": "62982", "ZIP4": "NOT AVAILABLE", "TELEPHONE": "(618) 285-6634", "TYPE": "CRITICAL ACCESS", "STATUS": "OPEN", "POPULATION": 25, "COUNTY": "HARDIN", "COUNTYFIPS": "17069", "COUNTRY": "USA", "LATITUDE": 37.422280418000099, "LONGITUDE": -88.351724942999994, "NAICS_CODE": "622110", "NAICS_DESC": "GENERAL MEDICAL AND SURGICAL HOSPITALS", "SOURCE": "https://data.illinois.gov/", "SOURCEDATE": "2018-08-09T00:00:00.000Z", "VAL_METHOD": "IMAGERY", "VAL_DATE": "2016-04-26T00:00:00.000Z", "WEBSITE": "http://www.ilhcgh.org", "STATE_ID": "141328", "ALT_NAME": "NOT AVAILABLE", "ST_FIPS": "17", "OWNER": "NON-PROFIT", "TTL_STAFF": -999, "BEDS": 25, "TRAUMA": "NOT AVAILABLE", "HELIPAD": "Y" }, "geometry": { "type": "Polygon", "coordinates": [ [ [ -88.3551551, 37.409640099999976 ], [ -88.373845, 37.419899 ], [ -88.4148548, 37.459517199999972 ], [ -88.4147456, 37.4740643 ], [ -88.3417431, 37.4918354 ], [ -88.285941, 37.471207 ], [ -88.2914888, 37.453999499999988 ], [ -88.2936724, 37.4497885 ], [ -88.3527773, 37.410490699999983 ], [ -88.3551551, 37.409640099999976 ] ] ] } },
{ "type": "Feature", "properties": { "OBJECTID": 7577, "ID": "0181742223", "NAME": "BLANCHFIELD ARMY COMMUNITY HOSPITAL", "ADDRESS": "650 JOEL DRIVE", "CITY": "FORT CAMPBELL", "STATE": "KY", "ZIP": "42223", "ZIP4": "NOT AVAILABLE", "TELEPHONE": "(270) 798-8400", "TYPE": "MILITARY", "STATUS": "OPEN", "POPULATION": -999, "COUNTY": "MONTGOMERY", "COUNTYFIPS": "47125", "COUNTRY": "USA", "LATITUDE": 36.6366409, "LONGITUDE": -87.4474845, "NAICS_CODE": "622110", "NAICS_DESC": "GENERAL MEDICAL AND SURGICAL HOSPITALS", "SOURCE": "http://www.tricare.mil/mtf", "SOURCEDATE": "2019-04-02T00:00:00.000Z", "VAL_METHOD": "IMAGERY/OTHER", "VAL_DATE": "2019-05-16T00:00:00.000Z", "WEBSITE": "NOT AVAILABLE", "STATE_ID": "NOT AVAILABLE", "ALT_NAME": "NOT AVAILABLE", "ST_FIPS": "21", "OWNER": "GOVERNMENT - FEDERAL", "TTL_STAFF": -999, "BEDS": -999, "TRAUMA": "NOT AVAILABLE", "HELIPAD": "Y" }, "geometry": { "type": "Polygon", "coordinates": [ [ [ -87.4581756, 36.636899699999987 ], [ -87.4755196, 36.640304600000064 ], [ -87.533506, 36.652356 ], [ -87.485165, 36.70077 ], [ -87.4654229, 36.717511600000023 ], [ -87.460459299999982, 36.721401500000013 ], [ -87.460233, 36.721328 ], [ -87.403523, 36.684324 ], [ -87.394024, 36.668247 ], [ -87.386282800000018, 36.641296800000049 ], [ -87.4581756, 36.636899699999987 ] ] ] } },
{ "type": "Feature", "properties": { "OBJECTID": 5297, "ID": "0001762801", "NAME": "ST MARYS HOSPITAL", "ADDRESS": "400 NORTH PLEASANT AVENUE", "CITY": "CENTRALIA", "STATE": "IL", "ZIP": "62801", "ZIP4": "NOT AVAILABLE", "TELEPHONE": "(618) 436-8000", "TYPE": "GENERAL ACUTE CARE", "STATUS": "OPEN", "POPULATION": 113, "COUNTY": "MARION", "COUNTYFIPS": "17121", "COUNTRY": "USA", "LATITUDE": 38.530281432000002, "LONGITUDE": -89.117206304999996, "NAICS_CODE": "622110", "NAICS_DESC": "GENERAL MEDICAL AND SURGICAL HOSPITALS", "SOURCE": "https://data.illinois.gov/", "SOURCEDATE": "2018-08-09T00:00:00.000Z", "VAL_METHOD": "IMAGERY", "VAL_DATE": "2014-03-12T00:00:00.000Z", "WEBSITE": "http://www.smgsi.com", "STATE_ID": "140034", "ALT_NAME": "NOT AVAILABLE", "ST_FIPS": "17", "OWNER": "NON-PROFIT", "TTL_STAFF": -999, "BEDS": 113, "TRAUMA": "NOT AVAILABLE", "HELIPAD": "Y" }, "geometry": { "type": "Polygon", "coordinates": [ [ [ -89.098182012651023, 38.45866232425923 ], [ -89.1491132, 38.4809972 ], [ -89.1535659, 38.483619 ], [ -89.1909005, 38.520147900000012 ], [ -89.1962834, 38.5277562 ], [ -89.1933347, 38.534886800000045 ], [ -89.1156891, 38.615655799999978 ], [ -89.114305, 38.616716 ], [ -88.997877964074902, 38.518904014708887 ], [ -89.098182012651023, 38.45866232425923 ] ] ] } },
{ "type": "Feature", "properties": { "OBJECTID": 5313, "ID": "0001642064", "NAME": "CRITTENDEN COUNTY HOSPITAL", "ADDRESS": "520 WEST GUM STREET", "CITY": "MARION", "STATE": "KY", "ZIP": "42064", "ZIP4": "NOT AVAILABLE", "TELEPHONE": "(270) 965-5281", "TYPE": "GENERAL ACUTE CARE", "STATUS": "OPEN", "POPULATION": 48, "COUNTY": "CRITTENDEN", "COUNTYFIPS": "21055", "COUNTRY": "USA", "LATITUDE": 37.329211230000098, "LONGITUDE": -88.092575435000001, "NAICS_CODE": "622110", "NAICS_DESC": "GENERAL MEDICAL AND SURGICAL HOSPITALS", "SOURCE": "https://chfs.ky.gov/agencies/os/oig/dhc/Documents/Directories/Hospital_Directory.pdf", "SOURCEDATE": "2018-08-11T00:00:00.000Z", "VAL_METHOD": "IMAGERY", "VAL_DATE": "2014-02-10T00:00:00.000Z", "WEBSITE": "http://www.crittenden-health.org", "STATE_ID": "100080", "ALT_NAME": "NOT AVAILABLE", "ST_FIPS": "21", "OWNER": "NON-PROFIT", "TTL_STAFF": -999, "BEDS": 48, "TRAUMA": "NOT AVAILABLE", "HELIPAD": "Y" }, "geometry": { "type": "Polygon", "coordinates": [ [ [ -88.0629301, 37.2313983 ], [ -88.206603, 37.27319 ], [ -88.208486, 37.275367 ], [ -88.203854, 37.356079 ], [ -88.183194, 37.402919 ], [ -88.123416, 37.420817099999965 ], [ -88.016726, 37.412515 ], [ -87.971373, 37.354464 ], [ -88.012725, 37.268974 ], [ -88.0629301, 37.2313983 ] ] ] } },
{ "type": "Feature", "properties": { "OBJECTID": 3027, "ID": "0010947586", "NAME": "PERRY COUNTY MEMORIAL HOSPITAL", "ADDRESS": "ONE HOSPITAL RD", "CITY": "TELL CITY", "STATE": "IN", "ZIP": "47586", "ZIP4": "NOT AVAILABLE", "TELEPHONE": "(812) 547-7011", "TYPE": "CRITICAL ACCESS", "STATUS": "OPEN", "POPULATION": 25, "COUNTY": "PERRY", "COUNTYFIPS": "18123", "COUNTRY": "USA", "LATITUDE": 37.9278612640001, "LONGITUDE": -86.758542198000001, "NAICS_CODE": "622110", "NAICS_DESC": "GENERAL MEDICAL AND SURGICAL HOSPITALS", "SOURCE": "http://www.in.gov/isdh/reports/QAMIS/hosdir", "SOURCEDATE": "2018-08-16T00:00:00.000Z", "VAL_METHOD": "IMAGERY", "VAL_DATE": "2014-01-24T00:00:00.000Z", "WEBSITE": "http://www.pchospital.org", "STATE_ID": "12-005064-1", "ALT_NAME": "NOT AVAILABLE", "ST_FIPS": "18", "OWNER": "GOVERNMENT - LOCAL", "TTL_STAFF": -999, "BEDS": 25, "TRAUMA": "NOT AVAILABLE", "HELIPAD": "Y" }, "geometry": { "type": "Polygon", "coordinates": [ [ [ -86.7294532, 37.900962100000044 ], [ -86.7437047, 37.9037443 ], [ -86.8130322, 37.9996772 ], [ -86.79603, 38.0099359 ], [ -86.6962508, 38.006332500000042 ], [ -86.6918005, 38.005638 ], [ -86.6653401, 37.9327661 ], [ -86.6653401, 37.930604 ], [ -86.671791499999983, 37.915842400000045 ], [ -86.6938846, 37.909068099999978 ], [ -86.7280475, 37.901191499999968 ], [ -86.7294532, 37.900962100000044 ] ] ] } },
{ "type": "Feature", "properties": { "OBJECTID": 3356, "ID": "0008062901", "NAME": "MEMORIAL HOSPITAL OF CARBONDALE", "ADDRESS": "405 W JACKSON", "CITY": "CARBONDALE", "STATE": "IL", "ZIP": "62901", "ZIP4": "NOT AVAILABLE", "TELEPHONE": "(618) 549-0721", "TYPE": "GENERAL ACUTE CARE", "STATUS": "OPEN", "POPULATION": 159, "COUNTY": "JACKSON", "COUNTYFIPS": "17077", "COUNTRY": "USA", "LATITUDE": 37.727445549000002, "LONGITUDE": -89.220592530999994, "NAICS_CODE": "622110", "NAICS_DESC": "GENERAL MEDICAL AND SURGICAL HOSPITALS", "SOURCE": "https://data.illinois.gov/", "SOURCEDATE": "2018-08-09T00:00:00.000Z", "VAL_METHOD": "IMAGERY", "VAL_DATE": "2016-04-25T00:00:00.000Z", "WEBSITE": "http://www.sih.net", "STATE_ID": "140164", "ALT_NAME": "NOT AVAILABLE", "ST_FIPS": "17", "OWNER": "NON-PROFIT", "TTL_STAFF": -999, "BEDS": 159, "TRAUMA": "NOT AVAILABLE", "HELIPAD": "Y" }, "geometry": { "type": "Polygon", "coordinates": [ [ [ -89.235762, 37.634272 ], [ -89.24283, 37.635701 ], [ -89.305159, 37.708967 ], [ -89.3366335, 37.7643295 ], [ -89.334486, 37.766569 ], [ -89.331724, 37.768936 ], [ -89.3264998, 37.773182499999983 ], [ -89.234624, 37.826529 ], [ -89.22982, 37.826339 ], [ -89.2268725, 37.8248313 ], [ -89.151677, 37.773956 ], [ -89.142318, 37.745517 ], [ -89.1418506, 37.736818199999981 ], [ -89.142749, 37.733534 ], [ -89.1661, 37.675759 ], [ -89.170232, 37.668893 ], [ -89.233303, 37.634249 ], [ -89.235762, 37.634272 ] ] ] } },
{ "type": "Feature", "properties": { "OBJECTID": 3358, "ID": "0011342211", "NAME": "TRIGG COUNTY HOSPITAL INC.", "ADDRESS": "254 MAIN STREET", "CITY": "CADIZ", "STATE": "KY", "ZIP": "42211", "ZIP4": "NOT AVAILABLE", "TELEPHONE": "(270) 522-3215", "TYPE": "GENERAL ACUTE CARE", "STATUS": "OPEN", "POPULATION": 25, "COUNTY": "TRIGG", "COUNTYFIPS": "21221", "COUNTRY": "USA", "LATITUDE": 36.866340232, "LONGITUDE": -87.821538781999905, "NAICS_CODE": "622110", "NAICS_DESC": "GENERAL MEDICAL AND SURGICAL HOSPITALS", "SOURCE": "https://chfs.ky.gov/agencies/os/oig/dhc/Documents/Directories/Hospital_Directory.pdf", "SOURCEDATE": "2018-08-11T00:00:00.000Z", "VAL_METHOD": "IMAGERY", "VAL_DATE": "2014-02-10T00:00:00.000Z", "WEBSITE": "http://www.trigghospital.org", "STATE_ID": "600055", "ALT_NAME": "NOT AVAILABLE", "ST_FIPS": "21", "OWNER": "GOVERNMENT - LOCAL", "TTL_STAFF": -999, "BEDS": 25, "TRAUMA": "NOT AVAILABLE", "HELIPAD": "Y" }, "geometry": { "type": "Polygon", "coordinates": [ [ [ -87.804566, 36.77463 ], [ -87.87265, 36.785601 ], [ -87.935022342704684, 36.803821367452024 ], [ -87.935102342755812, 36.803991667444812 ], [ -87.917488966551787, 36.881957991101778 ], [ -87.874292987630326, 36.947946013962031 ], [ -87.755715986516421, 36.936138045985707 ], [ -87.710443992263734, 36.898908070580831 ], [ -87.711350982756286, 36.843884072360233 ], [ -87.804566, 36.77463 ] ] ] } },
{ "type": "Feature", "properties": { "OBJECTID": 3359, "ID": "0009642104", "NAME": "SOUTHERN KENTUCKY REHABILITATION HOSPITAL", "ADDRESS": "1300 CAMPBELL LANE", "CITY": "BOWLING GREEN", "STATE": "KY", "ZIP": "42104", "ZIP4": "NOT AVAILABLE", "TELEPHONE": "(270) 782-6900", "TYPE": "REHABILITATION", "STATUS": "OPEN", "POPULATION": 60, "COUNTY": "WARREN", "COUNTYFIPS": "21227", "COUNTRY": "USA", "LATITUDE": 36.957038813000104, "LONGITUDE": -86.44648889, "NAICS_CODE": "622110", "NAICS_DESC": "GENERAL MEDICAL AND SURGICAL HOSPITALS", "SOURCE": "https://chfs.ky.gov/agencies/os/oig/dhc/Documents/Directories/Hospital_Directory.pdf", "SOURCEDATE": "2018-08-11T00:00:00.000Z", "VAL_METHOD": "IMAGERY", "VAL_DATE": "2013-12-17T00:00:00.000Z", "WEBSITE": "http://www.skyrehab.com", "STATE_ID": "100655", "ALT_NAME": "NOT AVAILABLE", "ST_FIPS": "21", "OWNER": "PROPRIETARY", "TTL_STAFF": -999, "BEDS": 60, "TRAUMA": "NOT AVAILABLE", "HELIPAD": "N" }, "geometry": { "type": "Polygon", "coordinates": [ [ [ -86.418907, 36.874422 ], [ -86.5255272, 36.8835084 ], [ -86.558122, 36.918604 ], [ -86.562961, 36.932361 ], [ -86.554941, 36.996227 ], [ -86.5287247, 37.013664100000021 ], [ -86.495302, 37.032057 ], [ -86.444718, 37.03497 ], [ -86.34082, 37.010797499999953 ], [ -86.3626125, 36.883345899999988 ], [ -86.3627629, 36.883221899999988 ], [ -86.418907, 36.874422 ] ] ] } },
{ "type": "Feature", "properties": { "OBJECTID": 3378, "ID": "0000662948", "NAME": "HERRIN HOSPITAL", "ADDRESS": "201 S 14TH ST", "CITY": "HERRIN", "STATE": "IL", "ZIP": "62948", "ZIP4": "NOT AVAILABLE", "TELEPHONE": "(618) 942-2171", "TYPE": "GENERAL ACUTE CARE", "STATUS": "OPEN", "POPULATION": 114, "COUNTY": "WILLIAMSON", "COUNTYFIPS": "17199", "COUNTRY": "USA", "LATITUDE": 37.8010121, "LONGITUDE": -89.026313269, "NAICS_CODE": "622110", "NAICS_DESC": "GENERAL MEDICAL AND SURGICAL HOSPITALS", "SOURCE": "https://data.illinois.gov/", "SOURCEDATE": "2018-08-09T00:00:00.000Z", "VAL_METHOD": "IMAGERY", "VAL_DATE": "2014-03-12T00:00:00.000Z", "WEBSITE": "http://www.sih.net", "STATE_ID": "140011", "ALT_NAME": "NOT AVAILABLE", "ST_FIPS": "17", "OWNER": "NON-PROFIT", "TTL_STAFF": -999, "BEDS": 114, "TRAUMA": "NOT AVAILABLE", "HELIPAD": "Y" }, "geometry": { "type": "Polygon", "coordinates": [ [ [ -89.021644298271511, 37.696762399610272 ], [ -89.09579099905298, 37.744479999893919 ], [ -89.096346099059943, 37.745142999893517 ], [ -89.123869, 37.80351 ], [ -89.128642, 37.817083 ], [ -89.058542999781054, 37.894812999972636 ], [ -89.002307999988673, 37.862008999998594 ], [ -89.001397999993102, 37.861472999999137 ], [ -88.932681042283861, 37.820696034910227 ], [ -88.928911045952034, 37.816720037977007 ], [ -88.944600049469898, 37.763120041275371 ], [ -88.955109841024225, 37.740509234424842 ], [ -88.958965936528102, 37.735054030753325 ], [ -89.021644298271511, 37.696762399610272 ] ] ] } },
{ "type": "Feature", "properties": { "OBJECTID": 3383, "ID": "0004562959", "NAME": "MARION IL VA MEDICAL CENTER", "ADDRESS": "2401 WEST MAIN", "CITY": "MARION", "STATE": "IL", "ZIP": "62959", "ZIP4": "NOT AVAILABLE", "TELEPHONE": "(618) 997-5311", "TYPE": "MILITARY", "STATUS": "OPEN", "POPULATION": 225, "COUNTY": "WILLIAMSON", "COUNTYFIPS": "17199", "COUNTRY": "USA", "LATITUDE": 37.7243142680001, "LONGITUDE": -88.954815996999997, "NAICS_CODE": "622110", "NAICS_DESC": "GENERAL MEDICAL AND SURGICAL HOSPITALS", "SOURCE": "https://data.illinois.gov/", "SOURCEDATE": "2018-08-09T00:00:00.000Z", "VAL_METHOD": "IMAGERY", "VAL_DATE": "2014-03-12T00:00:00.000Z", "WEBSITE": "http://www.marion.va.gov", "STATE_ID": "14008F", "ALT_NAME": "NOT AVAILABLE", "ST_FIPS": "17", "OWNER": "GOVERNMENT - FEDERAL", "TTL_STAFF": -999, "BEDS": 225, "TRAUMA": "NOT AVAILABLE", "HELIPAD": "Y" }, "geometry": { "type": "Polygon", "coordinates": [ [ [ -88.97954800486211, 37.607321006439584 ], [ -88.997706997055147, 37.622081999826555 ], [ -89.005694696252974, 37.632037799007719 ], [ -89.09312169908614, 37.745141399895587 ], [ -89.027785999793934, 37.791401999974205 ], [ -88.987039708335118, 37.817429206887368 ], [ -88.930578036353225, 37.843404029800176 ], [ -88.907726, 37.822698 ], [ -88.827597, 37.729735 ], [ -88.827573, 37.72955110000003 ], [ -88.97954800486211, 37.607321006439584 ] ] ] } },
{ "type": "Feature", "properties": { "OBJECTID": 3409, "ID": "0002162864", "NAME": "GOOD SAMARITAN REGIONAL HLTH CENTER", "ADDRESS": "605 N 12TH STREET", "CITY": "MOUNT VERNON", "STATE": "IL", "ZIP": "62864", "ZIP4": "NOT AVAILABLE", "TELEPHONE": "(618) 242-4600", "TYPE": "GENERAL ACUTE CARE", "STATUS": "CLOSED", "POPULATION": 146, "COUNTY": "JEFFERSON", "COUNTYFIPS": "17081", "COUNTRY": "USA", "LATITUDE": 38.322314596000098, "LONGITUDE": -88.91029407000001, "NAICS_CODE": "622110", "NAICS_DESC": "GENERAL MEDICAL AND SURGICAL HOSPITALS", "SOURCE": "https://data.illinois.gov/", "SOURCEDATE": "2012-07-27T00:00:00.000Z", "VAL_METHOD": "IMAGERY/OTHER", "VAL_DATE": "2014-03-12T00:00:00.000Z", "WEBSITE": "http://www.smgsi.com", "STATE_ID": "140046", "ALT_NAME": "NOT AVAILABLE", "ST_FIPS": "17", "OWNER": "NON-PROFIT", "TTL_STAFF": -999, "BEDS": 146, "TRAUMA": "NOT AVAILABLE", "HELIPAD": "Y" }, "geometry": { "type": "Polygon", "coordinates": [ [ [ -88.905723920691571, 38.221476477325886 ], [ -88.954599491313033, 38.243099884462509 ], [ -89.030172904369735, 38.307407411255234 ], [ -89.028570624578549, 38.362049869815692 ], [ -88.937693141011295, 38.417777064381113 ], [ -88.933462241994874, 38.417749065146488 ], [ -88.79337120000001, 38.3433516 ], [ -88.7933159, 38.342057399999966 ], [ -88.7934686, 38.3285975 ], [ -88.8286219, 38.2713471 ], [ -88.8323812, 38.268576299999985 ], [ -88.903137721807823, 38.221359577752985 ], [ -88.905723920691571, 38.221476477325886 ] ] ] } },
{ "type": "Feature", "properties": { "OBJECTID": 3447, "ID": "0005342025", "NAME": "MARSHALL COUNTY HOSPITAL", "ADDRESS": "615 OLD SYMSONIA ROAD, PO BOX 630", "CITY": "BENTON", "STATE": "KY", "ZIP": "42025", "ZIP4": "NOT AVAILABLE", "TELEPHONE": "(270) 527-4800", "TYPE": "CRITICAL ACCESS", "STATUS": "OPEN", "POPULATION": 25, "COUNTY": "MARSHALL", "COUNTYFIPS": "21157", "COUNTRY": "USA", "LATITUDE": 36.867083618000002, "LONGITUDE": -88.369799391999905, "NAICS_CODE": "622110", "NAICS_DESC": "GENERAL MEDICAL AND SURGICAL HOSPITALS", "SOURCE": "https://chfs.ky.gov/agencies/os/oig/dhc/Documents/Directories/Hospital_Directory.pdf", "SOURCEDATE": "2018-08-11T00:00:00.000Z", "VAL_METHOD": "IMAGERY", "VAL_DATE": "2014-02-10T00:00:00.000Z", "WEBSITE": "http://www.marshallcountyhospital.org", "STATE_ID": "600078", "ALT_NAME": "NOT AVAILABLE", "ST_FIPS": "21", "OWNER": "GOVERNMENT - DISTRICT/AUTHORITY", "TTL_STAFF": -999, "BEDS": 25, "TRAUMA": "NOT AVAILABLE", "HELIPAD": "Y" }, "geometry": { "type": "Polygon", "coordinates": [ [ [ -88.435149, 36.792531 ], [ -88.456162953286068, 36.853367603497702 ], [ -88.471991967453462, 36.902534950425284 ], [ -88.471979968164277, 36.904570951371213 ], [ -88.3478923, 36.995318600000012 ], [ -88.3361122, 36.991841 ], [ -88.301107002178057, 36.958864888644669 ], [ -88.257724990256349, 36.852634603487346 ], [ -88.326145, 36.79373 ], [ -88.435149, 36.792531 ] ] ] } },
{ "type": "Feature", "properties": { "OBJECTID": 3467, "ID": "0010362946", "NAME": "HARRISBURG MEDICAL CENTER", "ADDRESS": "100 DOCTOR WARREN TUTTLE DR", "CITY": "HARRISBURG", "STATE": "IL", "ZIP": "62946", "ZIP4": "NOT AVAILABLE", "TELEPHONE": "(618) 253-7671", "TYPE": "GENERAL ACUTE CARE", "STATUS": "OPEN", "POPULATION": 73, "COUNTY": "SALINE", "COUNTYFIPS": "17165", "COUNTRY": "USA", "LATITUDE": 37.7310436060001, "LONGITUDE": -88.523133983999998, "NAICS_CODE": "622110", "NAICS_DESC": "GENERAL MEDICAL AND SURGICAL HOSPITALS", "SOURCE": "https://data.illinois.gov/", "SOURCEDATE": "2018-08-09T00:00:00.000Z", "VAL_METHOD": "IMAGERY", "VAL_DATE": "2014-03-12T00:00:00.000Z", "WEBSITE": "http://www.harrisburgmc.com", "STATE_ID": "140210", "ALT_NAME": "NOT AVAILABLE", "ST_FIPS": "17", "OWNER": "NON-PROFIT", "TTL_STAFF": -999, "BEDS": 73, "TRAUMA": "NOT AVAILABLE", "HELIPAD": "Y" }, "geometry": { "type": "Polygon", "coordinates": [ [ [ -88.52737, 37.639392 ], [ -88.620708, 37.676497 ], [ -88.632527, 37.682863 ], [ -88.6479338, 37.7326681 ], [ -88.64785, 37.73864 ], [ -88.53952, 37.827336 ], [ -88.4405193, 37.807771200000026 ], [ -88.4393335, 37.807427 ], [ -88.396371, 37.745144 ], [ -88.52737, 37.639392 ] ] ] } },
{ "type": "Feature", "properties": { "OBJECTID": 3474, "ID": "0005142003", "NAME": "LOURDES HOSPITAL", "ADDRESS": "1530 LONE OAK RD", "CITY": "PADUCAH", "STATE": "KY", "ZIP": "42003", "ZIP4": "NOT AVAILABLE", "TELEPHONE": "(270) 444-2444", "TYPE": "GENERAL ACUTE CARE", "STATUS": "OPEN", "POPULATION": 359, "COUNTY": "MCCRACKEN", "COUNTYFIPS": "21145", "COUNTRY": "USA", "LATITUDE": 37.050639019000101, "LONGITUDE": -88.647368955999994, "NAICS_CODE": "622110", "NAICS_DESC": "GENERAL MEDICAL AND SURGICAL HOSPITALS", "SOURCE": "https://chfs.ky.gov/agencies/os/oig/dhc/Documents/Directories/Hospital_Directory.pdf", "SOURCEDATE": "2018-08-11T00:00:00.000Z", "VAL_METHOD": "IMAGERY", "VAL_DATE": "2014-02-10T00:00:00.000Z", "WEBSITE": "http://www.lourdes-pad.org", "STATE_ID": "100304", "ALT_NAME": "NOT AVAILABLE", "ST_FIPS": "21", "OWNER": "NON-PROFIT", "TTL_STAFF": -999, "BEDS": 359, "TRAUMA": "NOT AVAILABLE", "HELIPAD": "Y" }, "geometry": { "type": "Polygon", "coordinates": [ [ [ -88.68050000208143, 36.942316006860125 ], [ -88.723110015917783, 36.975366999579798 ], [ -88.776632, 37.022807 ], [ -88.7787668, 37.0716037 ], [ -88.749406, 37.098857 ], [ -88.719964, 37.121904 ], [ -88.70077, 37.124483 ], [ -88.626875, 37.1212059 ], [ -88.53704, 37.042485 ], [ -88.499649, 37.004459 ], [ -88.492833, 36.984249 ], [ -88.5005261, 36.9819971 ], [ -88.608269997339335, 36.957400998314121 ], [ -88.68050000208143, 36.942316006860125 ] ] ] } }
]
}
