{
"type": "FeatureCollection",
"crs": { "type": "name", "properties": { "name": "urn:ogc:def:crs:OGC:1.3:CRS84" } },
"features": [
{ "type": "Feature", "properties": { "OBJECTID": 1295, "ID": "0000000094", "NAME": "MERCY MEDICAL CENTER", "ADDRESS": "FOUNTAIN BLVD", "CITY": "SPRINGFIELD", "STATE": "OH", "ZIP": "45504", "ZIP4": "NOT AVAILABLE", "TELEPHONE": "(937) 523-1000", "TYPE": "GENERAL ACUTE CARE", "STATUS": "CLOSED", "POPULATION": -999, "COUNTY": "CLARK", "COUNTYFIPS": "39023", "COUNTRY": "USA", "LATITUDE": 39.940974693000001, "LONGITUDE": -83.811341856, "NAICS_CODE": "622110", "NAICS_DESC": "GENERAL MEDICAL AND SURGICAL HOSPITALS", "SOURCE": "http://publicapps.odh.ohio.gov", "SOURCEDATE": "2015-03-03T00:00:00.000Z", "VAL_METHOD": "IMAGERY/OTHER", "VAL_DATE": "2015-05-22T00:00:00.000Z", "WEBSITE": "http://www.community-mercy.org/imaging_center_main.asp", "STATE_ID": "NOT AVAILABLE", "ALT_NAME": "NOT AVAILABLE", "ST_FIPS": "39", "OWNER": "NON-PROFIT", "TTL_STAFF": -999, "BEDS": -999, "TRAUMA": "NOT AVAILABLE", "HELIPAD": "N" }, "geometry": { "type": "Polygon", "coordinates": [ [ [ -83.848716, 39.86386 ], [ -83.935785, 39.88874 ], [ -83.937206, 39.893196 ], [ -83.880608, 39.988501 ], [ -83.8109716, 40.0275696 ], [ -83.802489, 40.029659 ], [ -83.792325, 40.026458 ], [ -83.746992, 39.976282 ], [ -83.729501, 39.945964 ], [ -83.722143, 39.923296 ], [ -83.722153, 39.9231227 ], [ -83.7221959, 39.92289229999998 ], [ -83.73163, 39.905777 ], [ -83.772453, 39.877581 ], [ -83.796988, 39.871897 ], [ -83.816595, 39.868835 ], [ -83.848716, 39.86386 ] ] ] } },
{ "type": "Feature", "properties": { "OBJECTID": 1684, "ID": "0122843160", "NAME": "FAYETTE COUNTY MEMORIAL HOSPITAL", "ADDRESS": "1430 COLUMBUS AVENUE", "CITY": "WASHINGTON CH", "STATE": "OH", "ZIP": "43160", "ZIP4": "NOT AVAILABLE", "TELEPHONE": "(740) 333-2705", "TYPE": "CRITICAL ACCESS", "STATUS": "OPEN", "POPULATION": 25, "COUNTY": "FAYETTE", "COUNTYFIPS": "39047", "COUNTRY": "USA", "LATITUDE": 39.547856936000102, "LONGITUDE": -83.427094959000001, "NAICS_CODE": "622110", "NAICS_DESC": "GENERAL MEDICAL AND SURGICAL HOSPITALS", "SOURCE": "http://publicapps.odh.ohio.gov/EID/Provider_Search.aspx", "SOURCEDATE": "2018-08-10T00:00:00.000Z", "VAL_METHOD": "IMAGERY/OTHER", "VAL_DATE": "2015-03-10T00:00:00.000Z", "WEBSITE": "http://www.fcmh.org/", "STATE_ID": "1168", "ALT_NAME": "NOT AVAILABLE", "ST_FIPS": "39", "OWNER": "GOVERNMENT - LOCAL", "TTL_STAFF": -999, "BEDS": 25, "TRAUMA": "NOT AVAILABLE", "HELIPAD": "Y" }, "geometry": { "type": "Polygon", "coordinates": [ [ [ -83.434543402941884, 39.466750362482806 ], [ -83.483522482549262, 39.475299338273182 ], [ -83.52588461582063, 39.513352294469264 ], [ -83.522165609808312, 39.549504308057202 ], [ -83.504235547043734, 39.576513319360849 ], [ -83.489858513883007, 39.58627532291942 ], [ -83.402953328534778, 39.61472231805427 ], [ -83.402607227741015, 39.614772417995418 ], [ -83.366620243724071, 39.612675313592433 ], [ -83.326047053995765, 39.547119046111469 ], [ -83.39460630176066, 39.487252353932497 ], [ -83.418192363591984, 39.473616359337747 ], [ -83.434543402941884, 39.466750362482806 ] ] ] } },
{ "type": "Feature", "properties": { "OBJECTID": 2304, "ID": "0123845504", "NAME": "MENTAL HEALTH SERVICES FOR CLARK AND MADISON COS", "ADDRESS": "474 NORTH YELLOW SPRINGS STREET", "CITY": "SPRINGFIELD", "STATE": "OH", "ZIP": "45504", "ZIP4": "NOT AVAILABLE", "TELEPHONE": "(937) 399-9500", "TYPE": "PSYCHIATRIC", "STATUS": "OPEN", "POPULATION": 16, "COUNTY": "CLARK", "COUNTYFIPS": "39023", "COUNTRY": "USA", "LATITUDE": 39.9311398420001, "LONGITUDE": -83.817971553000007, "NAICS_CODE": "622210", "NAICS_DESC": "PSYCHIATRIC AND SUBSTANCE ABUSE HOSPITALS", "SOURCE": "http://publicapps.odh.ohio.gov/EID/Provider_Search.aspx", "SOURCEDATE": "2018-08-10T00:00:00.000Z", "VAL_METHOD": "IMAGERY/OTHER", "VAL_DATE": "2015-03-10T00:00:00.000Z", "WEBSITE": "http://www.mhscc.com/", "STATE_ID": "1464", "ALT_NAME": "NOT AVAILABLE", "ST_FIPS": "39", "OWNER": "NON-PROFIT", "TTL_STAFF": -999, "BEDS": 16, "TRAUMA": "NOT AVAILABLE", "HELIPAD": "N" }, "geometry": { "type": "Polygon", "coordinates": [ [ [ -83.815, 39.851879 ], [ -83.951146, 39.88321 ], [ -83.932536, 39.91931 ], [ -83.880608, 39.988501 ], [ -83.8072247, 40.027332400000013 ], [ -83.802489, 40.029659 ], [ -83.7993456, 40.026870600000038 ], [ -83.746992, 39.976282 ], [ -83.715328, 39.923279 ], [ -83.7145, 39.918269 ], [ -83.720586, 39.89403 ], [ -83.77243, 39.870448 ], [ -83.815, 39.851879 ] ] ] } },
{ "type": "Feature", "properties": { "OBJECTID": 2305, "ID": "0000000093", "NAME": "SPRINGFIELD REGIONAL MEDICAL CTR-ER", "ADDRESS": "100 MEDICAL CENTER DR", "CITY": "SPRINGFIELD", "STATE": "OH", "ZIP": "45504", "ZIP4": "NOT AVAILABLE", "TELEPHONE": "(937) 523-1000", "TYPE": "GENERAL ACUTE CARE", "STATUS": "OPEN", "POPULATION": -999, "COUNTY": "CLARK", "COUNTYFIPS": "39023", "COUNTRY": "USA", "LATITUDE": 39.928750064, "LONGITUDE": -83.816769179999895, "NAICS_CODE": "622110", "NAICS_DESC": "GENERAL MEDICAL AND SURGICAL HOSPITALS", "SOURCE": "http://publicapps.odh.ohio.gov/EID/Provider_Search.aspx", "SOURCEDATE": "2018-08-10T00:00:00.000Z", "VAL_METHOD": "IMAGERY/OTHER", "VAL_DATE": "2015-05-22T00:00:00.000Z", "WEBSITE": "http://www.community-mercy.org/springfield_regional_medical_center.asp", "STATE_ID": "NOT AVAILABLE", "ALT_NAME": "NOT AVAILABLE", "ST_FIPS": "39", "OWNER": "NON-PROFIT", "TTL_STAFF": -999, "BEDS": -999, "TRAUMA": "NOT AVAILABLE", "HELIPAD": "Y" }, "geometry": { "type": "Polygon", "coordinates": [ [ [ -83.8584682, 39.848251 ], [ -83.951146, 39.88321 ], [ -83.93795, 39.918704 ], [ -83.880608, 39.988501 ], [ -83.8072247, 40.027332400000013 ], [ -83.802489, 40.029659 ], [ -83.7993456, 40.026870600000038 ], [ -83.746992, 39.976282 ], [ -83.70582, 39.923519 ], [ -83.705797, 39.923306 ], [ -83.720586, 39.89403 ], [ -83.7228664, 39.891059500000011 ], [ -83.815747, 39.844485 ], [ -83.8584682, 39.848251 ] ] ] } },
{ "type": "Feature", "properties": { "OBJECTID": 2419, "ID": "0000145690", "NAME": "PIKE COMMUNITY HOSPITAL", "ADDRESS": "100 DAWN LANE", "CITY": "WAVERLY", "STATE": "OH", "ZIP": "45690", "ZIP4": "NOT AVAILABLE", "TELEPHONE": "(740) 947-2186", "TYPE": "CRITICAL ACCESS", "STATUS": "OPEN", "POPULATION": 25, "COUNTY": "PIKE", "COUNTYFIPS": "39131", "COUNTRY": "USA", "LATITUDE": 39.116334582, "LONGITUDE": -83.004186504000003, "NAICS_CODE": "622110", "NAICS_DESC": "GENERAL MEDICAL AND SURGICAL HOSPITALS", "SOURCE": "http://publicapps.odh.ohio.gov/EID/Provider_Search.aspx", "SOURCEDATE": "2018-08-10T00:00:00.000Z", "VAL_METHOD": "IMAGERY/OTHER", "VAL_DATE": "2014-02-10T00:00:00.000Z", "WEBSITE": "http://www.pikecommunityhospital.org", "STATE_ID": "1299", "ALT_NAME": "ADENA PIKE MEDICAL CENTER", "ST_FIPS": "39", "OWNER": "NON-PROFIT", "TTL_STAFF": -999, "BEDS": 25, "TRAUMA": "NOT AVAILABLE", "HELIPAD": "Y" }, "geometry": { "type": "Polygon", "coordinates": [ [ [ -83.02649, 39.022584 ], [ -83.051885, 39.045763 ], [ -83.056008, 39.049601 ], [ -83.064006, 39.108161 ], [ -83.055762, 39.128384 ], [ -83.028051, 39.149576 ], [ -82.981155, 39.178915 ], [ -82.9726477, 39.178824100000014 ], [ -82.914114, 39.159831 ], [ -82.9620363, 39.0734314 ], [ -82.971775, 39.062556 ], [ -82.9966316, 39.039923 ], [ -83.024395, 39.022536 ], [ -83.02621, 39.022575 ], [ -83.02649, 39.022584 ] ] ] } },
{ "type": "Feature", "properties": { "OBJECTID": 6193, "ID": "0000445502", "NAME": "OHIO VALLEY MEDICAL CENTER", "ADDRESS": "100 WEST MAIN STREET", "CITY": "SPRINGFIELD", "STATE": "OH", "ZIP": "45502", "ZIP4": "NOT AVAILABLE", "TELEPHONE": "(937) 521-3900", "TYPE": "SPECIAL", "STATUS": "OPEN", "POPULATION": 24, "COUNTY": "CLARK", "COUNTYFIPS": "39023", "COUNTRY": "USA", "LATITUDE": 39.925000162000103, "LONGITUDE": -83.813022580999998, "NAICS_CODE": "622310", "NAICS_DESC": "SPECIALTY (EXCEPT PSYCHIATRIC AND SUBSTANCE ABUSE) HOSPITALS", "SOURCE": "http://publicapps.odh.ohio.gov/EID/Provider_Search.aspx", "SOURCEDATE": "2018-08-10T00:00:00.000Z", "VAL_METHOD": "IMAGERY", "VAL_DATE": "2014-02-10T00:00:00.000Z", "WEBSITE": "http://myovmc.com/", "STATE_ID": "1487", "ALT_NAME": "NOT AVAILABLE", "ST_FIPS": "39", "OWNER": "PROPRIETARY", "TTL_STAFF": -999, "BEDS": 24, "TRAUMA": "NOT AVAILABLE", "HELIPAD": "N" }, "geometry": { "type": "Polygon", "coordinates": [ [ [ -83.815747, 39.844485 ], [ -83.951146, 39.88321 ], [ -83.921178, 39.923805 ], [ -83.874362, 39.983165 ], [ -83.805844, 40.023547 ], [ -83.746992, 39.976282 ], [ -83.696834, 39.92387 ], [ -83.696828, 39.923795 ], [ -83.71094, 39.893707 ], [ -83.713693, 39.887974 ], [ -83.774333, 39.856753 ], [ -83.815747, 39.844485 ] ] ] } },
{ "type": "Feature", "properties": { "OBJECTID": 6485, "ID": "0001945385", "NAME": "GREENE MEMORIAL HOSPITAL", "ADDRESS": "1141 NORTH MONROE DRIVE", "CITY": "XENIA", "STATE": "OH", "ZIP": "45385", "ZIP4": "NOT AVAILABLE", "TELEPHONE": "(937) 352-2000", "TYPE": "GENERAL ACUTE CARE", "STATUS": "OPEN", "POPULATION": 49, "COUNTY": "GREENE", "COUNTYFIPS": "39057", "COUNTRY": "USA", "LATITUDE": 39.700125172000099, "LONGITUDE": -83.927740611999994, "NAICS_CODE": "622110", "NAICS_DESC": "GENERAL MEDICAL AND SURGICAL HOSPITALS", "SOURCE": "http://publicapps.odh.ohio.gov/EID/Provider_Search.aspx", "SOURCEDATE": "2018-08-10T00:00:00.000Z", "VAL_METHOD": "IMAGERY", "VAL_DATE": "2014-02-10T00:00:00.000Z", "WEBSITE": "http://www.greenehealth.org", "STATE_ID": "1180", "ALT_NAME": "NOT AVAILABLE", "ST_FIPS": "39", "OWNER": "NON-PROFIT", "TTL_STAFF": -999, "BEDS": 49, "TRAUMA": "LEVEL III", "HELIPAD": "Y" }, "geometry": { "type": "Polygon", "coordinates": [ [ [ -84.00041, 39.610185 ], [ -84.001875, 39.611231 ], [ -84.0314355, 39.7098499 ], [ -83.9873841, 39.749141100000017 ], [ -83.950264, 39.764795 ], [ -83.928231, 39.770082 ], [ -83.9124044, 39.771405799999982 ], [ -83.848249, 39.72813 ], [ -83.85297, 39.666398 ], [ -83.8902037, 39.630696300000025 ], [ -84.00041, 39.610185 ] ] ] } },
{ "type": "Feature", "properties": { "OBJECTID": 6503, "ID": "0006043140", "NAME": "MADISON COUNTY HOSPITAL INC", "ADDRESS": "210 NORTH MAIN STREET", "CITY": "LONDON", "STATE": "OH", "ZIP": "43140", "ZIP4": "NOT AVAILABLE", "TELEPHONE": "(740) 845-7000", "TYPE": "GENERAL ACUTE CARE", "STATUS": "OPEN", "POPULATION": 94, "COUNTY": "MADISON", "COUNTYFIPS": "39097", "COUNTRY": "USA", "LATITUDE": 39.892554598000103, "LONGITUDE": -83.454255458999995, "NAICS_CODE": "622110", "NAICS_DESC": "GENERAL MEDICAL AND SURGICAL HOSPITALS", "SOURCE": "http://publicapps.odh.ohio.gov/EID/Provider_Search.aspx", "SOURCEDATE": "2018-08-10T00:00:00.000Z", "VAL_METHOD": "IMAGERY", "VAL_DATE": "2014-03-12T00:00:00.000Z", "WEBSITE": "http://www.madisoncountyhospital.org", "STATE_ID": "1011", "ALT_NAME": "NOT AVAILABLE", "ST_FIPS": "39", "OWNER": "NON-PROFIT", "TTL_STAFF": -999, "BEDS": 94, "TRAUMA": "NOT AVAILABLE", "HELIPAD": "Y" }, "geometry": { "type": "Polygon", "coordinates": [ [ [ -83.466950699154651, 39.822532393684384 ], [ -83.530961885288605, 39.858398436018561 ], [ -83.531900958275685, 39.899051455669174 ], [ -83.531708042826438, 39.946490479661698 ], [ -83.527890061534933, 39.956313490416221 ], [ -83.420587937047742, 39.993194420143169 ], [ -83.342515653543956, 39.958643275962089 ], [ -83.325837437249461, 39.88231124125101 ], [ -83.327882436873551, 39.879640243735921 ], [ -83.372811457720204, 39.832956291055822 ], [ -83.466950699154651, 39.822532393684384 ] ] ] } },
{ "type": "Feature", "properties": { "OBJECTID": 6782, "ID": "0000345504", "NAME": "COMMUNITY HOSPITAL", "ADDRESS": "BURNETT ROAD", "CITY": "SPRINGFIELD", "STATE": "OH", "ZIP": "45504", "ZIP4": "NOT AVAILABLE", "TELEPHONE": "(937) 523-1000", "TYPE": "GENERAL ACUTE CARE", "STATUS": "CLOSED", "POPULATION": 254, "COUNTY": "CLARK", "COUNTYFIPS": "39023", "COUNTRY": "USA", "LATITUDE": 39.919252229000101, "LONGITUDE": -83.768498238000006, "NAICS_CODE": "622110", "NAICS_DESC": "GENERAL MEDICAL AND SURGICAL HOSPITALS", "SOURCE": "http://publicapps.odh.ohio.gov/EID/Provider_Search.aspx", "SOURCEDATE": "2012-07-23T00:00:00.000Z", "VAL_METHOD": "IMAGERY", "VAL_DATE": "2019-05-09T00:00:00.000Z", "WEBSITE": "http://www.communityhospital.com", "STATE_ID": "360086", "ALT_NAME": "NOT AVAILABLE", "ST_FIPS": "39", "OWNER": "NON-PROFIT", "TTL_STAFF": -999, "BEDS": 254, "TRAUMA": "NOT AVAILABLE", "HELIPAD": "N" }, "geometry": { "type": "Polygon", "coordinates": [ [ [ -83.767877, 39.850709 ], [ -83.820102, 39.868827 ], [ -83.852587, 39.882585 ], [ -83.884271, 39.924937 ], [ -83.8599435, 39.948381600000026 ], [ -83.858403, 39.949717 ], [ -83.806468, 39.987203 ], [ -83.763272, 39.990826 ], [ -83.7343986, 39.986649700000058 ], [ -83.6561469, 39.9260661 ], [ -83.6562389, 39.9252023 ], [ -83.681057, 39.863907 ], [ -83.696368, 39.857702 ], [ -83.767877, 39.850709 ] ] ] } },
{ "type": "Feature", "properties": { "OBJECTID": 7009, "ID": "0016643078", "NAME": "MERCY MEMORIAL HOSPITAL", "ADDRESS": "904 SCIOTO STREET", "CITY": "URBANA", "STATE": "OH", "ZIP": "43078", "ZIP4": "NOT AVAILABLE", "TELEPHONE": "(937) 653-5231", "TYPE": "CRITICAL ACCESS", "STATUS": "OPEN", "POPULATION": 8, "COUNTY": "CHAMPAIGN", "COUNTYFIPS": "39021", "COUNTRY": "USA", "LATITUDE": 40.108521956000097, "LONGITUDE": -83.7299200799999, "NAICS_CODE": "622110", "NAICS_DESC": "GENERAL MEDICAL AND SURGICAL HOSPITALS", "SOURCE": "http://publicapps.odh.ohio.gov/EID/Provider_Search.aspx", "SOURCEDATE": "2018-08-10T00:00:00.000Z", "VAL_METHOD": "IMAGERY", "VAL_DATE": "2014-03-12T00:00:00.000Z", "WEBSITE": "http://www.health-partners.org", "STATE_ID": "361312", "ALT_NAME": "NOT AVAILABLE", "ST_FIPS": "39", "OWNER": "NON-PROFIT", "TTL_STAFF": -999, "BEDS": 8, "TRAUMA": "NOT AVAILABLE", "HELIPAD": "Y" }, "geometry": { "type": "Polygon", "coordinates": [ [ [ -83.741608, 40.037771 ], [ -83.7808621, 40.0476616 ], [ -83.7923347, 40.055614700000021 ], [ -83.8632108, 40.112296100000037 ], [ -83.8137174, 40.159231499999969 ], [ -83.7831539, 40.172110500000024 ], [ -83.7425736, 40.184063 ], [ -83.7142952, 40.171696600000047 ], [ -83.6830896, 40.154064200000015 ], [ -83.6367679, 40.115233699999983 ], [ -83.63063, 40.109722 ], [ -83.6238535, 40.078418600000035 ], [ -83.6953569, 40.049439600000035 ], [ -83.739079, 40.037627 ], [ -83.73948, 40.037643 ], [ -83.741608, 40.037771 ] ] ] } },
{ "type": "Feature", "properties": { "OBJECTID": 5163, "ID": "0011943040", "NAME": "MEMORIAL HOSPITAL OF UNION COUNTY", "ADDRESS": "500 LONDON AVENUE", "CITY": "MARYSVILLE", "STATE": "OH", "ZIP": "43040", "ZIP4": "NOT AVAILABLE", "TELEPHONE": "(937) 578-2289", "TYPE": "GENERAL ACUTE CARE", "STATUS": "OPEN", "POPULATION": 97, "COUNTY": "UNION", "COUNTYFIPS": "39159", "COUNTRY": "USA", "LATITUDE": 40.230082541000101, "LONGITUDE": -83.367648322999997, "NAICS_CODE": "622110", "NAICS_DESC": "GENERAL MEDICAL AND SURGICAL HOSPITALS", "SOURCE": "http://publicapps.odh.ohio.gov/EID/Provider_Search.aspx", "SOURCEDATE": "2018-08-10T00:00:00.000Z", "VAL_METHOD": "IMAGERY", "VAL_DATE": "2014-03-12T00:00:00.000Z", "WEBSITE": "http://www.memorialhosp.org", "STATE_ID": "1286", "ALT_NAME": "NOT AVAILABLE", "ST_FIPS": "39", "OWNER": "GOVERNMENT - LOCAL", "TTL_STAFF": -999, "BEDS": 97, "TRAUMA": "NOT AVAILABLE", "HELIPAD": "Y" }, "geometry": { "type": "Polygon", "coordinates": [ [ [ -83.38151, 40.147031 ], [ -83.416507, 40.151954 ], [ -83.442428, 40.180763 ], [ -83.503608, 40.269125 ], [ -83.392562, 40.33455 ], [ -83.32905, 40.311872 ], [ -83.267392, 40.259503 ], [ -83.2325871, 40.1600721 ], [ -83.2332752, 40.159459299999988 ], [ -83.29848, 40.14589 ], [ -83.38151, 40.147031 ] ] ] } },
{ "type": "Feature", "properties": { "OBJECTID": 5195, "ID": "0000245631", "NAME": "HOLZER MEDICAL CENTER", "ADDRESS": "100 JACKSON PIKE", "CITY": "GALLIPOLIS", "STATE": "OH", "ZIP": "45631", "ZIP4": "NOT AVAILABLE", "TELEPHONE": "(740) 446-5000", "TYPE": "GENERAL ACUTE CARE", "STATUS": "OPEN", "POPULATION": 287, "COUNTY": "GALLIA", "COUNTYFIPS": "39053", "COUNTRY": "USA", "LATITUDE": 38.846473142999997, "LONGITUDE": -82.237540286999902, "NAICS_CODE": "622110", "NAICS_DESC": "GENERAL MEDICAL AND SURGICAL HOSPITALS", "SOURCE": "http://publicapps.odh.ohio.gov/EID/Provider_Search.aspx", "SOURCEDATE": "2018-08-10T00:00:00.000Z", "VAL_METHOD": "IMAGERY", "VAL_DATE": "2014-03-12T00:00:00.000Z", "WEBSITE": "http://www.holzer.org", "STATE_ID": "1021", "ALT_NAME": "NOT AVAILABLE", "ST_FIPS": "39", "OWNER": "NON-PROFIT", "TTL_STAFF": -999, "BEDS": 287, "TRAUMA": "NOT AVAILABLE", "HELIPAD": "Y" }, "geometry": { "type": "Polygon", "coordinates": [ [ [ -82.234862, 38.794658 ], [ -82.290626, 38.813029 ], [ -82.32125, 38.836616 ], [ -82.387847, 38.889363 ], [ -82.3845461, 38.8935985 ], [ -82.290509, 38.923281 ], [ -82.146067, 38.887335 ], [ -82.142878, 38.874411 ], [ -82.1428367, 38.874018100000029 ], [ -82.1435968, 38.8615476 ], [ -82.145339, 38.844181 ], [ -82.146092, 38.840332 ], [ -82.147124, 38.839327 ], [ -82.1660318, 38.825900699999977 ], [ -82.2201399, 38.7938525 ], [ -82.234862, 38.794658 ] ] ] } },
{ "type": "Feature", "properties": { "OBJECTID": 3001, "ID": "0012645123", "NAME": "ADENA GREENFIELD MEDICAL CENTER", "ADDRESS": "550 MIRABEAU STREET", "CITY": "GREENFIELD", "STATE": "OH", "ZIP": "45123", "ZIP4": "NOT AVAILABLE", "TELEPHONE": "(937) 981-9400", "TYPE": "CRITICAL ACCESS", "STATUS": "OPEN", "POPULATION": 25, "COUNTY": "HIGHLAND", "COUNTYFIPS": "39071", "COUNTRY": "USA", "LATITUDE": 39.348667330000097, "LONGITUDE": -83.387731937999902, "NAICS_CODE": "622110", "NAICS_DESC": "GENERAL MEDICAL AND SURGICAL HOSPITALS", "SOURCE": "http://publicapps.odh.ohio.gov/EID/Provider_Search.aspx", "SOURCEDATE": "2018-08-10T00:00:00.000Z", "VAL_METHOD": "IMAGERY/OTHER", "VAL_DATE": "2014-02-10T00:00:00.000Z", "WEBSITE": "http://www.adena.org/locations/detail.dT/adena-greenfield-medical-center", "STATE_ID": "1200", "ALT_NAME": "NOT AVAILABLE", "ST_FIPS": "39", "OWNER": "NON-PROFIT", "TTL_STAFF": -999, "BEDS": 25, "TRAUMA": "NOT AVAILABLE", "HELIPAD": "N" }, "geometry": { "type": "Polygon", "coordinates": [ [ [ -83.422786, 39.273172 ], [ -83.457602, 39.287009 ], [ -83.499145, 39.358617 ], [ -83.4092347, 39.428097 ], [ -83.355945, 39.41094 ], [ -83.387048, 39.289543 ], [ -83.419549, 39.27373 ], [ -83.422786, 39.273172 ] ] ] } },
{ "type": "Feature", "properties": { "OBJECTID": 3004, "ID": "0005843311", "NAME": "MARY RUTAN HOSPITAL", "ADDRESS": "205 PALMER AVENUE", "CITY": "BELLEFONTAINE", "STATE": "OH", "ZIP": "43311", "ZIP4": "NOT AVAILABLE", "TELEPHONE": "(937) 592-4015", "TYPE": "GENERAL ACUTE CARE", "STATUS": "OPEN", "POPULATION": 115, "COUNTY": "LOGAN", "COUNTYFIPS": "39091", "COUNTRY": "USA", "LATITUDE": 40.369541773000002, "LONGITUDE": -83.755531262999995, "NAICS_CODE": "622110", "NAICS_DESC": "GENERAL MEDICAL AND SURGICAL HOSPITALS", "SOURCE": "http://publicapps.odh.ohio.gov/EID/Provider_Search.aspx", "SOURCEDATE": "2018-08-10T00:00:00.000Z", "VAL_METHOD": "IMAGERY", "VAL_DATE": "2014-02-10T00:00:00.000Z", "WEBSITE": "http://www.maryrutan.org", "STATE_ID": "1214", "ALT_NAME": "NOT AVAILABLE", "ST_FIPS": "39", "OWNER": "NON-PROFIT", "TTL_STAFF": -999, "BEDS": 115, "TRAUMA": "NOT AVAILABLE", "HELIPAD": "N" }, "geometry": { "type": "Polygon", "coordinates": [ [ [ -83.760343, 40.267669 ], [ -83.765943, 40.269861 ], [ -83.807309, 40.308763 ], [ -83.850498, 40.359377 ], [ -83.8498067, 40.366613499999971 ], [ -83.839424, 40.425596 ], [ -83.83133, 40.45037 ], [ -83.809092, 40.461102 ], [ -83.720259, 40.455671 ], [ -83.6582609, 40.406213900000012 ], [ -83.648256, 40.323556 ], [ -83.758825, 40.268398 ], [ -83.760343, 40.267669 ] ] ] } },
{ "type": "Feature", "properties": { "OBJECTID": 3223, "ID": "0011745640", "NAME": "HOLZER MEDICAL CENTER JACKSON", "ADDRESS": "500 BURLINGTON ROAD", "CITY": "JACKSON", "STATE": "OH", "ZIP": "45640", "ZIP4": "NOT AVAILABLE", "TELEPHONE": "(740) 395-8500", "TYPE": "CRITICAL ACCESS", "STATUS": "OPEN", "POPULATION": 24, "COUNTY": "JACKSON", "COUNTYFIPS": "39079", "COUNTRY": "USA", "LATITUDE": 39.032306660000103, "LONGITUDE": -82.640760246999903, "NAICS_CODE": "622110", "NAICS_DESC": "GENERAL MEDICAL AND SURGICAL HOSPITALS", "SOURCE": "http://publicapps.odh.ohio.gov/EID/Provider_Search.aspx", "SOURCEDATE": "2018-08-10T00:00:00.000Z", "VAL_METHOD": "IMAGERY", "VAL_DATE": "2014-02-10T00:00:00.000Z", "WEBSITE": "http://www.holzer.org", "STATE_ID": "1438", "ALT_NAME": "NOT AVAILABLE", "ST_FIPS": "39", "OWNER": "NON-PROFIT", "TTL_STAFF": -999, "BEDS": 24, "TRAUMA": "NOT AVAILABLE", "HELIPAD": "Y" }, "geometry": { "type": "Polygon", "coordinates": [ [ [ -82.672214, 38.950887 ], [ -82.78334, 39.007782 ], [ -82.783299, 39.008211 ], [ -82.7831464, 39.009760699999973 ], [ -82.7831272, 39.0099272 ], [ -82.7002904, 39.123778500000029 ], [ -82.700093, 39.123865 ], [ -82.604933, 39.11524 ], [ -82.53502, 39.104786 ], [ -82.504062, 39.093535 ], [ -82.5040915, 39.092698199999987 ], [ -82.518738, 38.975927 ], [ -82.576692, 38.966201 ], [ -82.672214, 38.950887 ] ] ] } }
]
}
