{
"type": "FeatureCollection",
"crs": { "type": "name", "properties": { "name": "urn:ogc:def:crs:OGC:1.3:CRS84" } },
"features": [
{ "type": "Feature", "properties": { "OBJECTID": 1214, "ID": "0001158784", "NAME": "MOUNTRAIL COUNTY MEDICAL CENTER", "ADDRESS": "615 6TH ST SE", "CITY": "STANLEY", "STATE": "ND", "ZIP": "58784", "ZIP4": "NOT AVAILABLE", "TELEPHONE": "(701) 628-2424", "TYPE": "CRITICAL ACCESS", "STATUS": "OPEN", "POPULATION": 11, "COUNTY": "MOUNTRAIL", "COUNTYFIPS": "38061", "COUNTRY": "USA", "LATITUDE": 48.311293849000002, "LONGITUDE": -102.380421892, "NAICS_CODE": "622110", "NAICS_DESC": "GENERAL MEDICAL AND SURGICAL HOSPITALS", "SOURCE": "http://www.ndhealth.gov/hf/North_Dakota_Hospitals_Critical_access.htm", "SOURCEDATE": "2018-08-09T00:00:00.000Z", "VAL_METHOD": "IMAGERY", "VAL_DATE": "2014-02-10T00:00:00.000Z", "WEBSITE": "http://www.stanleyhealth.org", "STATE_ID": "5047B", "ALT_NAME": "NOT AVAILABLE", "ST_FIPS": "38", "OWNER": "NON-PROFIT", "TTL_STAFF": -999, "BEDS": 11, "TRAUMA": "NOT AVAILABLE", "HELIPAD": "Y" }, "geometry": { "type": "Polygon", "coordinates": [ [ [ -102.347995, 48.211352 ], [ -102.353438, 48.211337 ], [ -102.5624099, 48.312637899999956 ], [ -102.5624059, 48.312873300000035 ], [ -102.407863, 48.415963 ], [ -102.224354, 48.341637 ], [ -102.224359, 48.340051 ], [ -102.224364, 48.338983 ], [ -102.2243746, 48.3371319 ], [ -102.224475, 48.327285 ], [ -102.2244777, 48.327034899999973 ], [ -102.347995, 48.211352 ] ] ] } },
{ "type": "Feature", "properties": { "OBJECTID": 1215, "ID": "0002558474", "NAME": "OAKES COMMUNITY HOSPITAL", "ADDRESS": "1200 N 7TH ST", "CITY": "OAKES", "STATE": "ND", "ZIP": "58474", "ZIP4": "NOT AVAILABLE", "TELEPHONE": "(701) 742-3291", "TYPE": "CRITICAL ACCESS", "STATUS": "OPEN", "POPULATION": 20, "COUNTY": "DICKEY", "COUNTYFIPS": "38021", "COUNTRY": "USA", "LATITUDE": 46.150380663000099, "LONGITUDE": -98.088894281999998, "NAICS_CODE": "622110", "NAICS_DESC": "GENERAL MEDICAL AND SURGICAL HOSPITALS", "SOURCE": "http://www.ndhealth.gov/hf/North_Dakota_Hospitals_Critical_access.htm", "SOURCEDATE": "2018-08-09T00:00:00.000Z", "VAL_METHOD": "IMAGERY", "VAL_DATE": "2014-02-10T00:00:00.000Z", "WEBSITE": "http://www.oakeshospital.com", "STATE_ID": "5041A", "ALT_NAME": "NOT AVAILABLE", "ST_FIPS": "38", "OWNER": "NON-PROFIT", "TTL_STAFF": -999, "BEDS": 20, "TRAUMA": "NOT AVAILABLE", "HELIPAD": "Y" }, "geometry": { "type": "Polygon", "coordinates": [ [ [ -98.091033995649809, 46.037422999413231 ], [ -98.215008998768511, 46.138781001148281 ], [ -98.139307, 46.240481 ], [ -98.0903157, 46.2827628 ], [ -98.0812869, 46.282755299999948 ], [ -98.001003, 46.225461 ], [ -97.966305790215245, 46.138700099258237 ], [ -97.993376990239511, 46.109662998195979 ], [ -98.091033995649809, 46.037422999413231 ] ] ] } },
{ "type": "Feature", "properties": { "OBJECTID": 1216, "ID": "0005058402", "NAME": "NORTH DAKOTA STATE HOSPITAL", "ADDRESS": "2605 CIRCLE DR", "CITY": "JAMESTOWN", "STATE": "ND", "ZIP": "58402", "ZIP4": "NOT AVAILABLE", "TELEPHONE": "(701) 253-3650", "TYPE": "PSYCHIATRIC", "STATUS": "OPEN", "POPULATION": 140, "COUNTY": "STUTSMAN", "COUNTYFIPS": "38093", "COUNTRY": "USA", "LATITUDE": 46.884332765000103, "LONGITUDE": -98.684748530999997, "NAICS_CODE": "622210", "NAICS_DESC": "PSYCHIATRIC AND SUBSTANCE ABUSE HOSPITALS", "SOURCE": "http://www.ndhealth.gov/hf/North_Dakota_Hospitals_Critical_access.htm", "SOURCEDATE": "2018-08-09T00:00:00.000Z", "VAL_METHOD": "IMAGERY", "VAL_DATE": "2014-02-10T00:00:00.000Z", "WEBSITE": "http://www.nd.gov/dhs/locations/statehospital/", "STATE_ID": "5060A", "ALT_NAME": "NOT AVAILABLE", "ST_FIPS": "38", "OWNER": "GOVERNMENT - STATE", "TTL_STAFF": -999, "BEDS": 140, "TRAUMA": "NOT AVAILABLE", "HELIPAD": "N" }, "geometry": { "type": "Polygon", "coordinates": [ [ [ -98.712708, 46.790534 ], [ -98.855771, 46.892573 ], [ -98.854321, 46.903868 ], [ -98.851321, 46.906907 ], [ -98.755312, 46.979373 ], [ -98.752294, 46.979371 ], [ -98.692128, 46.96453 ], [ -98.604684, 46.935591 ], [ -98.486369, 46.892253 ], [ -98.712708, 46.790534 ] ] ] } },
{ "type": "Feature", "properties": { "OBJECTID": 1217, "ID": "0004058324", "NAME": "TOWNER COUNTY MEDICAL CENTER", "ADDRESS": "HWY 281 N", "CITY": "CANDO", "STATE": "ND", "ZIP": "58324", "ZIP4": "NOT AVAILABLE", "TELEPHONE": "(701) 968-4411", "TYPE": "CRITICAL ACCESS", "STATUS": "OPEN", "POPULATION": 20, "COUNTY": "TOWNER", "COUNTYFIPS": "38095", "COUNTRY": "USA", "LATITUDE": 48.493022001999996, "LONGITUDE": -99.211136128999996, "NAICS_CODE": "622110", "NAICS_DESC": "GENERAL MEDICAL AND SURGICAL HOSPITALS", "SOURCE": "http://www.ndhealth.gov/hf/North_Dakota_Hospitals_Critical_access.htm", "SOURCEDATE": "2018-08-09T00:00:00.000Z", "VAL_METHOD": "IMAGERY/OTHER", "VAL_DATE": "2014-03-12T00:00:00.000Z", "WEBSITE": "tcmedcenter.org", "STATE_ID": "5061A", "ALT_NAME": "NOT AVAILABLE", "ST_FIPS": "38", "OWNER": "NON-PROFIT", "TTL_STAFF": -999, "BEDS": 20, "TRAUMA": "NOT AVAILABLE", "HELIPAD": "Y" }, "geometry": { "type": "Polygon", "coordinates": [ [ [ -99.200237, 48.385135 ], [ -99.3843, 48.486702 ], [ -99.209919, 48.602443 ], [ -99.188034, 48.587919 ], [ -99.035893, 48.486389 ], [ -99.200237, 48.385135 ] ] ] } },
{ "type": "Feature", "properties": { "OBJECTID": 1218, "ID": "0001958257", "NAME": "SANFORD MAYVILLE", "ADDRESS": "42 6TH AVENUE SE", "CITY": "MAYVILLE", "STATE": "ND", "ZIP": "58257", "ZIP4": "NOT AVAILABLE", "TELEPHONE": "(701) 786-3800", "TYPE": "CRITICAL ACCESS", "STATUS": "OPEN", "POPULATION": 25, "COUNTY": "TRAILL", "COUNTYFIPS": "38097", "COUNTRY": "USA", "LATITUDE": 47.500743274999998, "LONGITUDE": -97.316907865999994, "NAICS_CODE": "622110", "NAICS_DESC": "GENERAL MEDICAL AND SURGICAL HOSPITALS", "SOURCE": "http://www.ndhealth.gov/hf/North_Dakota_Hospitals_Critical_access.htm", "SOURCEDATE": "2018-08-09T00:00:00.000Z", "VAL_METHOD": "IMAGERY/OTHER", "VAL_DATE": "2014-02-10T00:00:00.000Z", "WEBSITE": "http://www.unionhospital.com", "STATE_ID": "5034A", "ALT_NAME": "NOT AVAILABLE", "ST_FIPS": "38", "OWNER": "NON-PROFIT", "TTL_STAFF": -999, "BEDS": 25, "TRAUMA": "NOT AVAILABLE", "HELIPAD": "N" }, "geometry": { "type": "Polygon", "coordinates": [ [ [ -97.326215, 47.367555 ], [ -97.453352, 47.483903 ], [ -97.4501706, 47.514067500000031 ], [ -97.346329, 47.599463 ], [ -97.325849, 47.613999 ], [ -97.177593400000021, 47.526742200000015 ], [ -97.134852, 47.497793 ], [ -97.326215, 47.367555 ] ] ] } },
{ "type": "Feature", "properties": { "OBJECTID": 1219, "ID": "0002658367", "NAME": "PRESENTATION MEDICAL CENTER", "ADDRESS": "213 SECOND AVE NE", "CITY": "ROLLA", "STATE": "ND", "ZIP": "58367", "ZIP4": "NOT AVAILABLE", "TELEPHONE": "(701) 477-3161", "TYPE": "CRITICAL ACCESS", "STATUS": "OPEN", "POPULATION": 25, "COUNTY": "ROLETTE", "COUNTYFIPS": "38079", "COUNTRY": "USA", "LATITUDE": 48.862642408000099, "LONGITUDE": -99.615557842000001, "NAICS_CODE": "622110", "NAICS_DESC": "GENERAL MEDICAL AND SURGICAL HOSPITALS", "SOURCE": "http://www.ndhealth.gov/hf/North_Dakota_Hospitals_Critical_access.htm", "SOURCEDATE": "2018-08-09T00:00:00.000Z", "VAL_METHOD": "IMAGERY", "VAL_DATE": "2014-02-10T00:00:00.000Z", "WEBSITE": "http://www.pmc-rolla.com", "STATE_ID": "5045A", "ALT_NAME": "NOT AVAILABLE", "ST_FIPS": "38", "OWNER": "NON-PROFIT", "TTL_STAFF": -999, "BEDS": 25, "TRAUMA": "NOT AVAILABLE", "HELIPAD": "N" }, "geometry": { "type": "Polygon", "coordinates": [ [ [ -99.613494, 48.732957 ], [ -99.74959, 48.837736 ], [ -99.749864, 48.838065 ], [ -99.750367, 48.844828 ], [ -99.744626, 48.892083 ], [ -99.711975, 48.945466 ], [ -99.656976, 48.964686 ], [ -99.41669, 48.862947 ], [ -99.613494, 48.732957 ] ] ] } },
{ "type": "Feature", "properties": { "OBJECTID": 1220, "ID": "0004258801", "NAME": "CHI ST ALEXIUS HEALTH WILLISTON", "ADDRESS": "1301 15TH AVE W", "CITY": "WILLISTON", "STATE": "ND", "ZIP": "58801", "ZIP4": "NOT AVAILABLE", "TELEPHONE": "(701) 774-7400", "TYPE": "CRITICAL ACCESS", "STATUS": "OPEN", "POPULATION": 25, "COUNTY": "WILLIAMS", "COUNTYFIPS": "38105", "COUNTRY": "USA", "LATITUDE": 48.155950764000103, "LONGITUDE": -103.646013698, "NAICS_CODE": "622110", "NAICS_DESC": "GENERAL MEDICAL AND SURGICAL HOSPITALS", "SOURCE": "http://www.ndhealth.gov/hf/North_Dakota_Hospitals_Critical_access.htm", "SOURCEDATE": "2018-08-09T00:00:00.000Z", "VAL_METHOD": "IMAGERY", "VAL_DATE": "2014-02-10T00:00:00.000Z", "WEBSITE": "http://www.mercy-williston.org", "STATE_ID": "5052A", "ALT_NAME": "NOT AVAILABLE", "ST_FIPS": "38", "OWNER": "NON-PROFIT", "TTL_STAFF": -999, "BEDS": 25, "TRAUMA": "NOT AVAILABLE", "HELIPAD": "Y" }, "geometry": { "type": "Polygon", "coordinates": [ [ [ -103.736869, 48.101496 ], [ -103.77685, 48.108669 ], [ -103.819956, 48.140301 ], [ -103.819957700000018, 48.1420901 ], [ -103.7561043, 48.212373700000015 ], [ -103.625889, 48.270008 ], [ -103.625528, 48.270009 ], [ -103.582995, 48.241184 ], [ -103.474746, 48.154469 ], [ -103.512366, 48.120026 ], [ -103.736869, 48.101496 ] ] ] } },
{ "type": "Feature", "properties": { "OBJECTID": 1221, "ID": "0165358103", "NAME": "PRAIRIE SAINT JOHN'S", "ADDRESS": "510 4TH STREET SOUTH", "CITY": "FARGO", "STATE": "ND", "ZIP": "58103", "ZIP4": "1914", "TELEPHONE": "(701) 476-7200", "TYPE": "PSYCHIATRIC", "STATUS": "OPEN", "POPULATION": 110, "COUNTY": "CASS", "COUNTYFIPS": "38017", "COUNTRY": "USA", "LATITUDE": 46.869195214000101, "LONGITUDE": -96.785005262, "NAICS_CODE": "622210", "NAICS_DESC": "PSYCHIATRIC AND SUBSTANCE ABUSE HOSPITALS", "SOURCE": "http://www.ndhealth.gov/hf/North_Dakota_Hospitals_Critical_access.htm", "SOURCEDATE": "2018-08-09T00:00:00.000Z", "VAL_METHOD": "IMAGERY/OTHER", "VAL_DATE": "2015-06-01T00:00:00.000Z", "WEBSITE": "http://prairie-stjohns.com/", "STATE_ID": "5063A", "ALT_NAME": "NOT AVAILABLE", "ST_FIPS": "38", "OWNER": "PROPRIETARY", "TTL_STAFF": -999, "BEDS": 110, "TRAUMA": "NOT AVAILABLE", "HELIPAD": "N" }, "geometry": { "type": "Polygon", "coordinates": [ [ [ -96.798713, 46.777764 ], [ -96.8193484, 46.785431299999985 ], [ -96.8608839, 46.8037899 ], [ -96.9059454, 46.83173909999995 ], [ -96.908317900000014, 46.833434299999951 ], [ -96.9150235, 46.839077399999972 ], [ -96.9157447, 46.840301699999969 ], [ -96.916075, 46.8410073 ], [ -96.92444, 46.862595 ], [ -96.9262374, 46.877051699999981 ], [ -96.9262888, 46.891685399999972 ], [ -96.867745, 46.934208 ], [ -96.8053633, 46.954178600000034 ], [ -96.7676707, 46.927278 ], [ -96.7657015, 46.924655199999982 ], [ -96.763818, 46.919412 ], [ -96.7703379, 46.879401699999988 ], [ -96.794842, 46.780996 ], [ -96.797465, 46.778656 ], [ -96.798713, 46.777764 ] ] ] } },
{ "type": "Feature", "properties": { "OBJECTID": 1719, "ID": "0002758538", "NAME": "STANDING ROCK INDIAN HEALTH SERVICES HOSPITAL", "ADDRESS": "10 NORTH RIVER ROAD", "CITY": "FORT YATES", "STATE": "ND", "ZIP": "58538", "ZIP4": "NOT AVAILABLE", "TELEPHONE": "(701) 854-3831", "TYPE": "CRITICAL ACCESS", "STATUS": "OPEN", "POPULATION": -999, "COUNTY": "SIOUX", "COUNTYFIPS": "38085", "COUNTRY": "USA", "LATITUDE": 46.095161579, "LONGITUDE": -100.62812578899999, "NAICS_CODE": "622110", "NAICS_DESC": "GENERAL MEDICAL AND SURGICAL HOSPITALS", "SOURCE": "https://www.ihs.gov/findhealthcare/", "SOURCEDATE": "2018-09-27T00:00:00.000Z", "VAL_METHOD": "IMAGERY/OTHER", "VAL_DATE": "2018-05-08T00:00:00.000Z", "WEBSITE": "https://www.ihs.gov/greatplains/healthcarefacilities/standingrock/", "STATE_ID": "350064", "ALT_NAME": "STANDING ROCK INDIAN HEALTH SERVICE", "ST_FIPS": "38", "OWNER": "GOVERNMENT - FEDERAL", "TTL_STAFF": -999, "BEDS": -999, "TRAUMA": "NOT AVAILABLE", "HELIPAD": "N" }, "geometry": { "type": "Polygon", "coordinates": [ [ [ -100.664461003686242, 46.043915994667515 ], [ -100.671255004331613, 46.054251993685483 ], [ -100.679531706779301, 46.095897390395024 ], [ -100.68349, 46.157253 ], [ -100.628995005618719, 46.097310993937157 ], [ -100.627340005458151, 46.094608994173491 ], [ -100.627052005326249, 46.091788994315756 ], [ -100.626956005066404, 46.085975994573417 ], [ -100.62782500390999, 46.059560995667361 ], [ -100.641509003622659, 46.048810995475129 ], [ -100.664461003686242, 46.043915994667515 ] ] ] } },
{ "type": "Feature", "properties": { "OBJECTID": 2124, "ID": "0012555604", "NAME": "NORTH SHORE HEALTH", "ADDRESS": "515 - 5TH AVE W", "CITY": "GRAND MARAIS", "STATE": "MN", "ZIP": "55604", "ZIP4": "NOT AVAILABLE", "TELEPHONE": "(218) 387-3040", "TYPE": "CRITICAL ACCESS", "STATUS": "OPEN", "POPULATION": 16, "COUNTY": "COOK", "COUNTYFIPS": "27031", "COUNTRY": "USA", "LATITUDE": 47.756480645000103, "LONGITUDE": -90.3414267859999, "NAICS_CODE": "622110", "NAICS_DESC": "GENERAL MEDICAL AND SURGICAL HOSPITALS", "SOURCE": "http://www.health.state.mn.us/divs/fpc/directory/providerselect.cfm", "SOURCEDATE": "2018-08-09T00:00:00.000Z", "VAL_METHOD": "IMAGERY", "VAL_DATE": "2014-01-03T00:00:00.000Z", "WEBSITE": "http://www.northshorehealthcarefoundation.org/", "STATE_ID": "80", "ALT_NAME": "COOK CO NORTHSHORE HOSP", "ST_FIPS": "27", "OWNER": "GOVERNMENT - DISTRICT/AUTHORITY", "TTL_STAFF": -999, "BEDS": 16, "TRAUMA": "NOT AVAILABLE", "HELIPAD": "Y" }, "geometry": { "type": "Polygon", "coordinates": [ [ [ -90.5058986, 47.710986400000017 ], [ -90.4787059, 47.752487 ], [ -90.377991, 47.827915 ], [ -90.286156, 47.844579 ], [ -90.1620619, 47.7930802 ], [ -90.184907, 47.783309099999954 ], [ -90.3331399, 47.747748399999985 ], [ -90.5058986, 47.710986400000017 ] ] ] } },
{ "type": "Feature", "properties": { "OBJECTID": 2126, "ID": "0011856636", "NAME": "DEER RIVER HEALTH CARE CENTER", "ADDRESS": "115 10TH AVENUE NORTHEAST", "CITY": "DEER RIVER", "STATE": "MN", "ZIP": "56636", "ZIP4": "NOT AVAILABLE", "TELEPHONE": "(218) 246-2900", "TYPE": "CRITICAL ACCESS", "STATUS": "OPEN", "POPULATION": 22, "COUNTY": "ITASCA", "COUNTYFIPS": "27061", "COUNTRY": "USA", "LATITUDE": 47.344105613000103, "LONGITUDE": -93.791110877999998, "NAICS_CODE": "622110", "NAICS_DESC": "GENERAL MEDICAL AND SURGICAL HOSPITALS", "SOURCE": "http://www.health.state.mn.us/divs/fpc/directory/providerselect.cfm", "SOURCEDATE": "2018-08-09T00:00:00.000Z", "VAL_METHOD": "IMAGERY", "VAL_DATE": "2014-02-10T00:00:00.000Z", "WEBSITE": "https://www.essentiahealth.org/find-facility/profile/essentia-health-deer-river/?utm_source=local-listing&utm_medium=organic&utm_campaign=website-link", "STATE_ID": "296", "ALT_NAME": "NOT AVAILABLE", "ST_FIPS": "27", "OWNER": "NON-PROFIT", "TTL_STAFF": -999, "BEDS": 22, "TRAUMA": "NOT AVAILABLE", "HELIPAD": "Y" }, "geometry": { "type": "Polygon", "coordinates": [ [ [ -93.7026549, 47.257064 ], [ -93.9015198, 47.301687499999979 ], [ -93.905853, 47.303214 ], [ -93.9598972, 47.324808299999987 ], [ -93.940158, 47.391649299999962 ], [ -93.832506, 47.462824200000064 ], [ -93.7178847, 47.3932007 ], [ -93.6506445, 47.2753934 ], [ -93.7026549, 47.257064 ] ] ] } },
{ "type": "Feature", "properties": { "OBJECTID": 2131, "ID": "0014256762", "NAME": "NORTH VALLEY HEALTH CENTER", "ADDRESS": "300 WEST GOOD SAMARITAN DRIVE", "CITY": "WARREN", "STATE": "MN", "ZIP": "56762", "ZIP4": "NOT AVAILABLE", "TELEPHONE": "(218) 745-4211", "TYPE": "CRITICAL ACCESS", "STATUS": "OPEN", "POPULATION": 12, "COUNTY": "MARSHALL", "COUNTYFIPS": "27089", "COUNTRY": "USA", "LATITUDE": 48.191276037000101, "LONGITUDE": -96.772923911999996, "NAICS_CODE": "622110", "NAICS_DESC": "GENERAL MEDICAL AND SURGICAL HOSPITALS", "SOURCE": "http://www.health.state.mn.us/divs/fpc/directory/providerselect.cfm", "SOURCEDATE": "2018-08-09T00:00:00.000Z", "VAL_METHOD": "IMAGERY/OTHER", "VAL_DATE": "2016-08-12T00:00:00.000Z", "WEBSITE": "http://www.northvalleyhealth.org/", "STATE_ID": "NOT AVAILABLE", "ALT_NAME": "NOT AVAILABLE", "ST_FIPS": "27", "OWNER": "NON-PROFIT", "TTL_STAFF": -999, "BEDS": 12, "TRAUMA": "NOT AVAILABLE", "HELIPAD": "Y" }, "geometry": { "type": "Polygon", "coordinates": [ [ [ -96.710689, 48.093620499999979 ], [ -96.9558866, 48.195018799999957 ], [ -96.8109001, 48.311114699999962 ], [ -96.805169, 48.311099 ], [ -96.674805, 48.253463 ], [ -96.6093084, 48.195472099999968 ], [ -96.710689, 48.093620499999979 ] ] ] } },
{ "type": "Feature", "properties": { "OBJECTID": 2132, "ID": "0014556701", "NAME": "SANFORD MED CTR THIEF RVR FALL", "ADDRESS": "3001 SANFORD PARKWAY", "CITY": "THIEF RIVER FALLS", "STATE": "MN", "ZIP": "56701", "ZIP4": "NOT AVAILABLE", "TELEPHONE": "(218) 681-4240", "TYPE": "CRITICAL ACCESS", "STATUS": "OPEN", "POPULATION": 26, "COUNTY": "PENNINTON", "COUNTYFIPS": "27113", "COUNTRY": "USA", "LATITUDE": 48.102537616000099, "LONGITUDE": -96.183632396999897, "NAICS_CODE": "622110", "NAICS_DESC": "GENERAL MEDICAL AND SURGICAL HOSPITALS", "SOURCE": "http://www.health.state.mn.us/divs/fpc/directory/providerselect.cfm", "SOURCEDATE": "2018-08-09T00:00:00.000Z", "VAL_METHOD": "IMAGERY/OTHER", "VAL_DATE": "2016-08-12T00:00:00.000Z", "WEBSITE": "http://www.sanfordhealth.org/locations/sanford-thief-river-falls-medical-center", "STATE_ID": "NOT AVAILABLE", "ALT_NAME": "NOT AVAILABLE", "ST_FIPS": "27", "OWNER": "NON-PROFIT", "TTL_STAFF": -999, "BEDS": 26, "TRAUMA": "NOT AVAILABLE", "HELIPAD": "N" }, "geometry": { "type": "Polygon", "coordinates": [ [ [ -96.2186093, 48.006239800000017 ], [ -96.2410536, 48.02056120000006 ], [ -96.3052169, 48.12292979999998 ], [ -96.1945842, 48.2106247 ], [ -96.1933243, 48.210621600000053 ], [ -96.047111, 48.121383 ], [ -96.089767, 48.0613474 ], [ -96.1760887, 48.020372899999963 ], [ -96.2148082, 48.0062835 ], [ -96.2186093, 48.006239800000017 ] ] ] } },
{ "type": "Feature", "properties": { "OBJECTID": 2218, "ID": "0001358540", "NAME": "GARRISON MEMORIAL HOSPITAL", "ADDRESS": "407 3RD AVE SE", "CITY": "GARRISON", "STATE": "ND", "ZIP": "58540", "ZIP4": "NOT AVAILABLE", "TELEPHONE": "(701) 463-2275", "TYPE": "CRITICAL ACCESS", "STATUS": "OPEN", "POPULATION": 22, "COUNTY": "MCLEAN", "COUNTYFIPS": "38055", "COUNTRY": "USA", "LATITUDE": 47.648403477000002, "LONGITUDE": -101.411039574, "NAICS_CODE": "622110", "NAICS_DESC": "GENERAL MEDICAL AND SURGICAL HOSPITALS", "SOURCE": "http://www.ndhealth.gov/hf/North_Dakota_Hospitals_Critical_access.htm", "SOURCEDATE": "2018-08-09T00:00:00.000Z", "VAL_METHOD": "IMAGERY", "VAL_DATE": "2014-02-10T00:00:00.000Z", "WEBSITE": "http://www.garrisonmh.com", "STATE_ID": "5019B", "ALT_NAME": "NOT AVAILABLE", "ST_FIPS": "38", "OWNER": "NON-PROFIT", "TTL_STAFF": -999, "BEDS": 22, "TRAUMA": "NOT AVAILABLE", "HELIPAD": "Y" }, "geometry": { "type": "Polygon", "coordinates": [ [ [ -101.420548, 47.587506 ], [ -101.490611, 47.598946 ], [ -101.610612, 47.646506 ], [ -101.507625, 47.688543 ], [ -101.421796, 47.703166 ], [ -101.293327, 47.703221 ], [ -101.292982, 47.703219 ], [ -101.249103, 47.646975 ], [ -101.262055, 47.617987 ], [ -101.420548, 47.587506 ] ] ] } },
{ "type": "Feature", "properties": { "OBJECTID": 2219, "ID": "0001458575", "NAME": "CHI ST ALEXIUS HEALTH TURTLE LAKE", "ADDRESS": "220 5TH AVE W", "CITY": "TURTLE LAKE", "STATE": "ND", "ZIP": "58575", "ZIP4": "NOT AVAILABLE", "TELEPHONE": "(701) 448-2331", "TYPE": "CRITICAL ACCESS", "STATUS": "OPEN", "POPULATION": 25, "COUNTY": "MCLEAN", "COUNTYFIPS": "38055", "COUNTRY": "USA", "LATITUDE": 47.518215517000002, "LONGITUDE": -100.894448091, "NAICS_CODE": "622110", "NAICS_DESC": "GENERAL MEDICAL AND SURGICAL HOSPITALS", "SOURCE": "http://www.ndhealth.gov/hf/North_Dakota_Hospitals_Critical_access.htm", "SOURCEDATE": "2018-08-09T00:00:00.000Z", "VAL_METHOD": "IMAGERY/OTHER", "VAL_DATE": "2014-02-10T00:00:00.000Z", "WEBSITE": "http://www.wrtc.com/cullum/hospital", "STATE_ID": "5059P", "ALT_NAME": "NOT AVAILABLE", "ST_FIPS": "38", "OWNER": "NON-PROFIT", "TTL_STAFF": -999, "BEDS": 25, "TRAUMA": "NOT AVAILABLE", "HELIPAD": "N" }, "geometry": { "type": "Polygon", "coordinates": [ [ [ -100.886396, 47.432827 ], [ -100.907782, 47.43529 ], [ -100.971629, 47.443892 ], [ -100.993147, 47.458394 ], [ -101.036024, 47.51652 ], [ -100.928803, 47.632644 ], [ -100.907638, 47.639623 ], [ -100.843679, 47.574306 ], [ -100.779789, 47.501768 ], [ -100.77996, 47.487131 ], [ -100.886396, 47.432827 ] ] ] } },
{ "type": "Feature", "properties": { "OBJECTID": 2220, "ID": "0004958206", "NAME": "ALTRU REHABILITATION CENTER", "ADDRESS": "1300 S COLUMBIA RD", "CITY": "GRAND FORKS", "STATE": "ND", "ZIP": "58206", "ZIP4": "NOT AVAILABLE", "TELEPHONE": "(701) 780-5000", "TYPE": "REHABILITATION", "STATUS": "OPEN", "POPULATION": 257, "COUNTY": "GRAND FORKS", "COUNTYFIPS": "38035", "COUNTRY": "USA", "LATITUDE": 47.909543765000102, "LONGITUDE": -97.069733393000007, "NAICS_CODE": "622310", "NAICS_DESC": "REHABILITATION HOSPITALS (EXCEPT ALCOHOLISM, DRUG ADDICTION)", "SOURCE": "http://www.ndhealth.gov/hf/North_Dakota_Hospitals_Critical_access.htm", "SOURCEDATE": "2018-08-09T00:00:00.000Z", "VAL_METHOD": "IMAGERY/OTHER", "VAL_DATE": "2014-02-11T00:00:00.000Z", "WEBSITE": "www.altru.org/", "STATE_ID": "5021A", "ALT_NAME": "NOT AVAILABLE", "ST_FIPS": "38", "OWNER": "NON-PROFIT", "TTL_STAFF": -999, "BEDS": 257, "TRAUMA": "NOT AVAILABLE", "HELIPAD": "N" }, "geometry": { "type": "Polygon", "coordinates": [ [ [ -97.045298, 47.817276799999973 ], [ -97.066987, 47.817342 ], [ -97.1747525, 47.887032800000028 ], [ -97.217881, 47.931708 ], [ -97.217886, 47.932904 ], [ -97.217886, 47.933139 ], [ -97.1099116, 48.002481200000062 ], [ -97.108166, 48.003177 ], [ -97.087998, 47.994936 ], [ -97.061578, 47.976764 ], [ -97.02054680000002, 47.922028600000047 ], [ -97.005281, 47.856538 ], [ -97.045298, 47.817276799999973 ] ] ] } },
{ "type": "Feature", "properties": { "OBJECTID": 2221, "ID": "0003458730", "NAME": "ST LUKE'S HOSPITAL", "ADDRESS": "702 1ST ST SW", "CITY": "CROSBY", "STATE": "ND", "ZIP": "58730", "ZIP4": "NOT AVAILABLE", "TELEPHONE": "(701) 965-6384", "TYPE": "CRITICAL ACCESS", "STATUS": "OPEN", "POPULATION": 15, "COUNTY": "DIVIDE", "COUNTYFIPS": "38023", "COUNTRY": "USA", "LATITUDE": 48.906692960999997, "LONGITUDE": -103.29903469200001, "NAICS_CODE": "622110", "NAICS_DESC": "GENERAL MEDICAL AND SURGICAL HOSPITALS", "SOURCE": "http://www.ndhealth.gov/hf/North_Dakota_Hospitals_Critical_access.htm", "SOURCEDATE": "2018-08-09T00:00:00.000Z", "VAL_METHOD": "IMAGERY", "VAL_DATE": "2014-02-10T00:00:00.000Z", "WEBSITE": "http://www.dcstlukes.org/", "STATE_ID": "5011A", "ALT_NAME": "NOT AVAILABLE", "ST_FIPS": "38", "OWNER": "NON-PROFIT", "TTL_STAFF": -999, "BEDS": 15, "TRAUMA": "NOT AVAILABLE", "HELIPAD": "Y" }, "geometry": { "type": "Polygon", "coordinates": [ [ [ -103.312106, 48.778431 ], [ -103.486805451794439, 48.908835433902873 ], [ -103.486860340453049, 48.923331340176276 ], [ -103.312182829472079, 48.966817516048948 ], [ -103.290147003715887, 48.966835381683815 ], [ -103.246153949624158, 48.952307489732505 ], [ -103.114638, 48.89442 ], [ -103.312106, 48.778431 ] ] ] } },
{ "type": "Feature", "properties": { "OBJECTID": 2222, "ID": "0002158054", "NAME": "LISBON AREA HEALTH SERVICES", "ADDRESS": "905 MAIN ST", "CITY": "LISBON", "STATE": "ND", "ZIP": "58054", "ZIP4": "NOT AVAILABLE", "TELEPHONE": "(701) 683-5241", "TYPE": "CRITICAL ACCESS", "STATUS": "OPEN", "POPULATION": 25, "COUNTY": "RANSOM", "COUNTYFIPS": "38073", "COUNTRY": "USA", "LATITUDE": 46.437325989000001, "LONGITUDE": -97.680316419999897, "NAICS_CODE": "622110", "NAICS_DESC": "GENERAL MEDICAL AND SURGICAL HOSPITALS", "SOURCE": "http://www.ndhealth.gov/hf/North_Dakota_Hospitals_Critical_access.htm", "SOURCEDATE": "2018-08-09T00:00:00.000Z", "VAL_METHOD": "IMAGERY/OTHER", "VAL_DATE": "2014-02-10T00:00:00.000Z", "WEBSITE": "http://www.lisbonhospital.com", "STATE_ID": "5031A", "ALT_NAME": "NOT AVAILABLE", "ST_FIPS": "38", "OWNER": "NON-PROFIT", "TTL_STAFF": -999, "BEDS": 25, "TRAUMA": "NOT AVAILABLE", "HELIPAD": "N" }, "geometry": { "type": "Polygon", "coordinates": [ [ [ -97.658247, 46.325809 ], [ -97.8148885, 46.413032400000013 ], [ -97.846307, 46.441919 ], [ -97.804368, 46.470815 ], [ -97.679141, 46.543662 ], [ -97.51073, 46.442149 ], [ -97.616132, 46.354891 ], [ -97.658247, 46.325809 ] ] ] } },
{ "type": "Feature", "properties": { "OBJECTID": 2223, "ID": "0003558270", "NAME": "FIRST CARE HEALTH CENTER", "ADDRESS": "115 VIVIAN ST", "CITY": "PARK RIVER", "STATE": "ND", "ZIP": "58270", "ZIP4": "NOT AVAILABLE", "TELEPHONE": "(701) 284-7500", "TYPE": "CRITICAL ACCESS", "STATUS": "OPEN", "POPULATION": 14, "COUNTY": "WALSH", "COUNTYFIPS": "38099", "COUNTRY": "USA", "LATITUDE": 48.399577576000098, "LONGITUDE": -97.744143803, "NAICS_CODE": "622110", "NAICS_DESC": "GENERAL MEDICAL AND SURGICAL HOSPITALS", "SOURCE": "http://www.ndhealth.gov/hf/North_Dakota_Hospitals_Critical_access.htm", "SOURCEDATE": "2018-08-09T00:00:00.000Z", "VAL_METHOD": "IMAGERY", "VAL_DATE": "2014-02-10T00:00:00.000Z", "WEBSITE": "http://www.firstcarehc.com", "STATE_ID": "5042B", "ALT_NAME": "NOT AVAILABLE", "ST_FIPS": "38", "OWNER": "NON-PROFIT", "TTL_STAFF": -999, "BEDS": 14, "TRAUMA": "NOT AVAILABLE", "HELIPAD": "N" }, "geometry": { "type": "Polygon", "coordinates": [ [ [ -97.708908, 48.325298 ], [ -97.7952, 48.339771 ], [ -97.86005, 48.354301 ], [ -97.926293, 48.398308 ], [ -97.862096, 48.441731 ], [ -97.731742, 48.499641 ], [ -97.622772, 48.456163 ], [ -97.557409, 48.412639 ], [ -97.622332, 48.33973 ], [ -97.708908, 48.325298 ] ] ] } },
{ "type": "Feature", "properties": { "OBJECTID": 2224, "ID": "0001858254", "NAME": "NELSON COUNTY HEALTH SYSTEM", "ADDRESS": "200 N MAIN ST", "CITY": "MCVILLE", "STATE": "ND", "ZIP": "58254", "ZIP4": "NOT AVAILABLE", "TELEPHONE": "(701) 322-4328", "TYPE": "CRITICAL ACCESS", "STATUS": "OPEN", "POPULATION": 19, "COUNTY": "NELSON", "COUNTYFIPS": "38063", "COUNTRY": "USA", "LATITUDE": 47.765642663999998, "LONGITUDE": -98.177749573, "NAICS_CODE": "622110", "NAICS_DESC": "GENERAL MEDICAL AND SURGICAL HOSPITALS", "SOURCE": "http://www.ndhealth.gov/hf/North_Dakota_Hospitals_Critical_access.htm", "SOURCEDATE": "2018-08-09T00:00:00.000Z", "VAL_METHOD": "IMAGERY", "VAL_DATE": "2014-02-10T00:00:00.000Z", "WEBSITE": "http://www.nelsoncountyhealthsystem.org", "STATE_ID": "5035P", "ALT_NAME": "NOT AVAILABLE", "ST_FIPS": "38", "OWNER": "NON-PROFIT", "TTL_STAFF": -999, "BEDS": 19, "TRAUMA": "NOT AVAILABLE", "HELIPAD": "N" }, "geometry": { "type": "Polygon", "coordinates": [ [ [ -98.160644, 47.672366 ], [ -98.163223, 47.67237 ], [ -98.317627, 47.759323 ], [ -98.354674, 47.788257 ], [ -98.35471, 47.800953 ], [ -98.311647, 47.831763 ], [ -98.225713, 47.831748 ], [ -98.118412, 47.802697 ], [ -97.989802, 47.744737 ], [ -98.160644, 47.672366 ] ] ] } },
{ "type": "Feature", "properties": { "OBJECTID": 2769, "ID": "0003654880", "NAME": "ST MARYS HSPTL SUPERIOR", "ADDRESS": "3500 TOWER AVE", "CITY": "SUPERIOR", "STATE": "WI", "ZIP": "54880", "ZIP4": "NOT AVAILABLE", "TELEPHONE": "(715) 817-7000", "TYPE": "GENERAL ACUTE CARE", "STATUS": "OPEN", "POPULATION": 25, "COUNTY": "DOUGLAS", "COUNTYFIPS": "55031", "COUNTRY": "USA", "LATITUDE": 46.6975731490001, "LONGITUDE": -92.102632106000001, "NAICS_CODE": "622110", "NAICS_DESC": "GENERAL MEDICAL AND SURGICAL HOSPITALS", "SOURCE": "https://www.dhs.wisconsin.gov/guide/hospital.htm", "SOURCEDATE": "2018-08-13T00:00:00.000Z", "VAL_METHOD": "IMAGERY", "VAL_DATE": "2014-02-10T00:00:00.000Z", "WEBSITE": "http://www.essentiahealth.org/EssentiaHealthStMarysHospitalofSup eriorFoundation/overview.aspx", "STATE_ID": "1032", "ALT_NAME": "NOT AVAILABLE", "ST_FIPS": "55", "OWNER": "NON-PROFIT", "TTL_STAFF": -999, "BEDS": 25, "TRAUMA": "NOT AVAILABLE", "HELIPAD": "N" }, "geometry": { "type": "Polygon", "coordinates": [ [ [ -92.119566, 46.584491 ], [ -92.1404992, 46.590328299999989 ], [ -92.2018984, 46.649207299999972 ], [ -92.202888, 46.651334 ], [ -92.2016182, 46.6567367 ], [ -92.200766, 46.658596 ], [ -92.141571, 46.719659600000057 ], [ -92.1139911, 46.742202199999959 ], [ -92.0995737, 46.74722970000002 ], [ -92.0733882, 46.731406600000035 ], [ -92.0398651, 46.708624900000025 ], [ -92.017639, 46.691958 ], [ -92.0043779, 46.6807788 ], [ -92.0008992, 46.671440299999965 ], [ -92.0010684, 46.6695245 ], [ -92.002386, 46.665657 ], [ -92.066848, 46.604351 ], [ -92.119566, 46.584491 ] ] ] } },
{ "type": "Feature", "properties": { "OBJECTID": 2920, "ID": "0012856623", "NAME": "LAKEWOOD HEALTH CENTER", "ADDRESS": "600 SOUTH MAIN", "CITY": "BAUDETTE", "STATE": "MN", "ZIP": "56623", "ZIP4": "NOT AVAILABLE", "TELEPHONE": "(218) 634-2120", "TYPE": "CRITICAL ACCESS", "STATUS": "OPEN", "POPULATION": 15, "COUNTY": "LAKE OF THE WOODS", "COUNTYFIPS": "27077", "COUNTRY": "USA", "LATITUDE": 48.706583260000102, "LONGITUDE": -94.600416695999996, "NAICS_CODE": "622110", "NAICS_DESC": "GENERAL MEDICAL AND SURGICAL HOSPITALS", "SOURCE": "http://www.health.state.mn.us/divs/fpc/directory/providerselect.cfm", "SOURCEDATE": "2018-08-09T00:00:00.000Z", "VAL_METHOD": "IMAGERY", "VAL_DATE": "2014-02-10T00:00:00.000Z", "WEBSITE": "http://www.lakewoodhealthcenter.org", "STATE_ID": "333", "ALT_NAME": "NOT AVAILABLE", "ST_FIPS": "27", "OWNER": "NON-PROFIT", "TTL_STAFF": -999, "BEDS": 15, "TRAUMA": "NOT AVAILABLE", "HELIPAD": "Y" }, "geometry": { "type": "Polygon", "coordinates": [ [ [ -94.6452807, 48.636612199999973 ], [ -94.6485208, 48.637229 ], [ -94.741488, 48.699521 ], [ -94.783281, 48.727635 ], [ -94.783276, 48.728642 ], [ -94.718136, 48.786553 ], [ -94.43636, 48.69073 ], [ -94.496081, 48.66948 ], [ -94.53812, 48.656569 ], [ -94.61343, 48.642418 ], [ -94.6452807, 48.636612199999973 ] ] ] } },
{ "type": "Feature", "properties": { "OBJECTID": 2965, "ID": "0002758421", "NAME": "CARRINGTON HEALTH CENTER", "ADDRESS": "800 4TH ST N", "CITY": "CARRINGTON", "STATE": "ND", "ZIP": "58421", "ZIP4": "NOT AVAILABLE", "TELEPHONE": "(701) 652-3141", "TYPE": "CRITICAL ACCESS", "STATUS": "OPEN", "POPULATION": 25, "COUNTY": "FOSTER", "COUNTYFIPS": "38031", "COUNTRY": "USA", "LATITUDE": 47.454229586000103, "LONGITUDE": -99.123820023999897, "NAICS_CODE": "622110", "NAICS_DESC": "GENERAL MEDICAL AND SURGICAL HOSPITALS", "SOURCE": "http://www.ndhealth.gov/hf/North_Dakota_Hospitals_Critical_access.htm", "SOURCEDATE": "2018-08-09T00:00:00.000Z", "VAL_METHOD": "IMAGERY/OTHER", "VAL_DATE": "2014-02-10T00:00:00.000Z", "WEBSITE": "www.carringtonhealthcenter.org/", "STATE_ID": "5008B", "ALT_NAME": "NOT AVAILABLE", "ST_FIPS": "38", "OWNER": "NON-PROFIT", "TTL_STAFF": -999, "BEDS": 25, "TRAUMA": "NOT AVAILABLE", "HELIPAD": "Y" }, "geometry": { "type": "Polygon", "coordinates": [ [ [ -99.053742, 47.355797 ], [ -99.181343, 47.414042 ], [ -99.266281, 47.468494 ], [ -99.117394, 47.558821 ], [ -98.92623, 47.457071 ], [ -99.053742, 47.355797 ] ] ] } },
{ "type": "Feature", "properties": { "OBJECTID": 2966, "ID": "0000558201", "NAME": "ALTRU HOSPITAL", "ADDRESS": "1200 S COLUMBIA RD", "CITY": "GRAND FORKS", "STATE": "ND", "ZIP": "58201", "ZIP4": "NOT AVAILABLE", "TELEPHONE": "(701) 780-5000", "TYPE": "GENERAL ACUTE CARE", "STATUS": "OPEN", "POPULATION": 257, "COUNTY": "GRAND FORKS", "COUNTYFIPS": "38035", "COUNTRY": "USA", "LATITUDE": 47.910573, "LONGITUDE": -97.068686194999898, "NAICS_CODE": "622110", "NAICS_DESC": "GENERAL MEDICAL AND SURGICAL HOSPITALS", "SOURCE": "http://www.ndhealth.gov/hf/North_Dakota_Hospitals_Critical_access.htm", "SOURCEDATE": "2018-08-09T00:00:00.000Z", "VAL_METHOD": "IMAGERY", "VAL_DATE": "2014-02-10T00:00:00.000Z", "WEBSITE": "http://www.altru.org", "STATE_ID": "5021A", "ALT_NAME": "NOT AVAILABLE", "ST_FIPS": "38", "OWNER": "NON-PROFIT", "TTL_STAFF": -999, "BEDS": 257, "TRAUMA": "LEVEL II", "HELIPAD": "N" }, "geometry": { "type": "Polygon", "coordinates": [ [ [ -97.0779894, 47.777047 ], [ -97.228560021211521, 47.932864996461703 ], [ -97.22859202122433, 47.933107996461217 ], [ -97.1312309, 48.005419899999985 ], [ -97.108166, 48.003177 ], [ -97.071645, 47.991346 ], [ -97.02054680000002, 47.922028600000047 ], [ -97.0022665, 47.853473099999974 ], [ -97.045768, 47.800854 ], [ -97.0779894, 47.777047 ] ] ] } },
{ "type": "Feature", "properties": { "OBJECTID": 6116, "ID": "0003157430", "NAME": "MARSHALL COUNTY HEALTHCARE CENTER", "ADDRESS": "413 9TH STREET", "CITY": "BRITTON", "STATE": "SD", "ZIP": "57430", "ZIP4": "NOT AVAILABLE", "TELEPHONE": "(605) 448-2253", "TYPE": "CRITICAL ACCESS", "STATUS": "OPEN", "POPULATION": 20, "COUNTY": "MARSHALL", "COUNTYFIPS": "46091", "COUNTRY": "USA", "LATITUDE": 45.78858387, "LONGITUDE": -97.746138531, "NAICS_CODE": "622110", "NAICS_DESC": "GENERAL MEDICAL AND SURGICAL HOSPITALS", "SOURCE": "https://apps.sd.gov/ph04lassnet/rptPH04LicenseList.Aspx", "SOURCEDATE": "2018-08-10T00:00:00.000Z", "VAL_METHOD": "IMAGERY", "VAL_DATE": "2014-02-10T00:00:00.000Z", "WEBSITE": "http://www.avera.org", "STATE_ID": "NOT AVAILABLE", "ALT_NAME": "NOT AVAILABLE", "ST_FIPS": "46", "OWNER": "NON-PROFIT", "TTL_STAFF": -999, "BEDS": 20, "TRAUMA": "TRH", "HELIPAD": "Y" }, "geometry": { "type": "Polygon", "coordinates": [ [ [ -97.751746, 45.675051 ], [ -97.916831, 45.79136 ], [ -97.750385, 45.87832 ], [ -97.6264241, 45.819566700000053 ], [ -97.590386, 45.788868 ], [ -97.668475, 45.732874 ], [ -97.751746, 45.675051 ] ] ] } },
{ "type": "Feature", "properties": { "OBJECTID": 6175, "ID": "0000157450", "NAME": "HOLY INFANT HOSPITAL", "ADDRESS": "512 MAIN STREET", "CITY": "HOVEN", "STATE": "SD", "ZIP": "57450", "ZIP4": "NOT AVAILABLE", "TELEPHONE": "(605) 948-2262", "TYPE": "GENERAL ACUTE CARE", "STATUS": "CLOSED", "POPULATION": 26, "COUNTY": "POTTER", "COUNTYFIPS": "46107", "COUNTRY": "USA", "LATITUDE": 45.239804111000097, "LONGITUDE": -99.777590244999899, "NAICS_CODE": "622110", "NAICS_DESC": "GENERAL MEDICAL AND SURGICAL HOSPITALS", "SOURCE": "http://arcgis.sd.gov/ArcGIS/rest/services/SD_All/MapServer/38", "SOURCEDATE": "2012-11-24T00:00:00.000Z", "VAL_METHOD": "IMAGERY", "VAL_DATE": "2014-02-12T00:00:00.000Z", "WEBSITE": "NOT AVAILABLE", "STATE_ID": "NOT AVAILABLE", "ALT_NAME": "NOT AVAILABLE", "ST_FIPS": "46", "OWNER": "NON-PROFIT", "TTL_STAFF": -999, "BEDS": 26, "TRAUMA": "NOT AVAILABLE", "HELIPAD": "Y" }, "geometry": { "type": "Polygon", "coordinates": [ [ [ -99.7770839, 45.129568 ], [ -99.955622, 45.246526 ], [ -99.7907279, 45.361983299999977 ], [ -99.671632499999987, 45.2747659 ], [ -99.655148, 45.201757 ], [ -99.7770839, 45.129568 ] ] ] } },
{ "type": "Feature", "properties": { "OBJECTID": 6417, "ID": "0007455720", "NAME": "COMMUNITY MEMORIAL HOSPITAL", "ADDRESS": "512 SKYLINE BLVD", "CITY": "CLOQUET", "STATE": "MN", "ZIP": "55720", "ZIP4": "NOT AVAILABLE", "TELEPHONE": "(218) 879-4641", "TYPE": "CRITICAL ACCESS", "STATUS": "OPEN", "POPULATION": 36, "COUNTY": "CARLTON", "COUNTYFIPS": "27017", "COUNTRY": "USA", "LATITUDE": 46.731290829000002, "LONGITUDE": -92.462019636999997, "NAICS_CODE": "622110", "NAICS_DESC": "GENERAL MEDICAL AND SURGICAL HOSPITALS", "SOURCE": "http://www.health.state.mn.us/divs/fpc/directory/providerselect.cfm", "SOURCEDATE": "2018-08-09T00:00:00.000Z", "VAL_METHOD": "IMAGERY", "VAL_DATE": "2014-02-10T00:00:00.000Z", "WEBSITE": "http://www.cloquethospital.com", "STATE_ID": "48", "ALT_NAME": "NOT AVAILABLE", "ST_FIPS": "27", "OWNER": "NON-PROFIT", "TTL_STAFF": -999, "BEDS": 36, "TRAUMA": "LEVEL IV", "HELIPAD": "Y" }, "geometry": { "type": "Polygon", "coordinates": [ [ [ -92.501582, 46.645501099999976 ], [ -92.502805, 46.645936 ], [ -92.5333596, 46.66364860000003 ], [ -92.5655988, 46.722418 ], [ -92.4770485, 46.84565419999997 ], [ -92.4599319, 46.867978199999953 ], [ -92.4595991, 46.867934799999958 ], [ -92.3437692, 46.779239699999962 ], [ -92.3225616, 46.7496203 ], [ -92.3176494, 46.735274199999971 ], [ -92.3339816, 46.7064753 ], [ -92.3442112, 46.698043699999985 ], [ -92.3936946, 46.663569 ], [ -92.419377, 46.649631700000029 ], [ -92.4269358, 46.647512600000027 ], [ -92.501582, 46.645501099999976 ] ] ] } },
{ "type": "Feature", "properties": { "OBJECTID": 6419, "ID": "0013155723", "NAME": "COOK HOSPITAL", "ADDRESS": "10 SOUTHEAST FIFTH STREET", "CITY": "COOK", "STATE": "MN", "ZIP": "55723", "ZIP4": "NOT AVAILABLE", "TELEPHONE": "(218) 666-5945", "TYPE": "CRITICAL ACCESS", "STATUS": "OPEN", "POPULATION": 14, "COUNTY": "ST. LOUIS", "COUNTYFIPS": "27137", "COUNTRY": "USA", "LATITUDE": 47.853387739, "LONGITUDE": -92.679530338000006, "NAICS_CODE": "622110", "NAICS_DESC": "GENERAL MEDICAL AND SURGICAL HOSPITALS", "SOURCE": "http://www.health.state.mn.us/divs/fpc/directory/providerselect.cfm", "SOURCEDATE": "2018-08-09T00:00:00.000Z", "VAL_METHOD": "IMAGERY", "VAL_DATE": "2014-03-12T00:00:00.000Z", "WEBSITE": "http://www.cookhospital.org", "STATE_ID": "586", "ALT_NAME": "NOT AVAILABLE", "ST_FIPS": "27", "OWNER": "GOVERNMENT - DISTRICT/AUTHORITY", "TTL_STAFF": -999, "BEDS": 14, "TRAUMA": "LEVEL IV", "HELIPAD": "Y" }, "geometry": { "type": "Polygon", "coordinates": [ [ [ -92.6515709, 47.724677800000045 ], [ -92.8262806, 47.8625826 ], [ -92.827719, 47.928163800000029 ], [ -92.676617, 47.936655 ], [ -92.6450216, 47.927228599999928 ], [ -92.5586537, 47.846491300000018 ], [ -92.6341948, 47.744339700000012 ], [ -92.6512393, 47.724681899999943 ], [ -92.6515709, 47.724677800000045 ] ] ] } },
{ "type": "Feature", "properties": { "OBJECTID": 6421, "ID": "0011456628", "NAME": "BIGFORK VALLEY HOSPITAL", "ADDRESS": "258 PINE TREE DRIVE", "CITY": "BIGFORK", "STATE": "MN", "ZIP": "56628", "ZIP4": "NOT AVAILABLE", "TELEPHONE": "(218) 743-3177", "TYPE": "CRITICAL ACCESS", "STATUS": "OPEN", "POPULATION": 20, "COUNTY": "ITASCA", "COUNTYFIPS": "27061", "COUNTRY": "USA", "LATITUDE": 47.747427342000002, "LONGITUDE": -93.64575966, "NAICS_CODE": "622110", "NAICS_DESC": "GENERAL MEDICAL AND SURGICAL HOSPITALS", "SOURCE": "http://www.health.state.mn.us/divs/fpc/directory/providerselect.cfm", "SOURCEDATE": "2018-08-09T00:00:00.000Z", "VAL_METHOD": "IMAGERY", "VAL_DATE": "2014-03-12T00:00:00.000Z", "WEBSITE": "http://www.bigforkvalley.org", "STATE_ID": "300", "ALT_NAME": "NOT AVAILABLE", "ST_FIPS": "27", "OWNER": "GOVERNMENT - DISTRICT/AUTHORITY", "TTL_STAFF": -999, "BEDS": 20, "TRAUMA": "LEVEL IV", "HELIPAD": "Y" }, "geometry": { "type": "Polygon", "coordinates": [ [ [ -93.695436500000014, 47.649482600000042 ], [ -93.775782600000014, 47.761501499999966 ], [ -93.6430083, 47.854501499999955 ], [ -93.6173971, 47.840060600000015 ], [ -93.5743154, 47.811856599999984 ], [ -93.566959, 47.70300819999995 ], [ -93.6730857, 47.649874499999989 ], [ -93.695436500000014, 47.649482600000042 ] ] ] } },
{ "type": "Feature", "properties": { "OBJECTID": 6430, "ID": "0010555731", "NAME": "ELY BLOOMENSON COMM HOSPITAL", "ADDRESS": "328 WEST CONAN STREET", "CITY": "ELY", "STATE": "MN", "ZIP": "55731", "ZIP4": "NOT AVAILABLE", "TELEPHONE": "(218) 365-3271", "TYPE": "CRITICAL ACCESS", "STATUS": "OPEN", "POPULATION": 25, "COUNTY": "ST. LOUIS", "COUNTYFIPS": "27137", "COUNTRY": "USA", "LATITUDE": 47.90025861, "LONGITUDE": -91.872210093999996, "NAICS_CODE": "622110", "NAICS_DESC": "GENERAL MEDICAL AND SURGICAL HOSPITALS", "SOURCE": "http://www.health.state.mn.us/divs/fpc/directory/providerselect.cfm", "SOURCEDATE": "2018-08-09T00:00:00.000Z", "VAL_METHOD": "IMAGERY", "VAL_DATE": "2014-03-12T00:00:00.000Z", "WEBSITE": "http://www.ebch.org", "STATE_ID": "28259", "ALT_NAME": "NOT AVAILABLE", "ST_FIPS": "27", "OWNER": "NON-PROFIT", "TTL_STAFF": -999, "BEDS": 25, "TRAUMA": "LEVEL IV", "HELIPAD": "Y" }, "geometry": { "type": "Polygon", "coordinates": [ [ [ -91.8938059, 47.800462100000033 ], [ -92.014351600000012, 47.877363700000053 ], [ -92.0072727, 47.88427130000003 ], [ -91.966743, 47.91731 ], [ -91.956172, 47.92275 ], [ -91.949435, 47.925675 ], [ -91.8739091, 47.949168399999969 ], [ -91.8496835, 47.950256600000017 ], [ -91.8000915, 47.939714 ], [ -91.7976495, 47.9321554 ], [ -91.793176, 47.886757 ], [ -91.814535600000013, 47.829885500000053 ], [ -91.8938059, 47.800462100000033 ] ] ] } },
{ "type": "Feature", "properties": { "OBJECTID": 6431, "ID": "0013256510", "NAME": "ESSENTIA HEALTH ADA", "ADDRESS": "201 9TH STREET WEST", "CITY": "ADA", "STATE": "MN", "ZIP": "56510", "ZIP4": "NOT AVAILABLE", "TELEPHONE": "(218) 784-5000", "TYPE": "CRITICAL ACCESS", "STATUS": "OPEN", "POPULATION": 14, "COUNTY": "NORMAN", "COUNTYFIPS": "27107", "COUNTRY": "USA", "LATITUDE": 47.297587296000103, "LONGITUDE": -96.531292448000002, "NAICS_CODE": "622110", "NAICS_DESC": "GENERAL MEDICAL AND SURGICAL HOSPITALS", "SOURCE": "http://www.health.state.mn.us/divs/fpc/directory/providerselect.cfm", "SOURCEDATE": "2018-08-09T00:00:00.000Z", "VAL_METHOD": "IMAGERY", "VAL_DATE": "2014-03-12T00:00:00.000Z", "WEBSITE": "http://www.essentiahealth.org", "STATE_ID": "26485", "ALT_NAME": "NOT AVAILABLE", "ST_FIPS": "27", "OWNER": "NON-PROFIT", "TTL_STAFF": -999, "BEDS": 14, "TRAUMA": "LEVEL IV", "HELIPAD": "Y" }, "geometry": { "type": "Polygon", "coordinates": [ [ [ -96.5004319, 47.179392700000015 ], [ -96.670142, 47.266751 ], [ -96.711185, 47.295804 ], [ -96.667721, 47.324775 ], [ -96.623161, 47.353979 ], [ -96.516003, 47.415396 ], [ -96.321951, 47.296192 ], [ -96.5004319, 47.179392700000015 ] ] ] } },
{ "type": "Feature", "properties": { "OBJECTID": 6432, "ID": "0006756542", "NAME": "ESSENTIA HEALTH FOSSTON", "ADDRESS": "900 HILLIGOSS BLVD SOUTHEAST", "CITY": "FOSSTON", "STATE": "MN", "ZIP": "56542", "ZIP4": "NOT AVAILABLE", "TELEPHONE": "(218) 435-1133", "TYPE": "CRITICAL ACCESS", "STATUS": "OPEN", "POPULATION": 43, "COUNTY": "POLK", "COUNTYFIPS": "27119", "COUNTRY": "USA", "LATITUDE": 47.571285058999997, "LONGITUDE": -95.739468238000001, "NAICS_CODE": "622110", "NAICS_DESC": "GENERAL MEDICAL AND SURGICAL HOSPITALS", "SOURCE": "http://www.health.state.mn.us/divs/fpc/directory/providerselect.cfm", "SOURCEDATE": "2018-08-09T00:00:00.000Z", "VAL_METHOD": "IMAGERY", "VAL_DATE": "2014-02-10T00:00:00.000Z", "WEBSITE": "http://www.essentiahealth.org", "STATE_ID": "461", "ALT_NAME": "NOT AVAILABLE", "ST_FIPS": "27", "OWNER": "NON-PROFIT", "TTL_STAFF": -999, "BEDS": 43, "TRAUMA": "LEVEL IV", "HELIPAD": "Y" }, "geometry": { "type": "Polygon", "coordinates": [ [ [ -95.7516103, 47.499126899999979 ], [ -95.7901125, 47.500242800000017 ], [ -95.853692, 47.543099500000025 ], [ -95.9186943, 47.6407557 ], [ -95.9187028, 47.640999300000033 ], [ -95.9186763, 47.643879 ], [ -95.7263016, 47.659185100000016 ], [ -95.6729946, 47.629646699999945 ], [ -95.6284448, 47.600704600000029 ], [ -95.6071467, 47.586154 ], [ -95.589228, 47.572316 ], [ -95.5329484, 47.5287455 ], [ -95.6105198, 47.499135499999966 ], [ -95.7516103, 47.499126899999979 ] ] ] } },
{ "type": "Feature", "properties": { "OBJECTID": 6433, "ID": "0012655705", "NAME": "ESSENTIA HEALTH NORTHERN PINES", "ADDRESS": "5211 HIGHWAY 110", "CITY": "AURORA", "STATE": "MN", "ZIP": "55705", "ZIP4": "NOT AVAILABLE", "TELEPHONE": "(218) 229-2211", "TYPE": "CRITICAL ACCESS", "STATUS": "OPEN", "POPULATION": 16, "COUNTY": "ST. LOUIS", "COUNTYFIPS": "27137", "COUNTRY": "USA", "LATITUDE": 47.51797695, "LONGITUDE": -92.229342663999901, "NAICS_CODE": "622110", "NAICS_DESC": "GENERAL MEDICAL AND SURGICAL HOSPITALS", "SOURCE": "http://www.health.state.mn.us/divs/fpc/directory/providerselect.cfm", "SOURCEDATE": "2018-08-09T00:00:00.000Z", "VAL_METHOD": "IMAGERY", "VAL_DATE": "2014-02-10T00:00:00.000Z", "WEBSITE": "http://www.essentiahealth.org/NorthernPines/FindaClinic/Essentia- HealthNorthern-Pines-36.aspx", "STATE_ID": "604", "ALT_NAME": "NOT AVAILABLE", "ST_FIPS": "27", "OWNER": "NON-PROFIT", "TTL_STAFF": -999, "BEDS": 16, "TRAUMA": "LEVEL IV", "HELIPAD": "Y" }, "geometry": { "type": "Polygon", "coordinates": [ [ [ -92.259954, 47.415217 ], [ -92.3707738, 47.507679399999986 ], [ -92.365538, 47.527905 ], [ -92.3624212, 47.531140100000059 ], [ -92.290667, 47.568236700000028 ], [ -92.2246389, 47.589337900000011 ], [ -92.1177748, 47.5451764 ], [ -92.0580109, 47.4859646 ], [ -92.2186994, 47.415504899999981 ], [ -92.259954, 47.415217 ] ] ] } },
{ "type": "Feature", "properties": { "OBJECTID": 6440, "ID": "0012156557", "NAME": "MAHNOMEN HEALTH CENTER", "ADDRESS": "414 WEST JEFFERSON", "CITY": "MAHNOMEN", "STATE": "MN", "ZIP": "56557", "ZIP4": "NOT AVAILABLE", "TELEPHONE": "(218) 935-2511", "TYPE": "CRITICAL ACCESS", "STATUS": "OPEN", "POPULATION": 18, "COUNTY": "MAHNOMEN", "COUNTYFIPS": "27087", "COUNTRY": "USA", "LATITUDE": 47.3117497900001, "LONGITUDE": -95.972852417999903, "NAICS_CODE": "622110", "NAICS_DESC": "GENERAL MEDICAL AND SURGICAL HOSPITALS", "SOURCE": "http://www.health.state.mn.us/divs/fpc/directory/providerselect.cfm", "SOURCEDATE": "2018-08-09T00:00:00.000Z", "VAL_METHOD": "IMAGERY", "VAL_DATE": "2014-03-12T00:00:00.000Z", "WEBSITE": "http://www.mahnomenhealthcenter.com", "STATE_ID": "353", "ALT_NAME": "NOT AVAILABLE", "ST_FIPS": "27", "OWNER": "GOVERNMENT - LOCAL", "TTL_STAFF": -999, "BEDS": 18, "TRAUMA": "LEVEL IV", "HELIPAD": "Y" }, "geometry": { "type": "Polygon", "coordinates": [ [ [ -95.9332492, 47.209470100000026 ], [ -96.018484, 47.238633 ], [ -96.0669439, 47.274892 ], [ -96.1306525, 47.325296800000032 ], [ -95.9761595, 47.438795499999962 ], [ -95.8049291, 47.3244764 ], [ -95.8686512, 47.252557400000029 ], [ -95.9332492, 47.209470100000026 ] ] ] } },
{ "type": "Feature", "properties": { "OBJECTID": 6450, "ID": "0002756601", "NAME": "SANFORD BEMIDJI MEDICAL CENTER", "ADDRESS": "1300 ANNE STREET NORTHWEST", "CITY": "BEMIDJI", "STATE": "MN", "ZIP": "56601", "ZIP4": "NOT AVAILABLE", "TELEPHONE": "(218) 751-5430", "TYPE": "GENERAL ACUTE CARE", "STATUS": "OPEN", "POPULATION": 118, "COUNTY": "BELTRAMI", "COUNTYFIPS": "27007", "COUNTRY": "USA", "LATITUDE": 47.503391901999997, "LONGITUDE": -94.899917122999994, "NAICS_CODE": "622110", "NAICS_DESC": "GENERAL MEDICAL AND SURGICAL HOSPITALS", "SOURCE": "http://www.health.state.mn.us/divs/fpc/directory/providerselect.cfm", "SOURCEDATE": "2018-08-09T00:00:00.000Z", "VAL_METHOD": "IMAGERY", "VAL_DATE": "2014-02-10T00:00:00.000Z", "WEBSITE": "http://www.sanfordhealth.org/locations/sanford-bemidji-medical-center", "STATE_ID": "821", "ALT_NAME": "NOT AVAILABLE", "ST_FIPS": "27", "OWNER": "NON-PROFIT", "TTL_STAFF": -999, "BEDS": 118, "TRAUMA": "LEVEL IV", "HELIPAD": "Y" }, "geometry": { "type": "Polygon", "coordinates": [ [ [ -94.863661, 47.406813099999944 ], [ -94.885045, 47.410406200000033 ], [ -94.9927908, 47.4366195 ], [ -95.1076617, 47.51864809999995 ], [ -95.1076627, 47.51887610000005 ], [ -95.0136315, 47.571118099999985 ], [ -94.8808807, 47.623050500000019 ], [ -94.879722, 47.62295 ], [ -94.7632171, 47.599319800000018 ], [ -94.8056164, 47.411269599999969 ], [ -94.8105903, 47.40871510000003 ], [ -94.863661, 47.406813099999944 ] ] ] } },
{ "type": "Feature", "properties": { "OBJECTID": 6452, "ID": "0010356621", "NAME": "SANFORD BAGLEY MEDICAL CENTER", "ADDRESS": "203 - 4TH ST NW", "CITY": "BAGLEY", "STATE": "MN", "ZIP": "56621", "ZIP4": "NOT AVAILABLE", "TELEPHONE": "(218) 694-6501", "TYPE": "CRITICAL ACCESS", "STATUS": "OPEN", "POPULATION": 25, "COUNTY": "CLEARWATER", "COUNTYFIPS": "27029", "COUNTRY": "USA", "LATITUDE": 47.526333526000002, "LONGITUDE": -95.402218032999897, "NAICS_CODE": "622110", "NAICS_DESC": "GENERAL MEDICAL AND SURGICAL HOSPITALS", "SOURCE": "http://www.health.state.mn.us/divs/fpc/directory/providerselect.cfm", "SOURCEDATE": "2018-08-09T00:00:00.000Z", "VAL_METHOD": "IMAGERY", "VAL_DATE": "2014-02-10T00:00:00.000Z", "WEBSITE": "http://www.sanfordhealth.org/locations/sanford-bagley-medical-center", "STATE_ID": "76", "ALT_NAME": "NOT AVAILABLE", "ST_FIPS": "27", "OWNER": "NON-PROFIT", "TTL_STAFF": -999, "BEDS": 25, "TRAUMA": "LEVEL IV", "HELIPAD": "Y" }, "geometry": { "type": "Polygon", "coordinates": [ [ [ -95.384636, 47.411122 ], [ -95.59669, 47.5284934 ], [ -95.59669980000001, 47.528773 ], [ -95.4264876, 47.645210500000054 ], [ -95.2268964, 47.548581499999948 ], [ -95.1969598, 47.5286743 ], [ -95.197056100000012, 47.528457199999949 ], [ -95.3823492, 47.411209699999965 ], [ -95.384636, 47.411122 ] ] ] } },
{ "type": "Feature", "properties": { "OBJECTID": 6455, "ID": "0005456470", "NAME": "ST JOSEPHS AREA HLTH SERVICES", "ADDRESS": "600 PLEASANT AVE", "CITY": "PARK RAPIDS", "STATE": "MN", "ZIP": "56470", "ZIP4": "NOT AVAILABLE", "TELEPHONE": "(218) 732-3311", "TYPE": "CRITICAL ACCESS", "STATUS": "OPEN", "POPULATION": 50, "COUNTY": "HUBBARD", "COUNTYFIPS": "27057", "COUNTRY": "USA", "LATITUDE": 46.915957092, "LONGITUDE": -95.062273612999903, "NAICS_CODE": "622110", "NAICS_DESC": "GENERAL MEDICAL AND SURGICAL HOSPITALS", "SOURCE": "http://www.health.state.mn.us/divs/fpc/directory/providerselect.cfm", "SOURCEDATE": "2018-08-09T00:00:00.000Z", "VAL_METHOD": "IMAGERY", "VAL_DATE": "2014-02-10T00:00:00.000Z", "WEBSITE": "http://www.chisjh.org/", "STATE_ID": "287", "ALT_NAME": "NOT AVAILABLE", "ST_FIPS": "27", "OWNER": "NON-PROFIT", "TTL_STAFF": -999, "BEDS": 50, "TRAUMA": "LEVEL IV", "HELIPAD": "N" }, "geometry": { "type": "Polygon", "coordinates": [ [ [ -95.1052201, 46.805148899999971 ], [ -95.1838437, 46.920145 ], [ -95.162396199999989, 46.9641128 ], [ -95.108319, 47.0174898 ], [ -95.0021031, 46.99285660000001 ], [ -94.9507771, 46.964755099999977 ], [ -94.9050212, 46.929686700000055 ], [ -94.9961918, 46.841658200000026 ], [ -95.0074125, 46.8343585 ], [ -95.1001328, 46.80524429999997 ], [ -95.1052201, 46.805148899999971 ] ] ] } },
{ "type": "Feature", "properties": { "OBJECTID": 6456, "ID": "0005956482", "NAME": "TRI COUNTY HOSPITAL", "ADDRESS": "415 JEFFERSON STREET NORTH", "CITY": "WADENA", "STATE": "MN", "ZIP": "56482", "ZIP4": "NOT AVAILABLE", "TELEPHONE": "(218) 631-3510", "TYPE": "CRITICAL ACCESS", "STATUS": "OPEN", "POPULATION": 49, "COUNTY": "WADENA", "COUNTYFIPS": "27159", "COUNTRY": "USA", "LATITUDE": 46.445653396000097, "LONGITUDE": -95.134401413000006, "NAICS_CODE": "622110", "NAICS_DESC": "GENERAL MEDICAL AND SURGICAL HOSPITALS", "SOURCE": "http://www.health.state.mn.us/divs/fpc/directory/providerselect.cfm", "SOURCEDATE": "2018-08-09T00:00:00.000Z", "VAL_METHOD": "IMAGERY", "VAL_DATE": "2014-03-12T00:00:00.000Z", "WEBSITE": "https://www.tchc.org/", "STATE_ID": "680", "ALT_NAME": "NOT AVAILABLE", "ST_FIPS": "27", "OWNER": "NON-PROFIT", "TTL_STAFF": -999, "BEDS": 49, "TRAUMA": "LEVEL IV", "HELIPAD": "Y" }, "geometry": { "type": "Polygon", "coordinates": [ [ [ -95.134765, 46.340624 ], [ -95.249458, 46.390678 ], [ -95.280052, 46.407898 ], [ -95.300998, 46.485140200000018 ], [ -95.3010042, 46.485549099999965 ], [ -95.176373, 46.535594 ], [ -95.095598, 46.547451 ], [ -95.0929356, 46.547424400000011 ], [ -95.0552411, 46.513814199999942 ], [ -94.9887846, 46.4413196 ], [ -94.9781266, 46.385643699999981 ], [ -94.9780976, 46.385314600000022 ], [ -95.0083688, 46.375957500000013 ], [ -95.134765, 46.340624 ] ] ] } },
{ "type": "Feature", "properties": { "OBJECTID": 6462, "ID": "0003058495", "NAME": "WISHEK COMMUNITY HOSPITAL", "ADDRESS": "1007 4TH AVE S", "CITY": "WISHEK", "STATE": "ND", "ZIP": "58495", "ZIP4": "NOT AVAILABLE", "TELEPHONE": "(701) 452-2326", "TYPE": "CRITICAL ACCESS", "STATUS": "OPEN", "POPULATION": 24, "COUNTY": "MCINTOSH", "COUNTYFIPS": "38051", "COUNTRY": "USA", "LATITUDE": 46.2554155, "LONGITUDE": -99.55168128, "NAICS_CODE": "622110", "NAICS_DESC": "GENERAL MEDICAL AND SURGICAL HOSPITALS", "SOURCE": "http://www.ndhealth.gov/hf/North_Dakota_Hospitals_Critical_access.htm", "SOURCEDATE": "2018-08-09T00:00:00.000Z", "VAL_METHOD": "IMAGERY/OTHER", "VAL_DATE": "2014-02-10T00:00:00.000Z", "WEBSITE": "http://www.wishekhospital.com", "STATE_ID": "5053A", "ALT_NAME": "NOT AVAILABLE", "ST_FIPS": "38", "OWNER": "NON-PROFIT", "TTL_STAFF": -999, "BEDS": 24, "TRAUMA": "NOT AVAILABLE", "HELIPAD": "N" }, "geometry": { "type": "Polygon", "coordinates": [ [ [ -99.546514989008884, 46.142182000413605 ], [ -99.565883, 46.143513 ], [ -99.7120991, 46.259643 ], [ -99.648869, 46.282915 ], [ -99.560859, 46.297561 ], [ -99.456224, 46.28352 ], [ -99.443208, 46.256519 ], [ -99.546514989008884, 46.142182000413605 ] ] ] } },
{ "type": "Feature", "properties": { "OBJECTID": 6463, "ID": "0003158413", "NAME": "ASHLEY MEDICAL CENTER", "ADDRESS": "612 CENTER AVENUE N", "CITY": "ASHLEY", "STATE": "ND", "ZIP": "58413", "ZIP4": "NOT AVAILABLE", "TELEPHONE": "(701) 288-3433", "TYPE": "CRITICAL ACCESS", "STATUS": "OPEN", "POPULATION": 20, "COUNTY": "MCINTOSH", "COUNTYFIPS": "38051", "COUNTRY": "USA", "LATITUDE": 46.040075866000102, "LONGITUDE": -99.372441211999998, "NAICS_CODE": "622110", "NAICS_DESC": "GENERAL MEDICAL AND SURGICAL HOSPITALS", "SOURCE": "http://www.ndhealth.gov/hf/North_Dakota_Hospitals_Critical_access.htm", "SOURCEDATE": "2018-08-09T00:00:00.000Z", "VAL_METHOD": "IMAGERY/OTHER", "VAL_DATE": "2014-02-11T00:00:00.000Z", "WEBSITE": "www.amctoday.org/?", "STATE_ID": "5001A", "ALT_NAME": "NOT AVAILABLE", "ST_FIPS": "38", "OWNER": "NON-PROFIT", "TTL_STAFF": -999, "BEDS": 20, "TRAUMA": "NOT AVAILABLE", "HELIPAD": "N" }, "geometry": { "type": "Polygon", "coordinates": [ [ [ -99.3774912, 45.940273499999975 ], [ -99.545607030157313, 46.027641990117218 ], [ -99.378187009653573, 46.114317999537782 ], [ -99.295395026499605, 46.084984000032563 ], [ -99.191796234934586, 46.026976202383779 ], [ -99.3774912, 45.940273499999975 ] ] ] } },
{ "type": "Feature", "properties": { "OBJECTID": 6464, "ID": "0001258854", "NAME": "MCKENZIE COUNTY HEALTHCARE SYSTEMS", "ADDRESS": "516 NORTH MAIN ST", "CITY": "WATFORD CITY", "STATE": "ND", "ZIP": "58854", "ZIP4": "NOT AVAILABLE", "TELEPHONE": "(701) 842-3000", "TYPE": "CRITICAL ACCESS", "STATUS": "OPEN", "POPULATION": 24, "COUNTY": "MCKENZIE", "COUNTYFIPS": "38053", "COUNTRY": "USA", "LATITUDE": 47.806983138000099, "LONGITUDE": -103.28251619, "NAICS_CODE": "622110", "NAICS_DESC": "GENERAL MEDICAL AND SURGICAL HOSPITALS", "SOURCE": "http://www.ndhealth.gov/hf/North_Dakota_Hospitals_Critical_access.htm", "SOURCEDATE": "2018-08-09T00:00:00.000Z", "VAL_METHOD": "IMAGERY/OTHER", "VAL_DATE": "2014-02-11T00:00:00.000Z", "WEBSITE": "http://www.mckenziehealth.com", "STATE_ID": "5051A", "ALT_NAME": "NOT AVAILABLE", "ST_FIPS": "38", "OWNER": "NON-PROFIT", "TTL_STAFF": -999, "BEDS": 24, "TRAUMA": "NOT AVAILABLE", "HELIPAD": "N" }, "geometry": { "type": "Polygon", "coordinates": [ [ [ -103.283207, 47.695604 ], [ -103.4552179, 47.804763899999941 ], [ -103.4552001, 47.804899 ], [ -103.31539, 47.877317 ], [ -103.273574200000013, 47.8830506 ], [ -103.262312, 47.876964 ], [ -103.18689, 47.804475 ], [ -103.213623, 47.768033 ], [ -103.2564747, 47.714500800000032 ], [ -103.283207, 47.695604 ] ] ] } },
{ "type": "Feature", "properties": { "OBJECTID": 6573, "ID": "0003457437", "NAME": "EUREKA COMMUNITY HEALTH SERVICES", "ADDRESS": "410 9TH STREET", "CITY": "EUREKA", "STATE": "SD", "ZIP": "57437", "ZIP4": "NOT AVAILABLE", "TELEPHONE": "(605) 284-2661", "TYPE": "CRITICAL ACCESS", "STATUS": "OPEN", "POPULATION": 6, "COUNTY": "MCPHERSON", "COUNTYFIPS": "46089", "COUNTRY": "USA", "LATITUDE": 45.772172268000098, "LONGITUDE": -99.623019248999995, "NAICS_CODE": "622110", "NAICS_DESC": "GENERAL MEDICAL AND SURGICAL HOSPITALS", "SOURCE": "https://apps.sd.gov/ph04lassnet/rptPH04LicenseList.Aspx", "SOURCEDATE": "2018-08-10T00:00:00.000Z", "VAL_METHOD": "IMAGERY", "VAL_DATE": "2014-02-10T00:00:00.000Z", "WEBSITE": "http://www.avera.org", "STATE_ID": "NOT AVAILABLE", "ALT_NAME": "NOT AVAILABLE", "ST_FIPS": "46", "OWNER": "NON-PROFIT", "TTL_STAFF": -999, "BEDS": 6, "TRAUMA": "TRH", "HELIPAD": "N" }, "geometry": { "type": "Polygon", "coordinates": [ [ [ -99.6350408, 45.665638 ], [ -99.779982, 45.767303 ], [ -99.779978, 45.7696 ], [ -99.6144834, 45.883148 ], [ -99.469368, 45.766933 ], [ -99.55229, 45.709109 ], [ -99.6350408, 45.665638 ] ] ] } },
{ "type": "Feature", "properties": { "OBJECTID": 6574, "ID": "0005757601", "NAME": "MOBRIDGE REGIONAL HOSPITAL AND CLINIC", "ADDRESS": "1401 10TH AVENUE WEST", "CITY": "MOBRIDGE", "STATE": "SD", "ZIP": "57601", "ZIP4": "NOT AVAILABLE", "TELEPHONE": "(605) 845-3692", "TYPE": "CRITICAL ACCESS", "STATUS": "OPEN", "POPULATION": 25, "COUNTY": "WALWORTH", "COUNTYFIPS": "46129", "COUNTRY": "USA", "LATITUDE": 45.54621696, "LONGITUDE": -100.448960473, "NAICS_CODE": "622110", "NAICS_DESC": "GENERAL MEDICAL AND SURGICAL HOSPITALS", "SOURCE": "https://apps.sd.gov/ph04lassnet/rptPH04LicenseList.Aspx", "SOURCEDATE": "2018-08-10T00:00:00.000Z", "VAL_METHOD": "IMAGERY", "VAL_DATE": "2014-03-12T00:00:00.000Z", "WEBSITE": "http://www.mobridgehospital.org", "STATE_ID": "NOT AVAILABLE", "ALT_NAME": "NOT AVAILABLE", "ST_FIPS": "46", "OWNER": "NON-PROFIT", "TTL_STAFF": -999, "BEDS": 25, "TRAUMA": "CTH", "HELIPAD": "Y" }, "geometry": { "type": "Polygon", "coordinates": [ [ [ -100.3238903, 45.510603599999982 ], [ -100.3795158, 45.51251520000001 ], [ -100.410928, 45.521009 ], [ -100.428061, 45.527396 ], [ -100.433126, 45.52984270000001 ], [ -100.446605100000014, 45.537182700000038 ], [ -100.453911, 45.544555 ], [ -100.4768408, 45.569648299999976 ], [ -100.387576, 45.626031 ], [ -100.305561, 45.537156 ], [ -100.3238903, 45.510603599999982 ] ] ] } },
{ "type": "Feature", "properties": { "OBJECTID": 6755, "ID": "0000657401", "NAME": "AVERA SAINT LUKES HOSPITAL", "ADDRESS": "305 SOUTH STATE STREET", "CITY": "ABERDEEN", "STATE": "SD", "ZIP": "57401", "ZIP4": "NOT AVAILABLE", "TELEPHONE": "(605) 622-5000", "TYPE": "GENERAL ACUTE CARE", "STATUS": "OPEN", "POPULATION": 109, "COUNTY": "BROWN", "COUNTYFIPS": "46013", "COUNTRY": "USA", "LATITUDE": 45.461510028000099, "LONGITUDE": -98.478512350999907, "NAICS_CODE": "622110", "NAICS_DESC": "GENERAL MEDICAL AND SURGICAL HOSPITALS", "SOURCE": "https://apps.sd.gov/ph04lassnet/rptPH04LicenseList.Aspx", "SOURCEDATE": "2018-08-10T00:00:00.000Z", "VAL_METHOD": "IMAGERY", "VAL_DATE": "2014-02-10T00:00:00.000Z", "WEBSITE": "http://www.avera.org/st-lukes-hospital/", "STATE_ID": "NOT AVAILABLE", "ALT_NAME": "NOT AVAILABLE", "ST_FIPS": "46", "OWNER": "NON-PROFIT", "TTL_STAFF": -999, "BEDS": 109, "TRAUMA": "ATH", "HELIPAD": "Y" }, "geometry": { "type": "Polygon", "coordinates": [ [ [ -98.4952828, 45.3724869 ], [ -98.5153892, 45.372669399999957 ], [ -98.5157703, 45.372678300000018 ], [ -98.639666, 45.445043 ], [ -98.5155565, 45.560982 ], [ -98.4128244, 45.531444799999967 ], [ -98.322599, 45.458999 ], [ -98.322601, 45.458726 ], [ -98.4952828, 45.3724869 ] ] ] } },
{ "type": "Feature", "properties": { "OBJECTID": 6759, "ID": "0002257501", "NAME": "AVERA ST MARY'S HOSPITAL", "ADDRESS": "801 EAST SIOUX AVENUE", "CITY": "PIERRE", "STATE": "SD", "ZIP": "57501", "ZIP4": "NOT AVAILABLE", "TELEPHONE": "(605) 224-3100", "TYPE": "GENERAL ACUTE CARE", "STATUS": "OPEN", "POPULATION": 50, "COUNTY": "HUGHES", "COUNTYFIPS": "46065", "COUNTRY": "USA", "LATITUDE": 44.3598042180001, "LONGITUDE": -100.342626745, "NAICS_CODE": "622110", "NAICS_DESC": "GENERAL MEDICAL AND SURGICAL HOSPITALS", "SOURCE": "https://apps.sd.gov/ph04lassnet/rptPH04LicenseList.Aspx", "SOURCEDATE": "2018-08-10T00:00:00.000Z", "VAL_METHOD": "IMAGERY/OTHER", "VAL_DATE": "2014-02-10T00:00:00.000Z", "WEBSITE": "http://www.avera.org/locations/st-marys/", "STATE_ID": "NOT AVAILABLE", "ALT_NAME": "NOT AVAILABLE", "ST_FIPS": "46", "OWNER": "NON-PROFIT", "TTL_STAFF": -999, "BEDS": 50, "TRAUMA": "CTH", "HELIPAD": "N" }, "geometry": { "type": "Polygon", "coordinates": [ [ [ -100.183442, 44.334274 ], [ -100.2107449, 44.334447 ], [ -100.2751227, 44.337714100000042 ], [ -100.2865867, 44.3403 ], [ -100.3228435, 44.348602100000015 ], [ -100.362891, 44.361184199999983 ], [ -100.367585, 44.374827 ], [ -100.368726, 44.379148 ], [ -100.3707628, 44.388581 ], [ -100.3832971, 44.457519099999963 ], [ -100.383327, 44.458034 ], [ -100.35056, 44.464166 ], [ -100.2502689, 44.424380499999977 ], [ -100.2453447, 44.421848299999965 ], [ -100.2415598, 44.419663300000018 ], [ -100.183442, 44.334274 ] ] ] } },
{ "type": "Feature", "properties": { "OBJECTID": 6761, "ID": "0007757401", "NAME": "SANFORD ABERDEEN MEDICAL CENTER", "ADDRESS": "2905 3RD AVE SE", "CITY": "ABERDEEN", "STATE": "SD", "ZIP": "57401", "ZIP4": "NOT AVAILABLE", "TELEPHONE": "(605) 626-4200", "TYPE": "GENERAL ACUTE CARE", "STATUS": "OPEN", "POPULATION": 48, "COUNTY": "BROWN", "COUNTYFIPS": "46013", "COUNTRY": "USA", "LATITUDE": 45.463025264000102, "LONGITUDE": -98.446084442, "NAICS_CODE": "622110", "NAICS_DESC": "GENERAL MEDICAL AND SURGICAL HOSPITALS", "SOURCE": "https://apps.sd.gov/ph04lassnet/rptPH04LicenseList.Aspx", "SOURCEDATE": "2018-08-10T00:00:00.000Z", "VAL_METHOD": "IMAGERY", "VAL_DATE": "2016-11-11T00:00:00.000Z", "WEBSITE": "http://www.sanfordaberdeen.org/", "STATE_ID": "NOT AVAILABLE", "ALT_NAME": "NOT AVAILABLE", "ST_FIPS": "46", "OWNER": "NON-PROFIT", "TTL_STAFF": -999, "BEDS": 48, "TRAUMA": "CTH", "HELIPAD": "Y" }, "geometry": { "type": "Polygon", "coordinates": [ [ [ -98.412954, 45.386607 ], [ -98.4953225, 45.401453299999929 ], [ -98.5818879, 45.4454955 ], [ -98.5818944, 45.445750500000024 ], [ -98.5363955, 45.506963900000031 ], [ -98.5156811, 45.531946 ], [ -98.412809700000011, 45.545927100000029 ], [ -98.247155, 45.458413 ], [ -98.412954, 45.386607 ] ] ] } },
{ "type": "Feature", "properties": { "OBJECTID": 6805, "ID": "0002956538", "NAME": "LAKE REGION HEALTHCARE CORP", "ADDRESS": "712 SOUTH CASCADE", "CITY": "FERGUS FALLS", "STATE": "MN", "ZIP": "56538", "ZIP4": "NOT AVAILABLE", "TELEPHONE": "(218) 736-8000", "TYPE": "GENERAL ACUTE CARE", "STATUS": "OPEN", "POPULATION": 108, "COUNTY": "OTTER TAIL", "COUNTYFIPS": "27111", "COUNTRY": "USA", "LATITUDE": 46.277123792000097, "LONGITUDE": -96.073366285000006, "NAICS_CODE": "622110", "NAICS_DESC": "GENERAL MEDICAL AND SURGICAL HOSPITALS", "SOURCE": "http://www.health.state.mn.us/divs/fpc/directory/providerselect.cfm", "SOURCEDATE": "2018-08-09T00:00:00.000Z", "VAL_METHOD": "IMAGERY", "VAL_DATE": "2014-02-10T00:00:00.000Z", "WEBSITE": "http://www.lrhc.org", "STATE_ID": "437", "ALT_NAME": "NOT AVAILABLE", "ST_FIPS": "27", "OWNER": "NON-PROFIT", "TTL_STAFF": -999, "BEDS": 108, "TRAUMA": "LEVEL III", "HELIPAD": "Y" }, "geometry": { "type": "Polygon", "coordinates": [ [ [ -96.016799, 46.159036 ], [ -96.162397, 46.230886 ], [ -96.184272, 46.253696 ], [ -96.2162621, 46.287077800000041 ], [ -96.1968671, 46.311222600000015 ], [ -96.1368891, 46.380509600000018 ], [ -96.13073, 46.384074 ], [ -96.129244, 46.384103 ], [ -96.07167, 46.369698 ], [ -96.017603, 46.352583 ], [ -95.977646, 46.325871 ], [ -95.914621, 46.283199 ], [ -95.978382, 46.192606 ], [ -96.016799, 46.159036 ] ] ] } },
{ "type": "Feature", "properties": { "OBJECTID": 6806, "ID": "0008355767", "NAME": "MERCY HOSPITAL", "ADDRESS": "4572 STATE HWY 61", "CITY": "MOOSE LAKE", "STATE": "MN", "ZIP": "55767", "ZIP4": "NOT AVAILABLE", "TELEPHONE": "(218) 485-4481", "TYPE": "CRITICAL ACCESS", "STATUS": "OPEN", "POPULATION": 25, "COUNTY": "CARLTON", "COUNTYFIPS": "27017", "COUNTRY": "USA", "LATITUDE": 46.441498392, "LONGITUDE": -92.773468764, "NAICS_CODE": "622110", "NAICS_DESC": "GENERAL MEDICAL AND SURGICAL HOSPITALS", "SOURCE": "http://www.health.state.mn.us/divs/fpc/directory/providerselect.cfm", "SOURCEDATE": "2018-08-09T00:00:00.000Z", "VAL_METHOD": "IMAGERY", "VAL_DATE": "2014-03-12T00:00:00.000Z", "WEBSITE": "http://www.mercymooselake.org", "STATE_ID": "27650", "ALT_NAME": "NOT AVAILABLE", "ST_FIPS": "27", "OWNER": "GOVERNMENT - DISTRICT/AUTHORITY", "TTL_STAFF": -999, "BEDS": 25, "TRAUMA": "LEVEL IV", "HELIPAD": "Y" }, "geometry": { "type": "Polygon", "coordinates": [ [ [ -92.8383293, 46.345279600000019 ], [ -92.8504641, 46.359598300000016 ], [ -92.8942074, 46.449991 ], [ -92.8353343, 46.484146399999972 ], [ -92.7828255, 46.504965499999962 ], [ -92.6781505, 46.519477500000022 ], [ -92.6683059, 46.505009799999975 ], [ -92.657757, 46.462631 ], [ -92.6576095, 46.461622400000024 ], [ -92.655033, 46.443072 ], [ -92.6577292, 46.427825299999952 ], [ -92.75673, 46.364935 ], [ -92.766444, 46.358824 ], [ -92.8383293, 46.345279600000019 ] ] ] } },
{ "type": "Feature", "properties": { "OBJECTID": 6808, "ID": "0008856573", "NAME": "PERHAM HEALTH", "ADDRESS": "1000 CONEY STREET WEST", "CITY": "PERHAM", "STATE": "MN", "ZIP": "56573", "ZIP4": "NOT AVAILABLE", "TELEPHONE": "(218) 347-1200", "TYPE": "CRITICAL ACCESS", "STATUS": "OPEN", "POPULATION": 25, "COUNTY": "OTTER TAIL", "COUNTYFIPS": "27111", "COUNTRY": "USA", "LATITUDE": 46.586760076000097, "LONGITUDE": -95.583791277000003, "NAICS_CODE": "622110", "NAICS_DESC": "GENERAL MEDICAL AND SURGICAL HOSPITALS", "SOURCE": "http://www.health.state.mn.us/divs/fpc/directory/providerselect.cfm", "SOURCEDATE": "2018-08-09T00:00:00.000Z", "VAL_METHOD": "IMAGERY", "VAL_DATE": "2014-01-07T00:00:00.000Z", "WEBSITE": "https://www.sanfordhealth.org/locations/perham-health-clinic", "STATE_ID": "28377", "ALT_NAME": "NOT AVAILABLE", "ST_FIPS": "27", "OWNER": "GOVERNMENT - DISTRICT/AUTHORITY", "TTL_STAFF": -999, "BEDS": 25, "TRAUMA": "LEVEL IV", "HELIPAD": "N" }, "geometry": { "type": "Polygon", "coordinates": [ [ [ -95.572937, 46.476199 ], [ -95.577041, 46.477196 ], [ -95.62289, 46.50626 ], [ -95.689224, 46.556682 ], [ -95.711464, 46.600658 ], [ -95.682414, 46.694459 ], [ -95.681913, 46.694636 ], [ -95.519644, 46.665329 ], [ -95.49857, 46.643583 ], [ -95.4480814, 46.5819018 ], [ -95.439295, 46.5409819 ], [ -95.4393555, 46.539814 ], [ -95.572937, 46.476199 ] ] ] } },
{ "type": "Feature", "properties": { "OBJECTID": 6811, "ID": "0009455616", "NAME": "LAKE VIEW MEMORIAL HOSPITAL", "ADDRESS": "325 ELEVENTH AVENUE", "CITY": "TWO HARBORS", "STATE": "MN", "ZIP": "55616", "ZIP4": "NOT AVAILABLE", "TELEPHONE": "(218) 834-7300", "TYPE": "CRITICAL ACCESS", "STATUS": "OPEN", "POPULATION": 25, "COUNTY": "LAKE", "COUNTYFIPS": "27075", "COUNTRY": "USA", "LATITUDE": 47.030097665, "LONGITUDE": -91.666341325999994, "NAICS_CODE": "622110", "NAICS_DESC": "GENERAL MEDICAL AND SURGICAL HOSPITALS", "SOURCE": "http://www.health.state.mn.us/divs/fpc/directory/providerselect.cfm", "SOURCEDATE": "2018-08-09T00:00:00.000Z", "VAL_METHOD": "IMAGERY", "VAL_DATE": "2014-02-10T00:00:00.000Z", "WEBSITE": "http://www.slhduluth.com/Find-a-Location/Lake-View-Hospital.aspx", "STATE_ID": "331", "ALT_NAME": "NOT AVAILABLE", "ST_FIPS": "27", "OWNER": "NON-PROFIT", "TTL_STAFF": -999, "BEDS": 25, "TRAUMA": "LEVEL IV", "HELIPAD": "N" }, "geometry": { "type": "Polygon", "coordinates": [ [ [ -91.7875396, 46.945232400000016 ], [ -91.791662500000015, 46.948263400000052 ], [ -91.7945418, 46.952895599999955 ], [ -91.7945687, 47.010872299999974 ], [ -91.79444, 47.0325805 ], [ -91.739399, 47.097892 ], [ -91.6649556, 47.148699099999952 ], [ -91.6612836, 47.150373 ], [ -91.551683, 47.098655 ], [ -91.551006500000014, 47.0937277 ], [ -91.637359, 47.030079 ], [ -91.78396, 46.945823300000029 ], [ -91.7875396, 46.945232400000016 ] ] ] } },
{ "type": "Feature", "properties": { "OBJECTID": 6812, "ID": "0006256649", "NAME": "RAINY LAKE MEDICAL CENTER", "ADDRESS": "1400 HIGHWAY 71", "CITY": "INTERNATIONAL FALLS", "STATE": "MN", "ZIP": "56649", "ZIP4": "NOT AVAILABLE", "TELEPHONE": "(218) 283-4481", "TYPE": "CRITICAL ACCESS", "STATUS": "OPEN", "POPULATION": 49, "COUNTY": "KOOCHICHING", "COUNTYFIPS": "27071", "COUNTRY": "USA", "LATITUDE": 48.594802018000102, "LONGITUDE": -93.431770338999996, "NAICS_CODE": "622110", "NAICS_DESC": "GENERAL MEDICAL AND SURGICAL HOSPITALS", "SOURCE": "http://www.health.state.mn.us/divs/fpc/directory/providerselect.cfm", "SOURCEDATE": "2018-08-09T00:00:00.000Z", "VAL_METHOD": "IMAGERY", "VAL_DATE": "2014-03-12T00:00:00.000Z", "WEBSITE": "http://www.rainylakemedical.com", "STATE_ID": "323", "ALT_NAME": "NOT AVAILABLE", "ST_FIPS": "27", "OWNER": "NON-PROFIT", "TTL_STAFF": -999, "BEDS": 49, "TRAUMA": "LEVEL IV", "HELIPAD": "Y" }, "geometry": { "type": "Polygon", "coordinates": [ [ [ -93.3745542, 48.503970599999988 ], [ -93.483117, 48.512474 ], [ -93.4964685, 48.53431070000002 ], [ -93.4628857, 48.5899368 ], [ -93.4136381, 48.604591600000028 ], [ -93.348779, 48.615774 ], [ -93.346123, 48.616042799999953 ], [ -93.3203001, 48.616947900000035 ], [ -93.2836196, 48.615314800000029 ], [ -93.2745772, 48.61160710000005 ], [ -93.2612737, 48.60380930000003 ], [ -93.3715204, 48.503959 ], [ -93.3745542, 48.503970599999988 ] ] ] } },
{ "type": "Feature", "properties": { "OBJECTID": 6816, "ID": "0003056701", "NAME": "SANFORD MED CTR THIEF RVR FALL", "ADDRESS": "120 LABREE AVENUE SOUTH", "CITY": "THIEF RIVER FALLS", "STATE": "MN", "ZIP": "56701", "ZIP4": "NOT AVAILABLE", "TELEPHONE": "(218) 681-4240", "TYPE": "GENERAL ACUTE CARE", "STATUS": "OPEN", "POPULATION": 35, "COUNTY": "PENNINGTON", "COUNTYFIPS": "27113", "COUNTRY": "USA", "LATITUDE": 48.116219516999998, "LONGITUDE": -96.180158383999995, "NAICS_CODE": "622110", "NAICS_DESC": "GENERAL MEDICAL AND SURGICAL HOSPITALS", "SOURCE": "http://www.health.state.mn.us/divs/fpc/directory/providerselect.cfm", "SOURCEDATE": "2018-08-09T00:00:00.000Z", "VAL_METHOD": "IMAGERY", "VAL_DATE": "2014-02-10T00:00:00.000Z", "WEBSITE": "http://www.sanfordhealth.org", "STATE_ID": "24712", "ALT_NAME": "NOT AVAILABLE", "ST_FIPS": "27", "OWNER": "NON-PROFIT", "TTL_STAFF": -999, "BEDS": 35, "TRAUMA": "NOT AVAILABLE", "HELIPAD": "N" }, "geometry": { "type": "Polygon", "coordinates": [ [ [ -96.2186093, 48.006239800000017 ], [ -96.2410536, 48.02056120000006 ], [ -96.3514516, 48.123056 ], [ -96.3522953, 48.123912299999972 ], [ -96.195089, 48.2398494 ], [ -96.1942361, 48.2398405 ], [ -96.0036333, 48.12114459999998 ], [ -96.0572493, 48.034240700000012 ], [ -96.2148082, 48.0062835 ], [ -96.2186093, 48.006239800000017 ] ] ] } },
{ "type": "Feature", "properties": { "OBJECTID": 6817, "ID": "0006156716", "NAME": "RIVERVIEW HOSPITAL & NSG HOME", "ADDRESS": "323 SOUTH MINNESOTA", "CITY": "CROOKSTON", "STATE": "MN", "ZIP": "56716", "ZIP4": "NOT AVAILABLE", "TELEPHONE": "(218) 281-9200", "TYPE": "CRITICAL ACCESS", "STATUS": "OPEN", "POPULATION": 49, "COUNTY": "POLK", "COUNTYFIPS": "27119", "COUNTRY": "USA", "LATITUDE": 47.772970995999998, "LONGITUDE": -96.617955937999994, "NAICS_CODE": "622110", "NAICS_DESC": "GENERAL MEDICAL AND SURGICAL HOSPITALS", "SOURCE": "http://www.health.state.mn.us/divs/fpc/directory/providerselect.cfm", "SOURCEDATE": "2018-08-09T00:00:00.000Z", "VAL_METHOD": "IMAGERY", "VAL_DATE": "2014-02-10T00:00:00.000Z", "WEBSITE": "http://www.riverviewhealth.org", "STATE_ID": "470", "ALT_NAME": "NOT AVAILABLE", "ST_FIPS": "27", "OWNER": "NON-PROFIT", "TTL_STAFF": -999, "BEDS": 49, "TRAUMA": "LEVEL IV", "HELIPAD": "Y" }, "geometry": { "type": "Polygon", "coordinates": [ [ [ -96.6326955, 47.672465799999962 ], [ -96.7340328, 47.702369299999987 ], [ -96.803672, 47.760423 ], [ -96.760767, 47.80387260000002 ], [ -96.7395949, 47.818509 ], [ -96.6158419, 47.8762036 ], [ -96.6151339, 47.876333399999972 ], [ -96.4596302, 47.78945669999996 ], [ -96.4594833, 47.761472599999927 ], [ -96.4594837, 47.760616200000037 ], [ -96.4594906, 47.7603885 ], [ -96.481619, 47.691956 ], [ -96.6326955, 47.672465799999962 ] ] ] } },
{ "type": "Feature", "properties": { "OBJECTID": 6821, "ID": "0001355805", "NAME": "ESSENTIA HEALTH ST MARYS MED", "ADDRESS": "407 EAST THIRD STREET", "CITY": "DULUTH", "STATE": "MN", "ZIP": "55805", "ZIP4": "NOT AVAILABLE", "TELEPHONE": "(218) 786-4000", "TYPE": "GENERAL ACUTE CARE", "STATUS": "OPEN", "POPULATION": 380, "COUNTY": "ST. LOUIS", "COUNTYFIPS": "27137", "COUNTRY": "USA", "LATITUDE": 46.793685335000099, "LONGITUDE": -92.095887059999896, "NAICS_CODE": "622110", "NAICS_DESC": "GENERAL MEDICAL AND SURGICAL HOSPITALS", "SOURCE": "http://www.health.state.mn.us/divs/fpc/directory/providerselect.cfm", "SOURCEDATE": "2018-08-09T00:00:00.000Z", "VAL_METHOD": "IMAGERY/OTHER", "VAL_DATE": "2014-03-12T00:00:00.000Z", "WEBSITE": "http://www.essentiahealth.org/stmarysmedicalcenter/find-a-clinic/essentia-healthst-marys-medical-center-duluth-46.aspx sentia-HealthSt-Marys-Medical-Center-46.aspx", "STATE_ID": "600", "ALT_NAME": "NOT AVAILABLE", "ST_FIPS": "27", "OWNER": "NON-PROFIT", "TTL_STAFF": -999, "BEDS": 380, "TRAUMA": "LEVEL II", "HELIPAD": "Y" }, "geometry": { "type": "Polygon", "coordinates": [ [ [ -92.218038, 46.697134799999958 ], [ -92.238092, 46.720841 ], [ -92.2487225, 46.778554200000038 ], [ -92.2170661, 46.83698 ], [ -92.153609, 46.880061 ], [ -92.122347, 46.894628 ], [ -92.090347, 46.894689 ], [ -92.048122, 46.894753 ], [ -92.026778, 46.887457 ], [ -92.0174935, 46.880324099999967 ], [ -91.984672, 46.8545896 ], [ -91.9843623, 46.85434240000005 ], [ -91.9842193, 46.851869799999989 ], [ -92.0472624, 46.727113900000013 ], [ -92.218038, 46.697134799999958 ] ] ] } },
{ "type": "Feature", "properties": { "OBJECTID": 6822, "ID": "0012956728", "NAME": "KITTSON MEMORIAL HOSPITAL", "ADDRESS": "1010 SOUTH BIRCH", "CITY": "HALLOCK", "STATE": "MN", "ZIP": "56728", "ZIP4": "NOT AVAILABLE", "TELEPHONE": "(218) 843-3612", "TYPE": "CRITICAL ACCESS", "STATUS": "OPEN", "POPULATION": 15, "COUNTY": "KITTSON", "COUNTYFIPS": "27069", "COUNTRY": "USA", "LATITUDE": 48.767119395000101, "LONGITUDE": -96.940211368000007, "NAICS_CODE": "622110", "NAICS_DESC": "GENERAL MEDICAL AND SURGICAL HOSPITALS", "SOURCE": "http://www.health.state.mn.us/divs/fpc/directory/providerselect.cfm", "SOURCEDATE": "2018-08-09T00:00:00.000Z", "VAL_METHOD": "IMAGERY", "VAL_DATE": "2014-02-10T00:00:00.000Z", "WEBSITE": "http://www.kmhc.net", "STATE_ID": "321", "ALT_NAME": "NOT AVAILABLE", "ST_FIPS": "27", "OWNER": "NON-PROFIT", "TTL_STAFF": -999, "BEDS": 15, "TRAUMA": "NOT AVAILABLE", "HELIPAD": "N" }, "geometry": { "type": "Polygon", "coordinates": [ [ [ -96.910700100000014, 48.6591719 ], [ -96.975931, 48.68892 ], [ -97.040058, 48.720163 ], [ -97.1280344, 48.775130800000028 ], [ -97.019184, 48.861724 ], [ -96.930863, 48.861776 ], [ -96.799368, 48.78968 ], [ -96.799098, 48.746203 ], [ -96.845541, 48.702896 ], [ -96.910700100000014, 48.6591719 ] ] ] } },
{ "type": "Feature", "properties": { "OBJECTID": 6823, "ID": "0010656751", "NAME": "LIFECARE MEDICAL CENTER", "ADDRESS": "715 DELMORE DRIVE", "CITY": "ROSEAU", "STATE": "MN", "ZIP": "56751", "ZIP4": "NOT AVAILABLE", "TELEPHONE": "(218) 463-2500", "TYPE": "CRITICAL ACCESS", "STATUS": "OPEN", "POPULATION": 25, "COUNTY": "ROSEAU", "COUNTYFIPS": "27135", "COUNTRY": "USA", "LATITUDE": 48.839236136000103, "LONGITUDE": -95.760405621000004, "NAICS_CODE": "622110", "NAICS_DESC": "GENERAL MEDICAL AND SURGICAL HOSPITALS", "SOURCE": "http://www.health.state.mn.us/divs/fpc/directory/providerselect.cfm", "SOURCEDATE": "2018-08-09T00:00:00.000Z", "VAL_METHOD": "IMAGERY", "VAL_DATE": "2014-02-10T00:00:00.000Z", "WEBSITE": "https://lifecaremedicalcenter.org/", "STATE_ID": "579", "ALT_NAME": "NOT AVAILABLE", "ST_FIPS": "27", "OWNER": "NON-PROFIT", "TTL_STAFF": -999, "BEDS": 25, "TRAUMA": "LEVEL IV", "HELIPAD": "Y" }, "geometry": { "type": "Polygon", "coordinates": [ [ [ -95.766601, 48.727855 ], [ -95.9205938, 48.833132 ], [ -95.920602099999982, 48.850720800000012 ], [ -95.77454, 48.93484 ], [ -95.7686972, 48.9347648 ], [ -95.614849600000014, 48.851550100000019 ], [ -95.614623, 48.842749 ], [ -95.701686, 48.776159 ], [ -95.766601, 48.727855 ] ] ] } },
{ "type": "Feature", "properties": { "OBJECTID": 6826, "ID": "0001855805", "NAME": "ST LUKES HOSPITAL", "ADDRESS": "915 EAST FIRST STREET", "CITY": "DULUTH", "STATE": "MN", "ZIP": "55805", "ZIP4": "NOT AVAILABLE", "TELEPHONE": "(218) 249-5555", "TYPE": "GENERAL ACUTE CARE", "STATUS": "OPEN", "POPULATION": 267, "COUNTY": "ST. LOUIS", "COUNTYFIPS": "27137", "COUNTRY": "USA", "LATITUDE": 46.79710125, "LONGITUDE": -92.087390770999903, "NAICS_CODE": "622110", "NAICS_DESC": "GENERAL MEDICAL AND SURGICAL HOSPITALS", "SOURCE": "http://www.health.state.mn.us/divs/fpc/directory/providerselect.cfm", "SOURCEDATE": "2018-08-09T00:00:00.000Z", "VAL_METHOD": "IMAGERY", "VAL_DATE": "2014-03-12T00:00:00.000Z", "WEBSITE": "http://www.slhduluth.com", "STATE_ID": "599", "ALT_NAME": "NOT AVAILABLE", "ST_FIPS": "27", "OWNER": "NON-PROFIT", "TTL_STAFF": -999, "BEDS": 267, "TRAUMA": "LEVEL II", "HELIPAD": "Y" }, "geometry": { "type": "Polygon", "coordinates": [ [ [ -92.215289299999981, 46.7016332 ], [ -92.238092, 46.720841 ], [ -92.2382044, 46.778615 ], [ -92.2055574, 46.833514100000016 ], [ -92.2054162, 46.8336496 ], [ -92.2040396, 46.834933699999944 ], [ -92.153609, 46.880061 ], [ -92.122347, 46.894628 ], [ -92.026714, 46.894865 ], [ -92.0055251, 46.880397199999976 ], [ -91.9843623, 46.85434240000005 ], [ -91.9842193, 46.851869799999989 ], [ -92.05769, 46.737639 ], [ -92.0581546, 46.737382700000033 ], [ -92.215289299999981, 46.7016332 ] ] ] } },
{ "type": "Feature", "properties": { "OBJECTID": 6827, "ID": "0002155746", "NAME": "UNIVERSITY MEDICAL CTR MESABI", "ADDRESS": "750 EAST 34TH STREET", "CITY": "HIBBING", "STATE": "MN", "ZIP": "55746", "ZIP4": "NOT AVAILABLE", "TELEPHONE": "(218) 262-4881", "TYPE": "GENERAL ACUTE CARE", "STATUS": "OPEN", "POPULATION": 175, "COUNTY": "ST. LOUIS", "COUNTYFIPS": "27137", "COUNTRY": "USA", "LATITUDE": 47.408837058000103, "LONGITUDE": -92.929898362000003, "NAICS_CODE": "622110", "NAICS_DESC": "GENERAL MEDICAL AND SURGICAL HOSPITALS", "SOURCE": "http://www.health.state.mn.us/divs/fpc/directory/providerselect.cfm", "SOURCEDATE": "2018-08-09T00:00:00.000Z", "VAL_METHOD": "IMAGERY/OTHER", "VAL_DATE": "2014-03-12T00:00:00.000Z", "WEBSITE": "http://www.range.fairview.org", "STATE_ID": "859", "ALT_NAME": "NOT AVAILABLE", "ST_FIPS": "27", "OWNER": "NON-PROFIT", "TTL_STAFF": -999, "BEDS": 175, "TRAUMA": "NOT AVAILABLE", "HELIPAD": "Y" }, "geometry": { "type": "Polygon", "coordinates": [ [ [ -93.0225338, 47.322542 ], [ -93.1009799, 47.39026710000001 ], [ -93.1010871, 47.390623 ], [ -93.005138, 47.453159 ], [ -92.91915370000001, 47.486228 ], [ -92.8844812, 47.496670799999976 ], [ -92.8790453, 47.495315499999982 ], [ -92.867596, 47.4900368 ], [ -92.8657442, 47.489105800000026 ], [ -92.770478, 47.4003628 ], [ -92.809479, 47.368411 ], [ -92.937894, 47.340609 ], [ -93.0225338, 47.322542 ] ] ] } },
{ "type": "Feature", "properties": { "OBJECTID": 6831, "ID": "0009756431", "NAME": "RIVERWOOD HEALTHCARE CENTER", "ADDRESS": "200 BUNKER HILL DRIVE", "CITY": "AITKIN", "STATE": "MN", "ZIP": "56431", "ZIP4": "NOT AVAILABLE", "TELEPHONE": "(218) 927-2121", "TYPE": "CRITICAL ACCESS", "STATUS": "OPEN", "POPULATION": 25, "COUNTY": "AITKIN", "COUNTYFIPS": "27001", "COUNTRY": "USA", "LATITUDE": 46.529711672000097, "LONGITUDE": -93.698445523999993, "NAICS_CODE": "622110", "NAICS_DESC": "GENERAL MEDICAL AND SURGICAL HOSPITALS", "SOURCE": "http://www.health.state.mn.us/divs/fpc/directory/providerselect.cfm", "SOURCEDATE": "2018-08-09T00:00:00.000Z", "VAL_METHOD": "IMAGERY", "VAL_DATE": "2014-03-12T00:00:00.000Z", "WEBSITE": "http://www.riverwoodhealthcare.com", "STATE_ID": "21927", "ALT_NAME": "NOT AVAILABLE", "ST_FIPS": "27", "OWNER": "NON-PROFIT", "TTL_STAFF": -999, "BEDS": 25, "TRAUMA": "LEVEL III", "HELIPAD": "Y" }, "geometry": { "type": "Polygon", "coordinates": [ [ [ -93.7436866, 46.432005800000013 ], [ -93.8540116, 46.501380700000048 ], [ -93.7609141, 46.595796200000038 ], [ -93.6123516, 46.616536299999972 ], [ -93.5806112, 46.577905200000018 ], [ -93.5590544, 46.5346234 ], [ -93.5532506, 46.520197799999949 ], [ -93.5798205, 46.487447300000021 ], [ -93.6396201, 46.446287900000016 ], [ -93.7436866, 46.432005800000013 ] ] ] } },
{ "type": "Feature", "properties": { "OBJECTID": 6832, "ID": "0004458601", "NAME": "ST JOSEPH'S HOSPITAL & HEALTH CENTER", "ADDRESS": "30 WEST 7TH ST", "CITY": "DICKINSON", "STATE": "ND", "ZIP": "58601", "ZIP4": "NOT AVAILABLE", "TELEPHONE": "(701) 456-4000", "TYPE": "CRITICAL ACCESS", "STATUS": "CLOSED", "POPULATION": 25, "COUNTY": "STARK", "COUNTYFIPS": "38089", "COUNTRY": "USA", "LATITUDE": 46.8864389720001, "LONGITUDE": -102.7858878, "NAICS_CODE": "622110", "NAICS_DESC": "GENERAL MEDICAL AND SURGICAL HOSPITALS", "SOURCE": "http://www.ndhealth.gov/hf/North_Dakota_Hospitals_Critical_access.htm", "SOURCEDATE": "2012-08-02T00:00:00.000Z", "VAL_METHOD": "IMAGERY", "VAL_DATE": "2014-02-10T00:00:00.000Z", "WEBSITE": "http://www.stjoeshospital.org/", "STATE_ID": "351336", "ALT_NAME": "NOT AVAILABLE", "ST_FIPS": "38", "OWNER": "NON-PROFIT", "TTL_STAFF": -999, "BEDS": 25, "TRAUMA": "LEVEL IV", "HELIPAD": "N" }, "geometry": { "type": "Polygon", "coordinates": [ [ [ -102.7897991, 46.774745 ], [ -103.003715, 46.88933 ], [ -102.797992, 46.995374 ], [ -102.57044, 46.877011 ], [ -102.7897991, 46.774745 ] ] ] } },
{ "type": "Feature", "properties": { "OBJECTID": 6844, "ID": "0009656520", "NAME": "ST FRANCIS HEALTHCARE CAMPUS", "ADDRESS": "2400 ST FRANCIS DRIVE", "CITY": "BRECKENRIDGE", "STATE": "MN", "ZIP": "56520", "ZIP4": "NOT AVAILABLE", "TELEPHONE": "(218) 643-3000", "TYPE": "CRITICAL ACCESS", "STATUS": "OPEN", "POPULATION": 25, "COUNTY": "WILKIN", "COUNTYFIPS": "27167", "COUNTRY": "USA", "LATITUDE": 46.291535234999998, "LONGITUDE": -96.588428829999899, "NAICS_CODE": "622110", "NAICS_DESC": "GENERAL MEDICAL AND SURGICAL HOSPITALS", "SOURCE": "http://www.health.state.mn.us/divs/fpc/directory/providerselect.cfm", "SOURCEDATE": "2018-08-09T00:00:00.000Z", "VAL_METHOD": "IMAGERY", "VAL_DATE": "2014-02-10T00:00:00.000Z", "WEBSITE": "http://www.sfcare.org", "STATE_ID": "700", "ALT_NAME": "NOT AVAILABLE", "ST_FIPS": "27", "OWNER": "NON-PROFIT", "TTL_STAFF": -999, "BEDS": 25, "TRAUMA": "LEVEL IV", "HELIPAD": "N" }, "geometry": { "type": "Polygon", "coordinates": [ [ [ -96.5753845, 46.195847 ], [ -96.5929242, 46.22517770000006 ], [ -96.656603700000019, 46.369187899999929 ], [ -96.6603718, 46.398615800000059 ], [ -96.634482, 46.398709 ], [ -96.5224595, 46.398554799999978 ], [ -96.4082987, 46.2822343 ], [ -96.5125306, 46.207629500000067 ], [ -96.5753845, 46.195847 ] ] ] } },
{ "type": "Feature", "properties": { "OBJECTID": 259, "ID": "0005158554", "NAME": "VIBRA HOSPITAL OF CENTRAL DAKOTAS", "ADDRESS": "1000 18TH ST NW", "CITY": "MANDAN", "STATE": "ND", "ZIP": "58554", "ZIP4": "NOT AVAILABLE", "TELEPHONE": "(701) 667-2000", "TYPE": "LONG TERM CARE", "STATUS": "OPEN", "POPULATION": 41, "COUNTY": "MORTON", "COUNTYFIPS": "38059", "COUNTRY": "USA", "LATITUDE": 46.841869301000003, "LONGITUDE": -100.907697713, "NAICS_CODE": "622310", "NAICS_DESC": "SPECIALTY (EXCEPT PSYCHIATRIC AND SUBSTANCE ABUSE) HOSPITALS", "SOURCE": "http://www.ndhealth.gov/hf/North_Dakota_Hospitals_Critical_access.htm", "SOURCEDATE": "2018-08-09T00:00:00.000Z", "VAL_METHOD": "IMAGERY/OTHER", "VAL_DATE": "2014-02-10T00:00:00.000Z", "WEBSITE": "http://www.vhcentraldakotas.com/", "STATE_ID": "5064A", "ALT_NAME": "NOT AVAILABLE", "ST_FIPS": "38", "OWNER": "PROPRIETARY", "TTL_STAFF": -999, "BEDS": 41, "TRAUMA": "NOT AVAILABLE", "HELIPAD": "N" }, "geometry": { "type": "Polygon", "coordinates": [ [ [ -100.900891, 46.734331 ], [ -101.025943, 46.826912 ], [ -101.055952, 46.870664 ], [ -101.008155, 46.931661 ], [ -100.952648, 46.93082270000005 ], [ -100.915108, 46.907943 ], [ -100.829283, 46.816451 ], [ -100.8224837, 46.8056268 ], [ -100.8223584, 46.8041496 ], [ -100.8223099, 46.802409500000053 ], [ -100.8228484, 46.796768 ], [ -100.8233426, 46.793682699999984 ], [ -100.8239162, 46.791649300000039 ], [ -100.825173, 46.789286 ], [ -100.82547, 46.788886 ], [ -100.826785, 46.787279700000042 ], [ -100.8277225, 46.7862269 ], [ -100.900891, 46.734331 ] ] ] } },
{ "type": "Feature", "properties": { "OBJECTID": 260, "ID": "0002458533", "NAME": "JACOBSON MEMORIAL HOSPITAL & CARE CENTER", "ADDRESS": "601 EAST ST N", "CITY": "ELGIN", "STATE": "ND", "ZIP": "58533", "ZIP4": "NOT AVAILABLE", "TELEPHONE": "(701) 584-2792", "TYPE": "CRITICAL ACCESS", "STATUS": "OPEN", "POPULATION": 30, "COUNTY": "GRANT", "COUNTYFIPS": "38037", "COUNTRY": "USA", "LATITUDE": 46.407325813999996, "LONGITUDE": -101.841463455, "NAICS_CODE": "622110", "NAICS_DESC": "GENERAL MEDICAL AND SURGICAL HOSPITALS", "SOURCE": "http://www.ndhealth.gov/hf/North_Dakota_Hospitals_Critical_access.htm", "SOURCEDATE": "2018-08-09T00:00:00.000Z", "VAL_METHOD": "IMAGERY", "VAL_DATE": "2014-02-10T00:00:00.000Z", "WEBSITE": "http://jacobsonhospital.org/", "STATE_ID": "5014A", "ALT_NAME": "NOT AVAILABLE", "ST_FIPS": "38", "OWNER": "NON-PROFIT", "TTL_STAFF": -999, "BEDS": 30, "TRAUMA": "NOT AVAILABLE", "HELIPAD": "N" }, "geometry": { "type": "Polygon", "coordinates": [ [ [ -101.840171, 46.313292 ], [ -102.006146, 46.370589 ], [ -101.840794, 46.530315 ], [ -101.696068, 46.415285 ], [ -101.695939, 46.391248 ], [ -101.695941, 46.388979 ], [ -101.840171, 46.313292 ] ] ] } },
{ "type": "Feature", "properties": { "OBJECTID": 5099, "ID": "0001758318", "NAME": "ST ANDREWS HEALTH CENTER - CAH", "ADDRESS": "316 OHMER STREET", "CITY": "BOTTINEAU", "STATE": "ND", "ZIP": "58318", "ZIP4": "NOT AVAILABLE", "TELEPHONE": "(701) 228-9300", "TYPE": "CRITICAL ACCESS", "STATUS": "OPEN", "POPULATION": 25, "COUNTY": "BOTTINEAU", "COUNTYFIPS": "38009", "COUNTRY": "USA", "LATITUDE": 48.829124808000103, "LONGITUDE": -100.449981264, "NAICS_CODE": "622110", "NAICS_DESC": "GENERAL MEDICAL AND SURGICAL HOSPITALS", "SOURCE": "http://www.ndhealth.gov/hf/North_Dakota_Hospitals_Critical_access.htm", "SOURCEDATE": "2018-08-09T00:00:00.000Z", "VAL_METHOD": "IMAGERY/OTHER", "VAL_DATE": "2014-02-10T00:00:00.000Z", "WEBSITE": "http://www.standrewshealth.com", "STATE_ID": "5005P", "ALT_NAME": "NOT AVAILABLE", "ST_FIPS": "38", "OWNER": "NON-PROFIT", "TTL_STAFF": -999, "BEDS": 25, "TRAUMA": "NOT AVAILABLE", "HELIPAD": "N" }, "geometry": { "type": "Polygon", "coordinates": [ [ [ -100.424341, 48.777233 ], [ -100.46784, 48.777265 ], [ -100.53357, 48.791704 ], [ -100.621202, 48.820972 ], [ -100.533788, 48.878864 ], [ -100.44414, 48.920454 ], [ -100.414503, 48.906252999999893 ], [ -100.292699, 48.806032 ], [ -100.336412, 48.791536 ], [ -100.424341, 48.777233 ] ] ] } },
{ "type": "Feature", "properties": { "OBJECTID": 5100, "ID": "0003958639", "NAME": "WEST RIVER REGIONAL MEDICAL CENTER-CAH", "ADDRESS": "1000 HIGHWAY 12", "CITY": "HETTINGER", "STATE": "ND", "ZIP": "58639", "ZIP4": "NOT AVAILABLE", "TELEPHONE": "(701) 567-4561", "TYPE": "CRITICAL ACCESS", "STATUS": "OPEN", "POPULATION": 25, "COUNTY": "ADAMS", "COUNTYFIPS": "38001", "COUNTRY": "USA", "LATITUDE": 46.001800594000002, "LONGITUDE": -102.62857444799999, "NAICS_CODE": "622110", "NAICS_DESC": "GENERAL MEDICAL AND SURGICAL HOSPITALS", "SOURCE": "http://www.ndhealth.gov/hf/North_Dakota_Hospitals_Critical_access.htm", "SOURCEDATE": "2018-08-09T00:00:00.000Z", "VAL_METHOD": "IMAGERY/OTHER", "VAL_DATE": "2014-02-10T00:00:00.000Z", "WEBSITE": "http://www.wrhs.com", "STATE_ID": "5025A", "ALT_NAME": "NOT AVAILABLE", "ST_FIPS": "38", "OWNER": "NON-PROFIT", "TTL_STAFF": -999, "BEDS": 25, "TRAUMA": "NOT AVAILABLE", "HELIPAD": "N" }, "geometry": { "type": "Polygon", "coordinates": [ [ [ -102.6524791, 45.9450806 ], [ -102.746337998935203, 46.017417000160577 ], [ -102.7673318, 46.054056 ], [ -102.621674, 46.089858 ], [ -102.49717099846761, 46.017430000177299 ], [ -102.473802998293607, 46.002383999773421 ], [ -102.559456999275952, 45.958099999403423 ], [ -102.601158999427028, 45.951458999263046 ], [ -102.6524791, 45.9450806 ] ] ] } },
{ "type": "Feature", "properties": { "OBJECTID": 5101, "ID": "0003758552", "NAME": "LINTON HOSPITAL - CAH", "ADDRESS": "518 NORTH BROADWAY", "CITY": "LINTON", "STATE": "ND", "ZIP": "58552", "ZIP4": "NOT AVAILABLE", "TELEPHONE": "(701) 254-4511", "TYPE": "CRITICAL ACCESS", "STATUS": "OPEN", "POPULATION": 14, "COUNTY": "EMMONS", "COUNTYFIPS": "38029", "COUNTRY": "USA", "LATITUDE": 46.271557573000102, "LONGITUDE": -100.233390394, "NAICS_CODE": "622110", "NAICS_DESC": "GENERAL MEDICAL AND SURGICAL HOSPITALS", "SOURCE": "http://www.ndhealth.gov/hf/North_Dakota_Hospitals_Critical_access.htm", "SOURCEDATE": "2018-08-09T00:00:00.000Z", "VAL_METHOD": "IMAGERY/OTHER", "VAL_DATE": "2014-02-10T00:00:00.000Z", "WEBSITE": "http://www.lintonhospital.com", "STATE_ID": "5030A", "ALT_NAME": "NOT AVAILABLE", "ST_FIPS": "38", "OWNER": "NON-PROFIT", "TTL_STAFF": -999, "BEDS": 14, "TRAUMA": "NOT AVAILABLE", "HELIPAD": "N" }, "geometry": { "type": "Polygon", "coordinates": [ [ [ -100.194406, 46.189036 ], [ -100.232874, 46.203642 ], [ -100.408681, 46.276117 ], [ -100.273633, 46.371326 ], [ -100.066566, 46.246478 ], [ -100.194406, 46.189036 ] ] ] } },
{ "type": "Feature", "properties": { "OBJECTID": 5102, "ID": "0002358623", "NAME": "SOUTHWEST HEALTHCARE SERVICES", "ADDRESS": "14 6TH AVE SW", "CITY": "BOWMAN", "STATE": "ND", "ZIP": "58623", "ZIP4": "NOT AVAILABLE", "TELEPHONE": "(701) 523-5265", "TYPE": "CRITICAL ACCESS", "STATUS": "OPEN", "POPULATION": 23, "COUNTY": "BOWMAN", "COUNTYFIPS": "38011", "COUNTRY": "USA", "LATITUDE": 46.181871413000103, "LONGITUDE": -103.40466044, "NAICS_CODE": "622110", "NAICS_DESC": "GENERAL MEDICAL AND SURGICAL HOSPITALS", "SOURCE": "http://www.ndhealth.gov/hf/North_Dakota_Hospitals_Critical_access.htm", "SOURCEDATE": "2018-08-09T00:00:00.000Z", "VAL_METHOD": "IMAGERY", "VAL_DATE": "2014-02-10T00:00:00.000Z", "WEBSITE": "www.swhealthcare.net", "STATE_ID": "5006B", "ALT_NAME": "NOT AVAILABLE", "ST_FIPS": "38", "OWNER": "NON-PROFIT", "TTL_STAFF": -999, "BEDS": 23, "TRAUMA": "NOT AVAILABLE", "HELIPAD": "N" }, "geometry": { "type": "Polygon", "coordinates": [ [ [ -103.39015, 46.075471 ], [ -103.410946, 46.075531 ], [ -103.536062, 46.176701 ], [ -103.5564816, 46.214790099999988 ], [ -103.36499, 46.279847 ], [ -103.2656302, 46.176657599999949 ], [ -103.39015, 46.075471 ] ] ] } },
{ "type": "Feature", "properties": { "OBJECTID": 5103, "ID": "0004658103", "NAME": "VIBRA HOSPITAL OF FARGO", "ADDRESS": "1720 UNIVERSITY DR S", "CITY": "FARGO", "STATE": "ND", "ZIP": "58103", "ZIP4": "NOT AVAILABLE", "TELEPHONE": "(701) 241-9099", "TYPE": "LONG TERM CARE", "STATUS": "OPEN", "POPULATION": 31, "COUNTY": "CASS", "COUNTYFIPS": "38017", "COUNTRY": "USA", "LATITUDE": 46.853147747999998, "LONGITUDE": -96.797441755999998, "NAICS_CODE": "622310", "NAICS_DESC": "SPECIALTY (EXCEPT PSYCHIATRIC AND SUBSTANCE ABUSE) HOSPITALS", "SOURCE": "http://www.ndhealth.gov/hf/North_Dakota_Hospitals_Critical_access.htm", "SOURCEDATE": "2018-08-09T00:00:00.000Z", "VAL_METHOD": "IMAGERY/OTHER", "VAL_DATE": "2014-02-10T00:00:00.000Z", "WEBSITE": "www.vhfargo.com/", "STATE_ID": "5065A", "ALT_NAME": "NOT AVAILABLE", "ST_FIPS": "38", "OWNER": "PROPRIETARY", "TTL_STAFF": -999, "BEDS": 31, "TRAUMA": "NOT AVAILABLE", "HELIPAD": "N" }, "geometry": { "type": "Polygon", "coordinates": [ [ [ -96.798758, 46.745511 ], [ -96.8422287, 46.745821699999915 ], [ -96.905201, 46.8038508 ], [ -96.974245, 46.877728700000013 ], [ -96.861348, 46.934214 ], [ -96.851944, 46.937099 ], [ -96.7978212, 46.9368544 ], [ -96.7954015, 46.9358485 ], [ -96.7912393, 46.933836 ], [ -96.767317, 46.91697 ], [ -96.7662334, 46.908526499999986 ], [ -96.784861, 46.757781 ], [ -96.798758, 46.745511 ] ] ] } },
{ "type": "Feature", "properties": { "OBJECTID": 5104, "ID": "0004758122", "NAME": "SANFORD MEDICAL CENTER FARGO", "ADDRESS": "1720 UNIVERSITY DR S", "CITY": "FARGO", "STATE": "ND", "ZIP": "58103", "ZIP4": "NOT AVAILABLE", "TELEPHONE": "(701) 234-2000", "TYPE": "GENERAL ACUTE CARE", "STATUS": "OPEN", "POPULATION": 380, "COUNTY": "CASS", "COUNTYFIPS": "38017", "COUNTRY": "USA", "LATITUDE": 46.853883001, "LONGITUDE": -96.797537528999996, "NAICS_CODE": "622110", "NAICS_DESC": "GENERAL MEDICAL AND SURGICAL HOSPITALS", "SOURCE": "http://www.ndhealth.gov/hf/North_Dakota_Hospitals_Critical_access.htm", "SOURCEDATE": "2018-08-09T00:00:00.000Z", "VAL_METHOD": "IMAGERY", "VAL_DATE": "2014-02-10T00:00:00.000Z", "WEBSITE": "www.sanfordhealth.org", "STATE_ID": "5018A", "ALT_NAME": "NOT AVAILABLE", "ST_FIPS": "38", "OWNER": "NON-PROFIT", "TTL_STAFF": -999, "BEDS": 380, "TRAUMA": "NOT AVAILABLE", "HELIPAD": "N" }, "geometry": { "type": "Polygon", "coordinates": [ [ [ -96.840119, 46.743004 ], [ -96.9093839, 46.80388 ], [ -96.984221500000018, 46.877710699999952 ], [ -96.865254, 46.934223 ], [ -96.851944, 46.937099 ], [ -96.7978212, 46.9368544 ], [ -96.7947626, 46.935847 ], [ -96.7912393, 46.933836 ], [ -96.769552, 46.919384 ], [ -96.7663239, 46.916464200000021 ], [ -96.7662334, 46.908526499999986 ], [ -96.7795765, 46.766254300000014 ], [ -96.784861, 46.757781 ], [ -96.798758, 46.745511 ], [ -96.840119, 46.743004 ] ] ] } },
{ "type": "Feature", "properties": { "OBJECTID": 5105, "ID": "0000758316", "NAME": "P H S INDIAN HOSP AT BELCOURT-QUENTIN N BURDICK", "ADDRESS": "5 MOONLIGHT DR HWY", "CITY": "BELCOURT", "STATE": "ND", "ZIP": "58316", "ZIP4": "NOT AVAILABLE", "TELEPHONE": "(701) 477-6111", "TYPE": "GENERAL ACUTE CARE", "STATUS": "OPEN", "POPULATION": -999, "COUNTY": "ROLETTE", "COUNTYFIPS": "38079", "COUNTRY": "USA", "LATITUDE": 48.8433598680001, "LONGITUDE": -99.748730241000004, "NAICS_CODE": "622110", "NAICS_DESC": "GENERAL MEDICAL AND SURGICAL HOSPITALS", "SOURCE": "http://www.ndhealth.gov/hf/North_Dakota_Hospitals_Critical_access.htm", "SOURCEDATE": "2018-08-09T00:00:00.000Z", "VAL_METHOD": "IMAGERY/OTHER", "VAL_DATE": "2013-12-23T00:00:00.000Z", "WEBSITE": "https://www.ihs.gov/greatplains/healthcarefacilities/turtlemountain/", "STATE_ID": "350063", "ALT_NAME": "NOT AVAILABLE", "ST_FIPS": "38", "OWNER": "GOVERNMENT - FEDERAL", "TTL_STAFF": -999, "BEDS": -999, "TRAUMA": "NOT AVAILABLE", "HELIPAD": "N" }, "geometry": { "type": "Polygon", "coordinates": [ [ [ -99.74495, 48.74758 ], [ -99.85438, 48.776579 ], [ -99.898161, 48.805696 ], [ -99.854078, 48.856186 ], [ -99.766961, 48.913804 ], [ -99.744438, 48.912457 ], [ -99.612235, 48.86182 ], [ -99.611317, 48.860979 ], [ -99.610397, 48.860133 ], [ -99.606072, 48.848697 ], [ -99.74495, 48.74758 ] ] ] } },
{ "type": "Feature", "properties": { "OBJECTID": 5106, "ID": "0003658341", "NAME": "ST ALOISIUS MEDICAL CENTER", "ADDRESS": "325 E BREWSTER ST", "CITY": "HARVEY", "STATE": "ND", "ZIP": "58341", "ZIP4": "NOT AVAILABLE", "TELEPHONE": "(701) 324-4651", "TYPE": "CRITICAL ACCESS", "STATUS": "OPEN", "POPULATION": 25, "COUNTY": "WELLS", "COUNTYFIPS": "38103", "COUNTRY": "USA", "LATITUDE": 47.767096887000001, "LONGITUDE": -99.932051263999895, "NAICS_CODE": "622110", "NAICS_DESC": "GENERAL MEDICAL AND SURGICAL HOSPITALS", "SOURCE": "http://www.ndhealth.gov/hf/North_Dakota_Hospitals_Critical_access.htm", "SOURCEDATE": "2018-08-09T00:00:00.000Z", "VAL_METHOD": "IMAGERY", "VAL_DATE": "2014-03-12T00:00:00.000Z", "WEBSITE": "http://www.staloisius.com", "STATE_ID": "5023A", "ALT_NAME": "NOT AVAILABLE", "ST_FIPS": "38", "OWNER": "NON-PROFIT", "TTL_STAFF": -999, "BEDS": 25, "TRAUMA": "NOT AVAILABLE", "HELIPAD": "Y" }, "geometry": { "type": "Polygon", "coordinates": [ [ [ -99.926684, 47.631694 ], [ -100.069403, 47.814732 ], [ -99.9199733, 47.8619253 ], [ -99.898358, 47.847396 ], [ -99.790892, 47.760296 ], [ -99.810929, 47.717061 ], [ -99.926684, 47.631694 ] ] ] } },
{ "type": "Feature", "properties": { "OBJECTID": 5107, "ID": "0165558701", "NAME": "TRINITY HOSPITAL - SAINT JOSEPHS", "ADDRESS": "407 3RD STREET SOUTHEAST", "CITY": "MINOT", "STATE": "ND", "ZIP": "58701", "ZIP4": "4470", "TELEPHONE": "(701) 857-5000", "TYPE": "GENERAL ACUTE CARE", "STATUS": "OPEN", "POPULATION": 251, "COUNTY": "WARD", "COUNTYFIPS": "38101", "COUNTRY": "USA", "LATITUDE": 48.232164592000103, "LONGITUDE": -101.287204347, "NAICS_CODE": "622110", "NAICS_DESC": "GENERAL MEDICAL AND SURGICAL HOSPITALS", "SOURCE": "http://www.ndhealth.gov/hf/North_Dakota_Hospitals_Critical_access.htm", "SOURCEDATE": "2018-08-09T00:00:00.000Z", "VAL_METHOD": "IMAGERY/OTHER", "VAL_DATE": "2015-06-01T00:00:00.000Z", "WEBSITE": "http://www.trinityhealth.org/", "STATE_ID": "5055A", "ALT_NAME": "NOT AVAILABLE", "ST_FIPS": "38", "OWNER": "NON-PROFIT", "TTL_STAFF": -999, "BEDS": 251, "TRAUMA": "NOT AVAILABLE", "HELIPAD": "N" }, "geometry": { "type": "Polygon", "coordinates": [ [ [ -101.295692, 48.124364 ], [ -101.296132, 48.124362 ], [ -101.382646, 48.175224 ], [ -101.440891, 48.2547 ], [ -101.433877, 48.275568 ], [ -101.4327163, 48.2767004 ], [ -101.295837, 48.341323 ], [ -101.295484, 48.341325 ], [ -101.101297, 48.240087 ], [ -101.101295, 48.239855 ], [ -101.169995, 48.152883 ], [ -101.295692, 48.124364 ] ] ] } },
{ "type": "Feature", "properties": { "OBJECTID": 5108, "ID": "0006058601", "NAME": "ST JOSEPH'S HOSPITAL AND HEALTH CENTER", "ADDRESS": "2500 FAIRWAY STREET", "CITY": "DICKINSON", "STATE": "ND", "ZIP": "58601", "ZIP4": "NOT AVAILABLE", "TELEPHONE": "(701) 456-4000", "TYPE": "CRITICAL ACCESS", "STATUS": "OPEN", "POPULATION": 25, "COUNTY": "STARK", "COUNTYFIPS": "38089", "COUNTRY": "USA", "LATITUDE": 46.889075891000097, "LONGITUDE": -102.82055036, "NAICS_CODE": "622110", "NAICS_DESC": "GENERAL MEDICAL AND SURGICAL HOSPITALS", "SOURCE": "http://www.ndhealth.gov/HF/North_Dakota_Hospitals_Critical_access.htm", "SOURCEDATE": "2018-08-09T00:00:00.000Z", "VAL_METHOD": "IMAGERY/OTHER", "VAL_DATE": "2016-08-19T00:00:00.000Z", "WEBSITE": "http://chistjosephshealth.org/", "STATE_ID": "5054A", "ALT_NAME": "CHI ST. ALEXIUS HEALTH DICKINSON", "ST_FIPS": "38", "OWNER": "NON-PROFIT", "TTL_STAFF": -999, "BEDS": 25, "TRAUMA": "NOT AVAILABLE", "HELIPAD": "Y" }, "geometry": { "type": "Polygon", "coordinates": [ [ [ -102.7924291, 46.802705100000018 ], [ -102.7927049, 46.8027091 ], [ -102.8006111, 46.8036934 ], [ -102.894196, 46.832744 ], [ -102.9916418, 46.865490400000027 ], [ -103.020202, 46.876369 ], [ -102.9990295, 46.905297899999972 ], [ -102.789735, 46.981173 ], [ -102.664402, 46.8914 ], [ -102.768625, 46.818084 ], [ -102.7898148, 46.803683799999966 ], [ -102.7924291, 46.802705100000018 ] ] ] } },
{ "type": "Feature", "properties": { "OBJECTID": 5109, "ID": "0006158201", "NAME": "ALTRU SPECIALTY HOSPITAL", "ADDRESS": "4500 S WASHINGTON ST", "CITY": "GRAND FORKS", "STATE": "ND", "ZIP": "58201", "ZIP4": "NOT AVAILABLE", "TELEPHONE": "(701) 780-1500", "TYPE": "GENERAL ACUTE CARE", "STATUS": "OPEN", "POPULATION": 45, "COUNTY": "GRAND FORKS", "COUNTYFIPS": "38035", "COUNTRY": "USA", "LATITUDE": 47.876960814, "LONGITUDE": -97.04744399, "NAICS_CODE": "622110", "NAICS_DESC": "GENERAL MEDICAL AND SURGICAL HOSPITALS", "SOURCE": "http://www.ndhealth.gov/HF/North_Dakota_Hospitals_Critical_access.htm", "SOURCEDATE": "2018-08-09T00:00:00.000Z", "VAL_METHOD": "IMAGERY/OTHER", "VAL_DATE": "2016-08-19T00:00:00.000Z", "WEBSITE": "http://www.altru.org/find-a-location/location-profile/?id=58", "STATE_ID": "5069", "ALT_NAME": "NOT AVAILABLE", "ST_FIPS": "38", "OWNER": "NON-PROFIT", "TTL_STAFF": -999, "BEDS": 45, "TRAUMA": "NOT AVAILABLE", "HELIPAD": "N" }, "geometry": { "type": "Polygon", "coordinates": [ [ [ -97.06698, 47.759129 ], [ -97.08851, 47.773643 ], [ -97.1747525, 47.887032800000028 ], [ -97.174721, 47.889594 ], [ -97.1529224, 47.933155 ], [ -97.092206, 47.988896599999968 ], [ -97.02054680000002, 47.922028600000047 ], [ -96.9890045, 47.831780599999952 ], [ -96.9890305, 47.828262899999984 ], [ -97.0022555, 47.802786200000035 ], [ -97.06698, 47.759129 ] ] ] } },
{ "type": "Feature", "properties": { "OBJECTID": 5124, "ID": "0005157442", "NAME": "AVERA GETTYSBURG HOSPITAL", "ADDRESS": "606 EAST GARFIELD AVENUE", "CITY": "GETTYSBURG", "STATE": "SD", "ZIP": "57442", "ZIP4": "NOT AVAILABLE", "TELEPHONE": "(605) 765-2480", "TYPE": "CRITICAL ACCESS", "STATUS": "OPEN", "POPULATION": 10, "COUNTY": "POTTER", "COUNTYFIPS": "46107", "COUNTRY": "USA", "LATITUDE": 45.013084894000002, "LONGITUDE": -99.94779146, "NAICS_CODE": "622110", "NAICS_DESC": "GENERAL MEDICAL AND SURGICAL HOSPITALS", "SOURCE": "https://apps.sd.gov/ph04lassnet/rptPH04LicenseList.Aspx", "SOURCEDATE": "2018-08-10T00:00:00.000Z", "VAL_METHOD": "IMAGERY", "VAL_DATE": "2014-02-10T00:00:00.000Z", "WEBSITE": "http://www.avera.org/", "STATE_ID": "NOT AVAILABLE", "ALT_NAME": "NOT AVAILABLE", "ST_FIPS": "46", "OWNER": "NON-PROFIT", "TTL_STAFF": -999, "BEDS": 10, "TRAUMA": "TRH", "HELIPAD": "Y" }, "geometry": { "type": "Polygon", "coordinates": [ [ [ -99.940092, 44.955585 ], [ -99.9605, 44.955749 ], [ -99.961114, 44.95576 ], [ -100.082999, 44.999273 ], [ -100.103454, 45.013831 ], [ -100.103452, 45.017229 ], [ -100.10345, 45.019504 ], [ -99.939266, 45.114989 ], [ -99.837472, 45.071669 ], [ -99.817191, 45.057229 ], [ -99.858406, 45.013667 ], [ -99.899288, 44.98455 ], [ -99.940092, 44.955585 ] ] ] } },
{ "type": "Feature", "properties": { "OBJECTID": 5212, "ID": "0004555744", "NAME": "GRAND ITASCA CLINIC & HOSP", "ADDRESS": "1601 GOLF COURSE ROAD", "CITY": "GRAND RAPIDS", "STATE": "MN", "ZIP": "55744", "ZIP4": "NOT AVAILABLE", "TELEPHONE": "(218) 326-3401", "TYPE": "GENERAL ACUTE CARE", "STATUS": "OPEN", "POPULATION": 64, "COUNTY": "ITASCA", "COUNTYFIPS": "27061", "COUNTRY": "USA", "LATITUDE": 47.223550707000101, "LONGITUDE": -93.555540347000004, "NAICS_CODE": "622110", "NAICS_DESC": "GENERAL MEDICAL AND SURGICAL HOSPITALS", "SOURCE": "http://www.health.state.mn.us/divs/fpc/directory/providerselect.cfm", "SOURCEDATE": "2018-08-09T00:00:00.000Z", "VAL_METHOD": "IMAGERY", "VAL_DATE": "2014-02-10T00:00:00.000Z", "WEBSITE": "http://www.granditasca.org", "STATE_ID": "297", "ALT_NAME": "NOT AVAILABLE", "ST_FIPS": "27", "OWNER": "NON-PROFIT", "TTL_STAFF": -999, "BEDS": 64, "TRAUMA": "LEVEL III", "HELIPAD": "Y" }, "geometry": { "type": "Polygon", "coordinates": [ [ [ -93.573905, 47.123434 ], [ -93.5766087, 47.123806600000016 ], [ -93.6762346, 47.2287848 ], [ -93.6506445, 47.2753934 ], [ -93.564316800000014, 47.31399050000001 ], [ -93.421815, 47.289723599999959 ], [ -93.4037677, 47.233702800000017 ], [ -93.4092239, 47.188926400000021 ], [ -93.4542748, 47.1670604 ], [ -93.5725766, 47.1238261 ], [ -93.573905, 47.123434 ] ] ] } },
{ "type": "Feature", "properties": { "OBJECTID": 5213, "ID": "0002858220", "NAME": "PEMBINA COUNTY MEMORIAL HOSPITAL", "ADDRESS": "301 MOUNTAIN ST E", "CITY": "CAVALIER", "STATE": "ND", "ZIP": "58220", "ZIP4": "NOT AVAILABLE", "TELEPHONE": "(701) 265-8461", "TYPE": "CRITICAL ACCESS", "STATUS": "OPEN", "POPULATION": 20, "COUNTY": "PEMBINA", "COUNTYFIPS": "38067", "COUNTRY": "USA", "LATITUDE": 48.7925461, "LONGITUDE": -97.618716954999996, "NAICS_CODE": "622110", "NAICS_DESC": "GENERAL MEDICAL AND SURGICAL HOSPITALS", "SOURCE": "http://www.ndhealth.gov/hf/North_Dakota_Hospitals_Critical_access.htm", "SOURCEDATE": "2018-08-09T00:00:00.000Z", "VAL_METHOD": "IMAGERY", "VAL_DATE": "2014-02-10T00:00:00.000Z", "WEBSITE": "www.cavalierhospital.com", "STATE_ID": "5009A", "ALT_NAME": "NOT AVAILABLE", "ST_FIPS": "38", "OWNER": "NON-PROFIT", "TTL_STAFF": -999, "BEDS": 20, "TRAUMA": "NOT AVAILABLE", "HELIPAD": "N" }, "geometry": { "type": "Polygon", "coordinates": [ [ [ -97.6230341, 48.666396 ], [ -97.795783, 48.760786 ], [ -97.622378, 48.891285 ], [ -97.556512, 48.876903 ], [ -97.447113, 48.808557 ], [ -97.4471846, 48.804334 ], [ -97.6230341, 48.666396 ] ] ] } },
{ "type": "Feature", "properties": { "OBJECTID": 5367, "ID": "0000156633", "NAME": "CASS LAKE HOSPITAL", "ADDRESS": "425 7TH ST NW", "CITY": "CASS LAKE", "STATE": "MN", "ZIP": "56633", "ZIP4": "NOT AVAILABLE", "TELEPHONE": "(218) 335-3200", "TYPE": "CRITICAL ACCESS", "STATUS": "OPEN", "POPULATION": -999, "COUNTY": "CASS", "COUNTYFIPS": "27021", "COUNTRY": "USA", "LATITUDE": 47.384465427000102, "LONGITUDE": -94.608547915000003, "NAICS_CODE": "622110", "NAICS_DESC": "GENERAL MEDICAL AND SURGICAL HOSPITALS", "SOURCE": "https://www.ihs.gov/findhealthcare/", "SOURCEDATE": "2018-09-27T00:00:00.000Z", "VAL_METHOD": "IMAGERY/OTHER", "VAL_DATE": "2018-05-08T00:00:00.000Z", "WEBSITE": "https://www.ihs.gov/Bemidji/healthcarefacilities/casslake/", "STATE_ID": "NOT AVAILABLE", "ALT_NAME": "NOT AVAILABLE", "ST_FIPS": "27", "OWNER": "GOVERNMENT - FEDERAL", "TTL_STAFF": -999, "BEDS": -999, "TRAUMA": "NOT AVAILABLE", "HELIPAD": "Y" }, "geometry": { "type": "Polygon", "coordinates": [ [ [ -94.6284486, 47.248026300000035 ], [ -94.8105903, 47.40871510000003 ], [ -94.8141175, 47.415756400000014 ], [ -94.6226745, 47.422250699999971 ], [ -94.4798127, 47.387973100000032 ], [ -94.4198862, 47.369168500000022 ], [ -94.6284486, 47.248026300000035 ] ] ] } },
{ "type": "Feature", "properties": { "OBJECTID": 5368, "ID": "0000756671", "NAME": "RED LAKE HOSPITAL", "ADDRESS": "24760 HOSPITAL DRIVE", "CITY": "RED LAKE", "STATE": "MN", "ZIP": "56671", "ZIP4": "NOT AVAILABLE", "TELEPHONE": "(218) 679-3912", "TYPE": "CRITICAL ACCESS", "STATUS": "OPEN", "POPULATION": -999, "COUNTY": "BELTRAMI", "COUNTYFIPS": "27007", "COUNTRY": "USA", "LATITUDE": 47.877843502000097, "LONGITUDE": -95.029242075, "NAICS_CODE": "622110", "NAICS_DESC": "GENERAL MEDICAL AND SURGICAL HOSPITALS", "SOURCE": "https://www.ihs.gov/findhealthcare/", "SOURCEDATE": "2018-09-27T00:00:00.000Z", "VAL_METHOD": "IMAGERY/OTHER", "VAL_DATE": "2018-05-08T00:00:00.000Z", "WEBSITE": "http://rlnnredlakehospital.com/", "STATE_ID": "NOT AVAILABLE", "ALT_NAME": "NOT AVAILABLE", "ST_FIPS": "27", "OWNER": "GOVERNMENT - FEDERAL", "TTL_STAFF": -999, "BEDS": -999, "TRAUMA": "NOT AVAILABLE", "HELIPAD": "Y" }, "geometry": { "type": "Polygon", "coordinates": [ [ [ -95.0062393, 47.776604600000013 ], [ -95.0377357, 47.789285699999972 ], [ -95.1937475, 47.870266599999987 ], [ -95.1904125, 47.8709918 ], [ -95.0178499, 47.8802473 ], [ -94.9942195, 47.880793800000028 ], [ -94.8823857, 47.88247220000008 ], [ -94.864657, 47.8800615 ], [ -94.8722584, 47.862317700000027 ], [ -95.001151, 47.77773 ], [ -95.0062393, 47.776604600000013 ] ] ] } },
{ "type": "Feature", "properties": { "OBJECTID": 5385, "ID": "0000000057", "NAME": "ESSENTIA HEALTH VIRGINIA", "ADDRESS": "901 9TH ST N", "CITY": "VIRGINIA", "STATE": "MN", "ZIP": "55792", "ZIP4": "NOT AVAILABLE", "TELEPHONE": "(218) 741-3340", "TYPE": "GENERAL ACUTE CARE", "STATUS": "OPEN", "POPULATION": 83, "COUNTY": "ST. LOUIS", "COUNTYFIPS": "27137", "COUNTRY": "USA", "LATITUDE": 47.531863391999998, "LONGITUDE": -92.548547600999896, "NAICS_CODE": "622110", "NAICS_DESC": "GENERAL MEDICAL AND SURGICAL HOSPITALS", "SOURCE": "http://www.health.state.mn.us/divs/fpc/directory/providerselect.cfm", "SOURCEDATE": "2018-08-09T00:00:00.000Z", "VAL_METHOD": "IMAGERY/OTHER", "VAL_DATE": "2015-05-21T00:00:00.000Z", "WEBSITE": "http://www.essentiahealth.org/essentiahealth-virginia/find-a-clinic/essentia-healthvirginia-211.aspx", "STATE_ID": "NOT AVAILABLE", "ALT_NAME": "NOT AVAILABLE", "ST_FIPS": "27", "OWNER": "NON-PROFIT", "TTL_STAFF": -999, "BEDS": 83, "TRAUMA": "LEVEL IV", "HELIPAD": "Y" }, "geometry": { "type": "Polygon", "coordinates": [ [ [ -92.6015057, 47.442213299999977 ], [ -92.612611, 47.444703 ], [ -92.7074371, 47.493371099999969 ], [ -92.7074656, 47.493717599999989 ], [ -92.5712563, 47.640918099999965 ], [ -92.5632774, 47.64287329999997 ], [ -92.5544819, 47.6423829 ], [ -92.4579012, 47.618616200000027 ], [ -92.4568572, 47.618043099999973 ], [ -92.445025, 47.4870331 ], [ -92.5192041, 47.449229899999928 ], [ -92.6015057, 47.442213299999977 ] ] ] } },
{ "type": "Feature", "properties": { "OBJECTID": 5636, "ID": "0002255805", "NAME": "ESSENTIA HEALTH DULUTH", "ADDRESS": "502 EAST SECOND STREET", "CITY": "DULUTH", "STATE": "MN", "ZIP": "55805", "ZIP4": "NOT AVAILABLE", "TELEPHONE": "(218) 727-8762", "TYPE": "GENERAL ACUTE CARE", "STATUS": "OPEN", "POPULATION": 165, "COUNTY": "ST. LOUIS", "COUNTYFIPS": "27137", "COUNTRY": "USA", "LATITUDE": 46.793116531000102, "LONGITUDE": -92.093274867000005, "NAICS_CODE": "622110", "NAICS_DESC": "GENERAL MEDICAL AND SURGICAL HOSPITALS", "SOURCE": "http://www.health.state.mn.us/divs/fpc/directory/providerselect.cfm", "SOURCEDATE": "2018-08-09T00:00:00.000Z", "VAL_METHOD": "IMAGERY", "VAL_DATE": "2014-02-10T00:00:00.000Z", "WEBSITE": "http://www.essentiahealth.org", "STATE_ID": "596", "ALT_NAME": "NOT AVAILABLE", "ST_FIPS": "27", "OWNER": "NON-PROFIT", "TTL_STAFF": -999, "BEDS": 165, "TRAUMA": "NOT AVAILABLE", "HELIPAD": "N" }, "geometry": { "type": "Polygon", "coordinates": [ [ [ -92.2176758, 46.697709499999988 ], [ -92.238092, 46.720841 ], [ -92.2487225, 46.778554200000038 ], [ -92.2170661, 46.83698 ], [ -92.153609, 46.880061 ], [ -92.122347, 46.894628 ], [ -92.090347, 46.894689 ], [ -92.048122, 46.894753 ], [ -92.026778, 46.887457 ], [ -92.0174935, 46.880324099999967 ], [ -91.984672, 46.8545896 ], [ -91.9843623, 46.85434240000005 ], [ -92.05769, 46.737639 ], [ -92.0581546, 46.737382700000033 ], [ -92.2176758, 46.697709499999988 ] ] ] } },
{ "type": "Feature", "properties": { "OBJECTID": 5749, "ID": "0002258267", "NAME": "NORTHWOOD DEACONESS HEALTH CENTER", "ADDRESS": "4 NORTH PARK ST", "CITY": "NORTHWOOD", "STATE": "ND", "ZIP": "58267", "ZIP4": "NOT AVAILABLE", "TELEPHONE": "(701) 587-6060", "TYPE": "CRITICAL ACCESS", "STATUS": "OPEN", "POPULATION": 12, "COUNTY": "GRAND FORKS", "COUNTYFIPS": "38035", "COUNTRY": "USA", "LATITUDE": 47.7351055130001, "LONGITUDE": -97.574695262000006, "NAICS_CODE": "622110", "NAICS_DESC": "GENERAL MEDICAL AND SURGICAL HOSPITALS", "SOURCE": "http://www.ndhealth.gov/hf/North_Dakota_Hospitals_Critical_access.htm", "SOURCEDATE": "2018-08-09T00:00:00.000Z", "VAL_METHOD": "IMAGERY/OTHER", "VAL_DATE": "2014-02-10T00:00:00.000Z", "WEBSITE": "http://www.ndhc.net", "STATE_ID": "5040A", "ALT_NAME": "NOT AVAILABLE", "ST_FIPS": "38", "OWNER": "NON-PROFIT", "TTL_STAFF": -999, "BEDS": 12, "TRAUMA": "NOT AVAILABLE", "HELIPAD": "N" }, "geometry": { "type": "Polygon", "coordinates": [ [ [ -97.559552, 47.643043 ], [ -97.753335, 47.744593 ], [ -97.623505, 47.831142 ], [ -97.495172, 47.787704 ], [ -97.388246, 47.744399 ], [ -97.4530021, 47.700951599999961 ], [ -97.559552, 47.643043 ] ] ] } },
{ "type": "Feature", "properties": { "OBJECTID": 5750, "ID": "0004858208", "NAME": "RED RIVER BEHAVIORAL HEALTH SYSTEM", "ADDRESS": "1451 44TH AVE S", "CITY": "GRAND FORKS", "STATE": "ND", "ZIP": "58208", "ZIP4": "NOT AVAILABLE", "TELEPHONE": "(701) 772-2500", "TYPE": "PSYCHIATRIC", "STATUS": "OPEN", "POPULATION": 70, "COUNTY": "GRAND FORKS", "COUNTYFIPS": "38035", "COUNTRY": "USA", "LATITUDE": 47.87786025, "LONGITUDE": -97.046972857, "NAICS_CODE": "622210", "NAICS_DESC": "PSYCHIATRIC AND SUBSTANCE ABUSE HOSPITALS", "SOURCE": "http://www.ndhealth.gov/hf/North_Dakota_Hospitals_Critical_access.htm", "SOURCEDATE": "2018-08-09T00:00:00.000Z", "VAL_METHOD": "IMAGERY", "VAL_DATE": "2014-02-10T00:00:00.000Z", "WEBSITE": "http://www.stadtercenter.com", "STATE_ID": "5066A", "ALT_NAME": "NOT AVAILABLE", "ST_FIPS": "38", "OWNER": "PROPRIETARY", "TTL_STAFF": -999, "BEDS": 70, "TRAUMA": "NOT AVAILABLE", "HELIPAD": "N" }, "geometry": { "type": "Polygon", "coordinates": [ [ [ -97.06698, 47.759129 ], [ -97.08851, 47.773643 ], [ -97.1747525, 47.887032800000028 ], [ -97.174721, 47.889594 ], [ -97.1529224, 47.933155 ], [ -97.096021, 47.986702 ], [ -97.092206, 47.988896599999968 ], [ -97.02054680000002, 47.922028600000047 ], [ -96.9890305, 47.828262899999984 ], [ -97.0022555, 47.802786200000035 ], [ -97.06698, 47.759129 ] ] ] } },
{ "type": "Feature", "properties": { "OBJECTID": 5751, "ID": "0000158501", "NAME": "ST ALEXIUS MEDICAL CENTER", "ADDRESS": "900 E BROADWAY", "CITY": "BISMARCK", "STATE": "ND", "ZIP": "58501", "ZIP4": "NOT AVAILABLE", "TELEPHONE": "(701) 530-7000", "TYPE": "GENERAL ACUTE CARE", "STATUS": "OPEN", "POPULATION": 287, "COUNTY": "BURLEIGH", "COUNTYFIPS": "38015", "COUNTRY": "USA", "LATITUDE": 46.807382323000098, "LONGITUDE": -100.777800476, "NAICS_CODE": "622110", "NAICS_DESC": "GENERAL MEDICAL AND SURGICAL HOSPITALS", "SOURCE": "http://www.ndhealth.gov/hf/North_Dakota_Hospitals_Critical_access.htm", "SOURCEDATE": "2018-08-09T00:00:00.000Z", "VAL_METHOD": "IMAGERY", "VAL_DATE": "2014-03-12T00:00:00.000Z", "WEBSITE": "http://www.st.alexius.org", "STATE_ID": "5004A", "ALT_NAME": "NOT AVAILABLE", "ST_FIPS": "38", "OWNER": "NON-PROFIT", "TTL_STAFF": -999, "BEDS": 287, "TRAUMA": "LEVEL II", "HELIPAD": "Y" }, "geometry": { "type": "Polygon", "coordinates": [ [ [ -100.736089, 46.720099 ], [ -100.739226, 46.720007 ], [ -100.75246850000002, 46.720947900000027 ], [ -100.758537, 46.722427 ], [ -100.8161729, 46.7512338 ], [ -100.828891, 46.764317 ], [ -100.832362, 46.769566 ], [ -100.87432, 46.876785 ], [ -100.874838, 46.878693 ], [ -100.874884, 46.879996 ], [ -100.874895, 46.880695 ], [ -100.87491, 46.881872 ], [ -100.862376, 46.896641 ], [ -100.773738, 46.924999 ], [ -100.77148, 46.925018 ], [ -100.768677, 46.925037 ], [ -100.5782932, 46.836958400000022 ], [ -100.7332678, 46.721186599999974 ], [ -100.736089, 46.720099 ] ] ] } },
{ "type": "Feature", "properties": { "OBJECTID": 5752, "ID": "0000658102", "NAME": "FARGO VA MEDICAL CENTER", "ADDRESS": "2101 ELM STREET", "CITY": "FARGO", "STATE": "ND", "ZIP": "58102", "ZIP4": "NOT AVAILABLE", "TELEPHONE": "(800) 410-9723", "TYPE": "MILITARY", "STATUS": "OPEN", "POPULATION": -999, "COUNTY": "CASS", "COUNTYFIPS": "38017", "COUNTRY": "USA", "LATITUDE": 46.906010183, "LONGITUDE": -96.775218761999994, "NAICS_CODE": "622110", "NAICS_DESC": "GENERAL MEDICAL AND SURGICAL HOSPITALS", "SOURCE": "http://www.ndhealth.gov/hf/North_Dakota_Hospitals_Critical_access.htm", "SOURCEDATE": "2018-08-09T00:00:00.000Z", "VAL_METHOD": "IMAGERY", "VAL_DATE": "2014-02-10T00:00:00.000Z", "WEBSITE": "http://www.fargo.va.gov/", "STATE_ID": "35002F", "ALT_NAME": "NOT AVAILABLE", "ST_FIPS": "38", "OWNER": "GOVERNMENT - FEDERAL", "TTL_STAFF": -999, "BEDS": -999, "TRAUMA": "NOT AVAILABLE", "HELIPAD": "N" }, "geometry": { "type": "Polygon", "coordinates": [ [ [ -96.803739, 46.821704 ], [ -96.840109, 46.82797069999998 ], [ -96.85152, 46.832604 ], [ -96.8746108, 46.84776 ], [ -96.9040811, 46.867967199999946 ], [ -96.9132859, 46.87495879999998 ], [ -96.9262888, 46.891685399999972 ], [ -96.8945956, 46.977201799999968 ], [ -96.886259, 46.980191 ], [ -96.7988466, 46.9651964 ], [ -96.7676707, 46.927278 ], [ -96.7657015, 46.924655199999982 ], [ -96.763818, 46.919412 ], [ -96.7703379, 46.879401699999988 ], [ -96.7786066, 46.849618799999973 ], [ -96.794173, 46.830883 ], [ -96.803739, 46.821704 ] ] ] } },
{ "type": "Feature", "properties": { "OBJECTID": 3158, "ID": "0000757401", "NAME": "DAKOTA PLAINS SURGICAL CENTER", "ADDRESS": "701 8TH AVENUE NORTHWEST", "CITY": "ABERDEEN", "STATE": "SD", "ZIP": "57401", "ZIP4": "NOT AVAILABLE", "TELEPHONE": "(605) 225-3300", "TYPE": "GENERAL ACUTE CARE", "STATUS": "CLOSED", "POPULATION": 15, "COUNTY": "BROWN", "COUNTYFIPS": "46013", "COUNTRY": "USA", "LATITUDE": 45.473152331999998, "LONGITUDE": -98.500240175000002, "NAICS_CODE": "622110", "NAICS_DESC": "GENERAL MEDICAL AND SURGICAL HOSPITALS", "SOURCE": "http://arcgis.sd.gov/ArcGIS/rest/services/SD_All/MapServer/38", "SOURCEDATE": "2012-11-24T00:00:00.000Z", "VAL_METHOD": "IMAGERY", "VAL_DATE": "2014-02-12T00:00:00.000Z", "WEBSITE": "www.orthopediccenterofthedakotas.com/dakotaplains.asp", "STATE_ID": "NOT AVAILABLE", "ALT_NAME": "NOT AVAILABLE", "ST_FIPS": "46", "OWNER": "PROPRIETARY", "TTL_STAFF": -999, "BEDS": 15, "TRAUMA": "NOT AVAILABLE", "HELIPAD": "N" }, "geometry": { "type": "Polygon", "coordinates": [ [ [ -98.5153846, 45.358131599999986 ], [ -98.515738, 45.3581396 ], [ -98.639666, 45.445043 ], [ -98.639657, 45.460446 ], [ -98.5982939, 45.51808139999995 ], [ -98.518411, 45.604691 ], [ -98.4128244, 45.531444799999967 ], [ -98.35105, 45.47332 ], [ -98.35107, 45.45898 ], [ -98.5153846, 45.358131599999986 ] ] ] } },
{ "type": "Feature", "properties": { "OBJECTID": 3179, "ID": "0003756501", "NAME": "ESSENTIA HLTH ST MARYS DETROIT", "ADDRESS": "1027 WASHINGTON AVENUE", "CITY": "DETROIT LAKES", "STATE": "MN", "ZIP": "56501", "ZIP4": "NOT AVAILABLE", "TELEPHONE": "(218) 847-5611", "TYPE": "GENERAL ACUTE CARE", "STATUS": "OPEN", "POPULATION": 87, "COUNTY": "BECKER", "COUNTYFIPS": "27005", "COUNTRY": "USA", "LATITUDE": 46.814842276999997, "LONGITUDE": -95.843679172999899, "NAICS_CODE": "622110", "NAICS_DESC": "GENERAL MEDICAL AND SURGICAL HOSPITALS", "SOURCE": "http://www.health.state.mn.us/divs/fpc/directory/providerselect.cfm", "SOURCEDATE": "2018-08-09T00:00:00.000Z", "VAL_METHOD": "IMAGERY", "VAL_DATE": "2014-02-10T00:00:00.000Z", "WEBSITE": "http://www.essentiahealth.org/stmarysdetroitlakes/find-a-clinic/essentia-health-st-marysdetroit-lakes-81.aspx", "STATE_ID": "888", "ALT_NAME": "NOT AVAILABLE", "ST_FIPS": "27", "OWNER": "NON-PROFIT", "TTL_STAFF": -999, "BEDS": 87, "TRAUMA": "LEVEL III", "HELIPAD": "N" }, "geometry": { "type": "Polygon", "coordinates": [ [ [ -95.8829403, 46.722518399999984 ], [ -95.9212384, 46.749090100000011 ], [ -95.9647906, 46.789915 ], [ -96.0066038, 46.8625329 ], [ -96.0064365, 46.86334169999995 ], [ -96.0051297, 46.865758100000029 ], [ -96.0048007, 46.866333499999989 ], [ -95.9850844, 46.876891299999969 ], [ -95.9099108, 46.917029500000041 ], [ -95.9087402, 46.9170565 ], [ -95.8266866, 46.906709700000036 ], [ -95.686163, 46.834558499999957 ], [ -95.7145299, 46.7739048 ], [ -95.7364885, 46.739049500000014 ], [ -95.7471855, 46.7304093 ], [ -95.757023, 46.729640399999965 ], [ -95.8829403, 46.722518399999984 ] ] ] } },
{ "type": "Feature", "properties": { "OBJECTID": 3180, "ID": "0011256762", "NAME": "NORTH VALLEY HEALTH CENTER", "ADDRESS": "109 SOUTH MINNESOTA STREET", "CITY": "WARREN", "STATE": "MN", "ZIP": "56762", "ZIP4": "NOT AVAILABLE", "TELEPHONE": "(218) 745-4210", "TYPE": "GENERAL ACUTE CARE", "STATUS": "CLOSED", "POPULATION": 20, "COUNTY": "MARSHALL", "COUNTYFIPS": "27089", "COUNTRY": "USA", "LATITUDE": 48.194607282000099, "LONGITUDE": -96.774970248000002, "NAICS_CODE": "622110", "NAICS_DESC": "GENERAL MEDICAL AND SURGICAL HOSPITALS", "SOURCE": "http://www.health.state.mn.us/divs/fpc/directory/fpcdir.html", "SOURCEDATE": "2012-08-06T00:00:00.000Z", "VAL_METHOD": "IMAGERY", "VAL_DATE": "2014-02-10T00:00:00.000Z", "WEBSITE": "http://www.nvhc.net", "STATE_ID": "871", "ALT_NAME": "NOT AVAILABLE", "ST_FIPS": "27", "OWNER": "NON-PROFIT", "TTL_STAFF": -999, "BEDS": 20, "TRAUMA": "NOT AVAILABLE", "HELIPAD": "N" }, "geometry": { "type": "Polygon", "coordinates": [ [ [ -96.710689, 48.093620499999979 ], [ -96.716954500000014, 48.093626300000032 ], [ -96.9558866, 48.195018799999957 ], [ -96.81640920000001, 48.325648300000054 ], [ -96.8153556, 48.325651 ], [ -96.674805, 48.253463 ], [ -96.5876091, 48.195542100000026 ], [ -96.710689, 48.093620499999979 ] ] ] } },
{ "type": "Feature", "properties": { "OBJECTID": 3524, "ID": "0002058545", "NAME": "SAKAKAWEA MEDICAL CENTER - CAH", "ADDRESS": "510 8TH AVENUE NE", "CITY": "HAZEN", "STATE": "ND", "ZIP": "58545", "ZIP4": "NOT AVAILABLE", "TELEPHONE": "(701) 748-2225", "TYPE": "CRITICAL ACCESS", "STATUS": "OPEN", "POPULATION": 13, "COUNTY": "MERCER", "COUNTYFIPS": "38057", "COUNTRY": "USA", "LATITUDE": 47.298636672999997, "LONGITUDE": -101.610600031, "NAICS_CODE": "622110", "NAICS_DESC": "GENERAL MEDICAL AND SURGICAL HOSPITALS", "SOURCE": "http://www.ndhealth.gov/hf/North_Dakota_Hospitals_Critical_access.htm", "SOURCEDATE": "2018-08-09T00:00:00.000Z", "VAL_METHOD": "IMAGERY/OTHER", "VAL_DATE": "2014-03-12T00:00:00.000Z", "WEBSITE": "http://www.sakmedcenter.com", "STATE_ID": "5024A", "ALT_NAME": "NOT AVAILABLE", "ST_FIPS": "38", "OWNER": "NON-PROFIT", "TTL_STAFF": -999, "BEDS": 13, "TRAUMA": "NOT AVAILABLE", "HELIPAD": "Y" }, "geometry": { "type": "Polygon", "coordinates": [ [ [ -101.616944, 47.212465 ], [ -101.744824, 47.27023 ], [ -101.785677, 47.299087 ], [ -101.631765, 47.385909 ], [ -101.504445, 47.34266 ], [ -101.4269243, 47.2993647 ], [ -101.49044, 47.270329 ], [ -101.616944, 47.212465 ] ] ] } },
{ "type": "Feature", "properties": { "OBJECTID": 3525, "ID": "0001658425", "NAME": "COOPERSTOWN MEDICAL CENTER", "ADDRESS": "1200 ROBERTS AVE NE", "CITY": "COOPERSTOWN", "STATE": "ND", "ZIP": "58425", "ZIP4": "NOT AVAILABLE", "TELEPHONE": "(701) 797-2221", "TYPE": "CRITICAL ACCESS", "STATUS": "OPEN", "POPULATION": 18, "COUNTY": "GRIGGS", "COUNTYFIPS": "38039", "COUNTRY": "USA", "LATITUDE": 47.445956048, "LONGITUDE": -98.118556874000006, "NAICS_CODE": "622110", "NAICS_DESC": "GENERAL MEDICAL AND SURGICAL HOSPITALS", "SOURCE": "http://www.ndhealth.gov/hf/North_Dakota_Hospitals_Critical_access.htm", "SOURCEDATE": "2018-08-09T00:00:00.000Z", "VAL_METHOD": "IMAGERY", "VAL_DATE": "2014-02-11T00:00:00.000Z", "WEBSITE": "http://www.coopermc.com", "STATE_ID": "5010P", "ALT_NAME": "NOT AVAILABLE", "ST_FIPS": "38", "OWNER": "NON-PROFIT", "TTL_STAFF": -999, "BEDS": 18, "TRAUMA": "NOT AVAILABLE", "HELIPAD": "N" }, "geometry": { "type": "Polygon", "coordinates": [ [ [ -98.114435, 47.355437 ], [ -98.178612, 47.355443000000101 ], [ -98.30781, 47.442427 ], [ -98.177037, 47.543807 ], [ -98.134169, 47.543845 ], [ -98.092165, 47.543781 ], [ -98.006889, 47.43861 ], [ -98.081986, 47.369943 ], [ -98.114435, 47.355437 ] ] ] } },
{ "type": "Feature", "properties": { "OBJECTID": 3526, "ID": "0003358072", "NAME": "MERCY HOSPITAL OF VALLEY CITY", "ADDRESS": "570 CHAUTAUQUA BLVD", "CITY": "VALLEY CITY", "STATE": "ND", "ZIP": "58072", "ZIP4": "NOT AVAILABLE", "TELEPHONE": "(701) 845-6400", "TYPE": "CRITICAL ACCESS", "STATUS": "OPEN", "POPULATION": 25, "COUNTY": "BARNES", "COUNTYFIPS": "38003", "COUNTRY": "USA", "LATITUDE": 46.928388317, "LONGITUDE": -97.99403843, "NAICS_CODE": "622110", "NAICS_DESC": "GENERAL MEDICAL AND SURGICAL HOSPITALS", "SOURCE": "http://www.ndhealth.gov/hf/North_Dakota_Hospitals_Critical_access.htm", "SOURCEDATE": "2018-08-09T00:00:00.000Z", "VAL_METHOD": "IMAGERY", "VAL_DATE": "2014-02-10T00:00:00.000Z", "WEBSITE": "http://www.mercyhospitalvalleycity.org", "STATE_ID": "5050A", "ALT_NAME": "NOT AVAILABLE", "ST_FIPS": "38", "OWNER": "NON-PROFIT", "TTL_STAFF": -999, "BEDS": 25, "TRAUMA": "NOT AVAILABLE", "HELIPAD": "N" }, "geometry": { "type": "Polygon", "coordinates": [ [ [ -97.997248, 46.848168 ], [ -98.081028, 46.848372 ], [ -98.200197, 46.906836 ], [ -98.082039, 46.988883 ], [ -98.002242, 47.022796 ], [ -97.782028, 46.919863 ], [ -97.997248, 46.848168 ] ] ] } },
{ "type": "Feature", "properties": { "OBJECTID": 3527, "ID": "0003258249", "NAME": "CCMH & CLINICS", "ADDRESS": "909 2ND ST", "CITY": "LANGDON", "STATE": "ND", "ZIP": "58249", "ZIP4": "NOT AVAILABLE", "TELEPHONE": "(701) 256-6100", "TYPE": "CRITICAL ACCESS", "STATUS": "OPEN", "POPULATION": 20, "COUNTY": "CAVALIER", "COUNTYFIPS": "38019", "COUNTRY": "USA", "LATITUDE": 48.761957307000003, "LONGITUDE": -98.366020082000006, "NAICS_CODE": "622110", "NAICS_DESC": "GENERAL MEDICAL AND SURGICAL HOSPITALS", "SOURCE": "http://www.ndhealth.gov/hf/North_Dakota_Hospitals_Critical_access.htm", "SOURCEDATE": "2018-08-09T00:00:00.000Z", "VAL_METHOD": "IMAGERY/OTHER", "VAL_DATE": "2014-02-10T00:00:00.000Z", "WEBSITE": "http://www.cavaliercountyhospital.com", "STATE_ID": "5029A", "ALT_NAME": "NOT AVAILABLE", "ST_FIPS": "38", "OWNER": "NON-PROFIT", "TTL_STAFF": -999, "BEDS": 20, "TRAUMA": "NOT AVAILABLE", "HELIPAD": "N" }, "geometry": { "type": "Polygon", "coordinates": [ [ [ -98.361824, 48.630616 ], [ -98.54054, 48.761319 ], [ -98.364973, 48.9062 ], [ -98.168232, 48.761103 ], [ -98.361824, 48.630616 ] ] ] } },
{ "type": "Feature", "properties": { "OBJECTID": 3528, "ID": "0000458506", "NAME": "SANFORD BISMARCK", "ADDRESS": "300 N 7TH ST", "CITY": "BISMARCK", "STATE": "ND", "ZIP": "58506", "ZIP4": "NOT AVAILABLE", "TELEPHONE": "(701) 323-6000", "TYPE": "GENERAL ACUTE CARE", "STATUS": "OPEN", "POPULATION": 223, "COUNTY": "BURLEIGH", "COUNTYFIPS": "38015", "COUNTRY": "USA", "LATITUDE": 46.807946227000102, "LONGITUDE": -100.782338501, "NAICS_CODE": "622110", "NAICS_DESC": "GENERAL MEDICAL AND SURGICAL HOSPITALS", "SOURCE": "http://www.ndhealth.gov/hf/North_Dakota_Hospitals_Critical_access.htm", "SOURCEDATE": "2018-08-09T00:00:00.000Z", "VAL_METHOD": "IMAGERY/OTHER", "VAL_DATE": "2014-03-12T00:00:00.000Z", "WEBSITE": "http://www.bismarck.sanfordhealth.org/", "STATE_ID": "5003A", "ALT_NAME": "NOT AVAILABLE", "ST_FIPS": "38", "OWNER": "NON-PROFIT", "TTL_STAFF": -999, "BEDS": 223, "TRAUMA": "LEVEL II", "HELIPAD": "Y" }, "geometry": { "type": "Polygon", "coordinates": [ [ [ -100.736089, 46.720099 ], [ -100.739226, 46.720007 ], [ -100.75246850000002, 46.720947900000027 ], [ -100.758537, 46.722427 ], [ -100.8161729, 46.7512338 ], [ -100.828891, 46.764317 ], [ -100.832362, 46.769566 ], [ -100.8781385, 46.876285 ], [ -100.874912, 46.889092 ], [ -100.865753, 46.900803 ], [ -100.865249, 46.900943 ], [ -100.774625, 46.918747 ], [ -100.7716, 46.917785 ], [ -100.5782932, 46.836958400000022 ], [ -100.7332678, 46.721186599999974 ], [ -100.736089, 46.720099 ] ] ] } },
{ "type": "Feature", "properties": { "OBJECTID": 3529, "ID": "0000358122", "NAME": "SANFORD MEDICAL CENTER FARGO", "ADDRESS": "801 BROADWAY NORTH", "CITY": "FARGO", "STATE": "ND", "ZIP": "58122", "ZIP4": "NOT AVAILABLE", "TELEPHONE": "(701) 234-2000", "TYPE": "GENERAL ACUTE CARE", "STATUS": "OPEN", "POPULATION": 380, "COUNTY": "CASS", "COUNTYFIPS": "38017", "COUNTRY": "USA", "LATITUDE": 46.884944485000098, "LONGITUDE": -96.786054844999995, "NAICS_CODE": "622110", "NAICS_DESC": "GENERAL MEDICAL AND SURGICAL HOSPITALS", "SOURCE": "http://www.ndhealth.gov/hf/North_Dakota_Hospitals_Critical_access.htm", "SOURCEDATE": "2018-08-09T00:00:00.000Z", "VAL_METHOD": "IMAGERY/OTHER", "VAL_DATE": "2014-03-12T00:00:00.000Z", "WEBSITE": "www.sanfordhealth.org", "STATE_ID": "5018A", "ALT_NAME": "NOT AVAILABLE", "ST_FIPS": "38", "OWNER": "NON-PROFIT", "TTL_STAFF": -999, "BEDS": 380, "TRAUMA": "LEVEL II", "HELIPAD": "Y" }, "geometry": { "type": "Polygon", "coordinates": [ [ [ -96.803155, 46.793308 ], [ -96.841723700000017, 46.804194800000012 ], [ -96.8614422, 46.8146833 ], [ -96.9074778, 46.844886899999985 ], [ -96.9686009, 46.891593 ], [ -96.8911365, 46.992568100000049 ], [ -96.7988466, 46.9651964 ], [ -96.7676707, 46.927278 ], [ -96.7657015, 46.924655199999982 ], [ -96.763818, 46.919412 ], [ -96.7703379, 46.879401699999988 ], [ -96.7786066, 46.849618799999973 ], [ -96.7965247, 46.803371099999964 ], [ -96.803155, 46.793308 ] ] ] } },
{ "type": "Feature", "properties": { "OBJECTID": 3530, "ID": "0000958104", "NAME": "ESSENTIA HEALTH-FARGO", "ADDRESS": "3000 32ND AVE SOUTH", "CITY": "FARGO", "STATE": "ND", "ZIP": "58104", "ZIP4": "NOT AVAILABLE", "TELEPHONE": "(701) 364-8000", "TYPE": "GENERAL ACUTE CARE", "STATUS": "OPEN", "POPULATION": 133, "COUNTY": "CASS", "COUNTYFIPS": "38017", "COUNTRY": "USA", "LATITUDE": 46.83148799, "LONGITUDE": -96.827505451999997, "NAICS_CODE": "622110", "NAICS_DESC": "GENERAL MEDICAL AND SURGICAL HOSPITALS", "SOURCE": "http://www.ndhealth.gov/hf/North_Dakota_Hospitals_Critical_access.htm", "SOURCEDATE": "2018-08-09T00:00:00.000Z", "VAL_METHOD": "IMAGERY/OTHER", "VAL_DATE": "2014-03-12T00:00:00.000Z", "WEBSITE": "essentiahealth.org/fargo", "STATE_ID": "5067A", "ALT_NAME": "NOT AVAILABLE", "ST_FIPS": "38", "OWNER": "PROPRIETARY", "TTL_STAFF": -999, "BEDS": 133, "TRAUMA": "LEVEL II", "HELIPAD": "Y" }, "geometry": { "type": "Polygon", "coordinates": [ [ [ -96.830694, 46.714004 ], [ -96.841267, 46.71679 ], [ -96.908743, 46.746269 ], [ -96.994574500000013, 46.877686699999977 ], [ -96.867745, 46.934208 ], [ -96.851944, 46.937099 ], [ -96.82614, 46.9343385 ], [ -96.7768282, 46.908188799999976 ], [ -96.7745849, 46.901914499999975 ], [ -96.7719138, 46.891685100000046 ], [ -96.770275, 46.883109 ], [ -96.770209, 46.880609 ], [ -96.7795765, 46.766254300000014 ], [ -96.783351, 46.730986799999961 ], [ -96.798939, 46.716463 ], [ -96.830694, 46.714004 ] ] ] } },
{ "type": "Feature", "properties": { "OBJECTID": 3531, "ID": "0004558301", "NAME": "MERCY HOSPITAL OF DEVIL'S LAKE", "ADDRESS": "1031 7TH ST NE", "CITY": "DEVIL'S LAKE", "STATE": "ND", "ZIP": "58301", "ZIP4": "NOT AVAILABLE", "TELEPHONE": "(701) 662-2131", "TYPE": "CRITICAL ACCESS", "STATUS": "OPEN", "POPULATION": 25, "COUNTY": "RAMSEY", "COUNTYFIPS": "38071", "COUNTRY": "USA", "LATITUDE": 48.115704429000097, "LONGITUDE": -98.849297453000005, "NAICS_CODE": "622110", "NAICS_DESC": "GENERAL MEDICAL AND SURGICAL HOSPITALS", "SOURCE": "http://www.ndhealth.gov/hf/North_Dakota_Hospitals_Critical_access.htm", "SOURCEDATE": "2018-08-09T00:00:00.000Z", "VAL_METHOD": "IMAGERY/OTHER", "VAL_DATE": "2014-02-10T00:00:00.000Z", "WEBSITE": "www.mercyhospital.com", "STATE_ID": "5012A", "ALT_NAME": "NOT AVAILABLE", "ST_FIPS": "38", "OWNER": "NON-PROFIT", "TTL_STAFF": -999, "BEDS": 25, "TRAUMA": "NOT AVAILABLE", "HELIPAD": "Y" }, "geometry": { "type": "Polygon", "coordinates": [ [ [ -98.88047, 48.026225400000015 ], [ -98.896281, 48.025961 ], [ -98.984063, 48.093381 ], [ -98.990502, 48.108012 ], [ -98.978655, 48.122362 ], [ -98.875973, 48.223789 ], [ -98.724643, 48.107897 ], [ -98.778711500000014, 48.060860399999939 ], [ -98.88047, 48.026225400000015 ] ] ] } },
{ "type": "Feature", "properties": { "OBJECTID": 3532, "ID": "0004358401", "NAME": "JAMESTOWN REGIONAL MEDICAL CENTER", "ADDRESS": "2422 20TH ST SW", "CITY": "JAMESTOWN", "STATE": "ND", "ZIP": "58401", "ZIP4": "NOT AVAILABLE", "TELEPHONE": "(701) 252-1050", "TYPE": "CRITICAL ACCESS", "STATUS": "OPEN", "POPULATION": 25, "COUNTY": "STUTSMAN", "COUNTYFIPS": "38093", "COUNTRY": "USA", "LATITUDE": 46.89013142, "LONGITUDE": -98.746627573999902, "NAICS_CODE": "622110", "NAICS_DESC": "GENERAL MEDICAL AND SURGICAL HOSPITALS", "SOURCE": "http://www.ndhealth.gov/hf/North_Dakota_Hospitals_Critical_access.htm", "SOURCEDATE": "2018-08-09T00:00:00.000Z", "VAL_METHOD": "IMAGERY/OTHER", "VAL_DATE": "2014-02-10T00:00:00.000Z", "WEBSITE": "http://www.jamestownhospital.com", "STATE_ID": "5027A", "ALT_NAME": "NOT AVAILABLE", "ST_FIPS": "38", "OWNER": "NON-PROFIT", "TTL_STAFF": -999, "BEDS": 25, "TRAUMA": "NOT AVAILABLE", "HELIPAD": "Y" }, "geometry": { "type": "Polygon", "coordinates": [ [ [ -98.712708, 46.790534 ], [ -98.903951, 46.877853 ], [ -98.925349, 46.891795 ], [ -98.904051, 46.906822 ], [ -98.755312, 46.979373 ], [ -98.734229, 46.979361 ], [ -98.608257, 46.933317 ], [ -98.608213, 46.922445 ], [ -98.607986, 46.862981 ], [ -98.712708, 46.790534 ] ] ] } },
{ "type": "Feature", "properties": { "OBJECTID": 3533, "ID": "0003858045", "NAME": "SANFORD HILLSBORO MEDICAL CENTER - CAH", "ADDRESS": "12 THIRD STREET SOUTH EAST", "CITY": "HILLSBORO", "STATE": "ND", "ZIP": "58045", "ZIP4": "NOT AVAILABLE", "TELEPHONE": "(701) 636-3200", "TYPE": "CRITICAL ACCESS", "STATUS": "OPEN", "POPULATION": 16, "COUNTY": "TRAILL", "COUNTYFIPS": "38097", "COUNTRY": "USA", "LATITUDE": 47.403250855000103, "LONGITUDE": -97.055837933999996, "NAICS_CODE": "622110", "NAICS_DESC": "GENERAL MEDICAL AND SURGICAL HOSPITALS", "SOURCE": "http://www.ndhealth.gov/hf/North_Dakota_Hospitals_Critical_access.htm", "SOURCEDATE": "2018-08-09T00:00:00.000Z", "VAL_METHOD": "IMAGERY", "VAL_DATE": "2014-02-10T00:00:00.000Z", "WEBSITE": "http://www.hillsboromedicalcenter.com", "STATE_ID": "5026A", "ALT_NAME": "NOT AVAILABLE", "ST_FIPS": "38", "OWNER": "NON-PROFIT", "TTL_STAFF": -999, "BEDS": 16, "TRAUMA": "NOT AVAILABLE", "HELIPAD": "N" }, "geometry": { "type": "Polygon", "coordinates": [ [ [ -97.0289761, 47.311304899999961 ], [ -97.155055, 47.352996 ], [ -97.1762401, 47.4042064 ], [ -97.1772109, 47.411147499999977 ], [ -97.134852, 47.497793 ], [ -97.092856, 47.512456 ], [ -97.078376, 47.514777 ], [ -97.06997, 47.512452 ], [ -97.0487034, 47.498021 ], [ -96.921346, 47.410658 ], [ -96.942191, 47.352777 ], [ -97.0289761, 47.311304899999961 ] ] ] } },
{ "type": "Feature", "properties": { "OBJECTID": 3534, "ID": "0002958237", "NAME": "UNITY MEDICAL CENTER", "ADDRESS": "164 W 13TH STREET", "CITY": "GRAFTON", "STATE": "ND", "ZIP": "58237", "ZIP4": "NOT AVAILABLE", "TELEPHONE": "(701) 352-1620", "TYPE": "CRITICAL ACCESS", "STATUS": "OPEN", "POPULATION": 14, "COUNTY": "WALSH", "COUNTYFIPS": "38099", "COUNTRY": "USA", "LATITUDE": 48.411002738000001, "LONGITUDE": -97.414331351000001, "NAICS_CODE": "622110", "NAICS_DESC": "GENERAL MEDICAL AND SURGICAL HOSPITALS", "SOURCE": "http://www.ndhealth.gov/hf/North_Dakota_Hospitals_Critical_access.htm", "SOURCEDATE": "2018-08-09T00:00:00.000Z", "VAL_METHOD": "IMAGERY", "VAL_DATE": "2014-02-10T00:00:00.000Z", "WEBSITE": "http://www.unitymedcenter.com", "STATE_ID": "5020A", "ALT_NAME": "NOT AVAILABLE", "ST_FIPS": "38", "OWNER": "NON-PROFIT", "TTL_STAFF": -999, "BEDS": 14, "TRAUMA": "NOT AVAILABLE", "HELIPAD": "N" }, "geometry": { "type": "Polygon", "coordinates": [ [ [ -97.404991, 48.31084 ], [ -97.600976, 48.412679 ], [ -97.4485992, 48.5138633 ], [ -97.441812, 48.513839 ], [ -97.4394513, 48.513816299999981 ], [ -97.21203, 48.412054 ], [ -97.404991, 48.31084 ] ] ] } },
{ "type": "Feature", "properties": { "OBJECTID": 3535, "ID": "0004158368", "NAME": "HEART OF AMERICA MEDICAL CENTER", "ADDRESS": "800 S MAIN AVE", "CITY": "RUGBY", "STATE": "ND", "ZIP": "58368", "ZIP4": "NOT AVAILABLE", "TELEPHONE": "(701) 776-5261", "TYPE": "CRITICAL ACCESS", "STATUS": "OPEN", "POPULATION": 25, "COUNTY": "PIERCE", "COUNTYFIPS": "38069", "COUNTRY": "USA", "LATITUDE": 48.363415573000097, "LONGITUDE": -99.997241083999896, "NAICS_CODE": "622110", "NAICS_DESC": "GENERAL MEDICAL AND SURGICAL HOSPITALS", "SOURCE": "http://www.ndhealth.gov/hf/North_Dakota_Hospitals_Critical_access.htm", "SOURCEDATE": "2018-08-09T00:00:00.000Z", "VAL_METHOD": "IMAGERY/OTHER", "VAL_DATE": "2014-02-10T00:00:00.000Z", "WEBSITE": "http://www.hamc.com", "STATE_ID": "5046A", "ALT_NAME": "NOT AVAILABLE", "ST_FIPS": "38", "OWNER": "NON-PROFIT", "TTL_STAFF": -999, "BEDS": 25, "TRAUMA": "NOT AVAILABLE", "HELIPAD": "Y" }, "geometry": { "type": "Polygon", "coordinates": [ [ [ -99.999033, 48.224481 ], [ -100.171692, 48.355135 ], [ -100.171691, 48.355431 ], [ -100.037174, 48.472724 ], [ -99.906692, 48.400101 ], [ -99.847193, 48.354499 ], [ -99.847227, 48.344429 ], [ -99.999033, 48.224481 ] ] ] } },
{ "type": "Feature", "properties": { "OBJECTID": 3536, "ID": "0001058852", "NAME": "TIOGA MEDICAL CENTER", "ADDRESS": "810 N WELO ST", "CITY": "TIOGA", "STATE": "ND", "ZIP": "58852", "ZIP4": "NOT AVAILABLE", "TELEPHONE": "(701) 664-3305", "TYPE": "CRITICAL ACCESS", "STATUS": "OPEN", "POPULATION": 25, "COUNTY": "WILLIAMS", "COUNTYFIPS": "38105", "COUNTRY": "USA", "LATITUDE": 48.403001934000002, "LONGITUDE": -102.934507088, "NAICS_CODE": "622110", "NAICS_DESC": "GENERAL MEDICAL AND SURGICAL HOSPITALS", "SOURCE": "http://www.ndhealth.gov/hf/North_Dakota_Hospitals_Critical_access.htm", "SOURCEDATE": "2018-08-09T00:00:00.000Z", "VAL_METHOD": "IMAGERY/OTHER", "VAL_DATE": "2014-02-10T00:00:00.000Z", "WEBSITE": "http://www.tiogahealth.org", "STATE_ID": "5048P", "ALT_NAME": "NOT AVAILABLE", "ST_FIPS": "38", "OWNER": "NON-PROFIT", "TTL_STAFF": -999, "BEDS": 25, "TRAUMA": "NOT AVAILABLE", "HELIPAD": "Y" }, "geometry": { "type": "Polygon", "coordinates": [ [ [ -102.957314, 48.305741 ], [ -103.002664, 48.341537 ], [ -103.058048, 48.391587 ], [ -103.059478, 48.401533 ], [ -102.929375, 48.546414 ], [ -102.885206, 48.488439 ], [ -102.856746, 48.445004 ], [ -102.853356, 48.430508 ], [ -102.84995, 48.34211 ], [ -102.8499508, 48.341896399999975 ], [ -102.957314, 48.305741 ] ] ] } },
{ "type": "Feature", "properties": { "OBJECTID": 3537, "ID": "0001558746", "NAME": "KENMARE COMMUNITY HOSPITAL", "ADDRESS": "317 1ST AVENUE", "CITY": "KENMARE", "STATE": "ND", "ZIP": "58746", "ZIP4": "NOT AVAILABLE", "TELEPHONE": "(701) 385-4296", "TYPE": "CRITICAL ACCESS", "STATUS": "OPEN", "POPULATION": 25, "COUNTY": "WARD", "COUNTYFIPS": "38101", "COUNTRY": "USA", "LATITUDE": 48.674238353000099, "LONGITUDE": -102.084488198, "NAICS_CODE": "622110", "NAICS_DESC": "GENERAL MEDICAL AND SURGICAL HOSPITALS", "SOURCE": "http://www.ndhealth.gov/hf/North_Dakota_Hospitals_Critical_access.htm", "SOURCEDATE": "2018-08-09T00:00:00.000Z", "VAL_METHOD": "IMAGERY", "VAL_DATE": "2013-12-27T00:00:00.000Z", "WEBSITE": "http://www.kenmarend.com/quality-of-life/healthcare/", "STATE_ID": "5028P", "ALT_NAME": "NOT AVAILABLE", "ST_FIPS": "38", "OWNER": "GOVERNMENT - LOCAL", "TTL_STAFF": -999, "BEDS": 25, "TRAUMA": "NOT AVAILABLE", "HELIPAD": "N" }, "geometry": { "type": "Polygon", "coordinates": [ [ [ -102.004362, 48.581351 ], [ -102.125132, 48.604213 ], [ -102.222378, 48.690185 ], [ -102.092322, 48.806795 ], [ -102.088131, 48.804297 ], [ -101.929895, 48.676766 ], [ -101.973217, 48.604296 ], [ -102.004362, 48.581351 ] ] ] } },
{ "type": "Feature", "properties": { "OBJECTID": 3538, "ID": "0005258701", "NAME": "TRINITY HOSPITALS", "ADDRESS": "1 W BURDICK EXPY", "CITY": "MINOT", "STATE": "ND", "ZIP": "58701", "ZIP4": "NOT AVAILABLE", "TELEPHONE": "(701) 857-5000", "TYPE": "GENERAL ACUTE CARE", "STATUS": "OPEN", "POPULATION": 251, "COUNTY": "WARD", "COUNTYFIPS": "38101", "COUNTRY": "USA", "LATITUDE": 48.232225962000001, "LONGITUDE": -101.294085299, "NAICS_CODE": "622110", "NAICS_DESC": "GENERAL MEDICAL AND SURGICAL HOSPITALS", "SOURCE": "http://www.ndhealth.gov/hf/North_Dakota_Hospitals_Critical_access.htm", "SOURCEDATE": "2018-08-09T00:00:00.000Z", "VAL_METHOD": "IMAGERY", "VAL_DATE": "2014-03-12T00:00:00.000Z", "WEBSITE": "http://www.trinityhealth.org", "STATE_ID": "5055A", "ALT_NAME": "NOT AVAILABLE", "ST_FIPS": "38", "OWNER": "NON-PROFIT", "TTL_STAFF": -999, "BEDS": 251, "TRAUMA": "LEVEL II", "HELIPAD": "Y" }, "geometry": { "type": "Polygon", "coordinates": [ [ [ -101.295692, 48.124364 ], [ -101.296132, 48.124362 ], [ -101.339308, 48.138876 ], [ -101.382646, 48.175224 ], [ -101.447288, 48.25473 ], [ -101.437825, 48.282409 ], [ -101.437557, 48.282585 ], [ -101.295837, 48.341323 ], [ -101.295484, 48.341325 ], [ -101.109757, 48.239826 ], [ -101.109745, 48.239597 ], [ -101.169995, 48.152883 ], [ -101.295692, 48.124364 ] ] ] } },
{ "type": "Feature", "properties": { "OBJECTID": 3772, "ID": "0001757428", "NAME": "BOWDLE HEALTHCARE", "ADDRESS": "8001 WEST 5TH STREET", "CITY": "BOWDLE", "STATE": "SD", "ZIP": "57428", "ZIP4": "NOT AVAILABLE", "TELEPHONE": "(605) 285-6146", "TYPE": "CRITICAL ACCESS", "STATUS": "OPEN", "POPULATION": 12, "COUNTY": "EDMUNDS", "COUNTYFIPS": "46045", "COUNTRY": "USA", "LATITUDE": 45.4479784850001, "LONGITUDE": -99.661627435, "NAICS_CODE": "622110", "NAICS_DESC": "GENERAL MEDICAL AND SURGICAL HOSPITALS", "SOURCE": "https://apps.sd.gov/ph04lassnet/rptPH04LicenseList.Aspx", "SOURCEDATE": "2018-08-10T00:00:00.000Z", "VAL_METHOD": "IMAGERY", "VAL_DATE": "2014-02-10T00:00:00.000Z", "WEBSITE": "http://www.bowdlehc.com", "STATE_ID": "NOT AVAILABLE", "ALT_NAME": "NOT AVAILABLE", "ST_FIPS": "46", "OWNER": "GOVERNMENT - LOCAL", "TTL_STAFF": -999, "BEDS": 12, "TRAUMA": "TRH", "HELIPAD": "N" }, "geometry": { "type": "Polygon", "coordinates": [ [ [ -99.647121, 45.361663 ], [ -99.825967, 45.4491923 ], [ -99.646892, 45.549943 ], [ -99.554184, 45.463058 ], [ -99.543892, 45.448438 ], [ -99.647121, 45.361663 ] ] ] } },
{ "type": "Feature", "properties": { "OBJECTID": 3773, "ID": "0001557625", "NAME": "CHEYENNE RIVER HOSPITAL", "ADDRESS": "317 MAIN STREET", "CITY": "EAGLE BUTTE", "STATE": "SD", "ZIP": "57625", "ZIP4": "NOT AVAILABLE", "TELEPHONE": "(605) 964-7724", "TYPE": "CRITICAL ACCESS", "STATUS": "CLOSED", "POPULATION": 11, "COUNTY": "DEWEY", "COUNTYFIPS": "46041", "COUNTRY": "USA", "LATITUDE": 45.002609339000102, "LONGITUDE": -101.23380215900001, "NAICS_CODE": "622110", "NAICS_DESC": "GENERAL MEDICAL AND SURGICAL HOSPITALS", "SOURCE": "http://arcgis.sd.gov/ArcGIS/rest/services/SD_All/MapServer/38", "SOURCEDATE": "2012-11-24T00:00:00.000Z", "VAL_METHOD": "IMAGERY", "VAL_DATE": "2018-05-08T00:00:00.000Z", "WEBSITE": "http://www.ihs.gov", "STATE_ID": "NOT AVAILABLE", "ALT_NAME": "EAGLE BUTTE HOSPITAL", "ST_FIPS": "46", "OWNER": "GOVERNMENT - FEDERAL", "TTL_STAFF": -999, "BEDS": 11, "TRAUMA": "NOT AVAILABLE", "HELIPAD": "N" }, "geometry": { "type": "Polygon", "coordinates": [ [ [ -101.271731, 44.950182 ], [ -101.2786258, 44.950232 ], [ -101.379989, 45.011758 ], [ -101.26154, 45.052728 ], [ -101.20032, 45.069502 ], [ -101.107141, 45.026064 ], [ -101.102809, 45.022626 ], [ -101.102175, 45.017846 ], [ -101.1980134, 44.969753600000033 ], [ -101.271731, 44.950182 ] ] ] } },
{ "type": "Feature", "properties": { "OBJECTID": 3800, "ID": "0007357642", "NAME": "MCLAUGHLIN PUBLIC HEALTH SERVICE INDIAN HEALTH CENTER", "ADDRESS": "701 6TH STREET EAST", "CITY": "MCLAUGHLIN", "STATE": "SD", "ZIP": "57642", "ZIP4": "NOT AVAILABLE", "TELEPHONE": "(605) 823-4459", "TYPE": "GENERAL ACUTE CARE", "STATUS": "OPEN", "POPULATION": 12, "COUNTY": "CORSON", "COUNTYFIPS": "46031", "COUNTRY": "USA", "LATITUDE": 45.809180400000102, "LONGITUDE": -100.8084582, "NAICS_CODE": "622110", "NAICS_DESC": "GENERAL MEDICAL AND SURGICAL HOSPITALS", "SOURCE": "https://apps.sd.gov/ph04lassnet/rptPH04LicenseList.Aspx", "SOURCEDATE": "2018-08-10T00:00:00.000Z", "VAL_METHOD": "IMAGERY/OTHER", "VAL_DATE": "2019-04-16T00:00:00.000Z", "WEBSITE": "http://www.ihs.gov", "STATE_ID": "NOT AVAILABLE", "ALT_NAME": "NOT AVAILABLE", "ST_FIPS": "46", "OWNER": "GOVERNMENT - FEDERAL", "TTL_STAFF": -999, "BEDS": 12, "TRAUMA": "NOT AVAILABLE", "HELIPAD": "N" }, "geometry": { "type": "Polygon", "coordinates": [ [ [ -100.813246, 45.687013 ], [ -100.9558091, 45.8658455 ], [ -100.810924, 45.905353 ], [ -100.748609, 45.832911700000025 ], [ -100.6898669, 45.725910200000023 ], [ -100.813246, 45.687013 ] ] ] } },
{ "type": "Feature", "properties": { "OBJECTID": 3867, "ID": "0175058103", "NAME": "SANFORD MEDICAL CENTER FARGO", "ADDRESS": "5225 23RD AVE S", "CITY": "FARGO", "STATE": "ND", "ZIP": "58103", "ZIP4": "NOT AVAILABLE", "TELEPHONE": "(701) 234-6919", "TYPE": "GENERAL ACUTE CARE", "STATUS": "OPEN", "POPULATION": 228, "COUNTY": "CASS", "COUNTYFIPS": "38017", "COUNTRY": "USA", "LATITUDE": 46.845218902000099, "LONGITUDE": -96.87577895, "NAICS_CODE": "622110", "NAICS_DESC": "GENERAL MEDICAL AND SURGICAL HOSPITALS", "SOURCE": "http://www.ndhealth.gov/HF/North_Dakota_Hospitals_Critical_access.htm", "SOURCEDATE": "2018-08-09T00:00:00.000Z", "VAL_METHOD": "IMAGERY", "VAL_DATE": "2019-05-09T00:00:00.000Z", "WEBSITE": "http://www.sanfordhealth.org/", "STATE_ID": "5070", "ALT_NAME": "NOT AVAILABLE", "ST_FIPS": "38", "OWNER": "NON-PROFIT", "TTL_STAFF": -999, "BEDS": 228, "TRAUMA": "LEVEL II PEDIATRIC", "HELIPAD": "Y" }, "geometry": { "type": "Polygon", "coordinates": [ [ [ -96.832181, 46.716775 ], [ -96.904206, 46.738994 ], [ -97.083075, 46.877091899999989 ], [ -97.0527827, 46.894573099999988 ], [ -96.903632, 46.949001 ], [ -96.832875, 46.933996 ], [ -96.7873772, 46.9098553 ], [ -96.7768962, 46.9031499 ], [ -96.7719138, 46.891685100000046 ], [ -96.770886, 46.882118 ], [ -96.7928347, 46.7732581 ], [ -96.832181, 46.716775 ] ] ] } },
{ "type": "Feature", "properties": { "OBJECTID": 3868, "ID": "0175158122", "NAME": "SANFORD TRANSPLANT CENTER", "ADDRESS": "736 BROADWAY", "CITY": "FARGO", "STATE": "ND", "ZIP": "58122", "ZIP4": "NOT AVAILABLE", "TELEPHONE": "(701) 234-2411", "TYPE": "GENERAL ACUTE CARE", "STATUS": "OPEN", "POPULATION": -999, "COUNTY": "CASS", "COUNTYFIPS": "38017", "COUNTRY": "USA", "LATITUDE": 46.884298, "LONGITUDE": -96.788422, "NAICS_CODE": "622110", "NAICS_DESC": "GENERAL MEDICAL AND SURGICAL HOSPITALS", "SOURCE": "http://www.ndhealth.gov/HF/North_Dakota_Hospitals_Critical_access.htm", "SOURCEDATE": "2018-08-09T00:00:00.000Z", "VAL_METHOD": "IMAGERY", "VAL_DATE": "2019-05-09T00:00:00.000Z", "WEBSITE": "http://www.sanfordhealth.org/", "STATE_ID": "NDTH00146", "ALT_NAME": "NOT AVAILABLE", "ST_FIPS": "38", "OWNER": "NON-PROFIT", "TTL_STAFF": -999, "BEDS": -999, "TRAUMA": "NOT AVAILABLE", "HELIPAD": "Y" }, "geometry": { "type": "Polygon", "coordinates": [ [ [ -96.805134, 46.793186 ], [ -96.8390754, 46.7984125 ], [ -96.9073616, 46.840698199999984 ], [ -96.9508771, 46.875830900000018 ], [ -96.9686009, 46.891593 ], [ -96.8911365, 46.992568100000049 ], [ -96.7988466, 46.9651964 ], [ -96.7676707, 46.927278 ], [ -96.7657015, 46.924655199999982 ], [ -96.763818, 46.919412 ], [ -96.7703379, 46.879401699999988 ], [ -96.7786066, 46.849618799999973 ], [ -96.7965247, 46.803371099999964 ], [ -96.802649, 46.79334 ], [ -96.803155, 46.793308 ], [ -96.805134, 46.793186 ] ] ] } }
]
}
