{
"type": "FeatureCollection",
"crs": { "type": "name", "properties": { "name": "urn:ogc:def:crs:OGC:1.3:CRS84" } },
"features": [
{ "type": "Feature", "properties": { "OBJECTID": 1019, "ID": "0034696001", "NAME": "PATIENTS' HOSPITAL OF REDDING", "ADDRESS": "2900 EUREKA WAY", "CITY": "REDDING", "STATE": "CA", "ZIP": "96001", "ZIP4": "NOT AVAILABLE", "TELEPHONE": "NOT AVAILABLE", "TYPE": "GENERAL ACUTE CARE", "STATUS": "OPEN", "POPULATION": 10, "COUNTY": "SHASTA", "COUNTYFIPS": "06089", "COUNTRY": "USA", "LATITUDE": 40.585921649000099, "LONGITUDE": -122.41683089599999, "NAICS_CODE": "622110", "NAICS_DESC": "GENERAL MEDICAL AND SURGICAL HOSPITALS", "SOURCE": "http://www.oshpd.ca.gov/HID/Facility-Listing.html", "SOURCEDATE": "2018-08-08T00:00:00.000Z", "VAL_METHOD": "IMAGERY/OTHER", "VAL_DATE": "2014-02-10T00:00:00.000Z", "WEBSITE": "http://www.patientshospital.com", "STATE_ID": "NOT AVAILABLE", "ALT_NAME": "NOT AVAILABLE", "ST_FIPS": "06", "OWNER": "PROPRIETARY", "TTL_STAFF": -999, "BEDS": 10, "TRAUMA": "NOT AVAILABLE", "HELIPAD": "N" }, "geometry": { "type": "Polygon", "coordinates": [ [ [ -122.33627340000001, 40.502009500000035 ], [ -122.381464, 40.502263200000016 ], [ -122.476073, 40.525902 ], [ -122.479687, 40.529674 ], [ -122.519699, 40.614859 ], [ -122.5198162, 40.6154707 ], [ -122.3525384, 40.680294400000029 ], [ -122.349947500000013, 40.681045399999974 ], [ -122.2929443, 40.6264046 ], [ -122.2580601, 40.561007600000025 ], [ -122.2581363, 40.5603467 ], [ -122.33627340000001, 40.502009500000035 ] ] ] } },
{ "type": "Feature", "properties": { "OBJECTID": 1021, "ID": "0047196104", "NAME": "SURPRISE VALLEY COMMUNITY HOSPITAL", "ADDRESS": "741 N. MAIN STREET", "CITY": "CEDARVILLE", "STATE": "CA", "ZIP": "96104", "ZIP4": "NOT AVAILABLE", "TELEPHONE": "NOT AVAILABLE", "TYPE": "GENERAL ACUTE CARE", "STATUS": "OPEN", "POPULATION": 26, "COUNTY": "MODOC", "COUNTYFIPS": "06049", "COUNTRY": "USA", "LATITUDE": 41.531489067000102, "LONGITUDE": -120.171428084, "NAICS_CODE": "622110", "NAICS_DESC": "GENERAL MEDICAL AND SURGICAL HOSPITALS", "SOURCE": "http://www.oshpd.ca.gov/HID/Facility-Listing.html", "SOURCEDATE": "2018-08-08T00:00:00.000Z", "VAL_METHOD": "IMAGERY/OTHER", "VAL_DATE": "2014-02-10T00:00:00.000Z", "WEBSITE": "http://svhospital.org/", "STATE_ID": "NOT AVAILABLE", "ALT_NAME": "NOT AVAILABLE", "ST_FIPS": "06", "OWNER": "GOVERNMENT - DISTRICT/AUTHORITY", "TTL_STAFF": -999, "BEDS": 26, "TRAUMA": "NOT AVAILABLE", "HELIPAD": "N" }, "geometry": { "type": "Polygon", "coordinates": [ [ [ -120.148993739505897, 41.448931114961646 ], [ -120.176982448627243, 41.473596123855636 ], [ -120.263079444758546, 41.55445028233391 ], [ -120.255089205831936, 41.562702503201635 ], [ -120.181647433538387, 41.602331602752962 ], [ -120.148312428616663, 41.579664672337458 ], [ -120.138752404302735, 41.56096775002186 ], [ -120.133667349079843, 41.529472893751191 ], [ -120.128932400100965, 41.489340040254625 ], [ -120.136237624299667, 41.463954079889106 ], [ -120.148993739505897, 41.448931114961646 ] ] ] } },
{ "type": "Feature", "properties": { "OBJECTID": 1023, "ID": "0050296093", "NAME": "TRINITY HOSPITAL", "ADDRESS": "60 B EASTER AVENUE", "CITY": "WEAVERVILLE", "STATE": "CA", "ZIP": "96093", "ZIP4": "NOT AVAILABLE", "TELEPHONE": "NOT AVAILABLE", "TYPE": "GENERAL ACUTE CARE", "STATUS": "OPEN", "POPULATION": 51, "COUNTY": "TRINITY", "COUNTYFIPS": "06105", "COUNTRY": "USA", "LATITUDE": 40.738083507000098, "LONGITUDE": -122.93965692899999, "NAICS_CODE": "622110", "NAICS_DESC": "GENERAL MEDICAL AND SURGICAL HOSPITALS", "SOURCE": "http://www.oshpd.ca.gov/HID/Facility-Listing.html", "SOURCEDATE": "2018-08-08T00:00:00.000Z", "VAL_METHOD": "IMAGERY/OTHER", "VAL_DATE": "2014-02-10T00:00:00.000Z", "WEBSITE": "http://www.mcmedical.org", "STATE_ID": "NOT AVAILABLE", "ALT_NAME": "NOT AVAILABLE", "ST_FIPS": "06", "OWNER": "GOVERNMENT - DISTRICT/AUTHORITY", "TTL_STAFF": -999, "BEDS": 51, "TRAUMA": "NOT AVAILABLE", "HELIPAD": "Y" }, "geometry": { "type": "Polygon", "coordinates": [ [ [ -122.9485168, 40.641130500000024 ], [ -123.0502357, 40.725226900000024 ], [ -123.041411, 40.729804 ], [ -123.018123, 40.741399 ], [ -122.9252593, 40.7855427 ], [ -122.892294800000016, 40.784913599999989 ], [ -122.886155, 40.760932 ], [ -122.932085, 40.66473 ], [ -122.9392543, 40.651295 ], [ -122.9485168, 40.641130500000024 ] ] ] } },
{ "type": "Feature", "properties": { "OBJECTID": 1042, "ID": "0074096028", "NAME": "MAYERS MEMORIAL HOSPITAL", "ADDRESS": "43563 STATE HWY. 299 E", "CITY": "FALL RIVER MILLS", "STATE": "CA", "ZIP": "96028", "ZIP4": "NOT AVAILABLE", "TELEPHONE": "NOT AVAILABLE", "TYPE": "GENERAL ACUTE CARE", "STATUS": "OPEN", "POPULATION": 121, "COUNTY": "SHASTA", "COUNTYFIPS": "06089", "COUNTRY": "USA", "LATITUDE": 41.023889361000002, "LONGITUDE": -121.424054412, "NAICS_CODE": "622110", "NAICS_DESC": "GENERAL MEDICAL AND SURGICAL HOSPITALS", "SOURCE": "http://www.oshpd.ca.gov/HID/Facility-Listing.html", "SOURCEDATE": "2018-08-08T00:00:00.000Z", "VAL_METHOD": "IMAGERY/OTHER", "VAL_DATE": "2015-01-16T00:00:00.000Z", "WEBSITE": "http://www.mayersmemorial.com", "STATE_ID": "NOT AVAILABLE", "ALT_NAME": "NOT AVAILABLE", "ST_FIPS": "06", "OWNER": "GOVERNMENT - DISTRICT/AUTHORITY", "TTL_STAFF": -999, "BEDS": 121, "TRAUMA": "NOT AVAILABLE", "HELIPAD": "N" }, "geometry": { "type": "Polygon", "coordinates": [ [ [ -121.437792, 40.960631 ], [ -121.506621, 41.001787 ], [ -121.493239, 41.034921 ], [ -121.475377, 41.062986 ], [ -121.461226, 41.065365 ], [ -121.36524350000002, 41.076772 ], [ -121.345921, 41.068353 ], [ -121.341023, 41.065949 ], [ -121.341141, 41.050161 ], [ -121.341833, 41.048815 ], [ -121.426938, 40.96985 ], [ -121.437792, 40.960631 ] ] ] } },
{ "type": "Feature", "properties": { "OBJECTID": 1044, "ID": "0074396001", "NAME": "SHASTA COUNTY P H F", "ADDRESS": "2640 BRESLAUER WAY", "CITY": "REDDING", "STATE": "CA", "ZIP": "96001", "ZIP4": "NOT AVAILABLE", "TELEPHONE": "NOT AVAILABLE", "TYPE": "PSYCHIATRIC", "STATUS": "CLOSED", "POPULATION": 15, "COUNTY": "SHASTA", "COUNTYFIPS": "06089", "COUNTRY": "USA", "LATITUDE": 40.550135106, "LONGITUDE": -122.380488223, "NAICS_CODE": "622210", "NAICS_DESC": "HOSPITALS, PSYCHIATRIC (EXCEPT CONVALESCENT)", "SOURCE": "http://www.oshpd.ca.gov/HID/Products/Listings.html", "SOURCEDATE": "2014-09-18T00:00:00.000Z", "VAL_METHOD": "IMAGERY/OTHER", "VAL_DATE": "2015-01-16T00:00:00.000Z", "WEBSITE": "http://www.co.shasta.ca.us/index/hhsa_index/mental_wellness/adult_mh.aspx", "STATE_ID": "NOT AVAILABLE", "ALT_NAME": "NOT AVAILABLE", "ST_FIPS": "06", "OWNER": "GOVERNMENT - LOCAL", "TTL_STAFF": -999, "BEDS": 15, "TRAUMA": "NOT AVAILABLE", "HELIPAD": "N" }, "geometry": { "type": "Polygon", "coordinates": [ [ [ -122.301619, 40.450264 ], [ -122.396747, 40.464693 ], [ -122.474679, 40.496071 ], [ -122.4853626, 40.590003200000012 ], [ -122.484180699999982, 40.592416800000045 ], [ -122.3636234, 40.644697199999975 ], [ -122.324848, 40.6193698 ], [ -122.288641, 40.5583549 ], [ -122.3013584, 40.4505014 ], [ -122.3014707, 40.450398300000025 ], [ -122.301619, 40.450264 ] ] ] } },
{ "type": "Feature", "properties": { "OBJECTID": 1387, "ID": "0002989431", "NAME": "DINI-TOWNSEND HOSPITAL AT NORTHERN NEVADA ADULT MENTAL HEALTH SERVICES", "ADDRESS": "480 GALLETI WAY", "CITY": "SPARKS", "STATE": "NV", "ZIP": "89431", "ZIP4": "NOT AVAILABLE", "TELEPHONE": "(775) 688-2001", "TYPE": "PSYCHIATRIC", "STATUS": "OPEN", "POPULATION": 30, "COUNTY": "WASHOE", "COUNTYFIPS": "32031", "COUNTRY": "USA", "LATITUDE": 39.531541225000097, "LONGITUDE": -119.774830933, "NAICS_CODE": "622210", "NAICS_DESC": "PSYCHIATRIC AND SUBSTANCE ABUSE HOSPITALS", "SOURCE": "http://dpbh.nv.gov/Reg/HealthFacilities/Community_Resources/", "SOURCEDATE": "2018-08-09T00:00:00.000Z", "VAL_METHOD": "IMAGERY", "VAL_DATE": "2014-02-12T00:00:00.000Z", "WEBSITE": "http://dpbh.nv.gov/Programs/ClinicalBehavioralServ/Clinical_Behavioral_Services_-_Home/", "STATE_ID": "652-HOS-31", "ALT_NAME": "NOT AVAILABLE", "ST_FIPS": "32", "OWNER": "GOVERNMENT - STATE", "TTL_STAFF": -999, "BEDS": 30, "TRAUMA": "NOT AVAILABLE", "HELIPAD": "N" }, "geometry": { "type": "Polygon", "coordinates": [ [ [ -119.7470143, 39.4159522 ], [ -119.7554625, 39.417204599999955 ], [ -119.757891300000011, 39.4184547 ], [ -119.933848, 39.510965 ], [ -119.874791900000019, 39.617726300000037 ], [ -119.847881500000014, 39.623646099999988 ], [ -119.7279208, 39.616742699999975 ], [ -119.6240558, 39.5239691 ], [ -119.619277600000018, 39.519272500000014 ], [ -119.7470143, 39.4159522 ] ] ] } },
{ "type": "Feature", "properties": { "OBJECTID": 1406, "ID": "0113589429", "NAME": "SILVER SPRINGS RURAL HEALTH CENTERS", "ADDRESS": "3595 HWY 50 WEST", "CITY": "SILVER SPRINGS", "STATE": "NV", "ZIP": "89429", "ZIP4": "NOT AVAILABLE", "TELEPHONE": "NOT AVAILABLE", "TYPE": "GENERAL ACUTE CARE", "STATUS": "CLOSED", "POPULATION": -999, "COUNTY": "LYON", "COUNTYFIPS": "32019", "COUNTRY": "USA", "LATITUDE": 39.3955395770001, "LONGITUDE": -119.27927911099999, "NAICS_CODE": "622110", "NAICS_DESC": "GENERAL MEDICAL AND SURGICAL HOSPITALS", "SOURCE": "http://dpbh.nv.gov/", "SOURCEDATE": "2015-01-07T00:00:00.000Z", "VAL_METHOD": "IMAGERY/OTHER", "VAL_DATE": "2015-02-10T00:00:00.000Z", "WEBSITE": "NOT AVAILABLE", "STATE_ID": "NOT AVAILABLE", "ALT_NAME": "NOT AVAILABLE", "ST_FIPS": "32", "OWNER": "NOT AVAILABLE", "TTL_STAFF": -999, "BEDS": -999, "TRAUMA": "NOT AVAILABLE", "HELIPAD": "N" }, "geometry": { "type": "Polygon", "coordinates": [ [ [ -119.251851499999987, 39.294502399999978 ], [ -119.4567017, 39.331266800000023 ], [ -119.398789, 39.375496 ], [ -119.3752844, 39.3893651 ], [ -119.277692300000012, 39.429843699999971 ], [ -119.174141800000015, 39.427572200000014 ], [ -119.1689376, 39.4256028 ], [ -119.1688789, 39.421158499999983 ], [ -119.2146807, 39.33191320000001 ], [ -119.251851499999987, 39.294502399999978 ] ] ] } },
{ "type": "Feature", "properties": { "OBJECTID": 1414, "ID": "0002389521", "NAME": "TAHOE PACIFIC HOSPITALS - MEADOWS", "ADDRESS": "10101 DOUBLE R BOULEVARD", "CITY": "RENO", "STATE": "NV", "ZIP": "89521", "ZIP4": "NOT AVAILABLE", "TELEPHONE": "(775) 355-5600", "TYPE": "LONG TERM CARE", "STATUS": "OPEN", "POPULATION": 60, "COUNTY": "WASHOE", "COUNTYFIPS": "32031", "COUNTRY": "USA", "LATITUDE": 39.436308327000098, "LONGITUDE": -119.759590788, "NAICS_CODE": "622310", "NAICS_DESC": "SPECIALTY (EXCEPT PSYCHIATRIC AND SUBSTANCE ABUSE) HOSPITALS", "SOURCE": "http://dpbh.nv.gov/Reg/HealthFacilities/Community_Resources/", "SOURCEDATE": "2018-08-09T00:00:00.000Z", "VAL_METHOD": "IMAGERY/OTHER", "VAL_DATE": "2014-02-10T00:00:00.000Z", "WEBSITE": "http://www.lifecare-hospitals.com/hospital/tahoepacific", "STATE_ID": "663-HOS-31", "ALT_NAME": "NOT AVAILABLE", "ST_FIPS": "32", "OWNER": "PROPRIETARY", "TTL_STAFF": -999, "BEDS": 60, "TRAUMA": "NOT AVAILABLE", "HELIPAD": "Y" }, "geometry": { "type": "Polygon", "coordinates": [ [ [ -119.77839920000001, 39.345053399999983 ], [ -119.8419734, 39.371606799999959 ], [ -119.8433317, 39.373098 ], [ -119.8539391, 39.484341 ], [ -119.786562, 39.556704 ], [ -119.73978910000001, 39.523733399999983 ], [ -119.73748040000001, 39.521372 ], [ -119.718683, 39.499691 ], [ -119.718358, 39.499172 ], [ -119.717867, 39.498218 ], [ -119.717603, 39.497193 ], [ -119.701376, 39.42725260000001 ], [ -119.700689, 39.370752 ], [ -119.77839920000001, 39.345053399999983 ] ] ] } },
{ "type": "Feature", "properties": { "OBJECTID": 1472, "ID": "0002689703", "NAME": "CARSON TAHOE REGIONAL MEDICAL CENTER", "ADDRESS": "1600 MEDICAL PKWY", "CITY": "CARSON CITY", "STATE": "NV", "ZIP": "89703", "ZIP4": "NOT AVAILABLE", "TELEPHONE": "(775) 445-8000", "TYPE": "GENERAL ACUTE CARE", "STATUS": "OPEN", "POPULATION": 185, "COUNTY": "CARSON CITY", "COUNTYFIPS": "32510", "COUNTRY": "USA", "LATITUDE": 39.202119590000102, "LONGITUDE": -119.784383092, "NAICS_CODE": "622110", "NAICS_DESC": "GENERAL MEDICAL AND SURGICAL HOSPITALS", "SOURCE": "http://dpbh.nv.gov/Reg/HealthFacilities/Community_Resources/", "SOURCEDATE": "2018-08-09T00:00:00.000Z", "VAL_METHOD": "IMAGERY/OTHER", "VAL_DATE": "2014-03-12T00:00:00.000Z", "WEBSITE": "www.carsontahoe.com", "STATE_ID": "4466-HOS-22", "ALT_NAME": "NOT AVAILABLE", "ST_FIPS": "32", "OWNER": "NON-PROFIT", "TTL_STAFF": -999, "BEDS": 185, "TRAUMA": "NOT AVAILABLE", "HELIPAD": "Y" }, "geometry": { "type": "Polygon", "coordinates": [ [ [ -119.770553, 39.11557 ], [ -119.779717, 39.113929 ], [ -119.782249, 39.113914 ], [ -119.805084, 39.157047 ], [ -119.816808, 39.187958 ], [ -119.8198582, 39.20032120000004 ], [ -119.817723, 39.203905 ], [ -119.810533, 39.208646 ], [ -119.7873789, 39.213350900000016 ], [ -119.74205, 39.217643 ], [ -119.6704779, 39.2177539 ], [ -119.663530900000012, 39.215912900000021 ], [ -119.6747152, 39.1989759 ], [ -119.680530300000015, 39.19219 ], [ -119.739104700000013, 39.123834899999977 ], [ -119.7436918, 39.121117 ], [ -119.770553, 39.11557 ] ] ] } },
{ "type": "Feature", "properties": { "OBJECTID": 1498, "ID": "0001083706", "NAME": "SAINT ALPHONSUS REGIONAL MEDICAL CENTER", "ADDRESS": "1055 NORTH CURTIS ROAD", "CITY": "BOISE", "STATE": "ID", "ZIP": "83706", "ZIP4": "NOT AVAILABLE", "TELEPHONE": "(208) 367-2121", "TYPE": "GENERAL ACUTE CARE", "STATUS": "OPEN", "POPULATION": 384, "COUNTY": "ADA", "COUNTYFIPS": "16001", "COUNTRY": "USA", "LATITUDE": 43.613432795000101, "LONGITUDE": -116.255808098, "NAICS_CODE": "622110", "NAICS_DESC": "GENERAL MEDICAL AND SURGICAL HOSPITALS", "SOURCE": "http://healthandwelfare.idaho.gov/Portals/0/Medical/LicensingCertification/AlphaHospital.pdf", "SOURCEDATE": "2018-08-09T00:00:00.000Z", "VAL_METHOD": "IMAGERY", "VAL_DATE": "2014-02-10T00:00:00.000Z", "WEBSITE": "http://www.saintalphonsus.org", "STATE_ID": "NOT AVAILABLE", "ALT_NAME": "NOT AVAILABLE", "ST_FIPS": "16", "OWNER": "NON-PROFIT", "TTL_STAFF": -999, "BEDS": 384, "TRAUMA": "LEVEL II", "HELIPAD": "Y" }, "geometry": { "type": "Polygon", "coordinates": [ [ [ -116.158093461363748, 43.538238330161782 ], [ -116.274191069535448, 43.539713980122883 ], [ -116.354445193991452, 43.557761829738887 ], [ -116.395087215378638, 43.572581102970538 ], [ -116.434020646586816, 43.593488375597659 ], [ -116.433994448570346, 43.594872975944789 ], [ -116.346969035727724, 43.662938986932595 ], [ -116.307357355297114, 43.68149324140618 ], [ -116.294049956397345, 43.683754458117541 ], [ -116.280810755938063, 43.684839574124553 ], [ -116.236061519877026, 43.674935909171538 ], [ -116.189557035982205, 43.658014226737222 ], [ -116.167053975468662, 43.631146535465078 ], [ -116.155896534199968, 43.606886941583845 ], [ -116.158093461363748, 43.538238330161782 ] ] ] } },
{ "type": "Feature", "properties": { "OBJECTID": 1706, "ID": "0155783642", "NAME": "VIBRA HOSPITAL OF BOISE", "ADDRESS": "2131 SOUTH BONITO WAY", "CITY": "MERIDIAN", "STATE": "ID", "ZIP": "83642", "ZIP4": "NOT AVAILABLE", "TELEPHONE": "(208) 489-9500", "TYPE": "GENERAL ACUTE CARE", "STATUS": "OPEN", "POPULATION": 60, "COUNTY": "ADA", "COUNTYFIPS": "16001", "COUNTRY": "USA", "LATITUDE": 43.585946885000098, "LONGITUDE": -116.358615699, "NAICS_CODE": "622110", "NAICS_DESC": "GENERAL MEDICAL AND SURGICAL HOSPITALS", "SOURCE": "http://healthandwelfare.idaho.gov/Portals/0/Medical/LicensingCertification/AlphaHospital.pdf", "SOURCEDATE": "2018-08-09T00:00:00.000Z", "VAL_METHOD": "IMAGERY/OTHER", "VAL_DATE": "2015-05-30T00:00:00.000Z", "WEBSITE": "http://vhboise.com/", "STATE_ID": "NOT AVAILABLE", "ALT_NAME": "NOT AVAILABLE", "ST_FIPS": "16", "OWNER": "PROPRIETARY", "TTL_STAFF": -999, "BEDS": 60, "TRAUMA": "NOT AVAILABLE", "HELIPAD": "N" }, "geometry": { "type": "Polygon", "coordinates": [ [ [ -116.334397204047264, 43.49370441704329 ], [ -116.393938605290657, 43.495506279815771 ], [ -116.473680400000021, 43.561200100000022 ], [ -116.4796252, 43.575832099999971 ], [ -116.487418, 43.604949800000057 ], [ -116.473658200000017, 43.619459299999967 ], [ -116.413712746816529, 43.665131114661001 ], [ -116.36467958228971, 43.695471781777044 ], [ -116.353906389112964, 43.701708197486447 ], [ -116.352851188953721, 43.701713298761014 ], [ -116.233403278290709, 43.644038290239962 ], [ -116.207342820295068, 43.624382499646877 ], [ -116.205688215842329, 43.622433300157759 ], [ -116.2040869114673, 43.620482400665473 ], [ -116.201604602755978, 43.615797400813456 ], [ -116.190954539409944, 43.572856894995354 ], [ -116.192029430642435, 43.564158990474233 ], [ -116.334397204047264, 43.49370441704329 ] ] ] } },
{ "type": "Feature", "properties": { "OBJECTID": 1707, "ID": "0155883252", "NAME": "NELL J. REDFIELD MEMORIAL HOSPITAL", "ADDRESS": "150 NORTH 200 WEST", "CITY": "MALAD CITY", "STATE": "ID", "ZIP": "83252", "ZIP4": "NOT AVAILABLE", "TELEPHONE": "(208) 766-2231", "TYPE": "GENERAL ACUTE CARE", "STATUS": "OPEN", "POPULATION": 11, "COUNTY": "ONEIDA", "COUNTYFIPS": "16071", "COUNTRY": "USA", "LATITUDE": 42.189419807, "LONGITUDE": -112.250332461, "NAICS_CODE": "622110", "NAICS_DESC": "GENERAL MEDICAL AND SURGICAL HOSPITALS", "SOURCE": "http://healthandwelfare.idaho.gov/Portals/0/Medical/LicensingCertification/AlphaHospital.pdf", "SOURCEDATE": "2018-08-09T00:00:00.000Z", "VAL_METHOD": "IMAGERY/OTHER", "VAL_DATE": "2015-05-30T00:00:00.000Z", "WEBSITE": "NOT AVAILABLE", "STATE_ID": "NOT AVAILABLE", "ALT_NAME": "NOT AVAILABLE", "ST_FIPS": "16", "OWNER": "NOT AVAILABLE", "TTL_STAFF": -999, "BEDS": 11, "TRAUMA": "NOT AVAILABLE", "HELIPAD": "Y" }, "geometry": { "type": "Polygon", "coordinates": [ [ [ -112.212649, 42.036474 ], [ -112.337683, 42.156228 ], [ -112.335744, 42.199592 ], [ -112.321308, 42.224569 ], [ -112.320785, 42.225067 ], [ -112.207467, 42.309854 ], [ -112.205046, 42.304794 ], [ -112.178789, 42.21917 ], [ -112.212649, 42.036474 ] ] ] } },
{ "type": "Feature", "properties": { "OBJECTID": 1755, "ID": "0000000138", "NAME": "SAINT ALPHONSUS EAGLE HEALTH PLZ-ER", "ADDRESS": "323 E RIVERSIDE DR", "CITY": "EAGLE", "STATE": "ID", "ZIP": "83616", "ZIP4": "NOT AVAILABLE", "TELEPHONE": "(208) 367-5355", "TYPE": "GENERAL ACUTE CARE", "STATUS": "OPEN", "POPULATION": -999, "COUNTY": "ADA", "COUNTYFIPS": "16001", "COUNTRY": "USA", "LATITUDE": 43.688954602000102, "LONGITUDE": -116.350693394, "NAICS_CODE": "622110", "NAICS_DESC": "GENERAL MEDICAL AND SURGICAL HOSPITALS", "SOURCE": "http://healthandwelfare.idaho.gov/Portals/0/Medical/LicensingCertification/AlphaHospital.pdf", "SOURCEDATE": "2018-08-09T00:00:00.000Z", "VAL_METHOD": "IMAGERY/OTHER", "VAL_DATE": "2015-05-23T00:00:00.000Z", "WEBSITE": "http://www.saintalphonsus.org/", "STATE_ID": "NOT AVAILABLE", "ALT_NAME": "NOT AVAILABLE", "ST_FIPS": "16", "OWNER": "NOT AVAILABLE", "TTL_STAFF": -999, "BEDS": -999, "TRAUMA": "NOT AVAILABLE", "HELIPAD": "N" }, "geometry": { "type": "Polygon", "coordinates": [ [ [ -116.352446111106431, 43.570426237286021 ], [ -116.356303211142091, 43.570368234087603 ], [ -116.401315044970715, 43.593551204714949 ], [ -116.4735134, 43.6471736 ], [ -116.4934316, 43.663083100000023 ], [ -116.498262, 43.692103 ], [ -116.498276700000019, 43.695722599999989 ], [ -116.49755829999998, 43.696764700000017 ], [ -116.462872462411525, 43.740119071854316 ], [ -116.368986963899786, 43.759485602304487 ], [ -116.292090444964018, 43.755339704560186 ], [ -116.288612842418559, 43.752117508490535 ], [ -116.268573511743284, 43.730049720685756 ], [ -116.231936989221197, 43.654561398094742 ], [ -116.231187680241476, 43.648047194404455 ], [ -116.230871267844392, 43.638254288368366 ], [ -116.231410467486342, 43.637378587396014 ], [ -116.352446111106431, 43.570426237286021 ] ] ] } },
{ "type": "Feature", "properties": { "OBJECTID": 1885, "ID": "0001183254", "NAME": "BEAR LAKE MEMORIAL HOSPITAL", "ADDRESS": "164 SOUTH FIFTH STREET", "CITY": "MONTPELIER", "STATE": "ID", "ZIP": "83254", "ZIP4": "NOT AVAILABLE", "TELEPHONE": "(208) 847-1630", "TYPE": "GENERAL ACUTE CARE", "STATUS": "OPEN", "POPULATION": 21, "COUNTY": "BEAR LAKE", "COUNTYFIPS": "16007", "COUNTRY": "USA", "LATITUDE": 42.316163072999998, "LONGITUDE": -111.30027387, "NAICS_CODE": "622110", "NAICS_DESC": "GENERAL MEDICAL AND SURGICAL HOSPITALS", "SOURCE": "http://healthandwelfare.idaho.gov/Portals/0/Medical/LicensingCertification/AlphaHospital.pdf", "SOURCEDATE": "2018-08-09T00:00:00.000Z", "VAL_METHOD": "IMAGERY", "VAL_DATE": "2014-03-12T00:00:00.000Z", "WEBSITE": "http://www.blmhospital.com", "STATE_ID": "NOT AVAILABLE", "ALT_NAME": "NOT AVAILABLE", "ST_FIPS": "16", "OWNER": "GOVERNMENT - LOCAL", "TTL_STAFF": -999, "BEDS": 21, "TRAUMA": "NOT AVAILABLE", "HELIPAD": "Y" }, "geometry": { "type": "Polygon", "coordinates": [ [ [ -111.207223, 42.203474 ], [ -111.400712, 42.273533 ], [ -111.411968, 42.296328 ], [ -111.343965, 42.437319 ], [ -111.1757802, 42.342299499999982 ], [ -111.207223, 42.203474 ] ] ] } },
{ "type": "Feature", "properties": { "OBJECTID": 1887, "ID": "0005583201", "NAME": "SAFE HAVEN HOSPITAL OF POCATELLO", "ADDRESS": "1200 HOSPITAL WAY", "CITY": "POCATELLO", "STATE": "ID", "ZIP": "83201", "ZIP4": "NOT AVAILABLE", "TELEPHONE": "(208) 232-2570", "TYPE": "PSYCHIATRIC", "STATUS": "OPEN", "POPULATION": 14, "COUNTY": "BANNOCK", "COUNTYFIPS": "16005", "COUNTRY": "USA", "LATITUDE": 42.868028085, "LONGITUDE": -112.416386203, "NAICS_CODE": "622210", "NAICS_DESC": "PSYCHIATRIC AND SUBSTANCE ABUSE HOSPITALS", "SOURCE": "http://healthandwelfare.idaho.gov/Portals/0/Medical/LicensingCertification/AlphaHospital.pdf", "SOURCEDATE": "2018-08-09T00:00:00.000Z", "VAL_METHOD": "IMAGERY", "VAL_DATE": "2016-04-21T00:00:00.000Z", "WEBSITE": "http://www.safehavenhealthcare.org/", "STATE_ID": "NOT AVAILABLE", "ALT_NAME": "NOT AVAILABLE", "ST_FIPS": "16", "OWNER": "PROPRIETARY", "TTL_STAFF": -999, "BEDS": 14, "TRAUMA": "NOT AVAILABLE", "HELIPAD": "N" }, "geometry": { "type": "Polygon", "coordinates": [ [ [ -112.364291, 42.791113 ], [ -112.3650003, 42.791113 ], [ -112.371887, 42.793963399999981 ], [ -112.424633, 42.821714 ], [ -112.47564, 42.851697 ], [ -112.489057, 42.859925 ], [ -112.5158344, 42.908248600000029 ], [ -112.46654, 42.956442 ], [ -112.4506549, 42.951777200000038 ], [ -112.347142, 42.89826 ], [ -112.34665, 42.89798 ], [ -112.34484, 42.895542 ], [ -112.331891, 42.872277 ], [ -112.3433308, 42.795528400000016 ], [ -112.364291, 42.791113 ] ] ] } },
{ "type": "Feature", "properties": { "OBJECTID": 1888, "ID": "0005883704", "NAME": "TREASURE VALLEY HOSPITAL", "ADDRESS": "8800 WEST EMERALD STREET", "CITY": "BOISE", "STATE": "ID", "ZIP": "83704", "ZIP4": "NOT AVAILABLE", "TELEPHONE": "(208) 373-5000", "TYPE": "GENERAL ACUTE CARE", "STATUS": "OPEN", "POPULATION": 10, "COUNTY": "ADA", "COUNTYFIPS": "16001", "COUNTRY": "USA", "LATITUDE": 43.612619267000099, "LONGITUDE": -116.29092601399999, "NAICS_CODE": "622110", "NAICS_DESC": "GENERAL MEDICAL AND SURGICAL HOSPITALS", "SOURCE": "http://healthandwelfare.idaho.gov/Portals/0/Medical/LicensingCertification/AlphaHospital.pdf", "SOURCEDATE": "2018-08-09T00:00:00.000Z", "VAL_METHOD": "IMAGERY", "VAL_DATE": "2016-04-22T00:00:00.000Z", "WEBSITE": "http://treasurevalleyhospital.com/", "STATE_ID": "NOT AVAILABLE", "ALT_NAME": "NOT AVAILABLE", "ST_FIPS": "16", "OWNER": "PROPRIETARY", "TTL_STAFF": -999, "BEDS": 10, "TRAUMA": "NOT AVAILABLE", "HELIPAD": "N" }, "geometry": { "type": "Polygon", "coordinates": [ [ [ -116.158093461363748, 43.538238330161782 ], [ -116.300305867047598, 43.537809959801841 ], [ -116.354373976764251, 43.545058623870844 ], [ -116.393858199167965, 43.56098409991781 ], [ -116.433766936859641, 43.586711074234039 ], [ -116.43382923775448, 43.587333374325667 ], [ -116.434023044510454, 43.592039875256901 ], [ -116.434108253889221, 43.598578776708372 ], [ -116.433721262677579, 43.60472587850083 ], [ -116.361204837309202, 43.662848971340523 ], [ -116.354410143660289, 43.668131781224588 ], [ -116.303683451594921, 43.6790473441161 ], [ -116.294069052412482, 43.680680856120929 ], [ -116.279197152527246, 43.682358174288595 ], [ -116.235549199501719, 43.658952698704361 ], [ -116.228303284772792, 43.654937300679556 ], [ -116.205181338085964, 43.641841809545134 ], [ -116.192180210317375, 43.63278681574316 ], [ -116.188972203305411, 43.630361417456484 ], [ -116.18801130066997, 43.629165817830071 ], [ -116.176220364499642, 43.610834622755917 ], [ -116.175645562263071, 43.60950622296086 ], [ -116.155398261341105, 43.541059534403942 ], [ -116.155433260936078, 43.540653334306391 ], [ -116.158093461363748, 43.538238330161782 ] ] ] } },
{ "type": "Feature", "properties": { "OBJECTID": 1928, "ID": "0003196130", "NAME": "BANNER LASSEN MEDICAL CENTER", "ADDRESS": "1800 SPRING RIDGE DRIVE", "CITY": "SUSANVILLE", "STATE": "CA", "ZIP": "96130", "ZIP4": "NOT AVAILABLE", "TELEPHONE": "NOT AVAILABLE", "TYPE": "GENERAL ACUTE CARE", "STATUS": "OPEN", "POPULATION": 38, "COUNTY": "LASSEN", "COUNTYFIPS": "06035", "COUNTRY": "USA", "LATITUDE": 40.436883277, "LONGITUDE": -120.627728476, "NAICS_CODE": "622110", "NAICS_DESC": "GENERAL MEDICAL AND SURGICAL HOSPITALS", "SOURCE": "http://www.oshpd.ca.gov/HID/Facility-Listing.html", "SOURCEDATE": "2018-08-08T00:00:00.000Z", "VAL_METHOD": "IMAGERY", "VAL_DATE": "2014-02-10T00:00:00.000Z", "WEBSITE": "http://www.bannerhealth.com/Locations/California/Banner", "STATE_ID": "NOT AVAILABLE", "ALT_NAME": "NOT AVAILABLE", "ST_FIPS": "06", "OWNER": "NON-PROFIT", "TTL_STAFF": -999, "BEDS": 38, "TRAUMA": "NOT AVAILABLE", "HELIPAD": "Y" }, "geometry": { "type": "Polygon", "coordinates": [ [ [ -120.561159, 40.340508 ], [ -120.562536, 40.340468 ], [ -120.660467, 40.375159 ], [ -120.732256, 40.412171 ], [ -120.734665, 40.414842 ], [ -120.728068, 40.428798 ], [ -120.570936, 40.473463 ], [ -120.545199, 40.480004 ], [ -120.55385, 40.352535 ], [ -120.561159, 40.340508 ] ] ] } },
{ "type": "Feature", "properties": { "OBJECTID": 1957, "ID": "0045795501", "NAME": "ST. JOSEPH HOSPITAL - EUREKA", "ADDRESS": "2700 DOLBEER STREET", "CITY": "EUREKA", "STATE": "CA", "ZIP": "95501", "ZIP4": "NOT AVAILABLE", "TELEPHONE": "NOT AVAILABLE", "TYPE": "GENERAL ACUTE CARE", "STATUS": "OPEN", "POPULATION": 138, "COUNTY": "HUMBOLDT", "COUNTYFIPS": "06023", "COUNTRY": "USA", "LATITUDE": 40.784121850000098, "LONGITUDE": -124.14223690599999, "NAICS_CODE": "622110", "NAICS_DESC": "GENERAL MEDICAL AND SURGICAL HOSPITALS", "SOURCE": "http://www.oshpd.ca.gov/HID/Facility-Listing.html", "SOURCEDATE": "2018-08-08T00:00:00.000Z", "VAL_METHOD": "IMAGERY", "VAL_DATE": "2014-02-10T00:00:00.000Z", "WEBSITE": "http://www.stjosepheureka.org", "STATE_ID": "NOT AVAILABLE", "ALT_NAME": "NOT AVAILABLE", "ST_FIPS": "06", "OWNER": "NON-PROFIT", "TTL_STAFF": -999, "BEDS": 138, "TRAUMA": "NOT AVAILABLE", "HELIPAD": "Y" }, "geometry": { "type": "Polygon", "coordinates": [ [ [ -124.158376, 40.721015 ], [ -124.21549, 40.724717 ], [ -124.216343699999982, 40.725786200000016 ], [ -124.217115, 40.726881 ], [ -124.19784, 40.808487 ], [ -124.196301, 40.811251 ], [ -124.194108, 40.814596 ], [ -124.1674425, 40.8513572 ], [ -124.1631, 40.857043 ], [ -124.157873, 40.862743 ], [ -124.155942, 40.862189 ], [ -124.070879, 40.837145 ], [ -124.056153, 40.796452 ], [ -124.055997, 40.795426 ], [ -124.0509, 40.75897 ], [ -124.158376, 40.721015 ] ] ] } },
{ "type": "Feature", "properties": { "OBJECTID": 2039, "ID": "0001783276", "NAME": "CARIBOU MEMORIAL HOSPITAL AND LIVING CENTER", "ADDRESS": "300 SOUTH THIRD WEST", "CITY": "SODA SPRINGS", "STATE": "ID", "ZIP": "83276", "ZIP4": "NOT AVAILABLE", "TELEPHONE": "(208) 547-3341", "TYPE": "GENERAL ACUTE CARE", "STATUS": "OPEN", "POPULATION": 25, "COUNTY": "CARIBOU", "COUNTYFIPS": "16029", "COUNTRY": "USA", "LATITUDE": 42.653010707000099, "LONGITUDE": -111.61456810200001, "NAICS_CODE": "622110", "NAICS_DESC": "GENERAL MEDICAL AND SURGICAL HOSPITALS", "SOURCE": "http://healthandwelfare.idaho.gov/Portals/0/Medical/LicensingCertification/AlphaHospital.pdf", "SOURCEDATE": "2018-08-09T00:00:00.000Z", "VAL_METHOD": "IMAGERY", "VAL_DATE": "2014-02-10T00:00:00.000Z", "WEBSITE": "http://www.cariboumemorial.org", "STATE_ID": "NOT AVAILABLE", "ALT_NAME": "NOT AVAILABLE", "ST_FIPS": "16", "OWNER": "GOVERNMENT - LOCAL", "TTL_STAFF": -999, "BEDS": 25, "TRAUMA": "NOT AVAILABLE", "HELIPAD": "Y" }, "geometry": { "type": "Polygon", "coordinates": [ [ [ -111.483519, 42.589594 ], [ -111.631287, 42.606787 ], [ -111.730404, 42.619967 ], [ -111.798386, 42.649239 ], [ -111.778442, 42.675058 ], [ -111.564524, 42.714139 ], [ -111.56164, 42.714278 ], [ -111.506692, 42.646471 ], [ -111.483519, 42.589594 ] ] ] } },
{ "type": "Feature", "properties": { "OBJECTID": 2040, "ID": "0155983647", "NAME": "ST. LUKE'S ELMORE", "ADDRESS": "895 NORTH 6TH EAST", "CITY": "MOUNTAIN HOME", "STATE": "ID", "ZIP": "83647", "ZIP4": "NOT AVAILABLE", "TELEPHONE": "(208) 587-8401", "TYPE": "CRITICAL ACCESS", "STATUS": "OPEN", "POPULATION": 25, "COUNTY": "ELMORE", "COUNTYFIPS": "16039", "COUNTRY": "USA", "LATITUDE": 43.13889106, "LONGITUDE": -115.69359628700001, "NAICS_CODE": "622110", "NAICS_DESC": "GENERAL MEDICAL AND SURGICAL HOSPITALS", "SOURCE": "http://healthandwelfare.idaho.gov/Portals/0/Medical/LicensingCertification/AlphaHospital.pdf", "SOURCEDATE": "2018-08-09T00:00:00.000Z", "VAL_METHOD": "IMAGERY/OTHER", "VAL_DATE": "2015-05-30T00:00:00.000Z", "WEBSITE": "https://www.stlukesonline.org/communities-and-locations/facilities/hospitals-and-medical-centers/st-lukes-elmore-medical-center", "STATE_ID": "NOT AVAILABLE", "ALT_NAME": "NOT AVAILABLE", "ST_FIPS": "16", "OWNER": "NON-PROFIT", "TTL_STAFF": -999, "BEDS": 25, "TRAUMA": "NOT AVAILABLE", "HELIPAD": "Y" }, "geometry": { "type": "Polygon", "coordinates": [ [ [ -115.677388, 43.061289 ], [ -115.729802, 43.068725 ], [ -115.779626, 43.116419 ], [ -115.779798, 43.178071 ], [ -115.777456, 43.179491 ], [ -115.697493, 43.197466 ], [ -115.60699, 43.187106 ], [ -115.551903, 43.08164 ], [ -115.677388, 43.061289 ] ] ] } },
{ "type": "Feature", "properties": { "OBJECTID": 2324, "ID": "0003783001", "NAME": "TETON COUNTY HOSPITAL DISTRICT", "ADDRESS": "625 EAST BROADWAY", "CITY": "JACKSON", "STATE": "WY", "ZIP": "83001", "ZIP4": "NOT AVAILABLE", "TELEPHONE": "(307) 733-3636", "TYPE": "GENERAL ACUTE CARE", "STATUS": "OPEN", "POPULATION": 48, "COUNTY": "TETON", "COUNTYFIPS": "56039", "COUNTRY": "USA", "LATITUDE": 43.4802818470001, "LONGITUDE": -110.74957794, "NAICS_CODE": "622110", "NAICS_DESC": "GENERAL MEDICAL AND SURGICAL HOSPITALS", "SOURCE": "https://health.wyo.gov/aging/hls/healthcare-facility-directory/", "SOURCEDATE": "2018-08-13T00:00:00.000Z", "VAL_METHOD": "IMAGERY", "VAL_DATE": "2014-02-10T00:00:00.000Z", "WEBSITE": "http://www.tetonhospital.org/", "STATE_ID": "15109", "ALT_NAME": "ST JOHN'S MEDICAL CENTER", "ST_FIPS": "56", "OWNER": "NON-PROFIT", "TTL_STAFF": -999, "BEDS": 48, "TRAUMA": "ATH", "HELIPAD": "Y" }, "geometry": { "type": "Polygon", "coordinates": [ [ [ -110.7730307, 43.414733 ], [ -110.7946941, 43.431521100000012 ], [ -110.8134682, 43.450756499999976 ], [ -110.8536486, 43.498119 ], [ -110.846269, 43.505265 ], [ -110.7335579, 43.536920099999982 ], [ -110.729912900000016, 43.465059100000033 ], [ -110.7730307, 43.414733 ] ] ] } },
{ "type": "Feature", "properties": { "OBJECTID": 2337, "ID": "0003289431", "NAME": "LAKE'S CROSSING CENTER", "ADDRESS": "500 GALLETTI WAY", "CITY": "SPARKS", "STATE": "NV", "ZIP": "89431", "ZIP4": "NOT AVAILABLE", "TELEPHONE": "(775) 688-1900", "TYPE": "PSYCHIATRIC", "STATUS": "OPEN", "POPULATION": 66, "COUNTY": "WASHOE", "COUNTYFIPS": "32031", "COUNTRY": "USA", "LATITUDE": 39.529043817999998, "LONGITUDE": -119.77713504, "NAICS_CODE": "622210", "NAICS_DESC": "PSYCHIATRIC AND SUBSTANCE ABUSE HOSPITALS", "SOURCE": "http://dpbh.nv.gov/Reg/HealthFacilities/Community_Resources/", "SOURCEDATE": "2018-08-09T00:00:00.000Z", "VAL_METHOD": "IMAGERY", "VAL_DATE": "2014-02-12T00:00:00.000Z", "WEBSITE": "http://dpbh.nv.gov/Programs/ClinicalBehavioralServ/Clinical_Behavioral_Services_-_Home/", "STATE_ID": "4963-HOS-13", "ALT_NAME": "NOT AVAILABLE", "ST_FIPS": "32", "OWNER": "GOVERNMENT - STATE", "TTL_STAFF": -999, "BEDS": 66, "TRAUMA": "NOT AVAILABLE", "HELIPAD": "N" }, "geometry": { "type": "Polygon", "coordinates": [ [ [ -119.7492983, 39.410101099999984 ], [ -119.939792, 39.509876 ], [ -119.886992, 39.620114 ], [ -119.846402400000017, 39.629094699999989 ], [ -119.844687, 39.629097 ], [ -119.731889099999989, 39.60909 ], [ -119.624409, 39.521585 ], [ -119.6245546, 39.518586899999981 ], [ -119.62463790000001, 39.5173455 ], [ -119.7492983, 39.410101099999984 ] ] ] } },
{ "type": "Feature", "properties": { "OBJECTID": 2355, "ID": "0000189512", "NAME": "BHC WEST HILLS HOSPITAL", "ADDRESS": "1240 EAST NINTH STREET", "CITY": "RENO", "STATE": "NV", "ZIP": "89512", "ZIP4": "NOT AVAILABLE", "TELEPHONE": "(775) 323-0478", "TYPE": "PSYCHIATRIC", "STATUS": "OPEN", "POPULATION": 95, "COUNTY": "WASHOE", "COUNTYFIPS": "32031", "COUNTRY": "USA", "LATITUDE": 39.537871390000099, "LONGITUDE": -119.79740293499999, "NAICS_CODE": "622110", "NAICS_DESC": "GENERAL MEDICAL AND SURGICAL HOSPITALS", "SOURCE": "http://dpbh.nv.gov/Reg/HealthFacilities/Community_Resources/", "SOURCEDATE": "2018-08-09T00:00:00.000Z", "VAL_METHOD": "IMAGERY/OTHER", "VAL_DATE": "2014-02-10T00:00:00.000Z", "WEBSITE": "www.westhillshospital.net", "STATE_ID": "632-HOS-36", "ALT_NAME": "NOT AVAILABLE", "ST_FIPS": "32", "OWNER": "PROPRIETARY", "TTL_STAFF": -999, "BEDS": 95, "TRAUMA": "NOT AVAILABLE", "HELIPAD": "N" }, "geometry": { "type": "Polygon", "coordinates": [ [ [ -119.7651601, 39.43217319999998 ], [ -119.971024, 39.512525 ], [ -119.886992, 39.620114 ], [ -119.853753, 39.631909 ], [ -119.8453292, 39.632436700000014 ], [ -119.844931, 39.632357600000013 ], [ -119.731889099999989, 39.60909 ], [ -119.6333145, 39.51659279999997 ], [ -119.761421, 39.433675 ], [ -119.7651601, 39.43217319999998 ] ] ] } },
{ "type": "Feature", "properties": { "OBJECTID": 2357, "ID": "0003389434", "NAME": "NORTHERN NEVADA MEDICAL CENTER", "ADDRESS": "2375 EAST PRATER WAY", "CITY": "SPARKS", "STATE": "NV", "ZIP": "89434", "ZIP4": "NOT AVAILABLE", "TELEPHONE": "(775) 331-7000", "TYPE": "GENERAL ACUTE CARE", "STATUS": "OPEN", "POPULATION": 108, "COUNTY": "WASHOE", "COUNTYFIPS": "32031", "COUNTRY": "USA", "LATITUDE": 39.541067498000103, "LONGITUDE": -119.697396459, "NAICS_CODE": "622110", "NAICS_DESC": "GENERAL MEDICAL AND SURGICAL HOSPITALS", "SOURCE": "http://dpbh.nv.gov/Reg/HealthFacilities/Community_Resources/", "SOURCEDATE": "2018-08-09T00:00:00.000Z", "VAL_METHOD": "IMAGERY/OTHER", "VAL_DATE": "2014-03-12T00:00:00.000Z", "WEBSITE": "www.nnmc.com/", "STATE_ID": "653-HOS-28", "ALT_NAME": "NOT AVAILABLE", "ST_FIPS": "32", "OWNER": "PROPRIETARY", "TTL_STAFF": -999, "BEDS": 108, "TRAUMA": "NOT AVAILABLE", "HELIPAD": "Y" }, "geometry": { "type": "Polygon", "coordinates": [ [ [ -119.720913, 39.480183 ], [ -119.7529984, 39.476389599999976 ], [ -119.7539908, 39.476353700000033 ], [ -119.763423700000018, 39.476957099999979 ], [ -119.85513880000002, 39.526710099999967 ], [ -119.812613399999989, 39.577464500000012 ], [ -119.7279208, 39.616742699999975 ], [ -119.701255900000021, 39.614805 ], [ -119.6865756, 39.6084592 ], [ -119.608157, 39.530378 ], [ -119.6196384, 39.5171006 ], [ -119.6249365, 39.511724 ], [ -119.720913, 39.480183 ] ] ] } },
{ "type": "Feature", "properties": { "OBJECTID": 2450, "ID": "0006497471", "NAME": "ROSEBURG VA MEDICAL CENTER", "ADDRESS": "913 NW GARDEN VALLEY BLVD", "CITY": "ROSEBURG", "STATE": "OR", "ZIP": "97471", "ZIP4": "NOT AVAILABLE", "TELEPHONE": "(541) 440-1000", "TYPE": "MILITARY", "STATUS": "OPEN", "POPULATION": -999, "COUNTY": "DOUGLAS", "COUNTYFIPS": "41019", "COUNTRY": "USA", "LATITUDE": 43.2241705550001, "LONGITUDE": -123.36718266, "NAICS_CODE": "622110", "NAICS_DESC": "GENERAL MEDICAL AND SURGICAL HOSPITALS", "SOURCE": "https://public.health.oregon.gov/ProviderPartnerResources/HealthcareProvidersFacilities/HealthcareHealthCareRegulationQualityImprovement/Pages/forms.aspx#Hospital", "SOURCEDATE": "2018-08-10T00:00:00.000Z", "VAL_METHOD": "IMAGERY/OTHER", "VAL_DATE": "2014-02-10T00:00:00.000Z", "WEBSITE": "www.roseburg.va.gov", "STATE_ID": "NOT AVAILABLE", "ALT_NAME": "NOT AVAILABLE", "ST_FIPS": "41", "OWNER": "GOVERNMENT - FEDERAL", "TTL_STAFF": -999, "BEDS": -999, "TRAUMA": "NOT AVAILABLE", "HELIPAD": "N" }, "geometry": { "type": "Polygon", "coordinates": [ [ [ -123.374953599999984, 43.134466400000022 ], [ -123.4033897, 43.131282399999989 ], [ -123.403490099999985, 43.131372199999959 ], [ -123.4690837, 43.2454659 ], [ -123.4700962, 43.25046610000004 ], [ -123.4269739, 43.282507 ], [ -123.3435797, 43.325527699999967 ], [ -123.3399427, 43.324269599999987 ], [ -123.2574754, 43.210049800000036 ], [ -123.374953599999984, 43.134466400000022 ] ] ] } },
{ "type": "Feature", "properties": { "OBJECTID": 2451, "ID": "0003983422", "NAME": "TETON VALLEY HEALTH CARE", "ADDRESS": "120 EAST HOWARD", "CITY": "DRIGGS", "STATE": "ID", "ZIP": "83422", "ZIP4": "NOT AVAILABLE", "TELEPHONE": "(208) 354-2383", "TYPE": "GENERAL ACUTE CARE", "STATUS": "OPEN", "POPULATION": 13, "COUNTY": "TETON", "COUNTYFIPS": "16081", "COUNTRY": "USA", "LATITUDE": 43.7269833840001, "LONGITUDE": -111.10822205700001, "NAICS_CODE": "622110", "NAICS_DESC": "GENERAL MEDICAL AND SURGICAL HOSPITALS", "SOURCE": "http://healthandwelfare.idaho.gov/Portals/0/Medical/LicensingCertification/AlphaHospital.pdf", "SOURCEDATE": "2018-08-09T00:00:00.000Z", "VAL_METHOD": "IMAGERY", "VAL_DATE": "2014-02-10T00:00:00.000Z", "WEBSITE": "http://www.tvhcare.org", "STATE_ID": "NOT AVAILABLE", "ALT_NAME": "NOT AVAILABLE", "ST_FIPS": "16", "OWNER": "GOVERNMENT - LOCAL", "TTL_STAFF": -999, "BEDS": 13, "TRAUMA": "NOT AVAILABLE", "HELIPAD": "Y" }, "geometry": { "type": "Polygon", "coordinates": [ [ [ -111.106799, 43.643207 ], [ -111.108833, 43.64321 ], [ -111.110612, 43.643213 ], [ -111.1154609, 43.643248300000018 ], [ -111.169797, 43.699351 ], [ -111.186365, 43.72353 ], [ -111.161164, 43.766605 ], [ -111.140821, 43.78668 ], [ -111.118422, 43.807738 ], [ -111.1134563, 43.8116189 ], [ -111.1107645, 43.811338199999987 ], [ -111.042023, 43.760826500000043 ], [ -111.0336436, 43.754082700000055 ], [ -111.0462587, 43.708483800000039 ], [ -111.0657874, 43.679411500000029 ], [ -111.080954, 43.664869 ], [ -111.09641, 43.650503 ], [ -111.106799, 43.643207 ] ] ] } },
{ "type": "Feature", "properties": { "OBJECTID": 2453, "ID": "0000683704", "NAME": "INTERMOUNTAIN HOSPITAL", "ADDRESS": "303 NORTH ALLUMBAUGH STREET", "CITY": "BOISE", "STATE": "ID", "ZIP": "83704", "ZIP4": "NOT AVAILABLE", "TELEPHONE": "(208) 377-8400", "TYPE": "GENERAL ACUTE CARE", "STATUS": "OPEN", "POPULATION": 155, "COUNTY": "ADA", "COUNTYFIPS": "16001", "COUNTRY": "USA", "LATITUDE": 43.607072743000103, "LONGITUDE": -116.266917252, "NAICS_CODE": "622110", "NAICS_DESC": "GENERAL MEDICAL AND SURGICAL HOSPITALS", "SOURCE": "http://healthandwelfare.idaho.gov/Portals/0/Medical/LicensingCertification/AlphaHospital.pdf", "SOURCEDATE": "2018-08-09T00:00:00.000Z", "VAL_METHOD": "IMAGERY", "VAL_DATE": "2013-11-12T00:00:00.000Z", "WEBSITE": "http://www.intermountainhospital.com", "STATE_ID": "NOT AVAILABLE", "ALT_NAME": "NOT AVAILABLE", "ST_FIPS": "16", "OWNER": "PROPRIETARY", "TTL_STAFF": -999, "BEDS": 155, "TRAUMA": "NOT AVAILABLE", "HELIPAD": "N" }, "geometry": { "type": "Polygon", "coordinates": [ [ [ -116.158093461363748, 43.538238330161782 ], [ -116.275511267273615, 43.537946177924184 ], [ -116.354373976764251, 43.545058623870844 ], [ -116.393858199167965, 43.56098409991781 ], [ -116.433762234350695, 43.584960773827625 ], [ -116.434023044510454, 43.592039875256901 ], [ -116.434108253889221, 43.598578776708372 ], [ -116.433721262677579, 43.60472587850083 ], [ -116.36306291850029, 43.648901563160813 ], [ -116.355103223352131, 43.653099773478935 ], [ -116.33475583470323, 43.663266200446181 ], [ -116.301502050307121, 43.67828654612952 ], [ -116.294088250520105, 43.679220155160735 ], [ -116.279150349684542, 43.680147272825693 ], [ -116.278590349608166, 43.680147273465622 ], [ -116.217385282943283, 43.665701313587107 ], [ -116.216829281680916, 43.665283313677641 ], [ -116.187700209879324, 43.637521320926908 ], [ -116.182759797860967, 43.632719023237819 ], [ -116.170060158384501, 43.61239932894712 ], [ -116.166763641984758, 43.601486529912918 ], [ -116.154375159990806, 43.540911735853456 ], [ -116.154834458287269, 43.538871234965306 ], [ -116.158093461363748, 43.538238330161782 ] ] ] } },
{ "type": "Feature", "properties": { "OBJECTID": 2455, "ID": "0002883330", "NAME": "NORTH CANYON MEDICAL CENTER", "ADDRESS": "267 NORTH CANYON DRIVE", "CITY": "GOODING", "STATE": "ID", "ZIP": "83330", "ZIP4": "NOT AVAILABLE", "TELEPHONE": "(208) 934-4433", "TYPE": "GENERAL ACUTE CARE", "STATUS": "OPEN", "POPULATION": 18, "COUNTY": "GOODING", "COUNTYFIPS": "16047", "COUNTRY": "USA", "LATITUDE": 42.920995449000003, "LONGITUDE": -114.709657455, "NAICS_CODE": "622110", "NAICS_DESC": "GENERAL MEDICAL AND SURGICAL HOSPITALS", "SOURCE": "http://healthandwelfare.idaho.gov/Portals/0/Medical/LicensingCertification/AlphaHospital.pdf", "SOURCEDATE": "2018-08-09T00:00:00.000Z", "VAL_METHOD": "IMAGERY", "VAL_DATE": "2014-02-10T00:00:00.000Z", "WEBSITE": "http://www.goodinghospital.org", "STATE_ID": "NOT AVAILABLE", "ALT_NAME": "NOT AVAILABLE", "ST_FIPS": "16", "OWNER": "NON-PROFIT", "TTL_STAFF": -999, "BEDS": 18, "TRAUMA": "NOT AVAILABLE", "HELIPAD": "Y" }, "geometry": { "type": "Polygon", "coordinates": [ [ [ -114.726429, 42.842485 ], [ -114.752068, 42.85831 ], [ -114.853654, 42.92377 ], [ -114.852824, 42.924726 ], [ -114.713417, 43.01596 ], [ -114.712388, 43.015813 ], [ -114.70505, 43.011072 ], [ -114.605326, 42.938109 ], [ -114.593959, 42.92765 ], [ -114.726429, 42.842485 ] ] ] } },
{ "type": "Feature", "properties": { "OBJECTID": 2456, "ID": "0004183617", "NAME": "VALOR HEALTH", "ADDRESS": "1202 EAST LOCUST STREET", "CITY": "EMMETT", "STATE": "ID", "ZIP": "83617", "ZIP4": "NOT AVAILABLE", "TELEPHONE": "(208) 365-3561", "TYPE": "GENERAL ACUTE CARE", "STATUS": "OPEN", "POPULATION": 16, "COUNTY": "GEM", "COUNTYFIPS": "16045", "COUNTRY": "USA", "LATITUDE": 43.879979220000102, "LONGITUDE": -116.48490294200001, "NAICS_CODE": "622110", "NAICS_DESC": "GENERAL MEDICAL AND SURGICAL HOSPITALS", "SOURCE": "http://healthandwelfare.idaho.gov/Portals/0/Medical/LicensingCertification/AlphaHospital.pdf", "SOURCEDATE": "2018-08-09T00:00:00.000Z", "VAL_METHOD": "IMAGERY", "VAL_DATE": "2014-03-12T00:00:00.000Z", "WEBSITE": "http://www.wkmh.org", "STATE_ID": "NOT AVAILABLE", "ALT_NAME": "NOT AVAILABLE", "ST_FIPS": "16", "OWNER": "GOVERNMENT - LOCAL", "TTL_STAFF": -999, "BEDS": 16, "TRAUMA": "NOT AVAILABLE", "HELIPAD": "Y" }, "geometry": { "type": "Polygon", "coordinates": [ [ [ -116.483821, 43.806702 ], [ -116.526804, 43.828256 ], [ -116.567485, 43.848795 ], [ -116.577456, 43.858366 ], [ -116.5821445, 43.864897300000017 ], [ -116.582535, 43.867075800000023 ], [ -116.572446, 43.893865 ], [ -116.552349, 43.908039 ], [ -116.493603, 43.941832 ], [ -116.492886, 43.941697 ], [ -116.445681605283752, 43.926190149852296 ], [ -116.421762580508073, 43.90553117410235 ], [ -116.426134575193657, 43.895864165684266 ], [ -116.455591538920316, 43.833555108825692 ], [ -116.483821, 43.806702 ] ] ] } },
{ "type": "Feature", "properties": { "OBJECTID": 2457, "ID": "0002283263", "NAME": "FRANKLIN COUNTY MEDICAL CENTER", "ADDRESS": "44 NORTH FIRST EAST STREET", "CITY": "PRESTON", "STATE": "ID", "ZIP": "83263", "ZIP4": "NOT AVAILABLE", "TELEPHONE": "(208) 852-0137", "TYPE": "GENERAL ACUTE CARE", "STATUS": "OPEN", "POPULATION": 20, "COUNTY": "FRANKLIN", "COUNTYFIPS": "16041", "COUNTRY": "USA", "LATITUDE": 42.097650626000103, "LONGITUDE": -111.872976753, "NAICS_CODE": "622110", "NAICS_DESC": "GENERAL MEDICAL AND SURGICAL HOSPITALS", "SOURCE": "http://healthandwelfare.idaho.gov/Portals/0/Medical/LicensingCertification/AlphaHospital.pdf", "SOURCEDATE": "2018-08-09T00:00:00.000Z", "VAL_METHOD": "IMAGERY", "VAL_DATE": "2014-02-10T00:00:00.000Z", "WEBSITE": "http://www.fcmc.org", "STATE_ID": "NOT AVAILABLE", "ALT_NAME": "NOT AVAILABLE", "ST_FIPS": "16", "OWNER": "GOVERNMENT - LOCAL", "TTL_STAFF": -999, "BEDS": 20, "TRAUMA": "NOT AVAILABLE", "HELIPAD": "Y" }, "geometry": { "type": "Polygon", "coordinates": [ [ [ -111.8961062, 41.998656500000038 ], [ -111.8962984, 41.998656600000039 ], [ -111.97102, 42.096478 ], [ -111.9764664, 42.107544099999984 ], [ -111.976838, 42.11147 ], [ -111.915892, 42.183702 ], [ -111.837057, 42.179847 ], [ -111.814486, 42.168814 ], [ -111.781366, 42.059319 ], [ -111.797624, 42.01631 ], [ -111.798744, 42.015074 ], [ -111.801614, 42.012997 ], [ -111.806423, 42.011263 ], [ -111.8961062, 41.998656500000038 ] ] ] } },
{ "type": "Feature", "properties": { "OBJECTID": 2518, "ID": "0011396118", "NAME": "EASTERN PLUMAS HOSPITAL-LOYALTON CAMPUS", "ADDRESS": "700 THIRD STREET", "CITY": "LOYALTON", "STATE": "CA", "ZIP": "96118", "ZIP4": "NOT AVAILABLE", "TELEPHONE": "NOT AVAILABLE", "TYPE": "GENERAL ACUTE CARE", "STATUS": "OPEN", "POPULATION": 39, "COUNTY": "SIERRA", "COUNTYFIPS": "06091", "COUNTRY": "USA", "LATITUDE": 39.679522641000098, "LONGITUDE": -120.243584891, "NAICS_CODE": "622110", "NAICS_DESC": "GENERAL MEDICAL AND SURGICAL HOSPITALS", "SOURCE": "http://www.oshpd.ca.gov/HID/Facility-Listing.html", "SOURCEDATE": "2018-08-08T00:00:00.000Z", "VAL_METHOD": "IMAGERY", "VAL_DATE": "2014-02-10T00:00:00.000Z", "WEBSITE": "http://www.ephc.org", "STATE_ID": "NOT AVAILABLE", "ALT_NAME": "NOT AVAILABLE", "ST_FIPS": "06", "OWNER": "GOVERNMENT - DISTRICT/AUTHORITY", "TTL_STAFF": -999, "BEDS": 39, "TRAUMA": "NOT AVAILABLE", "HELIPAD": "N" }, "geometry": { "type": "Polygon", "coordinates": [ [ [ -120.2027018, 39.635549700000048 ], [ -120.207433, 39.634863 ], [ -120.31617, 39.66476 ], [ -120.342793, 39.673544 ], [ -120.34384, 39.674078 ], [ -120.3060007, 39.708201900000034 ], [ -120.2218652, 39.714284599999942 ], [ -120.2027018, 39.635549700000048 ] ] ] } },
{ "type": "Feature", "properties": { "OBJECTID": 2655, "ID": "0074796001", "NAME": "VIBRA HOSPITAL OF NORTHERN CALIFORNIA", "ADDRESS": "2801 EUREKA WAY", "CITY": "REDDING", "STATE": "CA", "ZIP": "96001", "ZIP4": "NOT AVAILABLE", "TELEPHONE": "(530) 246-9000", "TYPE": "GENERAL ACUTE CARE", "STATUS": "OPEN", "POPULATION": 88, "COUNTY": "SHASTA", "COUNTYFIPS": "06089", "COUNTRY": "USA", "LATITUDE": 40.585174205000001, "LONGITUDE": -122.413549648, "NAICS_CODE": "622110", "NAICS_DESC": "GENERAL MEDICAL AND SURGICAL HOSPITALS", "SOURCE": "http://www.oshpd.ca.gov/HID/Facility-Listing.html", "SOURCEDATE": "2018-08-08T00:00:00.000Z", "VAL_METHOD": "IMAGERY/OTHER", "VAL_DATE": "2015-01-16T00:00:00.000Z", "WEBSITE": "http://www.vhnorcal.com/", "STATE_ID": "NOT AVAILABLE", "ALT_NAME": "NOT AVAILABLE", "ST_FIPS": "06", "OWNER": "PROPRIETARY", "TTL_STAFF": -999, "BEDS": 88, "TRAUMA": "NOT AVAILABLE", "HELIPAD": "N" }, "geometry": { "type": "Polygon", "coordinates": [ [ [ -122.33627340000001, 40.502009500000035 ], [ -122.381464, 40.502263200000016 ], [ -122.476073, 40.525902 ], [ -122.479688, 40.530802 ], [ -122.501777, 40.577216 ], [ -122.519699, 40.614859 ], [ -122.5198162, 40.6154707 ], [ -122.3524564, 40.681163299999945 ], [ -122.349947500000013, 40.681045399999974 ], [ -122.2872698, 40.627598199999973 ], [ -122.2580601, 40.561007600000025 ], [ -122.2581363, 40.5603467 ], [ -122.3282988, 40.5074619 ], [ -122.33627340000001, 40.502009500000035 ] ] ] } },
{ "type": "Feature", "properties": { "OBJECTID": 2730, "ID": "0003496150", "NAME": "BARTON MEMORIAL HOSPITAL", "ADDRESS": "2170 SOUTH AVENUE", "CITY": "SOUTH LAKE TAHOE", "STATE": "CA", "ZIP": "96150", "ZIP4": "NOT AVAILABLE", "TELEPHONE": "NOT AVAILABLE", "TYPE": "GENERAL ACUTE CARE", "STATUS": "OPEN", "POPULATION": 111, "COUNTY": "EL DORADO", "COUNTYFIPS": "06017", "COUNTRY": "USA", "LATITUDE": 38.911578679000101, "LONGITUDE": -119.99654684799999, "NAICS_CODE": "622110", "NAICS_DESC": "GENERAL MEDICAL AND SURGICAL HOSPITALS", "SOURCE": "http://www.oshpd.ca.gov/HID/Facility-Listing.html", "SOURCEDATE": "2018-08-08T00:00:00.000Z", "VAL_METHOD": "IMAGERY", "VAL_DATE": "2014-02-10T00:00:00.000Z", "WEBSITE": "http://www.bartonhealth.org", "STATE_ID": "NOT AVAILABLE", "ALT_NAME": "NOT AVAILABLE", "ST_FIPS": "06", "OWNER": "NON-PROFIT", "TTL_STAFF": -999, "BEDS": 111, "TRAUMA": "LEVEL III", "HELIPAD": "Y" }, "geometry": { "type": "Polygon", "coordinates": [ [ [ -120.0166501, 38.815312800000044 ], [ -120.0200611, 38.8161461 ], [ -120.0300921, 38.826505599999983 ], [ -120.082739, 38.929878 ], [ -120.0810557, 38.93372980000003 ], [ -120.0654123, 38.941362800000029 ], [ -119.9458258, 38.9622459 ], [ -119.94135630000001, 38.960289900000014 ], [ -119.9380708, 38.9575302 ], [ -119.9365329, 38.9415941 ], [ -119.952708099999981, 38.9030804 ], [ -120.0166501, 38.815312800000044 ] ] ] } },
{ "type": "Feature", "properties": { "OBJECTID": 2735, "ID": "0037195540", "NAME": "REDWOOD MEMORIAL HOSPITAL", "ADDRESS": "3300 RENNER DRIVE", "CITY": "FORTUNA", "STATE": "CA", "ZIP": "95540", "ZIP4": "NOT AVAILABLE", "TELEPHONE": "NOT AVAILABLE", "TYPE": "GENERAL ACUTE CARE", "STATUS": "OPEN", "POPULATION": 35, "COUNTY": "HUMBOLDT", "COUNTYFIPS": "06023", "COUNTRY": "USA", "LATITUDE": 40.582624915000103, "LONGITUDE": -124.136405293, "NAICS_CODE": "622110", "NAICS_DESC": "GENERAL MEDICAL AND SURGICAL HOSPITALS", "SOURCE": "http://www.oshpd.ca.gov/HID/Facility-Listing.html", "SOURCEDATE": "2018-08-08T00:00:00.000Z", "VAL_METHOD": "IMAGERY/OTHER", "VAL_DATE": "2014-02-10T00:00:00.000Z", "WEBSITE": "http://www.redwoodmemorial.org/", "STATE_ID": "NOT AVAILABLE", "ALT_NAME": "NOT AVAILABLE", "ST_FIPS": "06", "OWNER": "NON-PROFIT", "TTL_STAFF": -999, "BEDS": 35, "TRAUMA": "NOT AVAILABLE", "HELIPAD": "N" }, "geometry": { "type": "Polygon", "coordinates": [ [ [ -124.0993175, 40.483496699999968 ], [ -124.1496217, 40.5242766 ], [ -124.2310281, 40.5959278 ], [ -124.2309847, 40.599079700000019 ], [ -124.226362, 40.64075 ], [ -124.20165470000002, 40.671973800000011 ], [ -124.124499200000017, 40.601185099999952 ], [ -124.05834, 40.537299 ], [ -124.058368, 40.535792 ], [ -124.0993175, 40.483496699999968 ] ] ] } },
{ "type": "Feature", "properties": { "OBJECTID": 2817, "ID": "0000483403", "NAME": "EASTERN IDAHO REGIONAL MEDICAL CENTER", "ADDRESS": "3100 CHANNING WAY", "CITY": "IDAHO FALLS", "STATE": "ID", "ZIP": "83403", "ZIP4": "NOT AVAILABLE", "TELEPHONE": "(208) 529-6111", "TYPE": "GENERAL ACUTE CARE", "STATUS": "OPEN", "POPULATION": 289, "COUNTY": "BONNEVILLE", "COUNTYFIPS": "16019", "COUNTRY": "USA", "LATITUDE": 43.469975909, "LONGITUDE": -111.99165407700001, "NAICS_CODE": "622110", "NAICS_DESC": "GENERAL MEDICAL AND SURGICAL HOSPITALS", "SOURCE": "http://healthandwelfare.idaho.gov/Portals/0/Medical/LicensingCertification/AlphaHospital.pdf", "SOURCEDATE": "2018-08-09T00:00:00.000Z", "VAL_METHOD": "IMAGERY", "VAL_DATE": "2014-03-12T00:00:00.000Z", "WEBSITE": "http://www.eirmc.com", "STATE_ID": "NOT AVAILABLE", "ALT_NAME": "NOT AVAILABLE", "ST_FIPS": "16", "OWNER": "PROPRIETARY", "TTL_STAFF": -999, "BEDS": 289, "TRAUMA": "LEVEL II", "HELIPAD": "Y" }, "geometry": { "type": "Polygon", "coordinates": [ [ [ -111.989156, 43.399032 ], [ -112.1201241, 43.438468599999979 ], [ -112.123009, 43.439571 ], [ -112.103751, 43.472383 ], [ -112.089455, 43.489613100000021 ], [ -112.082883, 43.496696400000054 ], [ -112.063236, 43.51119 ], [ -112.004665, 43.5481902 ], [ -111.963998, 43.562412 ], [ -111.944054, 43.553319 ], [ -111.904099, 43.496637 ], [ -111.902105, 43.478949 ], [ -111.9033014, 43.472450700000032 ], [ -111.9040647, 43.4700296 ], [ -111.912028, 43.447875 ], [ -111.965235, 43.410013 ], [ -111.981937, 43.400942 ], [ -111.983923, 43.40027 ], [ -111.989156, 43.399032 ] ] ] } },
{ "type": "Feature", "properties": { "OBJECTID": 6024, "ID": "0113489403", "NAME": "CARSON TAHOE DAYTON HOSPITAL", "ADDRESS": "1001 MEDICAL CENTER DRIVE", "CITY": "DAYTON", "STATE": "NV", "ZIP": "89403", "ZIP4": "NOT AVAILABLE", "TELEPHONE": "NOT AVAILABLE", "TYPE": "GENERAL ACUTE CARE", "STATUS": "CLOSED", "POPULATION": -999, "COUNTY": "LYON", "COUNTYFIPS": "32019", "COUNTRY": "USA", "LATITUDE": 39.268978310000101, "LONGITUDE": -119.574863493, "NAICS_CODE": "622110", "NAICS_DESC": "GENERAL MEDICAL AND SURGICAL HOSPITALS", "SOURCE": "http://dpbh.nv.gov/", "SOURCEDATE": "2015-01-07T00:00:00.000Z", "VAL_METHOD": "IMAGERY/OTHER", "VAL_DATE": "2015-02-10T00:00:00.000Z", "WEBSITE": "NOT AVAILABLE", "STATE_ID": "NOT AVAILABLE", "ALT_NAME": "NOT AVAILABLE", "ST_FIPS": "32", "OWNER": "NOT AVAILABLE", "TTL_STAFF": -999, "BEDS": -999, "TRAUMA": "NOT AVAILABLE", "HELIPAD": "N" }, "geometry": { "type": "Polygon", "coordinates": [ [ [ -119.600331700000012, 39.212904800000018 ], [ -119.6481807, 39.210446400000045 ], [ -119.663537800000014, 39.2110731 ], [ -119.668083100000018, 39.2118674 ], [ -119.6701794, 39.213821100000025 ], [ -119.65688710000002, 39.233835300000017 ], [ -119.558884, 39.313758 ], [ -119.542741, 39.323499 ], [ -119.516678, 39.332953 ], [ -119.4259851, 39.3423759 ], [ -119.5580491, 39.231631900000011 ], [ -119.600331700000012, 39.212904800000018 ] ] ] } },
{ "type": "Feature", "properties": { "OBJECTID": 6035, "ID": "0113689832", "NAME": "PUBLIC HEALTH SERV INDIAN HOSP", "ADDRESS": "1623 HOSPITAL LOOP", "CITY": "OWYHEE", "STATE": "NV", "ZIP": "89832", "ZIP4": "NOT AVAILABLE", "TELEPHONE": "NOT AVAILABLE", "TYPE": "CRITICAL ACCESS", "STATUS": "OPEN", "POPULATION": -999, "COUNTY": "ELKO", "COUNTYFIPS": "32007", "COUNTRY": "USA", "LATITUDE": 41.949891633000099, "LONGITUDE": -116.09779699800001, "NAICS_CODE": "622110", "NAICS_DESC": "GENERAL MEDICAL AND SURGICAL HOSPITALS", "SOURCE": "http://dpbh.nv.gov/Reg/HealthFacilities/Community_Resources/", "SOURCEDATE": "2018-08-09T00:00:00.000Z", "VAL_METHOD": "IMAGERY", "VAL_DATE": "2015-02-10T00:00:00.000Z", "WEBSITE": "http://www.shopaitribes.org/spochf/", "STATE_ID": "NOT AVAILABLE", "ALT_NAME": "NOT AVAILABLE", "ST_FIPS": "32", "OWNER": "NOT AVAILABLE", "TTL_STAFF": -999, "BEDS": -999, "TRAUMA": "NOT AVAILABLE", "HELIPAD": "Y" }, "geometry": { "type": "Polygon", "coordinates": [ [ [ -116.101681, 41.915611099999936 ], [ -116.1216942, 41.91322030000002 ], [ -116.137426, 41.924352 ], [ -116.1509462, 41.93698 ], [ -116.170371, 41.987939 ], [ -116.1382573, 41.997791 ], [ -116.1339983, 41.998642500000038 ], [ -116.1256834, 41.997826599999954 ], [ -116.113385, 41.9871677 ], [ -116.0981187, 41.947299700000038 ], [ -116.097308, 41.94505 ], [ -116.097165, 41.944642600000016 ], [ -116.09660550000001, 41.94301630000006 ], [ -116.09518439999998, 41.937164100000011 ], [ -116.101681, 41.915611099999936 ] ] ] } },
{ "type": "Feature", "properties": { "OBJECTID": 6036, "ID": "0003589502", "NAME": "RENOWN REHABILITATION HOSPITAL", "ADDRESS": "1495 MILL STREET", "CITY": "RENO", "STATE": "NV", "ZIP": "89502", "ZIP4": "NOT AVAILABLE", "TELEPHONE": "(775) 982-3505", "TYPE": "REHABILITATION", "STATUS": "OPEN", "POPULATION": 62, "COUNTY": "WASHOE", "COUNTYFIPS": "32031", "COUNTRY": "USA", "LATITUDE": 39.523995302000102, "LONGITUDE": -119.79234853200001, "NAICS_CODE": "622310", "NAICS_DESC": "REHABILITATION HOSPITALS (EXCEPT ALCOHOLISM, DRUG ADDICTION)", "SOURCE": "http://dpbh.nv.gov/Reg/HealthFacilities/Community_Resources/", "SOURCEDATE": "2018-08-09T00:00:00.000Z", "VAL_METHOD": "IMAGERY/OTHER", "VAL_DATE": "2014-02-10T00:00:00.000Z", "WEBSITE": "www.renown.org/rehabhospital", "STATE_ID": "657-HOS-36", "ALT_NAME": "NOT AVAILABLE", "ST_FIPS": "32", "OWNER": "NON-PROFIT", "TTL_STAFF": -999, "BEDS": 62, "TRAUMA": "NOT AVAILABLE", "HELIPAD": "N" }, "geometry": { "type": "Polygon", "coordinates": [ [ [ -119.7593797, 39.3960448 ], [ -119.759831500000018, 39.396143799999969 ], [ -119.939792, 39.509876 ], [ -119.874791900000019, 39.617726300000037 ], [ -119.847881500000014, 39.623646099999988 ], [ -119.782195, 39.606849 ], [ -119.735816, 39.594091 ], [ -119.649018, 39.511944 ], [ -119.6485392, 39.509656299999982 ], [ -119.744499100000013, 39.4002153 ], [ -119.7593797, 39.3960448 ] ] ] } },
{ "type": "Feature", "properties": { "OBJECTID": 6037, "ID": "0005689502", "NAME": "RENOWN REGIONAL MEDICAL CENTER", "ADDRESS": "1155 MILL STREET", "CITY": "RENO", "STATE": "NV", "ZIP": "89502", "ZIP4": "NOT AVAILABLE", "TELEPHONE": "(775) 982-4100", "TYPE": "GENERAL ACUTE CARE", "STATUS": "OPEN", "POPULATION": 608, "COUNTY": "WASHOE", "COUNTYFIPS": "32031", "COUNTRY": "USA", "LATITUDE": 39.525941592000002, "LONGITUDE": -119.796486016, "NAICS_CODE": "622110", "NAICS_DESC": "GENERAL MEDICAL AND SURGICAL HOSPITALS", "SOURCE": "http://dpbh.nv.gov/Reg/HealthFacilities/Community_Resources/", "SOURCEDATE": "2018-08-09T00:00:00.000Z", "VAL_METHOD": "IMAGERY/OTHER", "VAL_DATE": "2014-03-12T00:00:00.000Z", "WEBSITE": "http://www.renown.org", "STATE_ID": "669-HOS-42", "ALT_NAME": "NOT AVAILABLE", "ST_FIPS": "32", "OWNER": "NON-PROFIT", "TTL_STAFF": -999, "BEDS": 608, "TRAUMA": "LEVEL II", "HELIPAD": "Y" }, "geometry": { "type": "Polygon", "coordinates": [ [ [ -119.7564043, 39.4026646 ], [ -119.9511719, 39.513779399999947 ], [ -119.952144600000011, 39.514748 ], [ -119.857091, 39.613862 ], [ -119.8549164, 39.614464 ], [ -119.848171400000012, 39.615622 ], [ -119.7806775, 39.6054027 ], [ -119.738422499999984, 39.5943529 ], [ -119.649018, 39.511944 ], [ -119.7497371, 39.408332299999984 ], [ -119.7564043, 39.4026646 ] ] ] } },
{ "type": "Feature", "properties": { "OBJECTID": 6039, "ID": "0001489503", "NAME": "SAINT MARY'S REGIONAL MEDICAL CENTER", "ADDRESS": "235 WEST SIXTH STREET", "CITY": "RENO", "STATE": "NV", "ZIP": "89503", "ZIP4": "NOT AVAILABLE", "TELEPHONE": "(775) 770-3000", "TYPE": "GENERAL ACUTE CARE", "STATUS": "OPEN", "POPULATION": 277, "COUNTY": "WASHOE", "COUNTYFIPS": "32031", "COUNTRY": "USA", "LATITUDE": 39.531620142000101, "LONGITUDE": -119.81978803600001, "NAICS_CODE": "622110", "NAICS_DESC": "GENERAL MEDICAL AND SURGICAL HOSPITALS", "SOURCE": "http://dpbh.nv.gov/Reg/HealthFacilities/Community_Resources/", "SOURCEDATE": "2018-08-09T00:00:00.000Z", "VAL_METHOD": "IMAGERY/OTHER", "VAL_DATE": "2014-03-12T00:00:00.000Z", "WEBSITE": "www.saintmarysreno.com", "STATE_ID": "658-HOS-32", "ALT_NAME": "NOT AVAILABLE", "ST_FIPS": "32", "OWNER": "NON-PROFIT", "TTL_STAFF": -999, "BEDS": 277, "TRAUMA": "NOT AVAILABLE", "HELIPAD": "Y" }, "geometry": { "type": "Polygon", "coordinates": [ [ [ -119.763938, 39.4385912 ], [ -119.7695469, 39.438964400000017 ], [ -119.986257, 39.514141 ], [ -119.857091, 39.613862 ], [ -119.848171400000012, 39.615622 ], [ -119.780629200000021, 39.601800099999977 ], [ -119.739476, 39.59062 ], [ -119.649018, 39.511944 ], [ -119.763938, 39.4385912 ] ] ] } },
{ "type": "Feature", "properties": { "OBJECTID": 6051, "ID": "0005789502", "NAME": "VA SIERRA NEVADA HEALTHCARE SYSTEM", "ADDRESS": "975 KIRMAN AVENUE", "CITY": "RENO", "STATE": "NV", "ZIP": "89502", "ZIP4": "NOT AVAILABLE", "TELEPHONE": "(775) 786-7200", "TYPE": "MILITARY", "STATUS": "OPEN", "POPULATION": 124, "COUNTY": "WASHOE", "COUNTYFIPS": "32031", "COUNTRY": "USA", "LATITUDE": 39.516363249000101, "LONGITUDE": -119.799604504, "NAICS_CODE": "622110", "NAICS_DESC": "GENERAL MEDICAL AND SURGICAL HOSPITALS", "SOURCE": "http://dpbh.nv.gov/Reg/HealthFacilities/Community_Resources/", "SOURCEDATE": "2018-08-09T00:00:00.000Z", "VAL_METHOD": "IMAGERY/OTHER", "VAL_DATE": "2013-11-26T00:00:00.000Z", "WEBSITE": "http://www.reno.va.gov/", "STATE_ID": "NOT AVAILABLE", "ALT_NAME": "NOT AVAILABLE", "ST_FIPS": "32", "OWNER": "GOVERNMENT - FEDERAL", "TTL_STAFF": -999, "BEDS": 124, "TRAUMA": "NOT AVAILABLE", "HELIPAD": "N" }, "geometry": { "type": "Polygon", "coordinates": [ [ [ -119.7470143, 39.4159522 ], [ -119.7566047, 39.418820699999969 ], [ -119.933848, 39.510965 ], [ -119.8461984, 39.608096300000021 ], [ -119.780574, 39.592691 ], [ -119.7458741, 39.576017 ], [ -119.706738, 39.543086 ], [ -119.7014074, 39.53719839999998 ], [ -119.696784, 39.525177100000057 ], [ -119.7470143, 39.4159522 ] ] ] } },
{ "type": "Feature", "properties": { "OBJECTID": 6055, "ID": "0002589502", "NAME": "WILLOW SPRINGS CENTER", "ADDRESS": "690 EDISON WAY", "CITY": "RENO", "STATE": "NV", "ZIP": "89502", "ZIP4": "NOT AVAILABLE", "TELEPHONE": "(775) 858-3303", "TYPE": "PSYCHIATRIC", "STATUS": "OPEN", "POPULATION": 116, "COUNTY": "WASHOE", "COUNTYFIPS": "32031", "COUNTRY": "USA", "LATITUDE": 39.502047622000099, "LONGITUDE": -119.757199689, "NAICS_CODE": "622110", "NAICS_DESC": "GENERAL MEDICAL AND SURGICAL HOSPITALS", "SOURCE": "http://dpbh.nv.gov/Reg/HealthFacilities/Community_Resources/", "SOURCEDATE": "2018-08-09T00:00:00.000Z", "VAL_METHOD": "IMAGERY/OTHER", "VAL_DATE": "2014-02-10T00:00:00.000Z", "WEBSITE": "www.willowspringscenter.com/", "STATE_ID": "671-HOS-31", "ALT_NAME": "NOT AVAILABLE", "ST_FIPS": "32", "OWNER": "PROPRIETARY", "TTL_STAFF": -999, "BEDS": 116, "TRAUMA": "NOT AVAILABLE", "HELIPAD": "N" }, "geometry": { "type": "Polygon", "coordinates": [ [ [ -119.759615899999986, 39.3961061 ], [ -119.759831500000018, 39.396143799999969 ], [ -119.816469, 39.446608 ], [ -119.8585251, 39.4842671 ], [ -119.860943100000014, 39.488032 ], [ -119.8664082, 39.522213899999969 ], [ -119.863812800000019, 39.52931789999996 ], [ -119.8324832, 39.595613800000031 ], [ -119.7440967, 39.581264899999987 ], [ -119.7239584, 39.576673299999989 ], [ -119.7236242, 39.57656 ], [ -119.720795, 39.575354 ], [ -119.720018, 39.574893 ], [ -119.6333145, 39.51659279999997 ], [ -119.7143345, 39.425835799999987 ], [ -119.7262448, 39.41464850000002 ], [ -119.7327704, 39.409752099999984 ], [ -119.74529840000001, 39.4012495 ], [ -119.759615899999986, 39.3961061 ] ] ] } },
{ "type": "Feature", "properties": { "OBJECTID": 6210, "ID": "0005397411", "NAME": "SOUTHERN COOS HOSPITAL & HEALTH CENTER", "ADDRESS": "900 11TH STREET SE", "CITY": "SE BANDON", "STATE": "OR", "ZIP": "97411", "ZIP4": "NOT AVAILABLE", "TELEPHONE": "NOT AVAILABLE", "TYPE": "CRITICAL ACCESS", "STATUS": "OPEN", "POPULATION": 19, "COUNTY": "COOS", "COUNTYFIPS": "41011", "COUNTRY": "USA", "LATITUDE": 43.112425063000003, "LONGITUDE": -124.402058376, "NAICS_CODE": "622110", "NAICS_DESC": "GENERAL MEDICAL AND SURGICAL HOSPITALS", "SOURCE": "https://public.health.oregon.gov/ProviderPartnerResources/HealthcareProvidersFacilities/HealthcareHealthCareRegulationQualityImprovement/Pages/forms.aspx#Hospital", "SOURCEDATE": "2018-08-10T00:00:00.000Z", "VAL_METHOD": "IMAGERY/OTHER", "VAL_DATE": "2014-02-10T00:00:00.000Z", "WEBSITE": "www.southerncoos.org", "STATE_ID": "14-0809", "ALT_NAME": "NOT AVAILABLE", "ST_FIPS": "41", "OWNER": "GOVERNMENT - LOCAL", "TTL_STAFF": -999, "BEDS": 19, "TRAUMA": "NOT AVAILABLE", "HELIPAD": "N" }, "geometry": { "type": "Polygon", "coordinates": [ [ [ -124.415613500000021, 43.003728 ], [ -124.42634750000002, 43.0235033 ], [ -124.4335908, 43.083475199999974 ], [ -124.433669399999985, 43.085307400000012 ], [ -124.4336737, 43.086154400000041 ], [ -124.43335, 43.113463899999978 ], [ -124.4326852, 43.116131199999984 ], [ -124.3908769, 43.185417800000018 ], [ -124.3895002, 43.186559199999984 ], [ -124.389081, 43.186687 ], [ -124.3443084, 43.193908799999981 ], [ -124.3417333, 43.193879200000019 ], [ -124.303515, 43.108768 ], [ -124.415613500000021, 43.003728 ] ] ] } },
{ "type": "Feature", "properties": { "OBJECTID": 6226, "ID": "0002683213", "NAME": "LOST RIVERS MEDICAL CENTER", "ADDRESS": "551 HIGHLAND DRIVE", "CITY": "ARCO", "STATE": "ID", "ZIP": "83213", "ZIP4": "NOT AVAILABLE", "TELEPHONE": "(208) 527-8206", "TYPE": "GENERAL ACUTE CARE", "STATUS": "OPEN", "POPULATION": 14, "COUNTY": "BUTTE", "COUNTYFIPS": "16023", "COUNTRY": "USA", "LATITUDE": 43.639574812, "LONGITUDE": -113.295232872, "NAICS_CODE": "622110", "NAICS_DESC": "GENERAL MEDICAL AND SURGICAL HOSPITALS", "SOURCE": "http://healthandwelfare.idaho.gov/Portals/0/Medical/LicensingCertification/AlphaHospital.pdf", "SOURCEDATE": "2018-08-09T00:00:00.000Z", "VAL_METHOD": "IMAGERY", "VAL_DATE": "2013-11-12T00:00:00.000Z", "WEBSITE": "http://www.lostrivershospital.com", "STATE_ID": "NOT AVAILABLE", "ALT_NAME": "NOT AVAILABLE", "ST_FIPS": "16", "OWNER": "GOVERNMENT - DISTRICT/AUTHORITY", "TTL_STAFF": -999, "BEDS": 14, "TRAUMA": "NOT AVAILABLE", "HELIPAD": "Y" }, "geometry": { "type": "Polygon", "coordinates": [ [ [ -113.276602, 43.581581 ], [ -113.415649, 43.583989 ], [ -113.366207, 43.69627 ], [ -113.353622, 43.710776 ], [ -113.351683, 43.710777 ], [ -113.1659808, 43.606982500000015 ], [ -113.276602, 43.581581 ] ] ] } },
{ "type": "Feature", "properties": { "OBJECTID": 6232, "ID": "0001883318", "NAME": "CASSIA REGIONAL MEDICAL CENTER", "ADDRESS": "1501 HILAND AVENUE", "CITY": "BURLEY", "STATE": "ID", "ZIP": "83318", "ZIP4": "NOT AVAILABLE", "TELEPHONE": "(208) 678-4444", "TYPE": "GENERAL ACUTE CARE", "STATUS": "OPEN", "POPULATION": 25, "COUNTY": "CASSIA", "COUNTYFIPS": "16031", "COUNTRY": "USA", "LATITUDE": 42.534871047000102, "LONGITUDE": -113.781777494, "NAICS_CODE": "622110", "NAICS_DESC": "GENERAL MEDICAL AND SURGICAL HOSPITALS", "SOURCE": "http://healthandwelfare.idaho.gov/Portals/0/Medical/LicensingCertification/AlphaHospital.pdf", "SOURCEDATE": "2018-08-09T00:00:00.000Z", "VAL_METHOD": "IMAGERY", "VAL_DATE": "2014-02-10T00:00:00.000Z", "WEBSITE": "http://www.cassiaregional.org", "STATE_ID": "NOT AVAILABLE", "ALT_NAME": "NOT AVAILABLE", "ST_FIPS": "16", "OWNER": "NON-PROFIT", "TTL_STAFF": -999, "BEDS": 25, "TRAUMA": "NOT AVAILABLE", "HELIPAD": "Y" }, "geometry": { "type": "Polygon", "coordinates": [ [ [ -113.764, 42.445459 ], [ -113.912361, 42.518879 ], [ -113.907415, 42.535264 ], [ -113.902386, 42.540478 ], [ -113.876431, 42.547415 ], [ -113.7932261, 42.554806100000029 ], [ -113.672696, 42.518046 ], [ -113.679768, 42.511927 ], [ -113.764, 42.445459 ] ] ] } },
{ "type": "Feature", "properties": { "OBJECTID": 6465, "ID": "0005497814", "NAME": "SAINT ALPHONSUS MEDICAL CENTER - BAKER CITY, INC", "ADDRESS": "3325 POCAHONTAS ROAD", "CITY": "BAKER CITY", "STATE": "OR", "ZIP": "97814", "ZIP4": "NOT AVAILABLE", "TELEPHONE": "NOT AVAILABLE", "TYPE": "GENERAL ACUTE CARE", "STATUS": "OPEN", "POPULATION": 65, "COUNTY": "BAKER", "COUNTYFIPS": "41001", "COUNTRY": "USA", "LATITUDE": 44.795151447000102, "LONGITUDE": -117.84712329, "NAICS_CODE": "622110", "NAICS_DESC": "GENERAL MEDICAL AND SURGICAL HOSPITALS", "SOURCE": "https://public.health.oregon.gov/ProviderPartnerResources/HealthcareProvidersFacilities/HealthcareHealthCareRegulationQualityImprovement/Pages/forms.aspx#Hospital", "SOURCEDATE": "2018-08-10T00:00:00.000Z", "VAL_METHOD": "IMAGERY", "VAL_DATE": "2014-03-12T00:00:00.000Z", "WEBSITE": "http://www.saintalphonsus.org/bakercity", "STATE_ID": "14-1469", "ALT_NAME": "NOT AVAILABLE", "ST_FIPS": "41", "OWNER": "NON-PROFIT", "TTL_STAFF": -999, "BEDS": 65, "TRAUMA": "LEVEL IV", "HELIPAD": "Y" }, "geometry": { "type": "Polygon", "coordinates": [ [ [ -117.83931130000002, 44.726853200000022 ], [ -117.850016499999967, 44.726941800000013 ], [ -117.942011800000017, 44.797979899999973 ], [ -117.952401400000014, 44.8142476 ], [ -117.9217151, 44.868645500000035 ], [ -117.9075149, 44.8687576 ], [ -117.793873600000012, 44.861553800000038 ], [ -117.747675, 44.803239 ], [ -117.747927, 44.799663 ], [ -117.8032123, 44.7456562 ], [ -117.83931130000002, 44.726853200000022 ] ] ] } },
{ "type": "Feature", "properties": { "OBJECTID": 6466, "ID": "0004597321", "NAME": "SAMARITAN ALBANY GENERAL HOSPITAL", "ADDRESS": "1046 6TH AVENUE SW", "CITY": "ALBANY", "STATE": "OR", "ZIP": "97321", "ZIP4": "NOT AVAILABLE", "TELEPHONE": "NOT AVAILABLE", "TYPE": "GENERAL ACUTE CARE", "STATUS": "OPEN", "POPULATION": 73, "COUNTY": "LINN", "COUNTYFIPS": "41043", "COUNTRY": "USA", "LATITUDE": 44.631672768000001, "LONGITUDE": -123.116324119, "NAICS_CODE": "622110", "NAICS_DESC": "GENERAL MEDICAL AND SURGICAL HOSPITALS", "SOURCE": "https://public.health.oregon.gov/ProviderPartnerResources/HealthcareProvidersFacilities/HealthcareHealthCareRegulationQualityImprovement/Pages/forms.aspx#Hospital", "SOURCEDATE": "2018-08-10T00:00:00.000Z", "VAL_METHOD": "IMAGERY", "VAL_DATE": "2014-02-10T00:00:00.000Z", "WEBSITE": "www.samhealth.org", "STATE_ID": "14-1459", "ALT_NAME": "NOT AVAILABLE", "ST_FIPS": "41", "OWNER": "NON-PROFIT", "TTL_STAFF": -999, "BEDS": 73, "TRAUMA": "LEVEL III", "HELIPAD": "Y" }, "geometry": { "type": "Polygon", "coordinates": [ [ [ -123.109883499999981, 44.520540399999987 ], [ -123.190888200000018, 44.5701658 ], [ -123.1807359, 44.587568299999987 ], [ -123.153579900000011, 44.615993 ], [ -123.05355, 44.709036600000047 ], [ -122.9822391, 44.62964 ], [ -123.0081238, 44.6032015 ], [ -123.0619987, 44.5485915 ], [ -123.109883499999981, 44.520540399999987 ] ] ] } },
{ "type": "Feature", "properties": { "OBJECTID": 6472, "ID": "0008297754", "NAME": "ST CHARLES PRINEVILLE", "ADDRESS": "384 SE COMBS FLAT ROAD", "CITY": "PRINEVILLE", "STATE": "OR", "ZIP": "97754", "ZIP4": "NOT AVAILABLE", "TELEPHONE": "(541) 447-6254", "TYPE": "GENERAL ACUTE CARE", "STATUS": "OPEN", "POPULATION": -999, "COUNTY": "CROOK", "COUNTYFIPS": "41013", "COUNTRY": "USA", "LATITUDE": 44.2980280680001, "LONGITUDE": -120.82507651500001, "NAICS_CODE": "622110", "NAICS_DESC": "GENERAL MEDICAL AND SURGICAL HOSPITALS", "SOURCE": "https://public.health.oregon.gov/ProviderPartnerResources/HealthcareProvidersFacilities/HealthcareHealthCareRegulationQualityImprovement/Pages/forms.aspx#Hospital", "SOURCEDATE": "2018-08-10T00:00:00.000Z", "VAL_METHOD": "IMAGERY/OTHER", "VAL_DATE": "2016-09-26T00:00:00.000Z", "WEBSITE": "https://www.stcharleshealthcare.org/Our-Locations/Prineville", "STATE_ID": "14-1466", "ALT_NAME": "NOT AVAILABLE", "ST_FIPS": "41", "OWNER": "NON-PROFIT", "TTL_STAFF": -999, "BEDS": -999, "TRAUMA": "LEVEL IV", "HELIPAD": "Y" }, "geometry": { "type": "Polygon", "coordinates": [ [ [ -120.80666, 44.238779 ], [ -120.9257319, 44.262006200000044 ], [ -120.9270085, 44.330449800000018 ], [ -120.9155237, 44.349034 ], [ -120.8466675, 44.362867800000046 ], [ -120.6911059, 44.3137609 ], [ -120.6902967, 44.31110579999995 ], [ -120.80666, 44.238779 ] ] ] } },
{ "type": "Feature", "properties": { "OBJECTID": 6473, "ID": "0132997527", "NAME": "ASANTE THREE RIVERS MEDICAL CENTER", "ADDRESS": "500 SW RAMSEY AVENUE", "CITY": "GRANTS PASS", "STATE": "OR", "ZIP": "97527", "ZIP4": "NOT AVAILABLE", "TELEPHONE": "(541) 472-7000", "TYPE": "GENERAL ACUTE CARE", "STATUS": "OPEN", "POPULATION": 125, "COUNTY": "JOSEPHINE", "COUNTYFIPS": "41033", "COUNTRY": "USA", "LATITUDE": 42.421377884000002, "LONGITUDE": -123.342841171, "NAICS_CODE": "622110", "NAICS_DESC": "GENERAL MEDICAL AND SURGICAL HOSPITALS", "SOURCE": "https://public.health.oregon.gov/ProviderPartnerResources/HealthcareProvidersFacilities/HealthcareHealthCareRegulationQualityImprovement/Pages/forms.aspx#Hospital", "SOURCEDATE": "2018-08-10T00:00:00.000Z", "VAL_METHOD": "IMAGERY/OTHER", "VAL_DATE": "2015-02-13T00:00:00.000Z", "WEBSITE": "http://www.asante.org/", "STATE_ID": "14-1439", "ALT_NAME": "NOT AVAILABLE", "ST_FIPS": "41", "OWNER": "NOT AVAILABLE", "TTL_STAFF": -999, "BEDS": 125, "TRAUMA": "LEVEL IV", "HELIPAD": "N" }, "geometry": { "type": "Polygon", "coordinates": [ [ [ -123.3266616, 42.334406500000021 ], [ -123.3334046, 42.3338973 ], [ -123.479311699999982, 42.38306429999998 ], [ -123.479382700000016, 42.383321700000018 ], [ -123.3878065, 42.499275200000035 ], [ -123.3872808, 42.499799499999959 ], [ -123.3656041, 42.520830100000055 ], [ -123.266672899999989, 42.453873799999982 ], [ -123.228344, 42.419114 ], [ -123.3266616, 42.334406500000021 ] ] ] } },
{ "type": "Feature", "properties": { "OBJECTID": 6478, "ID": "0001983101", "NAME": "SOUTH LINCOLN MEDICAL CENTER", "ADDRESS": "711 ONYX STREET", "CITY": "KEMMERER", "STATE": "WY", "ZIP": "83101", "ZIP4": "NOT AVAILABLE", "TELEPHONE": "(307) 877-4401", "TYPE": "CRITICAL ACCESS", "STATUS": "OPEN", "POPULATION": 16, "COUNTY": "LINCOLN", "COUNTYFIPS": "56023", "COUNTRY": "USA", "LATITUDE": 41.7897080380001, "LONGITUDE": -110.541694401, "NAICS_CODE": "622110", "NAICS_DESC": "GENERAL MEDICAL AND SURGICAL HOSPITALS", "SOURCE": "https://health.wyo.gov/aging/hls/healthcare-facility-directory/", "SOURCEDATE": "2018-08-13T00:00:00.000Z", "VAL_METHOD": "IMAGERY", "VAL_DATE": "2014-03-12T00:00:00.000Z", "WEBSITE": "http://www.southlincolnmedical.com", "STATE_ID": "15186", "ALT_NAME": "NOT AVAILABLE", "ST_FIPS": "56", "OWNER": "GOVERNMENT - DISTRICT/AUTHORITY", "TTL_STAFF": -999, "BEDS": 16, "TRAUMA": "TRF", "HELIPAD": "Y" }, "geometry": { "type": "Polygon", "coordinates": [ [ [ -110.565814591087772, 41.704068923907116 ], [ -110.589447108922329, 41.734536624944568 ], [ -110.604667888943027, 41.790980405096299 ], [ -110.535675617412508, 41.885587917387696 ], [ -110.49173020105917, 41.822926071906458 ], [ -110.485710521224973, 41.752388999149076 ], [ -110.565814591087772, 41.704068923907116 ] ] ] } },
{ "type": "Feature", "properties": { "OBJECTID": 6544, "ID": "0003789703", "NAME": "SIERRA SURGERY HOSPITAL", "ADDRESS": "1400 MEDICAL PKWY", "CITY": "CARSON CITY", "STATE": "NV", "ZIP": "89703", "ZIP4": "NOT AVAILABLE", "TELEPHONE": "(775) 883-1700", "TYPE": "GENERAL ACUTE CARE", "STATUS": "OPEN", "POPULATION": 15, "COUNTY": "CARSON CITY", "COUNTYFIPS": "32510", "COUNTRY": "USA", "LATITUDE": 39.200201545, "LONGITUDE": -119.78419393900001, "NAICS_CODE": "622310", "NAICS_DESC": "SPECIALTY (EXCEPT PSYCHIATRIC AND SUBSTANCE ABUSE) HOSPITALS", "SOURCE": "http://dpbh.nv.gov/Reg/HealthFacilities/Community_Resources/", "SOURCEDATE": "2018-08-09T00:00:00.000Z", "VAL_METHOD": "IMAGERY/OTHER", "VAL_DATE": "2014-03-12T00:00:00.000Z", "WEBSITE": "http://www.carsontahoe.com/sierra-surgery", "STATE_ID": "NOT AVAILABLE", "ALT_NAME": "NOT AVAILABLE", "ST_FIPS": "32", "OWNER": "NON-PROFIT", "TTL_STAFF": -999, "BEDS": 15, "TRAUMA": "NOT AVAILABLE", "HELIPAD": "N" }, "geometry": { "type": "Polygon", "coordinates": [ [ [ -119.770553, 39.11557 ], [ -119.779717, 39.113929 ], [ -119.782249, 39.113914 ], [ -119.805084, 39.157047 ], [ -119.816808, 39.187958 ], [ -119.8198582, 39.20032120000004 ], [ -119.817723, 39.203905 ], [ -119.810533, 39.208646 ], [ -119.7873789, 39.213350900000016 ], [ -119.74205, 39.217643 ], [ -119.6704779, 39.2177539 ], [ -119.663530900000012, 39.215912900000021 ], [ -119.6747152, 39.1989759 ], [ -119.680530300000015, 39.19219 ], [ -119.739104700000013, 39.123834899999977 ], [ -119.7436918, 39.121117 ], [ -119.770553, 39.11557 ] ] ] } },
{ "type": "Feature", "properties": { "OBJECTID": 6859, "ID": "0000297520", "NAME": "ASANTE ASHLAND COMMUNITY HOSPITAL", "ADDRESS": "280 MAPLE STREET", "CITY": "ASHLAND", "STATE": "OR", "ZIP": "97520", "ZIP4": "NOT AVAILABLE", "TELEPHONE": "NOT AVAILABLE", "TYPE": "GENERAL ACUTE CARE", "STATUS": "OPEN", "POPULATION": 41, "COUNTY": "JACKSON", "COUNTYFIPS": "41029", "COUNTRY": "USA", "LATITUDE": 42.2059229340001, "LONGITUDE": -122.72494841300001, "NAICS_CODE": "622110", "NAICS_DESC": "GENERAL MEDICAL AND SURGICAL HOSPITALS", "SOURCE": "https://public.health.oregon.gov/ProviderPartnerResources/HealthcareProvidersFacilities/HealthcareHealthCareRegulationQualityImprovement/Pages/forms.aspx#Hospital", "SOURCEDATE": "2018-08-10T00:00:00.000Z", "VAL_METHOD": "IMAGERY", "VAL_DATE": "2014-02-10T00:00:00.000Z", "WEBSITE": "www.ashlandhospital.org", "STATE_ID": "14-1445", "ALT_NAME": "NOT AVAILABLE", "ST_FIPS": "41", "OWNER": "NON-PROFIT", "TTL_STAFF": -999, "BEDS": 41, "TRAUMA": "LEVEL IV", "HELIPAD": "N" }, "geometry": { "type": "Polygon", "coordinates": [ [ [ -122.6714734, 42.165316699999934 ], [ -122.697275100000013, 42.171109800000025 ], [ -122.70245, 42.173126 ], [ -122.7172452, 42.179478900000028 ], [ -122.7943826, 42.219605 ], [ -122.804002200000014, 42.2273996 ], [ -122.8198292, 42.24256 ], [ -122.824104100000014, 42.2474321 ], [ -122.8271555, 42.28317420000004 ], [ -122.814796499999986, 42.294417399999972 ], [ -122.73334, 42.263617 ], [ -122.698517200000012, 42.2389599 ], [ -122.664830400000014, 42.214748 ], [ -122.649525, 42.178143 ], [ -122.6509105, 42.176862199999967 ], [ -122.66533440000002, 42.168568899999968 ], [ -122.6714734, 42.165316699999934 ] ] ] } },
{ "type": "Feature", "properties": { "OBJECTID": 6860, "ID": "0005797701", "NAME": "ST CHARLES MEDICAL CENTER  BEND", "ADDRESS": "2500 NE NEFF ROAD", "CITY": "BEND", "STATE": "OR", "ZIP": "97701", "ZIP4": "NOT AVAILABLE", "TELEPHONE": "NOT AVAILABLE", "TYPE": "GENERAL ACUTE CARE", "STATUS": "OPEN", "POPULATION": 260, "COUNTY": "DESCHUTES", "COUNTYFIPS": "41017", "COUNTRY": "USA", "LATITUDE": 44.067915041, "LONGITUDE": -121.269134313, "NAICS_CODE": "622110", "NAICS_DESC": "GENERAL MEDICAL AND SURGICAL HOSPITALS", "SOURCE": "https://public.health.oregon.gov/ProviderPartnerResources/HealthcareProvidersFacilities/HealthcareHealthCareRegulationQualityImprovement/Pages/forms.aspx#Hospital", "SOURCEDATE": "2018-08-10T00:00:00.000Z", "VAL_METHOD": "IMAGERY/OTHER", "VAL_DATE": "2014-03-12T00:00:00.000Z", "WEBSITE": "www.stcharleshealthcare.org", "STATE_ID": "14-1457", "ALT_NAME": "NOT AVAILABLE", "ST_FIPS": "41", "OWNER": "NON-PROFIT", "TTL_STAFF": -999, "BEDS": 260, "TRAUMA": "LEVEL II", "HELIPAD": "Y" }, "geometry": { "type": "Polygon", "coordinates": [ [ [ -121.123343100000014, 44.007746499999946 ], [ -121.2416692, 43.9969448 ], [ -121.2616736, 43.995925699999965 ], [ -121.2841634, 43.997120399999964 ], [ -121.3007998, 44.0013159 ], [ -121.3240516, 44.007822499999961 ], [ -121.3332837, 44.018973200000019 ], [ -121.3420511, 44.030936800000021 ], [ -121.355842800000019, 44.053454200000012 ], [ -121.360374, 44.0702178 ], [ -121.3230489, 44.1229076 ], [ -121.2536526, 44.139147199999989 ], [ -121.1563796, 44.0708563 ], [ -121.123343100000014, 44.007746499999946 ] ] ] } },
{ "type": "Feature", "properties": { "OBJECTID": 6861, "ID": "0003497504", "NAME": "PROVIDENCE MEDFORD MEDICAL CENTER", "ADDRESS": "1111 CRATER LAKE AVENUE", "CITY": "MEDFORD", "STATE": "OR", "ZIP": "97504", "ZIP4": "NOT AVAILABLE", "TELEPHONE": "NOT AVAILABLE", "TYPE": "GENERAL ACUTE CARE", "STATUS": "OPEN", "POPULATION": 126, "COUNTY": "JACKSON", "COUNTYFIPS": "41029", "COUNTRY": "USA", "LATITUDE": 42.3396248970001, "LONGITUDE": -122.86271984699999, "NAICS_CODE": "622110", "NAICS_DESC": "GENERAL MEDICAL AND SURGICAL HOSPITALS", "SOURCE": "https://public.health.oregon.gov/ProviderPartnerResources/HealthcareProvidersFacilities/HealthcareHealthCareRegulationQualityImprovement/Pages/forms.aspx#Hospital", "SOURCEDATE": "2018-08-10T00:00:00.000Z", "VAL_METHOD": "IMAGERY/OTHER", "VAL_DATE": "2014-03-12T00:00:00.000Z", "WEBSITE": "http://oregon.providence.org/patients/facilities/providence-medford-medical-center/Pages/contactusindex.aspx", "STATE_ID": "14-0734", "ALT_NAME": "NOT AVAILABLE", "ST_FIPS": "41", "OWNER": "NON-PROFIT", "TTL_STAFF": -999, "BEDS": 126, "TRAUMA": "LEVEL III", "HELIPAD": "Y" }, "geometry": { "type": "Polygon", "coordinates": [ [ [ -122.7773964, 42.248364 ], [ -122.894007, 42.278114 ], [ -122.906342, 42.28291 ], [ -122.9668016, 42.3139414 ], [ -122.9673436, 42.314872 ], [ -122.96787, 42.315828 ], [ -122.968742600000013, 42.317893399999974 ], [ -122.9577223, 42.420885300000016 ], [ -122.8403509, 42.436865300000029 ], [ -122.8313373, 42.4244803 ], [ -122.802795, 42.385166 ], [ -122.765774800000017, 42.330530399999986 ], [ -122.7773964, 42.248364 ] ] ] } },
{ "type": "Feature", "properties": { "OBJECTID": 6862, "ID": "0001497720", "NAME": "HARNEY DISTRICT HOSPITAL", "ADDRESS": "557 W WASHINGTON STREET", "CITY": "BURNS", "STATE": "OR", "ZIP": "97720", "ZIP4": "NOT AVAILABLE", "TELEPHONE": "NOT AVAILABLE", "TYPE": "CRITICAL ACCESS", "STATUS": "OPEN", "POPULATION": 22, "COUNTY": "HARNEY", "COUNTYFIPS": "41025", "COUNTRY": "USA", "LATITUDE": 43.588207498000003, "LONGITUDE": -119.06072358900001, "NAICS_CODE": "622110", "NAICS_DESC": "GENERAL MEDICAL AND SURGICAL HOSPITALS", "SOURCE": "https://public.health.oregon.gov/ProviderPartnerResources/HealthcareProvidersFacilities/HealthcareHealthCareRegulationQualityImprovement/Pages/forms.aspx#Hospital", "SOURCEDATE": "2018-08-10T00:00:00.000Z", "VAL_METHOD": "IMAGERY", "VAL_DATE": "2013-11-11T00:00:00.000Z", "WEBSITE": "www.harneydh.com", "STATE_ID": "14-0704", "ALT_NAME": "NOT AVAILABLE", "ST_FIPS": "41", "OWNER": "GOVERNMENT - DISTRICT/AUTHORITY", "TTL_STAFF": -999, "BEDS": 22, "TRAUMA": "LEVEL IV", "HELIPAD": "N" }, "geometry": { "type": "Polygon", "coordinates": [ [ [ -119.0202593, 43.497351600000052 ], [ -119.136748899999986, 43.5118206 ], [ -119.1071105, 43.608224599999957 ], [ -119.078464, 43.627555 ], [ -119.0662825, 43.63473249999997 ], [ -119.0151497, 43.64116970000002 ], [ -118.922258900000017, 43.614036800000044 ], [ -118.94065209999998, 43.5552398 ], [ -119.0202593, 43.497351600000052 ] ] ] } },
{ "type": "Feature", "properties": { "OBJECTID": 6866, "ID": "0001097444", "NAME": "CURRY GENERAL HOSPITAL", "ADDRESS": "94220 FOURTH STREET", "CITY": "GOLD BEACH", "STATE": "OR", "ZIP": "97444", "ZIP4": "NOT AVAILABLE", "TELEPHONE": "NOT AVAILABLE", "TYPE": "CRITICAL ACCESS", "STATUS": "OPEN", "POPULATION": 24, "COUNTY": "CURRY", "COUNTYFIPS": "41015", "COUNTRY": "USA", "LATITUDE": 42.411319387, "LONGITUDE": -124.418524465, "NAICS_CODE": "622110", "NAICS_DESC": "GENERAL MEDICAL AND SURGICAL HOSPITALS", "SOURCE": "https://public.health.oregon.gov/ProviderPartnerResources/HealthcareProvidersFacilities/HealthcareHealthCareRegulationQualityImprovement/Pages/forms.aspx#Hospital", "SOURCEDATE": "2018-08-10T00:00:00.000Z", "VAL_METHOD": "IMAGERY/OTHER", "VAL_DATE": "2013-11-11T00:00:00.000Z", "WEBSITE": "http://www.curryhealthnetwork.com/getpage.php?name=Curry_General_Hospital&sub=Locations/CG.htm", "STATE_ID": "14-0251", "ALT_NAME": "NOT AVAILABLE", "ST_FIPS": "41", "OWNER": "GOVERNMENT - DISTRICT/AUTHORITY", "TTL_STAFF": -999, "BEDS": 24, "TRAUMA": "LEVEL IV", "HELIPAD": "N" }, "geometry": { "type": "Polygon", "coordinates": [ [ [ -124.4144728, 42.330828100000041 ], [ -124.4200236, 42.332737799999975 ], [ -124.4340324, 42.439430299999948 ], [ -124.4339188, 42.439954500000049 ], [ -124.419105, 42.491636 ], [ -124.4141143, 42.493041500000047 ], [ -124.3587486, 42.465812700000029 ], [ -124.357599, 42.4597 ], [ -124.356448, 42.445933 ], [ -124.35727, 42.438629 ], [ -124.3795796, 42.358069799999974 ], [ -124.4144728, 42.330828100000041 ] ] ] } },
{ "type": "Feature", "properties": { "OBJECTID": 6867, "ID": "0000397420", "NAME": "BAY AREA HOSPITAL", "ADDRESS": "1775 THOMPSON ROAD", "CITY": "COOS BAY", "STATE": "OR", "ZIP": "97420", "ZIP4": "NOT AVAILABLE", "TELEPHONE": "NOT AVAILABLE", "TYPE": "GENERAL ACUTE CARE", "STATUS": "OPEN", "POPULATION": 172, "COUNTY": "COOS", "COUNTYFIPS": "41011", "COUNTRY": "USA", "LATITUDE": 43.3834065080001, "LONGITUDE": -124.232995297, "NAICS_CODE": "622110", "NAICS_DESC": "GENERAL MEDICAL AND SURGICAL HOSPITALS", "SOURCE": "https://public.health.oregon.gov/ProviderPartnerResources/HealthcareProvidersFacilities/HealthcareHealthCareRegulationQualityImprovement/Pages/forms.aspx#Hospital", "SOURCEDATE": "2018-08-10T00:00:00.000Z", "VAL_METHOD": "IMAGERY", "VAL_DATE": "2013-11-11T00:00:00.000Z", "WEBSITE": "www.bayareahospital.org", "STATE_ID": "14-1024", "ALT_NAME": "NOT AVAILABLE", "ST_FIPS": "41", "OWNER": "GOVERNMENT - DISTRICT/AUTHORITY", "TTL_STAFF": -999, "BEDS": 172, "TRAUMA": "LEVEL III", "HELIPAD": "Y" }, "geometry": { "type": "Polygon", "coordinates": [ [ [ -124.1996627, 43.3339174 ], [ -124.2215409, 43.332402299999956 ], [ -124.2338598, 43.3345934 ], [ -124.299689500000014, 43.360999599999971 ], [ -124.3004881, 43.361823200000011 ], [ -124.2942824, 43.374024899999981 ], [ -124.279979, 43.393218800000014 ], [ -124.2793813, 43.393848299999988 ], [ -124.2606797, 43.408870800000038 ], [ -124.256685500000017, 43.411887499999963 ], [ -124.2197636, 43.438613 ], [ -124.2191058, 43.438778 ], [ -124.217728, 43.438323500000017 ], [ -124.214138799999986, 43.4339019 ], [ -124.186960700000014, 43.362083699999985 ], [ -124.1879224, 43.359040900000032 ], [ -124.19744369999998, 43.334943900000027 ], [ -124.1996627, 43.3339174 ] ] ] } },
{ "type": "Feature", "properties": { "OBJECTID": 6868, "ID": "0000897423", "NAME": "COQUILLE VALLEY HOSPITAL DISTRICT", "ADDRESS": "940 EAST 5TH STREET", "CITY": "COQUILLE", "STATE": "OR", "ZIP": "97423", "ZIP4": "NOT AVAILABLE", "TELEPHONE": "NOT AVAILABLE", "TYPE": "CRITICAL ACCESS", "STATUS": "OPEN", "POPULATION": 25, "COUNTY": "COOS", "COUNTYFIPS": "41011", "COUNTRY": "USA", "LATITUDE": 43.179442711999997, "LONGITUDE": -124.17938600700001, "NAICS_CODE": "622110", "NAICS_DESC": "GENERAL MEDICAL AND SURGICAL HOSPITALS", "SOURCE": "https://public.health.oregon.gov/ProviderPartnerResources/HealthcareProvidersFacilities/HealthcareHealthCareRegulationQualityImprovement/Pages/forms.aspx#Hospital", "SOURCEDATE": "2018-08-10T00:00:00.000Z", "VAL_METHOD": "IMAGERY/OTHER", "VAL_DATE": "2013-11-11T00:00:00.000Z", "WEBSITE": "www.cvhospital.org", "STATE_ID": "14-0875", "ALT_NAME": "NOT AVAILABLE", "ST_FIPS": "41", "OWNER": "GOVERNMENT - DISTRICT/AUTHORITY", "TTL_STAFF": -999, "BEDS": 25, "TRAUMA": "LEVEL IV", "HELIPAD": "Y" }, "geometry": { "type": "Polygon", "coordinates": [ [ [ -124.139447300000015, 43.081680200000044 ], [ -124.282868, 43.150276 ], [ -124.272714300000018, 43.207164100000014 ], [ -124.264791, 43.221538 ], [ -124.2248641, 43.246077800000016 ], [ -124.137018, 43.216875 ], [ -124.133701, 43.205757 ], [ -124.139447300000015, 43.081680200000044 ] ] ] } },
{ "type": "Feature", "properties": { "OBJECTID": 6869, "ID": "0002497471", "NAME": "MERCY MEDICAL CENTER", "ADDRESS": "2700 NW STEWART PARKWAY", "CITY": "ROSEBURG", "STATE": "OR", "ZIP": "97471", "ZIP4": "NOT AVAILABLE", "TELEPHONE": "NOT AVAILABLE", "TYPE": "GENERAL ACUTE CARE", "STATUS": "OPEN", "POPULATION": 125, "COUNTY": "DOUGLAS", "COUNTYFIPS": "41019", "COUNTRY": "USA", "LATITUDE": 43.241562122000097, "LONGITUDE": -123.366711098, "NAICS_CODE": "622110", "NAICS_DESC": "GENERAL MEDICAL AND SURGICAL HOSPITALS", "SOURCE": "https://public.health.oregon.gov/ProviderPartnerResources/HealthcareProvidersFacilities/HealthcareHealthCareRegulationQualityImprovement/Pages/forms.aspx#Hospital", "SOURCEDATE": "2018-08-10T00:00:00.000Z", "VAL_METHOD": "IMAGERY/OTHER", "VAL_DATE": "2014-03-12T00:00:00.000Z", "WEBSITE": "www.mercyrose.org", "STATE_ID": "14-1133", "ALT_NAME": "NOT AVAILABLE", "ST_FIPS": "41", "OWNER": "NON-PROFIT", "TTL_STAFF": -999, "BEDS": 125, "TRAUMA": "LEVEL III", "HELIPAD": "Y" }, "geometry": { "type": "Polygon", "coordinates": [ [ [ -123.3785749, 43.140805100000016 ], [ -123.387284899999983, 43.1429432 ], [ -123.3892093, 43.143600799999966 ], [ -123.436428, 43.19137 ], [ -123.4690837, 43.2454659 ], [ -123.4691157, 43.2466133 ], [ -123.465122900000011, 43.250534400000014 ], [ -123.329558600000013, 43.367982799999986 ], [ -123.32912420000001, 43.368106900000022 ], [ -123.2692726, 43.215502799999982 ], [ -123.3650358, 43.149971699999988 ], [ -123.3785749, 43.140805100000016 ] ] ] } },
{ "type": "Feature", "properties": { "OBJECTID": 6870, "ID": "0002783350", "NAME": "MINIDOKA MEMORIAL HOSPITAL", "ADDRESS": "1224 8TH STREET", "CITY": "RUPERT", "STATE": "ID", "ZIP": "83350", "ZIP4": "NOT AVAILABLE", "TELEPHONE": "(208) 436-0481", "TYPE": "GENERAL ACUTE CARE", "STATUS": "OPEN", "POPULATION": 25, "COUNTY": "MINIDOKA", "COUNTYFIPS": "16067", "COUNTRY": "USA", "LATITUDE": 42.620397286000099, "LONGITUDE": -113.686096682, "NAICS_CODE": "622110", "NAICS_DESC": "GENERAL MEDICAL AND SURGICAL HOSPITALS", "SOURCE": "http://healthandwelfare.idaho.gov/Portals/0/Medical/LicensingCertification/AlphaHospital.pdf", "SOURCEDATE": "2018-08-09T00:00:00.000Z", "VAL_METHOD": "IMAGERY", "VAL_DATE": "2014-03-12T00:00:00.000Z", "WEBSITE": "http://www.minidokamemorial.com", "STATE_ID": "NOT AVAILABLE", "ALT_NAME": "NOT AVAILABLE", "ST_FIPS": "16", "OWNER": "GOVERNMENT - LOCAL", "TTL_STAFF": -999, "BEDS": 25, "TRAUMA": "NOT AVAILABLE", "HELIPAD": "Y" }, "geometry": { "type": "Polygon", "coordinates": [ [ [ -113.667956, 42.561616 ], [ -113.758334, 42.5507518 ], [ -113.790945, 42.568355 ], [ -113.79161, 42.619511 ], [ -113.724683, 42.666628 ], [ -113.687251, 42.691979 ], [ -113.594082, 42.673323 ], [ -113.5860693, 42.628522100000012 ], [ -113.5857353, 42.619492299999962 ], [ -113.6251931, 42.579868699999977 ], [ -113.667956, 42.561616 ] ] ] } },
{ "type": "Feature", "properties": { "OBJECTID": 6873, "ID": "0002183702", "NAME": "BOISE VA MEDICAL CENTER", "ADDRESS": "500 FORT STREET", "CITY": "BOISE", "STATE": "ID", "ZIP": "83702", "ZIP4": "NOT AVAILABLE", "TELEPHONE": "(208) 422-1000", "TYPE": "MILITARY", "STATUS": "OPEN", "POPULATION": 85, "COUNTY": "ADA", "COUNTYFIPS": "16001", "COUNTRY": "USA", "LATITUDE": 43.6212166460001, "LONGITUDE": -116.19027670200001, "NAICS_CODE": "622110", "NAICS_DESC": "GENERAL MEDICAL AND SURGICAL HOSPITALS", "SOURCE": "https://www.va.gov/directory/guide/allstate.asp", "SOURCEDATE": "2018-09-26T00:00:00.000Z", "VAL_METHOD": "IMAGERY", "VAL_DATE": "2013-11-12T00:00:00.000Z", "WEBSITE": "http://www.boise.va.gov/", "STATE_ID": "NOT AVAILABLE", "ALT_NAME": "NOT AVAILABLE", "ST_FIPS": "16", "OWNER": "GOVERNMENT - FEDERAL", "TTL_STAFF": -999, "BEDS": 85, "TRAUMA": "NOT AVAILABLE", "HELIPAD": "N" }, "geometry": { "type": "Polygon", "coordinates": [ [ [ -116.153766354473078, 43.536516336263894 ], [ -116.166557172832327, 43.539741318163067 ], [ -116.346087647271801, 43.597395655744144 ], [ -116.279471634956593, 43.668634964572 ], [ -116.278843135031664, 43.66875486535141 ], [ -116.268496535104234, 43.669831277602142 ], [ -116.246988228866329, 43.670026099957767 ], [ -116.217385282943283, 43.665701313587107 ], [ -116.174423716057959, 43.658542536299557 ], [ -116.169204103357302, 43.653526838470029 ], [ -116.125845059034546, 43.571612774050024 ], [ -116.129238457829587, 43.566564870232213 ], [ -116.147350551397054, 43.540509645899135 ], [ -116.147799251404606, 43.540036445224409 ], [ -116.153766354473078, 43.536516336263894 ] ] ] } },
{ "type": "Feature", "properties": { "OBJECTID": 6875, "ID": "0003583338", "NAME": "ST. LUKE'S JEROME", "ADDRESS": "709 NORTH LINCOLN STREET", "CITY": "JEROME", "STATE": "ID", "ZIP": "83338", "ZIP4": "NOT AVAILABLE", "TELEPHONE": "(208) 324-4301", "TYPE": "GENERAL ACUTE CARE", "STATUS": "OPEN", "POPULATION": 25, "COUNTY": "JEROME", "COUNTYFIPS": "16053", "COUNTRY": "USA", "LATITUDE": 42.730068578000001, "LONGITUDE": -114.51921423, "NAICS_CODE": "622110", "NAICS_DESC": "GENERAL MEDICAL AND SURGICAL HOSPITALS", "SOURCE": "http://healthandwelfare.idaho.gov/Portals/0/Medical/LicensingCertification/AlphaHospital.pdf", "SOURCEDATE": "2018-08-09T00:00:00.000Z", "VAL_METHOD": "IMAGERY", "VAL_DATE": "2014-03-12T00:00:00.000Z", "WEBSITE": "http://www.stlukesonline.org/jerome/", "STATE_ID": "NOT AVAILABLE", "ALT_NAME": "NOT AVAILABLE", "ST_FIPS": "16", "OWNER": "NON-PROFIT", "TTL_STAFF": -999, "BEDS": 25, "TRAUMA": "NOT AVAILABLE", "HELIPAD": "N" }, "geometry": { "type": "Polygon", "coordinates": [ [ [ -114.4482268, 42.629300099999959 ], [ -114.52033, 42.633201 ], [ -114.52805, 42.634785 ], [ -114.638413, 42.724292 ], [ -114.518777, 42.811041 ], [ -114.4334555, 42.785447 ], [ -114.424723, 42.766184 ], [ -114.418852, 42.75286 ], [ -114.401649, 42.706591 ], [ -114.401736, 42.705875 ], [ -114.401995, 42.704199 ], [ -114.4336214, 42.637537400000049 ], [ -114.4482268, 42.629300099999959 ] ] ] } },
{ "type": "Feature", "properties": { "OBJECTID": 6876, "ID": "0003397914", "NAME": "SAINT ALPHONSUS MEDICAL CENTER - ONTARIO", "ADDRESS": "351 SW 9TH STREET", "CITY": "ONTARIO", "STATE": "OR", "ZIP": "97914", "ZIP4": "NOT AVAILABLE", "TELEPHONE": "(541) 881-7000", "TYPE": "GENERAL ACUTE CARE", "STATUS": "OPEN", "POPULATION": 49, "COUNTY": "MALHEUR", "COUNTYFIPS": "41045", "COUNTRY": "USA", "LATITUDE": 44.025333019000101, "LONGITUDE": -116.977692011, "NAICS_CODE": "622110", "NAICS_DESC": "GENERAL MEDICAL AND SURGICAL HOSPITALS", "SOURCE": "https://public.health.oregon.gov/ProviderPartnerResources/HealthcareProvidersFacilities/HealthcareHealthCareRegulationQualityImprovement/Pages/forms.aspx#Hospital", "SOURCEDATE": "2018-08-10T00:00:00.000Z", "VAL_METHOD": "IMAGERY/OTHER", "VAL_DATE": "2014-03-12T00:00:00.000Z", "WEBSITE": "www.saintalphonsus.org/ontario", "STATE_ID": "14-1470", "ALT_NAME": "NOT AVAILABLE", "ST_FIPS": "41", "OWNER": "NON-PROFIT", "TTL_STAFF": -999, "BEDS": 49, "TRAUMA": "LEVEL IV", "HELIPAD": "Y" }, "geometry": { "type": "Polygon", "coordinates": [ [ [ -117.005900400000016, 43.937944300000041 ], [ -117.08592830000002, 43.988762100000017 ], [ -117.045034699999988, 44.082585100000024 ], [ -117.0199466, 44.097014499999986 ], [ -116.953017200000019, 44.111391700000013 ], [ -116.9353088, 44.025040199999971 ], [ -116.9368227, 44.020716 ], [ -116.954107800000017, 43.983488300000019 ], [ -117.005900400000016, 43.937944300000041 ] ] ] } },
{ "type": "Feature", "properties": { "OBJECTID": 6913, "ID": "0002583221", "NAME": "IDAHO STATE HOSPITAL SOUTH", "ADDRESS": "700 EAST ALICE STREET", "CITY": "BLACKFOOT", "STATE": "ID", "ZIP": "83221", "ZIP4": "NOT AVAILABLE", "TELEPHONE": "(208) 785-1200", "TYPE": "PSYCHIATRIC", "STATUS": "OPEN", "POPULATION": 120, "COUNTY": "BINGHAM", "COUNTYFIPS": "16011", "COUNTRY": "USA", "LATITUDE": 43.187430229, "LONGITUDE": -112.334714425, "NAICS_CODE": "622110", "NAICS_DESC": "GENERAL MEDICAL AND SURGICAL HOSPITALS", "SOURCE": "http://healthandwelfare.idaho.gov/Portals/0/Medical/LicensingCertification/AlphaHospital.pdf", "SOURCEDATE": "2018-08-09T00:00:00.000Z", "VAL_METHOD": "IMAGERY", "VAL_DATE": "2014-02-10T00:00:00.000Z", "WEBSITE": "http://healthandwelfare.idaho.gov", "STATE_ID": "NOT AVAILABLE", "ALT_NAME": "NOT AVAILABLE", "ST_FIPS": "16", "OWNER": "GOVERNMENT - STATE", "TTL_STAFF": -999, "BEDS": 120, "TRAUMA": "NOT AVAILABLE", "HELIPAD": "N" }, "geometry": { "type": "Polygon", "coordinates": [ [ [ -112.3953315, 43.123832499999978 ], [ -112.397884, 43.123806 ], [ -112.4123104, 43.123922599999979 ], [ -112.4166536, 43.129237800000041 ], [ -112.441532, 43.19303 ], [ -112.44247, 43.196876 ], [ -112.447972, 43.237578 ], [ -112.2657496, 43.3077059 ], [ -112.2505715, 43.2540189 ], [ -112.248594, 43.196058100000016 ], [ -112.297124, 43.16447 ], [ -112.3953315, 43.123832499999978 ] ] ] } },
{ "type": "Feature", "properties": { "OBJECTID": 6915, "ID": "0002397477", "NAME": "MCKENZIE-WILLAMETTE MEDICAL CENTER", "ADDRESS": "1460 G STREET", "CITY": "SPRINGFIELD", "STATE": "OR", "ZIP": "97477", "ZIP4": "NOT AVAILABLE", "TELEPHONE": "NOT AVAILABLE", "TYPE": "GENERAL ACUTE CARE", "STATUS": "OPEN", "POPULATION": 113, "COUNTY": "LANE", "COUNTYFIPS": "41039", "COUNTRY": "USA", "LATITUDE": 44.053483682, "LONGITUDE": -123.00369006699999, "NAICS_CODE": "622110", "NAICS_DESC": "GENERAL MEDICAL AND SURGICAL HOSPITALS", "SOURCE": "https://public.health.oregon.gov/ProviderPartnerResources/HealthcareProvidersFacilities/HealthcareHealthCareRegulationQualityImprovement/Pages/forms.aspx#Hospital", "SOURCEDATE": "2018-08-10T00:00:00.000Z", "VAL_METHOD": "IMAGERY/OTHER", "VAL_DATE": "2014-03-12T00:00:00.000Z", "WEBSITE": "www.mckweb.com", "STATE_ID": "14-0701", "ALT_NAME": "NOT AVAILABLE", "ST_FIPS": "41", "OWNER": "PROPRIETARY", "TTL_STAFF": -999, "BEDS": 113, "TRAUMA": "LEVEL III", "HELIPAD": "Y" }, "geometry": { "type": "Polygon", "coordinates": [ [ [ -122.9039614, 43.9966488 ], [ -123.014170800000016, 43.982016199999947 ], [ -123.092058300000019, 44.020341700000017 ], [ -123.1178145, 44.034044300000012 ], [ -123.127916700000014, 44.039814399999983 ], [ -123.138365399999984, 44.0479464 ], [ -123.1397136, 44.054523700000054 ], [ -123.1335933, 44.097571899999963 ], [ -123.130012399999984, 44.1002899 ], [ -123.0635667, 44.139282800000018 ], [ -123.0570415, 44.139722400000011 ], [ -123.0566303, 44.139722299999967 ], [ -122.9212681, 44.115355899999983 ], [ -122.870878, 44.06881569999998 ], [ -122.8553939, 44.051663 ], [ -122.9039614, 43.9966488 ] ] ] } },
{ "type": "Feature", "properties": { "OBJECTID": 6916, "ID": "0003097439", "NAME": "PEACE HARBOR HOSPITAL", "ADDRESS": "400 9TH STREET", "CITY": "FLORENCE", "STATE": "OR", "ZIP": "97439", "ZIP4": "NOT AVAILABLE", "TELEPHONE": "NOT AVAILABLE", "TYPE": "CRITICAL ACCESS", "STATUS": "OPEN", "POPULATION": 21, "COUNTY": "LANE", "COUNTYFIPS": "41039", "COUNTRY": "USA", "LATITUDE": 43.973141928000103, "LONGITUDE": -124.11747756299999, "NAICS_CODE": "622110", "NAICS_DESC": "GENERAL MEDICAL AND SURGICAL HOSPITALS", "SOURCE": "https://public.health.oregon.gov/ProviderPartnerResources/HealthcareProvidersFacilities/HealthcareHealthCareRegulationQualityImprovement/Pages/forms.aspx#Hospital", "SOURCEDATE": "2018-08-10T00:00:00.000Z", "VAL_METHOD": "IMAGERY", "VAL_DATE": "2014-02-10T00:00:00.000Z", "WEBSITE": "http://www.peacehealth.org/peace-harbor/Pages/default.aspx", "STATE_ID": "14-0711", "ALT_NAME": "NOT AVAILABLE", "ST_FIPS": "41", "OWNER": "NON-PROFIT", "TTL_STAFF": -999, "BEDS": 21, "TRAUMA": "LEVEL IV", "HELIPAD": "N" }, "geometry": { "type": "Polygon", "coordinates": [ [ [ -124.115386099999981, 43.883958300000053 ], [ -124.1165259, 43.8837292 ], [ -124.117605899999987, 43.883678199999977 ], [ -124.1212298, 43.8846817 ], [ -124.136377200000013, 44.0192979 ], [ -124.132427100000015, 44.039121700000031 ], [ -124.1313695, 44.041866 ], [ -124.0981631, 44.0614281 ], [ -124.0062475, 44.00677 ], [ -124.0684731, 43.932560800000047 ], [ -124.082602600000016, 43.915777700000035 ], [ -124.101959500000021, 43.895753300000024 ], [ -124.115386099999981, 43.883958300000053 ] ] ] } },
{ "type": "Feature", "properties": { "OBJECTID": 6917, "ID": "0004397401", "NAME": "SACRED HEART UNIVERSITY DISTRICT", "ADDRESS": "1255 HILYARD STREET", "CITY": "EUGENE", "STATE": "OR", "ZIP": "97401", "ZIP4": "NOT AVAILABLE", "TELEPHONE": "NOT AVAILABLE", "TYPE": "GENERAL ACUTE CARE", "STATUS": "OPEN", "POPULATION": -999, "COUNTY": "LANE", "COUNTYFIPS": "41039", "COUNTRY": "USA", "LATITUDE": 44.046021291000002, "LONGITUDE": -123.081707753, "NAICS_CODE": "622110", "NAICS_DESC": "GENERAL MEDICAL AND SURGICAL HOSPITALS", "SOURCE": "https://public.health.oregon.gov/ProviderPartnerResources/HealthcareProvidersFacilities/HealthcareHealthCareRegulationQualityImprovement/Pages/forms.aspx#Hospital", "SOURCEDATE": "2018-08-10T00:00:00.000Z", "VAL_METHOD": "IMAGERY/OTHER", "VAL_DATE": "2014-02-10T00:00:00.000Z", "WEBSITE": "http://www.peacehealth.org/sacred-heart-university-district/Pages/default.aspx", "STATE_ID": "14-1467", "ALT_NAME": "NOT AVAILABLE", "ST_FIPS": "41", "OWNER": "NON-PROFIT", "TTL_STAFF": -999, "BEDS": -999, "TRAUMA": "LEVEL II", "HELIPAD": "Y" }, "geometry": { "type": "Polygon", "coordinates": [ [ [ -123.012486200000012, 43.967878299999974 ], [ -123.0289484, 43.967865599999975 ], [ -123.0400063, 43.9678675 ], [ -123.067883, 43.970358 ], [ -123.091196, 43.974982 ], [ -123.104142100000018, 43.977899700000016 ], [ -123.1698387, 44.01449420000003 ], [ -123.179943699999981, 44.0212347 ], [ -123.200909699999983, 44.048471499999984 ], [ -123.172772199999983, 44.103851600000013 ], [ -123.13969830000002, 44.1216485 ], [ -123.0570415, 44.139722400000011 ], [ -123.0566303, 44.139722299999967 ], [ -123.050609499999979, 44.137096200000016 ], [ -122.9297176, 44.056196200000024 ], [ -122.925312, 44.0456604 ], [ -122.963364399999989, 43.979408199999973 ], [ -122.964185200000017, 43.978989499999969 ], [ -123.012486200000012, 43.967878299999974 ] ] ] } },
{ "type": "Feature", "properties": { "OBJECTID": 6918, "ID": "0004297477", "NAME": "SACRED HEART MEDICAL CENTER RIVERBEND", "ADDRESS": "3333 RIVERBEND DRIVE", "CITY": "SPRINGFIELD", "STATE": "OR", "ZIP": "97477", "ZIP4": "NOT AVAILABLE", "TELEPHONE": "NOT AVAILABLE", "TYPE": "GENERAL ACUTE CARE", "STATUS": "OPEN", "POPULATION": 383, "COUNTY": "LANE", "COUNTYFIPS": "41039", "COUNTRY": "USA", "LATITUDE": 44.081362120999998, "LONGITUDE": -123.026741714, "NAICS_CODE": "622110", "NAICS_DESC": "GENERAL MEDICAL AND SURGICAL HOSPITALS", "SOURCE": "https://public.health.oregon.gov/ProviderPartnerResources/HealthcareProvidersFacilities/HealthcareHealthCareRegulationQualityImprovement/Pages/forms.aspx#Hospital", "SOURCEDATE": "2018-08-10T00:00:00.000Z", "VAL_METHOD": "IMAGERY", "VAL_DATE": "2014-03-12T00:00:00.000Z", "WEBSITE": "http://www.peacehealth.org/sacred-heart-riverbend/Pages/default.aspx", "STATE_ID": "14-0014", "ALT_NAME": "NOT AVAILABLE", "ST_FIPS": "41", "OWNER": "NON-PROFIT", "TTL_STAFF": -999, "BEDS": 383, "TRAUMA": "LEVEL II", "HELIPAD": "Y" }, "geometry": { "type": "Polygon", "coordinates": [ [ [ -123.0063633, 43.991002500000029 ], [ -123.011710600000015, 43.992528399999969 ], [ -123.081939100000014, 44.016464 ], [ -123.092058300000019, 44.020341700000017 ], [ -123.1178145, 44.034044300000012 ], [ -123.127913, 44.040526600000035 ], [ -123.138365399999984, 44.0479464 ], [ -123.1787907, 44.084569 ], [ -123.172772199999983, 44.103851600000013 ], [ -123.1651397, 44.1157175 ], [ -123.1438927, 44.130259699999982 ], [ -123.0976299, 44.150235599999959 ], [ -123.0719032, 44.1569597 ], [ -123.0674807, 44.15669810000005 ], [ -123.0278027, 44.144018399999979 ], [ -123.014087, 44.136928 ], [ -122.949615200000011, 44.088665099999979 ], [ -122.897545500000021, 44.045753499999975 ], [ -122.9213962, 44.029334599999963 ], [ -122.9968404, 43.993339700000014 ], [ -123.0063633, 43.991002500000029 ] ] ] } },
{ "type": "Feature", "properties": { "OBJECTID": 4105, "ID": "0005997415", "NAME": "SUTTER COAST HOSPITAL", "ADDRESS": "555 5TH STREET, SUITE 2", "CITY": "BROOKINGS", "STATE": "OR", "ZIP": "97415", "ZIP4": "NOT AVAILABLE", "TELEPHONE": "NOT AVAILABLE", "TYPE": "GENERAL ACUTE CARE", "STATUS": "OPEN", "POPULATION": -999, "COUNTY": "CURRY", "COUNTYFIPS": "41015", "COUNTRY": "USA", "LATITUDE": 42.057873215000001, "LONGITUDE": -124.288500332, "NAICS_CODE": "622110", "NAICS_DESC": "GENERAL MEDICAL AND SURGICAL HOSPITALS", "SOURCE": "https://public.health.oregon.gov/ProviderPartnerResources/HealthcareProvidersFacilities/HealthcareHealthCareRegulationQualityImprovement/Pages/forms.aspx#Hospital", "SOURCEDATE": "2018-08-10T00:00:00.000Z", "VAL_METHOD": "IMAGERY/OTHER", "VAL_DATE": "2014-02-12T00:00:00.000Z", "WEBSITE": "www.suttercoast.org/?", "STATE_ID": "14-1463", "ALT_NAME": "NOT AVAILABLE", "ST_FIPS": "41", "OWNER": "NON-PROFIT", "TTL_STAFF": -999, "BEDS": -999, "TRAUMA": "LEVEL IV", "HELIPAD": "N" }, "geometry": { "type": "Polygon", "coordinates": [ [ [ -124.203168036593041, 41.978796344944307 ], [ -124.203439037508943, 41.978753344503346 ], [ -124.298264, 42.052784499999987 ], [ -124.3171596, 42.0707339 ], [ -124.343218900000011, 42.101220100000027 ], [ -124.3463319, 42.106850599999987 ], [ -124.349072400000011, 42.120261 ], [ -124.3535416, 42.146375600000013 ], [ -124.2022687, 42.079925900000021 ], [ -124.202772, 41.992439 ], [ -124.203168036593041, 41.978796344944307 ] ] ] } },
{ "type": "Feature", "properties": { "OBJECTID": 4113, "ID": "0003683301", "NAME": "ST. LUKE'S MAGIC VALLEY MEDICAL CENTER", "ADDRESS": "801 POLE LINE ROAD, 409", "CITY": "TWIN FALLS", "STATE": "ID", "ZIP": "83301", "ZIP4": "NOT AVAILABLE", "TELEPHONE": "(208) 814-1000", "TYPE": "GENERAL ACUTE CARE", "STATUS": "OPEN", "POPULATION": 224, "COUNTY": "TWIN FALLS", "COUNTYFIPS": "16083", "COUNTRY": "USA", "LATITUDE": 42.590315414000003, "LONGITUDE": -114.496333632, "NAICS_CODE": "622110", "NAICS_DESC": "GENERAL MEDICAL AND SURGICAL HOSPITALS", "SOURCE": "http://healthandwelfare.idaho.gov/Portals/0/Medical/LicensingCertification/AlphaHospital.pdf", "SOURCEDATE": "2018-08-09T00:00:00.000Z", "VAL_METHOD": "IMAGERY", "VAL_DATE": "2014-03-12T00:00:00.000Z", "WEBSITE": "http://www.stlukesonline.org", "STATE_ID": "NOT AVAILABLE", "ALT_NAME": "NOT AVAILABLE", "ST_FIPS": "16", "OWNER": "NON-PROFIT", "TTL_STAFF": -999, "BEDS": 224, "TRAUMA": "NOT AVAILABLE", "HELIPAD": "Y" }, "geometry": { "type": "Polygon", "coordinates": [ [ [ -114.4798818, 42.5114925 ], [ -114.5747691, 42.513693899999986 ], [ -114.659226, 42.593607 ], [ -114.56481, 42.62614 ], [ -114.5449483, 42.6277595 ], [ -114.520533, 42.621572 ], [ -114.4267823, 42.596829 ], [ -114.4046978, 42.590544800000046 ], [ -114.378667, 42.577161 ], [ -114.400411, 42.547688 ], [ -114.440639, 42.524873 ], [ -114.460196, 42.516789 ], [ -114.4798818, 42.5114925 ] ] ] } },
{ "type": "Feature", "properties": { "OBJECTID": 4142, "ID": "0005783301", "NAME": "SAWTOOTH BEHAVIORAL HEALTH", "ADDRESS": "650 ADDISON AVE WEST, SUITE 300 B", "CITY": "TWIN FALLS", "STATE": "ID", "ZIP": "83301", "ZIP4": "NOT AVAILABLE", "TELEPHONE": "(208) 736-1050", "TYPE": "PSYCHIATRIC", "STATUS": "OPEN", "POPULATION": 29, "COUNTY": "TWIN FALLS", "COUNTYFIPS": "16083", "COUNTRY": "USA", "LATITUDE": 42.565040303000004, "LONGITUDE": -114.493700996, "NAICS_CODE": "622210", "NAICS_DESC": "PSYCHIATRIC AND SUBSTANCE ABUSE HOSPITALS", "SOURCE": "http://healthandwelfare.idaho.gov/Portals/0/Medical/LicensingCertification/AlphaHospital.pdf", "SOURCEDATE": "2018-08-09T00:00:00.000Z", "VAL_METHOD": "IMAGERY", "VAL_DATE": "2016-04-22T00:00:00.000Z", "WEBSITE": "http://brphealth.com/communities/sawtooth-behavioral-health", "STATE_ID": "NOT AVAILABLE", "ALT_NAME": "NOT AVAILABLE", "ST_FIPS": "16", "OWNER": "PROPRIETARY", "TTL_STAFF": -999, "BEDS": 29, "TRAUMA": "NOT AVAILABLE", "HELIPAD": "Y" }, "geometry": { "type": "Polygon", "coordinates": [ [ [ -114.440803, 42.505158 ], [ -114.480068140459821, 42.499677972254936 ], [ -114.481564141174815, 42.499723972097016 ], [ -114.5747691, 42.513693899999986 ], [ -114.633399, 42.563906 ], [ -114.6325737, 42.574377700000021 ], [ -114.604191, 42.593599 ], [ -114.535056, 42.6187927 ], [ -114.525077, 42.620975 ], [ -114.520533, 42.621572 ], [ -114.4267823, 42.596829 ], [ -114.4046978, 42.590544800000046 ], [ -114.378667, 42.577161 ], [ -114.352007, 42.548107 ], [ -114.3648366, 42.540066200000012 ], [ -114.401546, 42.523104 ], [ -114.440803, 42.505158 ] ] ] } },
{ "type": "Feature", "properties": { "OBJECTID": 4201, "ID": "0113289434", "NAME": "TAHOE PACIFIC HOSPITALS-NORTH", "ADDRESS": "2375 E PRATER WAY, 7TH FLOOR", "CITY": "SPARKS", "STATE": "NV", "ZIP": "89434", "ZIP4": "NOT AVAILABLE", "TELEPHONE": "(775) 355-5600", "TYPE": "LONG TERM CARE", "STATUS": "OPEN", "POPULATION": -999, "COUNTY": "WASHOE", "COUNTYFIPS": "32031", "COUNTRY": "USA", "LATITUDE": 39.541093979000003, "LONGITUDE": -119.69735020100001, "NAICS_CODE": "622310", "NAICS_DESC": "SPECIALTY (EXCEPT PSYCHIATRIC AND SUBSTANCE ABUSE) HOSPITALS", "SOURCE": "http://dpbh.nv.gov/Reg/HealthFacilities/Community_Resources/", "SOURCEDATE": "2018-08-09T00:00:00.000Z", "VAL_METHOD": "IMAGERY/OTHER", "VAL_DATE": "2015-02-10T00:00:00.000Z", "WEBSITE": "http://www.lifecare-hospitals.com/hospital/tahoepacific", "STATE_ID": "663-HOS-31", "ALT_NAME": "NOT AVAILABLE", "ST_FIPS": "32", "OWNER": "NOT AVAILABLE", "TTL_STAFF": -999, "BEDS": -999, "TRAUMA": "NOT AVAILABLE", "HELIPAD": "Y" }, "geometry": { "type": "Polygon", "coordinates": [ [ [ -119.720913, 39.480183 ], [ -119.7529984, 39.476389599999976 ], [ -119.7539908, 39.476353700000033 ], [ -119.763423700000018, 39.476957099999979 ], [ -119.85513880000002, 39.526710099999967 ], [ -119.812613399999989, 39.577464500000012 ], [ -119.7279208, 39.616742699999975 ], [ -119.701255900000021, 39.614805 ], [ -119.6865756, 39.6084592 ], [ -119.608157, 39.530378 ], [ -119.6196384, 39.5171006 ], [ -119.6249365, 39.511724 ], [ -119.720913, 39.480183 ] ] ] } },
{ "type": "Feature", "properties": { "OBJECTID": 4296, "ID": "0113789423", "NAME": "MINDEN FAMILY MEDICINE AND COMPLETE CARE", "ADDRESS": "1649 LUCERNE ST, UNIT A & B", "CITY": "MINDEN", "STATE": "NV", "ZIP": "89423", "ZIP4": "NOT AVAILABLE", "TELEPHONE": "NOT AVAILABLE", "TYPE": "GENERAL ACUTE CARE", "STATUS": "CLOSED", "POPULATION": -999, "COUNTY": "DOUGLAS", "COUNTYFIPS": "32005", "COUNTRY": "USA", "LATITUDE": 38.957807183000099, "LONGITUDE": -119.771923958, "NAICS_CODE": "622110", "NAICS_DESC": "GENERAL MEDICAL AND SURGICAL HOSPITALS", "SOURCE": "http://dpbh.nv.gov/", "SOURCEDATE": "2015-01-07T00:00:00.000Z", "VAL_METHOD": "IMAGERY/OTHER", "VAL_DATE": "2015-02-10T00:00:00.000Z", "WEBSITE": "NOT AVAILABLE", "STATE_ID": "NOT AVAILABLE", "ALT_NAME": "NOT AVAILABLE", "ST_FIPS": "32", "OWNER": "NOT AVAILABLE", "TTL_STAFF": -999, "BEDS": -999, "TRAUMA": "NOT AVAILABLE", "HELIPAD": "N" }, "geometry": { "type": "Polygon", "coordinates": [ [ [ -119.779021, 38.847120100000019 ], [ -119.801486, 38.866745899999962 ], [ -119.8456367, 38.920490900000019 ], [ -119.8486857, 38.929265900000011 ], [ -119.849291, 39.000908600000024 ], [ -119.8487109, 39.005974700000017 ], [ -119.8453695, 39.0138865 ], [ -119.787215100000012, 39.082343600000016 ], [ -119.7789383, 39.0912663 ], [ -119.7739176, 39.093005299999987 ], [ -119.7729476, 39.092997600000047 ], [ -119.7721538, 39.092929699999978 ], [ -119.6975958, 38.975980600000014 ], [ -119.6922405, 38.964881900000023 ], [ -119.6958375, 38.9369621 ], [ -119.70678310000001, 38.906000600000013 ], [ -119.707131, 38.905198 ], [ -119.779021, 38.847120100000019 ] ] ] } },
{ "type": "Feature", "properties": { "OBJECTID": 4326, "ID": "0004183110", "NAME": "STAR VALLEY MEDICAL CENTER", "ADDRESS": "901 ADAMS STREET", "CITY": "AFTON", "STATE": "WY", "ZIP": "83110", "ZIP4": "NOT AVAILABLE", "TELEPHONE": "(307) 885-5800", "TYPE": "CRITICAL ACCESS", "STATUS": "OPEN", "POPULATION": 22, "COUNTY": "LINCOLN", "COUNTYFIPS": "56023", "COUNTRY": "USA", "LATITUDE": 42.7173299190001, "LONGITUDE": -110.93043745600001, "NAICS_CODE": "622110", "NAICS_DESC": "GENERAL MEDICAL AND SURGICAL HOSPITALS", "SOURCE": "https://health.wyo.gov/aging/hls/healthcare-facility-directory/", "SOURCEDATE": "2018-08-13T00:00:00.000Z", "VAL_METHOD": "IMAGERY/OTHER", "VAL_DATE": "2013-12-04T00:00:00.000Z", "WEBSITE": "http://www.svmcwy.org", "STATE_ID": "NOT AVAILABLE", "ALT_NAME": "NOT AVAILABLE", "ST_FIPS": "56", "OWNER": "GOVERNMENT - DISTRICT/AUTHORITY", "TTL_STAFF": -999, "BEDS": 22, "TRAUMA": "CTH", "HELIPAD": "Y" }, "geometry": { "type": "Polygon", "coordinates": [ [ [ -110.9139265, 42.609129600000017 ], [ -110.918762700000016, 42.6130071 ], [ -110.9889647, 42.6719353 ], [ -111.0255306, 42.721641299999987 ], [ -111.0015524, 42.757148299999962 ], [ -110.958207, 42.814935 ], [ -110.9554562, 42.815019900000038 ], [ -110.9293116, 42.8059968 ], [ -110.9228026, 42.793243400000023 ], [ -110.9190331, 42.781776 ], [ -110.9058194, 42.620434699999969 ], [ -110.9139265, 42.609129600000017 ] ] ] } },
{ "type": "Feature", "properties": { "OBJECTID": 4529, "ID": "0001583221", "NAME": "BINGHAM MEMORIAL HOSPITAL", "ADDRESS": "98 POPLAR STREET", "CITY": "BLACKFOOT", "STATE": "ID", "ZIP": "83221", "ZIP4": "NOT AVAILABLE", "TELEPHONE": "(208) 785-4100", "TYPE": "GENERAL ACUTE CARE", "STATUS": "OPEN", "POPULATION": 25, "COUNTY": "BINGHAM", "COUNTYFIPS": "16011", "COUNTRY": "USA", "LATITUDE": 43.193239722999998, "LONGITUDE": -112.346831314, "NAICS_CODE": "622110", "NAICS_DESC": "GENERAL MEDICAL AND SURGICAL HOSPITALS", "SOURCE": "http://healthandwelfare.idaho.gov/Portals/0/Medical/LicensingCertification/AlphaHospital.pdf", "SOURCEDATE": "2018-08-09T00:00:00.000Z", "VAL_METHOD": "IMAGERY", "VAL_DATE": "2014-02-10T00:00:00.000Z", "WEBSITE": "http://www.binghammemorial.org", "STATE_ID": "NOT AVAILABLE", "ALT_NAME": "NOT AVAILABLE", "ST_FIPS": "16", "OWNER": "NON-PROFIT", "TTL_STAFF": -999, "BEDS": 25, "TRAUMA": "NOT AVAILABLE", "HELIPAD": "Y" }, "geometry": { "type": "Polygon", "coordinates": [ [ [ -112.417979, 43.102047300000017 ], [ -112.454978, 43.190465 ], [ -112.4549893, 43.1967729 ], [ -112.45461, 43.233647 ], [ -112.4347621, 43.248067299999981 ], [ -112.2657496, 43.3077059 ], [ -112.2505715, 43.2540189 ], [ -112.258482, 43.196247 ], [ -112.297124, 43.16447 ], [ -112.417979, 43.102047300000017 ] ] ] } },
{ "type": "Feature", "properties": { "OBJECTID": 4563, "ID": "0042796001", "NAME": "SHASTA REGIONAL MEDICAL CENTER", "ADDRESS": "1100 BUTTE STREET", "CITY": "REDDING", "STATE": "CA", "ZIP": "96001", "ZIP4": "NOT AVAILABLE", "TELEPHONE": "NOT AVAILABLE", "TYPE": "GENERAL ACUTE CARE", "STATUS": "OPEN", "POPULATION": 246, "COUNTY": "SHASTA", "COUNTYFIPS": "06089", "COUNTRY": "USA", "LATITUDE": 40.585631821000099, "LONGITUDE": -122.387868316, "NAICS_CODE": "622110", "NAICS_DESC": "GENERAL MEDICAL AND SURGICAL HOSPITALS", "SOURCE": "http://www.oshpd.ca.gov/HID/Facility-Listing.html", "SOURCEDATE": "2018-08-08T00:00:00.000Z", "VAL_METHOD": "IMAGERY", "VAL_DATE": "2014-02-10T00:00:00.000Z", "WEBSITE": "http://www.shastaregional.com", "STATE_ID": "NOT AVAILABLE", "ALT_NAME": "NOT AVAILABLE", "ST_FIPS": "06", "OWNER": "PROPRIETARY", "TTL_STAFF": -999, "BEDS": 246, "TRAUMA": "NOT AVAILABLE", "HELIPAD": "Y" }, "geometry": { "type": "Polygon", "coordinates": [ [ [ -122.298290800000018, 40.458658500000027 ], [ -122.3934, 40.489103899999968 ], [ -122.473991, 40.534663 ], [ -122.476983, 40.537783 ], [ -122.515009, 40.608718 ], [ -122.3350613, 40.70896 ], [ -122.2616294, 40.63299989999998 ], [ -122.219749, 40.553444 ], [ -122.298290800000018, 40.458658500000027 ] ] ] } },
{ "type": "Feature", "properties": { "OBJECTID": 4573, "ID": "0027195521", "NAME": "MAD RIVER COMMUNITY HOSPITAL", "ADDRESS": "3800 JANES ROAD", "CITY": "ARCATA", "STATE": "CA", "ZIP": "95521", "ZIP4": "NOT AVAILABLE", "TELEPHONE": "NOT AVAILABLE", "TYPE": "GENERAL ACUTE CARE", "STATUS": "OPEN", "POPULATION": 78, "COUNTY": "HUMBOLDT", "COUNTYFIPS": "06023", "COUNTRY": "USA", "LATITUDE": 40.896056586, "LONGITUDE": -124.091189222, "NAICS_CODE": "622110", "NAICS_DESC": "GENERAL MEDICAL AND SURGICAL HOSPITALS", "SOURCE": "http://www.oshpd.ca.gov/HID/Facility-Listing.html", "SOURCEDATE": "2018-08-08T00:00:00.000Z", "VAL_METHOD": "IMAGERY", "VAL_DATE": "2014-02-10T00:00:00.000Z", "WEBSITE": "http://www.madriverhospital.com", "STATE_ID": "NOT AVAILABLE", "ALT_NAME": "NOT AVAILABLE", "ST_FIPS": "06", "OWNER": "PROPRIETARY", "TTL_STAFF": -999, "BEDS": 78, "TRAUMA": "NOT AVAILABLE", "HELIPAD": "Y" }, "geometry": { "type": "Polygon", "coordinates": [ [ [ -124.088003, 40.798046 ], [ -124.1196588, 40.8041639 ], [ -124.122287400000019, 40.805244500000022 ], [ -124.166763, 40.847935 ], [ -124.1674425, 40.8513572 ], [ -124.107278946091881, 41.023862731405785 ], [ -123.962495, 40.886999 ], [ -124.088003, 40.798046 ] ] ] } },
{ "type": "Feature", "properties": { "OBJECTID": 4574, "ID": "0041595501", "NAME": "SEMPERVIRENS P.H.F.", "ADDRESS": "720 WOOD STREET", "CITY": "EUREKA", "STATE": "CA", "ZIP": "95501", "ZIP4": "NOT AVAILABLE", "TELEPHONE": "NOT AVAILABLE", "TYPE": "PSYCHIATRIC", "STATUS": "OPEN", "POPULATION": 16, "COUNTY": "HUMBOLDT", "COUNTYFIPS": "06023", "COUNTRY": "USA", "LATITUDE": 40.780716550000101, "LONGITUDE": -124.160600217, "NAICS_CODE": "622210", "NAICS_DESC": "PSYCHIATRIC AND SUBSTANCE ABUSE HOSPITALS", "SOURCE": "http://www.oshpd.ca.gov/HID/Facility-Listing.html", "SOURCEDATE": "2018-08-08T00:00:00.000Z", "VAL_METHOD": "IMAGERY", "VAL_DATE": "2014-02-10T00:00:00.000Z", "WEBSITE": "https://co.humboldt.ca.us/hhs/mhb/", "STATE_ID": "NOT AVAILABLE", "ALT_NAME": "NOT AVAILABLE", "ST_FIPS": "06", "OWNER": "GOVERNMENT - LOCAL", "TTL_STAFF": -999, "BEDS": 16, "TRAUMA": "NOT AVAILABLE", "HELIPAD": "N" }, "geometry": { "type": "Polygon", "coordinates": [ [ [ -124.2078719, 40.705059300000038 ], [ -124.2112292, 40.708190600000016 ], [ -124.2218708, 40.722258499999953 ], [ -124.219963, 40.737796 ], [ -124.19784, 40.808487 ], [ -124.196301, 40.811251 ], [ -124.194108, 40.814596 ], [ -124.1674425, 40.8513572 ], [ -124.1631, 40.857043 ], [ -124.157873, 40.862743 ], [ -124.155942, 40.862189 ], [ -124.072883600000011, 40.835021600000033 ], [ -124.06711, 40.765896 ], [ -124.158376, 40.721015 ], [ -124.2078719, 40.705059300000038 ] ] ] } },
{ "type": "Feature", "properties": { "OBJECTID": 4672, "ID": "0011496122", "NAME": "EASTERN PLUMAS HOSPITAL-PORTOLA CAMPUS", "ADDRESS": "500 1ST STREET", "CITY": "PORTOLA", "STATE": "CA", "ZIP": "96122", "ZIP4": "NOT AVAILABLE", "TELEPHONE": "NOT AVAILABLE", "TYPE": "GENERAL ACUTE CARE", "STATUS": "OPEN", "POPULATION": 36, "COUNTY": "PLUMAS", "COUNTYFIPS": "06063", "COUNTRY": "USA", "LATITUDE": 39.805550518000103, "LONGITUDE": -120.462810128, "NAICS_CODE": "622110", "NAICS_DESC": "GENERAL MEDICAL AND SURGICAL HOSPITALS", "SOURCE": "http://www.oshpd.ca.gov/HID/Facility-Listing.html", "SOURCEDATE": "2018-08-08T00:00:00.000Z", "VAL_METHOD": "IMAGERY/OTHER", "VAL_DATE": "2014-02-10T00:00:00.000Z", "WEBSITE": "http://www.ephc.org", "STATE_ID": "NOT AVAILABLE", "ALT_NAME": "NOT AVAILABLE", "ST_FIPS": "06", "OWNER": "GOVERNMENT - DISTRICT/AUTHORITY", "TTL_STAFF": -999, "BEDS": 36, "TRAUMA": "NOT AVAILABLE", "HELIPAD": "N" }, "geometry": { "type": "Polygon", "coordinates": [ [ [ -120.5106264, 39.757195400000057 ], [ -120.5811203, 39.768333300000045 ], [ -120.580857, 39.774946 ], [ -120.580272, 39.779797 ], [ -120.4950489, 39.867517 ], [ -120.436617, 39.860262 ], [ -120.42478, 39.858725 ], [ -120.316047, 39.813554 ], [ -120.316018700000015, 39.8114673 ], [ -120.449544, 39.770218 ], [ -120.5106264, 39.757195400000057 ] ] ] } },
{ "type": "Feature", "properties": { "OBJECTID": 4673, "ID": "0035195971", "NAME": "PLUMAS DISTRICT HOSPITAL", "ADDRESS": "1065 BUCKS LAKE ROAD", "CITY": "QUINCY", "STATE": "CA", "ZIP": "95971", "ZIP4": "NOT AVAILABLE", "TELEPHONE": "NOT AVAILABLE", "TYPE": "GENERAL ACUTE CARE", "STATUS": "OPEN", "POPULATION": 25, "COUNTY": "PLUMAS", "COUNTYFIPS": "06063", "COUNTRY": "USA", "LATITUDE": 39.9397289630001, "LONGITUDE": -120.961700253, "NAICS_CODE": "622110", "NAICS_DESC": "GENERAL MEDICAL AND SURGICAL HOSPITALS", "SOURCE": "http://www.oshpd.ca.gov/HID/Facility-Listing.html", "SOURCEDATE": "2018-08-08T00:00:00.000Z", "VAL_METHOD": "IMAGERY/OTHER", "VAL_DATE": "2014-02-10T00:00:00.000Z", "WEBSITE": "http://www.pdh.org", "STATE_ID": "NOT AVAILABLE", "ALT_NAME": "NOT AVAILABLE", "ST_FIPS": "06", "OWNER": "GOVERNMENT - DISTRICT/AUTHORITY", "TTL_STAFF": -999, "BEDS": 25, "TRAUMA": "NOT AVAILABLE", "HELIPAD": "Y" }, "geometry": { "type": "Polygon", "coordinates": [ [ [ -120.950625, 39.898472 ], [ -121.062832, 39.938549 ], [ -121.063004, 39.941411 ], [ -121.062885, 39.944774 ], [ -121.058812, 39.950424 ], [ -121.058128, 39.951202 ], [ -120.9609619, 40.006960100000015 ], [ -120.9574853, 40.0050126 ], [ -120.890395, 39.9593573 ], [ -120.852590500000019, 39.933084800000039 ], [ -120.8641432, 39.920665099999987 ], [ -120.950625, 39.898472 ] ] ] } },
{ "type": "Feature", "properties": { "OBJECTID": 4674, "ID": "0041696020", "NAME": "SENECA HEALTHCARE DISTRICT", "ADDRESS": "130 BRENTWOOD DRIVE", "CITY": "CHESTER", "STATE": "CA", "ZIP": "96020", "ZIP4": "NOT AVAILABLE", "TELEPHONE": "NOT AVAILABLE", "TYPE": "GENERAL ACUTE CARE", "STATUS": "OPEN", "POPULATION": 26, "COUNTY": "PLUMAS", "COUNTYFIPS": "06063", "COUNTRY": "USA", "LATITUDE": 40.305762606000002, "LONGITUDE": -121.234767531, "NAICS_CODE": "622110", "NAICS_DESC": "GENERAL MEDICAL AND SURGICAL HOSPITALS", "SOURCE": "http://www.oshpd.ca.gov/HID/Facility-Listing.html", "SOURCEDATE": "2018-08-08T00:00:00.000Z", "VAL_METHOD": "IMAGERY/OTHER", "VAL_DATE": "2013-10-15T00:00:00.000Z", "WEBSITE": "http://www.senecahospital.org", "STATE_ID": "NOT AVAILABLE", "ALT_NAME": "NOT AVAILABLE", "ST_FIPS": "06", "OWNER": "GOVERNMENT - DISTRICT/AUTHORITY", "TTL_STAFF": -999, "BEDS": 26, "TRAUMA": "LEVEL IV", "HELIPAD": "N" }, "geometry": { "type": "Polygon", "coordinates": [ [ [ -121.2099549, 40.221824900000023 ], [ -121.3513881, 40.262268 ], [ -121.235439, 40.320102 ], [ -121.234309, 40.320136 ], [ -121.186424, 40.313203 ], [ -121.1431278, 40.3050688 ], [ -121.1239403, 40.2904564 ], [ -121.2099549, 40.221824900000023 ] ] ] } },
{ "type": "Feature", "properties": { "OBJECTID": 4675, "ID": "0048996160", "NAME": "TAHOE FOREST HOSPITAL", "ADDRESS": "10121 PINE STREET, POB 759", "CITY": "TRUCKEE", "STATE": "CA", "ZIP": "96160", "ZIP4": "NOT AVAILABLE", "TELEPHONE": "NOT AVAILABLE", "TYPE": "GENERAL ACUTE CARE", "STATUS": "OPEN", "POPULATION": 72, "COUNTY": "NEVADA", "COUNTYFIPS": "06057", "COUNTRY": "USA", "LATITUDE": 39.325107381000102, "LONGITUDE": -120.20077331500001, "NAICS_CODE": "622110", "NAICS_DESC": "GENERAL MEDICAL AND SURGICAL HOSPITALS", "SOURCE": "http://www.oshpd.ca.gov/HID/Facility-Listing.html", "SOURCEDATE": "2018-08-08T00:00:00.000Z", "VAL_METHOD": "IMAGERY/OTHER", "VAL_DATE": "2014-02-10T00:00:00.000Z", "WEBSITE": "http://www.tfhd.com", "STATE_ID": "NOT AVAILABLE", "ALT_NAME": "NOT AVAILABLE", "ST_FIPS": "06", "OWNER": "GOVERNMENT - DISTRICT/AUTHORITY", "TTL_STAFF": -999, "BEDS": 72, "TRAUMA": "NOT AVAILABLE", "HELIPAD": "Y" }, "geometry": { "type": "Polygon", "coordinates": [ [ [ -120.173841300000021, 39.3081544 ], [ -120.183468, 39.308694 ], [ -120.288551100000021, 39.315978300000012 ], [ -120.292074699999986, 39.316304300000034 ], [ -120.35448030000002, 39.3347849 ], [ -120.3527939, 39.3375507 ], [ -120.350123, 39.339577800000022 ], [ -120.347612500000011, 39.341004200000029 ], [ -120.195283, 39.402175 ], [ -120.1912876, 39.40289690000003 ], [ -120.186678599999979, 39.403475299999982 ], [ -120.0862199, 39.385087400000039 ], [ -120.0825959, 39.3836003 ], [ -120.0794582, 39.3801167 ], [ -120.0788376, 39.378696399999988 ], [ -120.1234388, 39.3328182 ], [ -120.144996300000017, 39.316909400000014 ], [ -120.171472399999985, 39.308777400000018 ], [ -120.173841300000021, 39.3081544 ] ] ] } },
{ "type": "Feature", "properties": { "OBJECTID": 4760, "ID": "0044896080", "NAME": "ST. ELIZABETH COMMUNITY HOSPITAL", "ADDRESS": "2550 SISTER MARY COLUMBA DRIVE", "CITY": "RED BLUFF", "STATE": "CA", "ZIP": "96080", "ZIP4": "NOT AVAILABLE", "TELEPHONE": "NOT AVAILABLE", "TYPE": "GENERAL ACUTE CARE", "STATUS": "OPEN", "POPULATION": 76, "COUNTY": "TEHAMA", "COUNTYFIPS": "06103", "COUNTRY": "USA", "LATITUDE": 40.148494984000102, "LONGITUDE": -122.219052506, "NAICS_CODE": "622110", "NAICS_DESC": "GENERAL MEDICAL AND SURGICAL HOSPITALS", "SOURCE": "http://www.oshpd.ca.gov/HID/Facility-Listing.html", "SOURCEDATE": "2018-08-08T00:00:00.000Z", "VAL_METHOD": "IMAGERY", "VAL_DATE": "2014-02-10T00:00:00.000Z", "WEBSITE": "http://www.mercy.org", "STATE_ID": "NOT AVAILABLE", "ALT_NAME": "NOT AVAILABLE", "ST_FIPS": "06", "OWNER": "NON-PROFIT", "TTL_STAFF": -999, "BEDS": 76, "TRAUMA": "LEVEL III", "HELIPAD": "Y" }, "geometry": { "type": "Polygon", "coordinates": [ [ [ -122.171388, 40.032989 ], [ -122.2336007, 40.069871900000024 ], [ -122.2945317, 40.1463129 ], [ -122.295886, 40.148348 ], [ -122.302594, 40.223971 ], [ -122.2790381, 40.2968618 ], [ -122.170184, 40.226713 ], [ -122.1501968, 40.201246199999979 ], [ -122.1498807, 40.200540900000036 ], [ -122.134400900000017, 40.145547599999986 ], [ -122.1343372, 40.143804099999954 ], [ -122.1400257, 40.06715920000002 ], [ -122.146814, 40.052519 ], [ -122.171388, 40.032989 ] ] ] } },
{ "type": "Feature", "properties": { "OBJECTID": 4790, "ID": "0047595531", "NAME": "SUTTER COAST HOSPITAL", "ADDRESS": "800 EAST WASHINGTON BOULEVARD", "CITY": "CRESCENT CITY", "STATE": "CA", "ZIP": "95531", "ZIP4": "NOT AVAILABLE", "TELEPHONE": "NOT AVAILABLE", "TYPE": "GENERAL ACUTE CARE", "STATUS": "OPEN", "POPULATION": 49, "COUNTY": "DEL NORTE", "COUNTYFIPS": "06015", "COUNTRY": "USA", "LATITUDE": 41.773726839000098, "LONGITUDE": -124.19412338799999, "NAICS_CODE": "622110", "NAICS_DESC": "GENERAL MEDICAL AND SURGICAL HOSPITALS", "SOURCE": "http://www.oshpd.ca.gov/HID/Facility-Listing.html", "SOURCEDATE": "2018-08-08T00:00:00.000Z", "VAL_METHOD": "IMAGERY", "VAL_DATE": "2014-02-10T00:00:00.000Z", "WEBSITE": "http://www.sutterhealth.org", "STATE_ID": "NOT AVAILABLE", "ALT_NAME": "NOT AVAILABLE", "ST_FIPS": "06", "OWNER": "NON-PROFIT", "TTL_STAFF": -999, "BEDS": 49, "TRAUMA": "LEVEL IV", "HELIPAD": "N" }, "geometry": { "type": "Polygon", "coordinates": [ [ [ -124.139493822653407, 41.723819546797905 ], [ -124.151937710243928, 41.727257510411192 ], [ -124.201642230023481, 41.746266387419901 ], [ -124.210825017227293, 41.750315372937919 ], [ -124.218465032893462, 41.755532422090859 ], [ -124.234989384543354, 41.767790944919433 ], [ -124.252496705090536, 41.782049905163937 ], [ -124.139447377084977, 41.869359093695799 ], [ -124.079184451613116, 41.811532898564984 ], [ -124.078700350734138, 41.81105309397573 ], [ -124.078582350037735, 41.810779191082119 ], [ -124.079218644755386, 41.809341373691602 ], [ -124.081303230314887, 41.80567112835891 ], [ -124.139493822653407, 41.723819546797905 ] ] ] } },
{ "type": "Feature", "properties": { "OBJECTID": 4840, "ID": "0029196001", "NAME": "MERCY MEDICAL CENTER - REDDING", "ADDRESS": "2175 ROSALINE AVENUE", "CITY": "REDDING", "STATE": "CA", "ZIP": "96001", "ZIP4": "NOT AVAILABLE", "TELEPHONE": "NOT AVAILABLE", "TYPE": "GENERAL ACUTE CARE", "STATUS": "OPEN", "POPULATION": 267, "COUNTY": "SHASTA", "COUNTYFIPS": "06089", "COUNTRY": "USA", "LATITUDE": 40.571924983000002, "LONGITUDE": -122.39541056500001, "NAICS_CODE": "622110", "NAICS_DESC": "GENERAL MEDICAL AND SURGICAL HOSPITALS", "SOURCE": "http://www.oshpd.ca.gov/HID/Facility-Listing.html", "SOURCEDATE": "2018-08-08T00:00:00.000Z", "VAL_METHOD": "IMAGERY", "VAL_DATE": "2014-02-10T00:00:00.000Z", "WEBSITE": "http://www.mercymercedcares.org/index.htm", "STATE_ID": "NOT AVAILABLE", "ALT_NAME": "NOT AVAILABLE", "ST_FIPS": "06", "OWNER": "NON-PROFIT", "TTL_STAFF": -999, "BEDS": 267, "TRAUMA": "LEVEL II", "HELIPAD": "Y" }, "geometry": { "type": "Polygon", "coordinates": [ [ [ -122.346359, 40.481126 ], [ -122.357134, 40.480903 ], [ -122.396216, 40.484638 ], [ -122.473991, 40.534663 ], [ -122.50615, 40.604997400000016 ], [ -122.502538, 40.607263 ], [ -122.3522637, 40.6803446 ], [ -122.349947500000013, 40.681045399999974 ], [ -122.2929443, 40.6264046 ], [ -122.251217900000015, 40.561319200000014 ], [ -122.346359, 40.481126 ] ] ] } },
{ "type": "Feature", "properties": { "OBJECTID": 4861, "ID": "0014495501", "NAME": "GENERAL HOSPITAL, THE", "ADDRESS": "2200 HARRISON AVENUE", "CITY": "EUREKA", "STATE": "CA", "ZIP": "95501", "ZIP4": "NOT AVAILABLE", "TELEPHONE": "NOT AVAILABLE", "TYPE": "GENERAL ACUTE CARE", "STATUS": "OPEN", "POPULATION": 15, "COUNTY": "HUMBOLDT", "COUNTYFIPS": "06023", "COUNTRY": "USA", "LATITUDE": 40.788168546000101, "LONGITUDE": -124.140262823, "NAICS_CODE": "622110", "NAICS_DESC": "GENERAL MEDICAL AND SURGICAL HOSPITALS", "SOURCE": "http://www.oshpd.ca.gov/HID/Facility-Listing.html", "SOURCEDATE": "2018-08-08T00:00:00.000Z", "VAL_METHOD": "IMAGERY/OTHER", "VAL_DATE": "2014-02-10T00:00:00.000Z", "WEBSITE": "http://www.stjosepheureka.org", "STATE_ID": "NOT AVAILABLE", "ALT_NAME": "NOT AVAILABLE", "ST_FIPS": "06", "OWNER": "NON-PROFIT", "TTL_STAFF": -999, "BEDS": 15, "TRAUMA": "NOT AVAILABLE", "HELIPAD": "N" }, "geometry": { "type": "Polygon", "coordinates": [ [ [ -124.158376, 40.721015 ], [ -124.2145137, 40.729761 ], [ -124.204324699999987, 40.799056 ], [ -124.194108, 40.814596 ], [ -124.1551318, 40.869515799999988 ], [ -124.152125100000021, 40.872755100000049 ], [ -124.0830156, 40.867321600000011 ], [ -124.061764499999981, 40.8415462 ], [ -124.052636, 40.796935 ], [ -124.0509, 40.75897 ], [ -124.052002, 40.758247 ], [ -124.052094, 40.758208 ], [ -124.158376, 40.721015 ] ] ] } },
{ "type": "Feature", "properties": { "OBJECTID": 4862, "ID": "0014895988", "NAME": "GLENN MEDICAL CENTER", "ADDRESS": "1133 WEST SYCAMORE STREET", "CITY": "WILLOWS", "STATE": "CA", "ZIP": "95988", "ZIP4": "NOT AVAILABLE", "TELEPHONE": "NOT AVAILABLE", "TYPE": "GENERAL ACUTE CARE", "STATUS": "OPEN", "POPULATION": 47, "COUNTY": "GLENN", "COUNTYFIPS": "06021", "COUNTRY": "USA", "LATITUDE": 39.521278668999997, "LONGITUDE": -122.208045387, "NAICS_CODE": "622110", "NAICS_DESC": "GENERAL MEDICAL AND SURGICAL HOSPITALS", "SOURCE": "http://www.oshpd.ca.gov/HID/Facility-Listing.html", "SOURCEDATE": "2018-08-08T00:00:00.000Z", "VAL_METHOD": "IMAGERY/OTHER", "VAL_DATE": "2014-02-10T00:00:00.000Z", "WEBSITE": "http://www.glennmed.org", "STATE_ID": "NOT AVAILABLE", "ALT_NAME": "NOT AVAILABLE", "ST_FIPS": "06", "OWNER": "NON-PROFIT", "TTL_STAFF": -999, "BEDS": 47, "TRAUMA": "NOT AVAILABLE", "HELIPAD": "N" }, "geometry": { "type": "Polygon", "coordinates": [ [ [ -122.182906, 39.407167 ], [ -122.1927984, 39.407108 ], [ -122.2112234, 39.407129 ], [ -122.332972400000017, 39.531975900000013 ], [ -122.2218546, 39.6282946 ], [ -122.197246, 39.638832 ], [ -122.1787629, 39.624046900000018 ], [ -122.088687, 39.525446 ], [ -122.088702, 39.52168 ], [ -122.182906, 39.407167 ] ] ] } },
{ "type": "Feature", "properties": { "OBJECTID": 4863, "ID": "0012796097", "NAME": "FAIRCHILD MEDICAL CENTER", "ADDRESS": "444 BRUCE STREET", "CITY": "YREKA", "STATE": "CA", "ZIP": "96097", "ZIP4": "NOT AVAILABLE", "TELEPHONE": "NOT AVAILABLE", "TYPE": "GENERAL ACUTE CARE", "STATUS": "OPEN", "POPULATION": 28, "COUNTY": "SISKIYOU", "COUNTYFIPS": "06093", "COUNTRY": "USA", "LATITUDE": 41.719373308000101, "LONGITUDE": -122.64571655500001, "NAICS_CODE": "622110", "NAICS_DESC": "GENERAL MEDICAL AND SURGICAL HOSPITALS", "SOURCE": "http://www.oshpd.ca.gov/HID/Facility-Listing.html", "SOURCEDATE": "2018-08-08T00:00:00.000Z", "VAL_METHOD": "IMAGERY/OTHER", "VAL_DATE": "2014-02-10T00:00:00.000Z", "WEBSITE": "http://www.fairchildmed.org", "STATE_ID": "NOT AVAILABLE", "ALT_NAME": "NOT AVAILABLE", "ST_FIPS": "06", "OWNER": "NON-PROFIT", "TTL_STAFF": -999, "BEDS": 28, "TRAUMA": "NOT AVAILABLE", "HELIPAD": "N" }, "geometry": { "type": "Polygon", "coordinates": [ [ [ -122.533466481492496, 41.643542175982411 ], [ -122.594766302557971, 41.648504764304981 ], [ -122.625559179569052, 41.656212563300585 ], [ -122.716544900984275, 41.679457957540137 ], [ -122.690502690976416, 41.721333382265932 ], [ -122.624764267275708, 41.784360883689807 ], [ -122.599288985101666, 41.776316317301244 ], [ -122.592411998991338, 41.772367044852565 ], [ -122.564195588498833, 41.728956100736838 ], [ -122.549623817741065, 41.705620167494601 ], [ -122.53068044821525, 41.647225201372756 ], [ -122.533466481492496, 41.643542175982411 ] ] ] } },
{ "type": "Feature", "properties": { "OBJECTID": 4864, "ID": "0029296067", "NAME": "MERCY MEDICAL CENTER MT. SHASTA", "ADDRESS": "914 PINE STREET, BOX 239", "CITY": "MOUNT SHASTA", "STATE": "CA", "ZIP": "96067", "ZIP4": "NOT AVAILABLE", "TELEPHONE": "NOT AVAILABLE", "TYPE": "GENERAL ACUTE CARE", "STATUS": "OPEN", "POPULATION": 33, "COUNTY": "SISKIYOU", "COUNTYFIPS": "06093", "COUNTRY": "USA", "LATITUDE": 41.318657379000101, "LONGITUDE": -122.321125689, "NAICS_CODE": "622110", "NAICS_DESC": "GENERAL MEDICAL AND SURGICAL HOSPITALS", "SOURCE": "http://www.oshpd.ca.gov/HID/Facility-Listing.html", "SOURCEDATE": "2018-08-08T00:00:00.000Z", "VAL_METHOD": "IMAGERY", "VAL_DATE": "2014-02-10T00:00:00.000Z", "WEBSITE": "http://www.mercymtshasta.org", "STATE_ID": "NOT AVAILABLE", "ALT_NAME": "NOT AVAILABLE", "ST_FIPS": "06", "OWNER": "NON-PROFIT", "TTL_STAFF": -999, "BEDS": 33, "TRAUMA": "LEVEL III", "HELIPAD": "Y" }, "geometry": { "type": "Polygon", "coordinates": [ [ [ -122.274851002901883, 41.218551785967691 ], [ -122.349517240004218, 41.27220413663165 ], [ -122.349923641809269, 41.272990136672242 ], [ -122.389959043508725, 41.364065941854832 ], [ -122.390546829782991, 41.393738158755014 ], [ -122.382938162641693, 41.419012194404054 ], [ -122.300027317097616, 41.3578329933598 ], [ -122.230591713538132, 41.265221579301574 ], [ -122.230457714554134, 41.264853579320615 ], [ -122.274851002901883, 41.218551785967691 ] ] ] } },
{ "type": "Feature", "properties": { "OBJECTID": 11, "ID": "0030696101", "NAME": "MODOC MEDICAL CENTER", "ADDRESS": "228 MC DOWELL STREET", "CITY": "ALTURAS", "STATE": "CA", "ZIP": "96101", "ZIP4": "NOT AVAILABLE", "TELEPHONE": "NOT AVAILABLE", "TYPE": "GENERAL ACUTE CARE", "STATUS": "OPEN", "POPULATION": 87, "COUNTY": "MODOC", "COUNTYFIPS": "06049", "COUNTRY": "USA", "LATITUDE": 41.4800562550001, "LONGITUDE": -120.54574398699999, "NAICS_CODE": "622110", "NAICS_DESC": "GENERAL MEDICAL AND SURGICAL HOSPITALS", "SOURCE": "http://www.oshpd.ca.gov/HID/Facility-Listing.html", "SOURCEDATE": "2018-08-08T00:00:00.000Z", "VAL_METHOD": "IMAGERY/OTHER", "VAL_DATE": "2014-02-10T00:00:00.000Z", "WEBSITE": "http://www.modocmedicalcenter.org", "STATE_ID": "NOT AVAILABLE", "ALT_NAME": "NOT AVAILABLE", "ST_FIPS": "06", "OWNER": "GOVERNMENT - LOCAL", "TTL_STAFF": -999, "BEDS": 87, "TRAUMA": "NOT AVAILABLE", "HELIPAD": "Y" }, "geometry": { "type": "Polygon", "coordinates": [ [ [ -120.536924556772078, 41.367609276615802 ], [ -120.640027115150716, 41.486785266175509 ], [ -120.636060055239511, 41.490192276416089 ], [ -120.574441505851169, 41.520511245304419 ], [ -120.526768188876858, 41.538146186576029 ], [ -120.47764408172192, 41.528941164917647 ], [ -120.473006094901706, 41.525765162577663 ], [ -120.464156075041657, 41.502416267818091 ], [ -120.472540424982725, 41.463211300429464 ], [ -120.536924556772078, 41.367609276615802 ] ] ] } },
{ "type": "Feature", "properties": { "OBJECTID": 61, "ID": "0058796001", "NAME": "RESTPADD PSYCHIATRIC HEALTH FACILITY", "ADDRESS": "2750 EUREKA WAY", "CITY": "REDDING", "STATE": "CA", "ZIP": "96001", "ZIP4": "NOT AVAILABLE", "TELEPHONE": "(530) 262-6700", "TYPE": "PSYCHIATRIC", "STATUS": "OPEN", "POPULATION": 16, "COUNTY": "SHASTA", "COUNTYFIPS": "06089", "COUNTRY": "USA", "LATITUDE": 40.586595392, "LONGITUDE": -122.41197410700001, "NAICS_CODE": "622210", "NAICS_DESC": "PSYCHIATRIC AND SUBSTANCE ABUSE HOSPITALS", "SOURCE": "http://www.oshpd.ca.gov/HID/Facility-Listing.html", "SOURCEDATE": "2018-08-08T00:00:00.000Z", "VAL_METHOD": "IMAGERY/OTHER", "VAL_DATE": "2016-02-11T00:00:00.000Z", "WEBSITE": "http://www.restpadd.com/", "STATE_ID": "NOT AVAILABLE", "ALT_NAME": "NOT AVAILABLE", "ST_FIPS": "06", "OWNER": "PROPRIETARY", "TTL_STAFF": -999, "BEDS": 16, "TRAUMA": "NOT AVAILABLE", "HELIPAD": "N" }, "geometry": { "type": "Polygon", "coordinates": [ [ [ -122.3330815, 40.502027699999964 ], [ -122.33627340000001, 40.502009500000035 ], [ -122.381464, 40.502263200000016 ], [ -122.476073, 40.525902 ], [ -122.479688, 40.530802 ], [ -122.501777, 40.577216 ], [ -122.519699, 40.614859 ], [ -122.5198162, 40.6154707 ], [ -122.3528403, 40.682078899999979 ], [ -122.349947500000013, 40.681045399999974 ], [ -122.2872698, 40.627598199999973 ], [ -122.251217900000015, 40.561319200000014 ], [ -122.3330815, 40.502027699999964 ] ] ] } },
{ "type": "Feature", "properties": { "OBJECTID": 337, "ID": "0000497845", "NAME": "BLUE MOUNTAIN HOSPITAL", "ADDRESS": "170 FORD ROAD", "CITY": "JOHN DAY", "STATE": "OR", "ZIP": "97845", "ZIP4": "NOT AVAILABLE", "TELEPHONE": "NOT AVAILABLE", "TYPE": "CRITICAL ACCESS", "STATUS": "OPEN", "POPULATION": 25, "COUNTY": "GRANT", "COUNTYFIPS": "41023", "COUNTRY": "USA", "LATITUDE": 44.417112715000002, "LONGITUDE": -118.95969148099999, "NAICS_CODE": "622110", "NAICS_DESC": "GENERAL MEDICAL AND SURGICAL HOSPITALS", "SOURCE": "https://public.health.oregon.gov/ProviderPartnerResources/HealthcareProvidersFacilities/HealthcareHealthCareRegulationQualityImprovement/Pages/forms.aspx#Hospital", "SOURCEDATE": "2018-08-10T00:00:00.000Z", "VAL_METHOD": "IMAGERY/OTHER", "VAL_DATE": "2014-02-10T00:00:00.000Z", "WEBSITE": "www.bluemountainhospital.org", "STATE_ID": "14-0703", "ALT_NAME": "NOT AVAILABLE", "ST_FIPS": "41", "OWNER": "NON-PROFIT", "TTL_STAFF": -999, "BEDS": 25, "TRAUMA": "LEVEL IV", "HELIPAD": "Y" }, "geometry": { "type": "Polygon", "coordinates": [ [ [ -118.9480974, 44.341610500000044 ], [ -119.084856300000013, 44.413985800000013 ], [ -119.0855635, 44.416083200000045 ], [ -118.9670348, 44.42783 ], [ -118.837002500000011, 44.432421100000028 ], [ -118.9480974, 44.341610500000044 ] ] ] } },
{ "type": "Feature", "properties": { "OBJECTID": 832, "ID": "0132897741", "NAME": "ST CHARLES - MADRAS", "ADDRESS": "470 NE A STREET", "CITY": "MADRAS", "STATE": "OR", "ZIP": "97741", "ZIP4": "NOT AVAILABLE", "TELEPHONE": "NOT AVAILABLE", "TYPE": "GENERAL ACUTE CARE", "STATUS": "OPEN", "POPULATION": -999, "COUNTY": "JEFFERSON", "COUNTYFIPS": "41031", "COUNTRY": "USA", "LATITUDE": 44.637873733, "LONGITUDE": -121.120725417, "NAICS_CODE": "622110", "NAICS_DESC": "GENERAL MEDICAL AND SURGICAL HOSPITALS", "SOURCE": "https://public.health.oregon.gov/ProviderPartnerResources/HealthcareProvidersFacilities/HealthcareHealthCareRegulationQualityImprovement/Pages/forms.aspx#Hospital", "SOURCEDATE": "2018-08-10T00:00:00.000Z", "VAL_METHOD": "IMAGERY/OTHER", "VAL_DATE": "2015-02-13T00:00:00.000Z", "WEBSITE": "NOT AVAILABLE", "STATE_ID": "14-1473", "ALT_NAME": "NOT AVAILABLE", "ST_FIPS": "41", "OWNER": "NON-PROFIT", "TTL_STAFF": -999, "BEDS": -999, "TRAUMA": "LEVEL IV", "HELIPAD": "Y" }, "geometry": { "type": "Polygon", "coordinates": [ [ [ -121.1756448, 44.534762100000023 ], [ -121.190155300000015, 44.573849599999967 ], [ -121.1951515, 44.591041600000025 ], [ -121.1939385, 44.722931100000011 ], [ -121.1902989, 44.723285599999969 ], [ -121.1534177, 44.722649699999984 ], [ -121.04839250000002, 44.7203601 ], [ -121.0547226, 44.636147899999962 ], [ -121.069615699999986, 44.597725799999957 ], [ -121.115353500000012, 44.556366099999963 ], [ -121.1756448, 44.534762100000023 ] ] ] } },
{ "type": "Feature", "properties": { "OBJECTID": 839, "ID": "0155683702", "NAME": "ST. LUKE'S REHABILITATION", "ADDRESS": "600 N. ROBBINS ROAD", "CITY": "BOISE", "STATE": "ID", "ZIP": "83702", "ZIP4": "NOT AVAILABLE", "TELEPHONE": "(208) 489-4444", "TYPE": "REHABILITATION", "STATUS": "OPEN", "POPULATION": -999, "COUNTY": "ADA", "COUNTYFIPS": "16001", "COUNTRY": "USA", "LATITUDE": 43.615587650000101, "LONGITUDE": -116.191576461, "NAICS_CODE": "622310", "NAICS_DESC": "REHABILITATION HOSPITALS (EXCEPT ALCOHOLISM, DRUG ADDICTION)", "SOURCE": "http://healthandwelfare.idaho.gov/Portals/0/Medical/LicensingCertification/AlphaHospital.pdf", "SOURCEDATE": "2018-08-09T00:00:00.000Z", "VAL_METHOD": "IMAGERY/OTHER", "VAL_DATE": "2015-05-30T00:00:00.000Z", "WEBSITE": "https://www.stlukesonline.org/health-services/service-groups/rehabilitation.", "STATE_ID": "NOT AVAILABLE", "ALT_NAME": "NOT AVAILABLE", "ST_FIPS": "16", "OWNER": "NON-PROFIT", "TTL_STAFF": -999, "BEDS": -999, "TRAUMA": "NOT AVAILABLE", "HELIPAD": "N" }, "geometry": { "type": "Polygon", "coordinates": [ [ [ -116.14002400347276, 43.503724356051826 ], [ -116.35391394798917, 43.597602048788666 ], [ -116.281930137090882, 43.670055662808423 ], [ -116.281827837177786, 43.670133362975015 ], [ -116.279612737298535, 43.670446165655555 ], [ -116.268504937825796, 43.671969279125911 ], [ -116.246988228866329, 43.670026099957767 ], [ -116.214287278986433, 43.665938615477359 ], [ -116.174423716057959, 43.658542536299557 ], [ -116.169204103357302, 43.653526838470029 ], [ -116.120061054307456, 43.573813380831098 ], [ -116.119022349165348, 43.570071782589721 ], [ -116.118516346223316, 43.567822683525094 ], [ -116.14002400347276, 43.503724356051826 ] ] ] } },
{ "type": "Feature", "properties": { "OBJECTID": 840, "ID": "0156083340", "NAME": "ST. LUKE'S WOOD RIVER MEDICAL CENTER", "ADDRESS": "100 HOSPITAL DRIVE", "CITY": "KETCHUM", "STATE": "ID", "ZIP": "83340", "ZIP4": "NOT AVAILABLE", "TELEPHONE": "(208) 727-8800", "TYPE": "SPECIAL", "STATUS": "OPEN", "POPULATION": 25, "COUNTY": "BLAINE", "COUNTYFIPS": "16013", "COUNTRY": "USA", "LATITUDE": 43.64832025, "LONGITUDE": -114.35002103, "NAICS_CODE": "622110", "NAICS_DESC": "GENERAL MEDICAL AND SURGICAL HOSPITALS", "SOURCE": "http://healthandwelfare.idaho.gov/Portals/0/Medical/LicensingCertification/AlphaHospital.pdf", "SOURCEDATE": "2018-08-09T00:00:00.000Z", "VAL_METHOD": "IMAGERY/OTHER", "VAL_DATE": "2015-05-30T00:00:00.000Z", "WEBSITE": "NOT AVAILABLE", "STATE_ID": "NOT AVAILABLE", "ALT_NAME": "NOT AVAILABLE", "ST_FIPS": "16", "OWNER": "NON-PROFIT", "TTL_STAFF": -999, "BEDS": 25, "TRAUMA": "NOT AVAILABLE", "HELIPAD": "Y" }, "geometry": { "type": "Polygon", "coordinates": [ [ [ -114.330086, 43.545683 ], [ -114.390462, 43.592262 ], [ -114.413729, 43.685774 ], [ -114.38632, 43.740532 ], [ -114.384541, 43.742074 ], [ -114.337083, 43.711712 ], [ -114.287632, 43.669948 ], [ -114.321848, 43.568475 ], [ -114.330086, 43.545683 ] ] ] } },
{ "type": "Feature", "properties": { "OBJECTID": 925, "ID": "0005183221", "NAME": "IDAHO DOCTORS HOSPITAL", "ADDRESS": "350 NORTH MERIDIAN ST", "CITY": "BLACKFOOT", "STATE": "ID", "ZIP": "83221", "ZIP4": "NOT AVAILABLE", "TELEPHONE": "(208) 785-2900", "TYPE": "GENERAL ACUTE CARE", "STATUS": "OPEN", "POPULATION": 8, "COUNTY": "BINGHAM", "COUNTYFIPS": "16011", "COUNTRY": "USA", "LATITUDE": 43.196302089, "LONGITUDE": -112.354169572, "NAICS_CODE": "622110", "NAICS_DESC": "GENERAL MEDICAL AND SURGICAL HOSPITALS", "SOURCE": "http://healthandwelfare.idaho.gov/Portals/0/Medical/LicensingCertification/AlphaHospital.pdf", "SOURCEDATE": "2018-08-09T00:00:00.000Z", "VAL_METHOD": "IMAGERY", "VAL_DATE": "2016-04-21T00:00:00.000Z", "WEBSITE": "http://www.binghammemorial.org/idh.html", "STATE_ID": "NOT AVAILABLE", "ALT_NAME": "NOT AVAILABLE", "ST_FIPS": "16", "OWNER": "NON-PROFIT", "TTL_STAFF": -999, "BEDS": 8, "TRAUMA": "NOT AVAILABLE", "HELIPAD": "N" }, "geometry": { "type": "Polygon", "coordinates": [ [ [ -112.417979, 43.102047300000017 ], [ -112.436869, 43.123921300000021 ], [ -112.458736, 43.190466 ], [ -112.46513490000001, 43.252863 ], [ -112.2657496, 43.3077059 ], [ -112.256093, 43.246856 ], [ -112.278175, 43.196301 ], [ -112.297124, 43.16447 ], [ -112.417979, 43.102047300000017 ] ] ] } },
{ "type": "Feature", "properties": { "OBJECTID": 926, "ID": "0005283404", "NAME": "MOUNTAIN VIEW HOSPITAL", "ADDRESS": "2325 CORONADO STREET", "CITY": "IDAHO FALLS", "STATE": "ID", "ZIP": "83404", "ZIP4": "NOT AVAILABLE", "TELEPHONE": "(208) 557-2700", "TYPE": "GENERAL ACUTE CARE", "STATUS": "OPEN", "POPULATION": 43, "COUNTY": "BONNEVILLE", "COUNTYFIPS": "16019", "COUNTRY": "USA", "LATITUDE": 43.474366015000001, "LONGITUDE": -111.987920703, "NAICS_CODE": "622110", "NAICS_DESC": "GENERAL MEDICAL AND SURGICAL HOSPITALS", "SOURCE": "http://healthandwelfare.idaho.gov/Portals/0/Medical/LicensingCertification/AlphaHospital.pdf", "SOURCEDATE": "2018-08-09T00:00:00.000Z", "VAL_METHOD": "IMAGERY", "VAL_DATE": "2016-04-21T00:00:00.000Z", "WEBSITE": "https://www.mountainviewhospital.org/", "STATE_ID": "NOT AVAILABLE", "ALT_NAME": "NOT AVAILABLE", "ST_FIPS": "16", "OWNER": "NON-PROFIT", "TTL_STAFF": -999, "BEDS": 43, "TRAUMA": "NOT AVAILABLE", "HELIPAD": "Y" }, "geometry": { "type": "Polygon", "coordinates": [ [ [ -111.983923, 43.40027 ], [ -112.080744, 43.436722 ], [ -112.085697, 43.439084 ], [ -112.102908, 43.465918 ], [ -112.1028793, 43.467967899999969 ], [ -112.089455, 43.489613100000021 ], [ -112.082883, 43.496696400000054 ], [ -112.063236, 43.51119 ], [ -112.004665, 43.5481902 ], [ -111.983924, 43.55395 ], [ -111.944054, 43.553319 ], [ -111.904099, 43.496637 ], [ -111.902105, 43.478949 ], [ -111.9033014, 43.472450700000032 ], [ -111.9040647, 43.4700296 ], [ -111.915937, 43.451769 ], [ -111.916665, 43.45084 ], [ -111.961931, 43.414058 ], [ -111.983923, 43.40027 ] ] ] } },
{ "type": "Feature", "properties": { "OBJECTID": 927, "ID": "0003183201", "NAME": "PORTNEUF MEDICAL CENTER", "ADDRESS": "777 HOSPITAL WAY", "CITY": "POCATELLO", "STATE": "ID", "ZIP": "83201", "ZIP4": "NOT AVAILABLE", "TELEPHONE": "(208) 239-1000", "TYPE": "GENERAL ACUTE CARE", "STATUS": "OPEN", "POPULATION": 205, "COUNTY": "BANNOCK", "COUNTYFIPS": "16005", "COUNTRY": "USA", "LATITUDE": 42.8738530050001, "LONGITUDE": -112.420762032, "NAICS_CODE": "622110", "NAICS_DESC": "GENERAL MEDICAL AND SURGICAL HOSPITALS", "SOURCE": "http://healthandwelfare.idaho.gov/Portals/0/Medical/LicensingCertification/AlphaHospital.pdf", "SOURCEDATE": "2018-08-09T00:00:00.000Z", "VAL_METHOD": "IMAGERY", "VAL_DATE": "2016-04-21T00:00:00.000Z", "WEBSITE": "http://www.portmed.org", "STATE_ID": "NOT AVAILABLE", "ALT_NAME": "NOT AVAILABLE", "ST_FIPS": "16", "OWNER": "PROPRIETARY", "TTL_STAFF": -999, "BEDS": 205, "TRAUMA": "LEVEL II", "HELIPAD": "Y" }, "geometry": { "type": "Polygon", "coordinates": [ [ [ -112.2614539, 42.797978 ], [ -112.325259200000019, 42.792615 ], [ -112.364291, 42.791113 ], [ -112.3650003, 42.791113 ], [ -112.370747, 42.7918278 ], [ -112.391029, 42.798222 ], [ -112.418988, 42.812079 ], [ -112.489057, 42.859925 ], [ -112.5158344, 42.908248600000029 ], [ -112.5157453, 42.923419500000023 ], [ -112.5157345, 42.925109200000023 ], [ -112.5157114, 42.926873299999961 ], [ -112.509053, 42.934976800000022 ], [ -112.478823, 42.963992200000014 ], [ -112.417061, 43.022179 ], [ -112.4078989, 43.025972 ], [ -112.3976378, 43.022857599999973 ], [ -112.3963475, 43.022104600000013 ], [ -112.261634, 42.799271 ], [ -112.2614539, 42.797978 ] ] ] } },
{ "type": "Feature", "properties": { "OBJECTID": 947, "ID": "0017595542", "NAME": "JEROLD PHELPS COMMUNITY HOSPITAL", "ADDRESS": "733 CEDAR STREET", "CITY": "GARBERVILLE", "STATE": "CA", "ZIP": "95542", "ZIP4": "NOT AVAILABLE", "TELEPHONE": "NOT AVAILABLE", "TYPE": "GENERAL ACUTE CARE", "STATUS": "OPEN", "POPULATION": 17, "COUNTY": "HUMBOLDT", "COUNTYFIPS": "06023", "COUNTRY": "USA", "LATITUDE": 40.101678159000102, "LONGITUDE": -123.792254629, "NAICS_CODE": "622110", "NAICS_DESC": "GENERAL MEDICAL AND SURGICAL HOSPITALS", "SOURCE": "http://www.oshpd.ca.gov/HID/Facility-Listing.html", "SOURCEDATE": "2018-08-08T00:00:00.000Z", "VAL_METHOD": "IMAGERY", "VAL_DATE": "2014-02-10T00:00:00.000Z", "WEBSITE": "http://www.shchd.org", "STATE_ID": "NOT AVAILABLE", "ALT_NAME": "NOT AVAILABLE", "ST_FIPS": "06", "OWNER": "GOVERNMENT - DISTRICT/AUTHORITY", "TTL_STAFF": -999, "BEDS": 17, "TRAUMA": "NOT AVAILABLE", "HELIPAD": "N" }, "geometry": { "type": "Polygon", "coordinates": [ [ [ -123.776975, 40.033336 ], [ -123.7848888, 40.033777600000036 ], [ -123.836252, 40.067571 ], [ -123.862649, 40.129255 ], [ -123.859613, 40.131717 ], [ -123.774482, 40.198319 ], [ -123.772585, 40.198734 ], [ -123.765593, 40.191971 ], [ -123.719938, 40.111645 ], [ -123.760102, 40.051111 ], [ -123.776975, 40.033336 ] ] ] } },
{ "type": "Feature", "properties": { "OBJECTID": 7060, "ID": "0006697828", "NAME": "WALLOWA MEMORIAL HOSPITAL", "ADDRESS": "601 MEDICAL PARKWAY", "CITY": "ENTERPRISE", "STATE": "OR", "ZIP": "97828", "ZIP4": "NOT AVAILABLE", "TELEPHONE": "NOT AVAILABLE", "TYPE": "CRITICAL ACCESS", "STATUS": "OPEN", "POPULATION": 57, "COUNTY": "WALLOWA", "COUNTYFIPS": "41063", "COUNTRY": "USA", "LATITUDE": 45.432365255999997, "LONGITUDE": -117.28446131600001, "NAICS_CODE": "622110", "NAICS_DESC": "GENERAL MEDICAL AND SURGICAL HOSPITALS", "SOURCE": "https://public.health.oregon.gov/ProviderPartnerResources/HealthcareProvidersFacilities/HealthcareHealthCareRegulationQualityImprovement/Pages/forms.aspx#Hospital", "SOURCEDATE": "2018-08-10T00:00:00.000Z", "VAL_METHOD": "IMAGERY", "VAL_DATE": "2013-11-11T00:00:00.000Z", "WEBSITE": "www.wchcd.org", "STATE_ID": "14-0068", "ALT_NAME": "NOT AVAILABLE", "ST_FIPS": "41", "OWNER": "GOVERNMENT - DISTRICT/AUTHORITY", "TTL_STAFF": -999, "BEDS": 57, "TRAUMA": "LEVEL IV", "HELIPAD": "Y" }, "geometry": { "type": "Polygon", "coordinates": [ [ [ -117.229857599999988, 45.3524281 ], [ -117.271019400000014, 45.349899700000016 ], [ -117.2714819, 45.3499036 ], [ -117.356712, 45.407063 ], [ -117.3695443, 45.449926900000044 ], [ -117.328453, 45.470424 ], [ -117.302198, 45.463613 ], [ -117.2593243, 45.4469537 ], [ -117.1888612, 45.411622500000014 ], [ -117.2271665, 45.3543861 ], [ -117.229857599999988, 45.3524281 ] ] ] } },
{ "type": "Feature", "properties": { "OBJECTID": 7072, "ID": "0004997383", "NAME": "SANTIAM HOSPITAL", "ADDRESS": "1401 N 10TH AVENUE", "CITY": "STAYTON", "STATE": "OR", "ZIP": "97383", "ZIP4": "NOT AVAILABLE", "TELEPHONE": "NOT AVAILABLE", "TYPE": "GENERAL ACUTE CARE", "STATUS": "OPEN", "POPULATION": 40, "COUNTY": "MARION", "COUNTYFIPS": "41047", "COUNTRY": "USA", "LATITUDE": 44.805110253000102, "LONGITUDE": -122.784762587, "NAICS_CODE": "622110", "NAICS_DESC": "GENERAL MEDICAL AND SURGICAL HOSPITALS", "SOURCE": "https://public.health.oregon.gov/ProviderPartnerResources/HealthcareProvidersFacilities/HealthcareHealthCareRegulationQualityImprovement/Pages/forms.aspx#Hospital", "SOURCEDATE": "2018-08-10T00:00:00.000Z", "VAL_METHOD": "IMAGERY", "VAL_DATE": "2014-03-12T00:00:00.000Z", "WEBSITE": "santiamhospital.org  santiamhospital.org", "STATE_ID": "14-0709", "ALT_NAME": "NOT AVAILABLE", "ST_FIPS": "41", "OWNER": "NON-PROFIT", "TTL_STAFF": -999, "BEDS": 40, "TRAUMA": "LEVEL IV", "HELIPAD": "Y" }, "geometry": { "type": "Polygon", "coordinates": [ [ [ -122.6554941, 44.786205600000017 ], [ -122.6868809, 44.78239380000003 ], [ -122.8664092, 44.766041 ], [ -122.8787337, 44.767501 ], [ -122.892652500000011, 44.799975 ], [ -122.919827200000014, 44.885255099999966 ], [ -122.9196426, 44.8852799 ], [ -122.799404600000017, 44.890212 ], [ -122.7547642, 44.868211599999981 ], [ -122.6499044, 44.78844 ], [ -122.6554941, 44.786205600000017 ] ] ] } },
{ "type": "Feature", "properties": { "OBJECTID": 7073, "ID": "0003783638", "NAME": "ST. LUKE'S MCCALL", "ADDRESS": "1000 STATE STREET", "CITY": "MCCALL", "STATE": "ID", "ZIP": "83638", "ZIP4": "NOT AVAILABLE", "TELEPHONE": "(208) 634-2221", "TYPE": "GENERAL ACUTE CARE", "STATUS": "OPEN", "POPULATION": 15, "COUNTY": "VALLEY", "COUNTYFIPS": "16085", "COUNTRY": "USA", "LATITUDE": 44.909048129, "LONGITUDE": -116.110139303, "NAICS_CODE": "622110", "NAICS_DESC": "GENERAL MEDICAL AND SURGICAL HOSPITALS", "SOURCE": "http://healthandwelfare.idaho.gov/Portals/0/Medical/LicensingCertification/AlphaHospital.pdf", "SOURCEDATE": "2018-08-09T00:00:00.000Z", "VAL_METHOD": "IMAGERY", "VAL_DATE": "2014-03-12T00:00:00.000Z", "WEBSITE": "http://www.mccallhosp.org", "STATE_ID": "NOT AVAILABLE", "ALT_NAME": "NOT AVAILABLE", "ST_FIPS": "16", "OWNER": "NON-PROFIT", "TTL_STAFF": -999, "BEDS": 15, "TRAUMA": "NOT AVAILABLE", "HELIPAD": "N" }, "geometry": { "type": "Polygon", "coordinates": [ [ [ -116.078125363318776, 44.809162355256021 ], [ -116.160625456205224, 44.876989210415218 ], [ -116.179206490241526, 44.924376138221355 ], [ -116.170788070040004, 44.957948610080223 ], [ -116.165744556412136, 44.970822601775701 ], [ -116.165684056249802, 44.970898501764374 ], [ -116.096489388010085, 44.957074797814336 ], [ -116.055150599657139, 44.944142857353746 ], [ -116.05485169907098, 44.944028657794142 ], [ -116.045355195495915, 44.926759283314702 ], [ -116.039738244389511, 44.872439335086476 ], [ -116.070409342989237, 44.821447350775479 ], [ -116.078125363318776, 44.809162355256021 ] ] ] } },
{ "type": "Feature", "properties": { "OBJECTID": 7074, "ID": "0004383611", "NAME": "CASCADE MEDICAL CENTER", "ADDRESS": "402 OLD STATE HIGHWAY 1330", "CITY": "CASCADE", "STATE": "ID", "ZIP": "83611", "ZIP4": "NOT AVAILABLE", "TELEPHONE": "(208) 382-4242", "TYPE": "GENERAL ACUTE CARE", "STATUS": "OPEN", "POPULATION": 10, "COUNTY": "VALLEY", "COUNTYFIPS": "16085", "COUNTRY": "USA", "LATITUDE": 44.518369877000097, "LONGITUDE": -116.04937908300001, "NAICS_CODE": "622110", "NAICS_DESC": "GENERAL MEDICAL AND SURGICAL HOSPITALS", "SOURCE": "http://healthandwelfare.idaho.gov/Portals/0/Medical/LicensingCertification/AlphaHospital.pdf", "SOURCEDATE": "2018-08-09T00:00:00.000Z", "VAL_METHOD": "IMAGERY/OTHER", "VAL_DATE": "2014-03-12T00:00:00.000Z", "WEBSITE": "http://www.cascademedicalcenter.net", "STATE_ID": "NOT AVAILABLE", "ALT_NAME": "NOT AVAILABLE", "ST_FIPS": "16", "OWNER": "GOVERNMENT - DISTRICT/AUTHORITY", "TTL_STAFF": -999, "BEDS": 10, "TRAUMA": "NOT AVAILABLE", "HELIPAD": "Y" }, "geometry": { "type": "Polygon", "coordinates": [ [ [ -115.999738, 44.411009 ], [ -116.080594099492217, 44.476716912261942 ], [ -116.081582100564489, 44.478851910782303 ], [ -116.063307175061198, 44.600161764053468 ], [ -116.049389197187452, 44.632143719722109 ], [ -116.048320195127602, 44.632102722050078 ], [ -115.967494, 44.518868 ], [ -115.969035, 44.481238 ], [ -115.970673, 44.474655 ], [ -115.979228, 44.446764 ], [ -115.999738, 44.411009 ] ] ] } },
{ "type": "Feature", "properties": { "OBJECTID": 7077, "ID": "0004897365", "NAME": "SAMARITAN PACIFIC COMMUNITIES HOSPITAL", "ADDRESS": "930 SW ABBEY STREET", "CITY": "NEWPORT", "STATE": "OR", "ZIP": "97365", "ZIP4": "NOT AVAILABLE", "TELEPHONE": "NOT AVAILABLE", "TYPE": "CRITICAL ACCESS", "STATUS": "OPEN", "POPULATION": 25, "COUNTY": "LINCOLN", "COUNTYFIPS": "41041", "COUNTRY": "USA", "LATITUDE": 44.6293932, "LONGITUDE": -124.059611456, "NAICS_CODE": "622110", "NAICS_DESC": "GENERAL MEDICAL AND SURGICAL HOSPITALS", "SOURCE": "https://public.health.oregon.gov/ProviderPartnerResources/HealthcareProvidersFacilities/HealthcareHealthCareRegulationQualityImprovement/Pages/forms.aspx#Hospital", "SOURCEDATE": "2018-08-10T00:00:00.000Z", "VAL_METHOD": "IMAGERY/OTHER", "VAL_DATE": "2014-03-12T00:00:00.000Z", "WEBSITE": "www.samhealth.org", "STATE_ID": "14-1460", "ALT_NAME": "NOT AVAILABLE", "ST_FIPS": "41", "OWNER": "NON-PROFIT", "TTL_STAFF": -999, "BEDS": 25, "TRAUMA": "LEVEL IV", "HELIPAD": "Y" }, "geometry": { "type": "Polygon", "coordinates": [ [ [ -124.0699606, 44.52144569999998 ], [ -124.07124730000001, 44.5230027 ], [ -124.074868800000019, 44.530968699999967 ], [ -124.0748625, 44.533332400000042 ], [ -124.0707689, 44.67678 ], [ -124.0705051, 44.677795 ], [ -124.057796900000014, 44.726389900000022 ], [ -124.0556197, 44.728261900000021 ], [ -123.927788, 44.645353 ], [ -123.926337500000017, 44.64399370000001 ], [ -123.9373493, 44.621915200000018 ], [ -124.0699606, 44.52144569999998 ] ] ] } },
{ "type": "Feature", "properties": { "OBJECTID": 7436, "ID": "0155583642", "NAME": "ST. LUKE'S MERIDIAN MEDICAL CENTER", "ADDRESS": "520 S. EAGLE ROAD", "CITY": "MERIDIAN", "STATE": "ID", "ZIP": "83642", "ZIP4": "NOT AVAILABLE", "TELEPHONE": "(208) 706-5000", "TYPE": "SPECIAL", "STATUS": "OPEN", "POPULATION": -999, "COUNTY": "ADA", "COUNTYFIPS": "16001", "COUNTRY": "USA", "LATITUDE": 43.599696516000101, "LONGITUDE": -116.352608292, "NAICS_CODE": "622110", "NAICS_DESC": "GENERAL MEDICAL AND SURGICAL HOSPITALS", "SOURCE": "http://healthandwelfare.idaho.gov/Portals/0/Medical/LicensingCertification/AlphaHospital.pdf", "SOURCEDATE": "2018-08-09T00:00:00.000Z", "VAL_METHOD": "IMAGERY/OTHER", "VAL_DATE": "2015-03-30T00:00:00.000Z", "WEBSITE": "NOT AVAILABLE", "STATE_ID": "NOT AVAILABLE", "ALT_NAME": "NOT AVAILABLE", "ST_FIPS": "16", "OWNER": "NON-PROFIT", "TTL_STAFF": -999, "BEDS": -999, "TRAUMA": "NOT AVAILABLE", "HELIPAD": "N" }, "geometry": { "type": "Polygon", "coordinates": [ [ [ -116.334361520172166, 43.502791316664094 ], [ -116.392024813608586, 43.499699679730774 ], [ -116.393859013565546, 43.499714078595431 ], [ -116.398838017897432, 43.502832376391858 ], [ -116.473680400000021, 43.561200100000022 ], [ -116.4874461, 43.575907799999982 ], [ -116.4935805, 43.601330600000011 ], [ -116.49358580000002, 43.6104533 ], [ -116.443680747309145, 43.662942081280661 ], [ -116.403679387905541, 43.695266935400944 ], [ -116.354023408738755, 43.716171204104782 ], [ -116.233403278290709, 43.644038290239962 ], [ -116.20657322020935, 43.625156300669715 ], [ -116.204954215792824, 43.62319830114739 ], [ -116.203363411436058, 43.621251101648895 ], [ -116.20136060275405, 43.61606310115225 ], [ -116.190954539409944, 43.572856894995354 ], [ -116.192029430642435, 43.564158990474233 ], [ -116.334361520172166, 43.502791316664094 ] ] ] } },
{ "type": "Feature", "properties": { "OBJECTID": 7437, "ID": "0155483712", "NAME": "ST. LUKE'S REGIONAL MEDICAL CENTER", "ADDRESS": "190 EAST BANNOCK STREET", "CITY": "BOISE", "STATE": "ID", "ZIP": "83712", "ZIP4": "NOT AVAILABLE", "TELEPHONE": "(208) 381-2222", "TYPE": "GENERAL ACUTE CARE", "STATUS": "OPEN", "POPULATION": 604, "COUNTY": "ADA", "COUNTYFIPS": "16001", "COUNTRY": "USA", "LATITUDE": 43.612565384000099, "LONGITUDE": -116.192449186, "NAICS_CODE": "622110", "NAICS_DESC": "GENERAL MEDICAL AND SURGICAL HOSPITALS", "SOURCE": "http://healthandwelfare.idaho.gov/Portals/0/Medical/LicensingCertification/AlphaHospital.pdf", "SOURCEDATE": "2018-08-09T00:00:00.000Z", "VAL_METHOD": "IMAGERY/OTHER", "VAL_DATE": "2015-03-30T00:00:00.000Z", "WEBSITE": "NOT AVAILABLE", "STATE_ID": "NOT AVAILABLE", "ALT_NAME": "NOT AVAILABLE", "ST_FIPS": "16", "OWNER": "NON-PROFIT", "TTL_STAFF": -999, "BEDS": 604, "TRAUMA": "NOT AVAILABLE", "HELIPAD": "Y" }, "geometry": { "type": "Polygon", "coordinates": [ [ [ -116.14002400347276, 43.503724356051826 ], [ -116.346087647271801, 43.597395655744144 ], [ -116.279471634956593, 43.668634964572 ], [ -116.278843135031664, 43.66875486535141 ], [ -116.268496535104234, 43.669831277602142 ], [ -116.246988228866329, 43.670026099957767 ], [ -116.217385282943283, 43.665701313587107 ], [ -116.190073539255977, 43.660242627209591 ], [ -116.174267413894356, 43.65681333596919 ], [ -116.119381758288611, 43.578447581035007 ], [ -116.115026945310575, 43.571022087356326 ], [ -116.114906041167416, 43.567141388139866 ], [ -116.14002400347276, 43.503724356051826 ] ] ] } },
{ "type": "Feature", "properties": { "OBJECTID": 7523, "ID": "0005683704", "NAME": "SAFE HAVEN HOSPITAL OF TREASURE VALLEY", "ADDRESS": "8050 NORTHVIEW STREET", "CITY": "BOISE", "STATE": "ID", "ZIP": "83704", "ZIP4": "NOT AVAILABLE", "TELEPHONE": "(208) 327-0504", "TYPE": "PSYCHIATRIC", "STATUS": "OPEN", "POPULATION": 16, "COUNTY": "ADA", "COUNTYFIPS": "16001", "COUNTRY": "USA", "LATITUDE": 43.627181321000101, "LONGITUDE": -116.28246282000001, "NAICS_CODE": "622210", "NAICS_DESC": "PSYCHIATRIC AND SUBSTANCE ABUSE HOSPITALS", "SOURCE": "http://healthandwelfare.idaho.gov/Portals/0/Medical/LicensingCertification/AlphaHospital.pdf", "SOURCEDATE": "2018-08-09T00:00:00.000Z", "VAL_METHOD": "IMAGERY", "VAL_DATE": "2016-04-22T00:00:00.000Z", "WEBSITE": "http://www.safehavenhealthcare.org/", "STATE_ID": "NOT AVAILABLE", "ALT_NAME": "NOT AVAILABLE", "ST_FIPS": "16", "OWNER": "PROPRIETARY", "TTL_STAFF": -999, "BEDS": 16, "TRAUMA": "NOT AVAILABLE", "HELIPAD": "N" }, "geometry": { "type": "Polygon", "coordinates": [ [ [ -116.274179774056279, 43.543251482609179 ], [ -116.354450797446532, 43.560309530921991 ], [ -116.393831319493202, 43.575560405057232 ], [ -116.42577874626447, 43.593563482949392 ], [ -116.386844340453806, 43.6629049433582 ], [ -116.354069771773112, 43.688899291304764 ], [ -116.3204849740453, 43.694296733591443 ], [ -116.268658960508787, 43.689777791715692 ], [ -116.217385282943283, 43.665701313587107 ], [ -116.216829281680916, 43.665283313677641 ], [ -116.18801130066997, 43.629165817830071 ], [ -116.176549964467426, 43.61043432233766 ], [ -116.176824159431035, 43.605679320817664 ], [ -116.177307151041902, 43.597738318212919 ], [ -116.187069132914203, 43.571311299187691 ], [ -116.193278127782463, 43.560402287462715 ], [ -116.225157157163153, 43.553251941777454 ], [ -116.274179774056279, 43.543251482609179 ] ] ] } },
{ "type": "Feature", "properties": { "OBJECTID": 5138, "ID": "0005589451", "NAME": "INCLINE VILLAGE HEALTH CENTER", "ADDRESS": "880 ALDER AVENUE", "CITY": "INCLINE VILLAGE", "STATE": "NV", "ZIP": "89451", "ZIP4": "NOT AVAILABLE", "TELEPHONE": "(775) 833-4100", "TYPE": "GENERAL ACUTE CARE", "STATUS": "OPEN", "POPULATION": 6, "COUNTY": "WASHOE", "COUNTYFIPS": "32031", "COUNTRY": "USA", "LATITUDE": 39.251497502000099, "LONGITUDE": -119.95439402, "NAICS_CODE": "622110", "NAICS_DESC": "GENERAL MEDICAL AND SURGICAL HOSPITALS", "SOURCE": "http://dpbh.nv.gov/Reg/HealthFacilities/Community_Resources/", "SOURCEDATE": "2018-08-09T00:00:00.000Z", "VAL_METHOD": "IMAGERY/OTHER", "VAL_DATE": "2013-11-26T00:00:00.000Z", "WEBSITE": "http://tfhd.com/inclinehospital.asp", "STATE_ID": "646-RUH-27", "ALT_NAME": "NOT AVAILABLE", "ST_FIPS": "32", "OWNER": "GOVERNMENT - DISTRICT/AUTHORITY", "TTL_STAFF": -999, "BEDS": 6, "TRAUMA": "NOT AVAILABLE", "HELIPAD": "N" }, "geometry": { "type": "Polygon", "coordinates": [ [ [ -119.9297902, 39.165477 ], [ -120.009485200000015, 39.223873600000012 ], [ -120.026997399999985, 39.237520600000039 ], [ -120.0269873, 39.238537299999976 ], [ -120.0246192, 39.2401083 ], [ -119.9840766, 39.264207799999973 ], [ -119.970286, 39.271636699999988 ], [ -119.947623799999988, 39.279370799999988 ], [ -119.9460391, 39.279290499999973 ], [ -119.9410309, 39.2778918 ], [ -119.923745199999985, 39.255406299999962 ], [ -119.924576, 39.238866 ], [ -119.9297902, 39.165477 ] ] ] } },
{ "type": "Feature", "properties": { "OBJECTID": 5155, "ID": "0005089447", "NAME": "SOUTH LYON MEDICAL CENTER", "ADDRESS": "213 SOUTH WHITACRE", "CITY": "YERINGTON", "STATE": "NV", "ZIP": "89447", "ZIP4": "NOT AVAILABLE", "TELEPHONE": "(775) 781-3761", "TYPE": "GENERAL ACUTE CARE", "STATUS": "OPEN", "POPULATION": 63, "COUNTY": "LYON", "COUNTYFIPS": "32019", "COUNTRY": "USA", "LATITUDE": 38.984096523000098, "LONGITUDE": -119.167459243, "NAICS_CODE": "622110", "NAICS_DESC": "GENERAL MEDICAL AND SURGICAL HOSPITALS", "SOURCE": "http://dpbh.nv.gov/Reg/HealthFacilities/Community_Resources/", "SOURCEDATE": "2018-08-09T00:00:00.000Z", "VAL_METHOD": "IMAGERY/OTHER", "VAL_DATE": "2014-02-10T00:00:00.000Z", "WEBSITE": "http://www.southlyonmedicalcenter.org", "STATE_ID": "660-RUH-22", "ALT_NAME": "NOT AVAILABLE", "ST_FIPS": "32", "OWNER": "NON-PROFIT", "TTL_STAFF": -999, "BEDS": 63, "TRAUMA": "NOT AVAILABLE", "HELIPAD": "Y" }, "geometry": { "type": "Polygon", "coordinates": [ [ [ -119.154040200000011, 38.8986635 ], [ -119.1908837, 38.903369 ], [ -119.202671, 38.9117097 ], [ -119.22051620000002, 39.026070099999977 ], [ -119.185728, 39.077609 ], [ -119.181148900000011, 39.0797932 ], [ -119.0349432, 39.034235899999977 ], [ -119.0349732, 39.030865099999986 ], [ -119.0515308, 39.012424899999971 ], [ -119.154040200000011, 38.8986635 ] ] ] } },
{ "type": "Feature", "properties": { "OBJECTID": 5219, "ID": "0002297467", "NAME": "LOWER UMPQUA HOSPITAL DISTRICT", "ADDRESS": "600 RANCH ROAD", "CITY": "REEDSPORT", "STATE": "OR", "ZIP": "97467", "ZIP4": "NOT AVAILABLE", "TELEPHONE": "NOT AVAILABLE", "TYPE": "CRITICAL ACCESS", "STATUS": "OPEN", "POPULATION": 16, "COUNTY": "DOUGLAS", "COUNTYFIPS": "41019", "COUNTRY": "USA", "LATITUDE": 43.694589567999998, "LONGITUDE": -124.136301852, "NAICS_CODE": "622110", "NAICS_DESC": "GENERAL MEDICAL AND SURGICAL HOSPITALS", "SOURCE": "https://public.health.oregon.gov/ProviderPartnerResources/HealthcareProvidersFacilities/HealthcareHealthCareRegulationQualityImprovement/Pages/forms.aspx#Hospital", "SOURCEDATE": "2018-08-10T00:00:00.000Z", "VAL_METHOD": "IMAGERY/OTHER", "VAL_DATE": "2014-03-12T00:00:00.000Z", "WEBSITE": "www.lowerrumpquahhospital.com", "STATE_ID": "14-0639", "ALT_NAME": "NOT AVAILABLE", "ST_FIPS": "41", "OWNER": "GOVERNMENT - DISTRICT/AUTHORITY", "TTL_STAFF": -999, "BEDS": 16, "TRAUMA": "LEVEL IV", "HELIPAD": "Y" }, "geometry": { "type": "Polygon", "coordinates": [ [ [ -124.1809914, 43.612773299999979 ], [ -124.20633909999998, 43.662631900000072 ], [ -124.126617, 43.752664 ], [ -124.1262489, 43.752924800000038 ], [ -124.0777834, 43.738834 ], [ -124.039656899999983, 43.695810699999953 ], [ -124.1809914, 43.612773299999979 ] ] ] } },
{ "type": "Feature", "properties": { "OBJECTID": 5220, "ID": "0005897756", "NAME": "ST CHARLES MEDICAL CENTER  REDMOND", "ADDRESS": "1253 N CANAL BLVD", "CITY": "REDMOND", "STATE": "OR", "ZIP": "97756", "ZIP4": "NOT AVAILABLE", "TELEPHONE": "NOT AVAILABLE", "TYPE": "GENERAL ACUTE CARE", "STATUS": "OPEN", "POPULATION": 48, "COUNTY": "DESCHUTES", "COUNTYFIPS": "41017", "COUNTRY": "USA", "LATITUDE": 44.287966767999997, "LONGITUDE": -121.16985501000001, "NAICS_CODE": "622110", "NAICS_DESC": "GENERAL MEDICAL AND SURGICAL HOSPITALS", "SOURCE": "https://public.health.oregon.gov/ProviderPartnerResources/HealthcareProvidersFacilities/HealthcareHealthCareRegulationQualityImprovement/Pages/forms.aspx#Hospital", "SOURCEDATE": "2018-08-10T00:00:00.000Z", "VAL_METHOD": "IMAGERY/OTHER", "VAL_DATE": "2014-02-10T00:00:00.000Z", "WEBSITE": "www.stcharleshealthcare.org", "STATE_ID": "14-1458", "ALT_NAME": "NOT AVAILABLE", "ST_FIPS": "41", "OWNER": "NON-PROFIT", "TTL_STAFF": -999, "BEDS": 48, "TRAUMA": "LEVEL III", "HELIPAD": "Y" }, "geometry": { "type": "Polygon", "coordinates": [ [ [ -121.232344700000013, 44.196189600000032 ], [ -121.2374185, 44.196430600000035 ], [ -121.2961388, 44.2873443 ], [ -121.189933, 44.39076040000004 ], [ -121.178564100000017, 44.390022599999959 ], [ -121.1284185, 44.350545300000014 ], [ -121.1078749, 44.32716910000002 ], [ -121.1081669, 44.262049499999989 ], [ -121.232344700000013, 44.196189600000032 ] ] ] } },
{ "type": "Feature", "properties": { "OBJECTID": 5223, "ID": "0001697630", "NAME": "LAKE DISTRICT HOSPITAL", "ADDRESS": "700 SOUTH J STREET", "CITY": "LAKEVIEW", "STATE": "OR", "ZIP": "97630", "ZIP4": "NOT AVAILABLE", "TELEPHONE": "NOT AVAILABLE", "TYPE": "CRITICAL ACCESS", "STATUS": "OPEN", "POPULATION": 71, "COUNTY": "LAKE", "COUNTYFIPS": "41037", "COUNTRY": "USA", "LATITUDE": 42.181294664000099, "LONGITUDE": -120.352111218, "NAICS_CODE": "622110", "NAICS_DESC": "GENERAL MEDICAL AND SURGICAL HOSPITALS", "SOURCE": "https://public.health.oregon.gov/ProviderPartnerResources/HealthcareProvidersFacilities/HealthcareHealthCareRegulationQualityImprovement/Pages/forms.aspx#Hospital", "SOURCEDATE": "2018-08-10T00:00:00.000Z", "VAL_METHOD": "IMAGERY/OTHER", "VAL_DATE": "2014-03-12T00:00:00.000Z", "WEBSITE": "www.lakehealthdistrict.org", "STATE_ID": "14-0896", "ALT_NAME": "NOT AVAILABLE", "ST_FIPS": "41", "OWNER": "GOVERNMENT - DISTRICT/AUTHORITY", "TTL_STAFF": -999, "BEDS": 71, "TRAUMA": "LEVEL IV", "HELIPAD": "Y" }, "geometry": { "type": "Polygon", "coordinates": [ [ [ -120.3170573, 42.120291900000034 ], [ -120.3366941, 42.120314600000022 ], [ -120.410572, 42.150085 ], [ -120.436760800000016, 42.164476099999987 ], [ -120.4543283, 42.179126599999982 ], [ -120.45432030000002, 42.179844200000048 ], [ -120.4542013, 42.185579200000021 ], [ -120.414694, 42.222541199999981 ], [ -120.360440900000015, 42.256550100000034 ], [ -120.34670220000001, 42.2618332 ], [ -120.297749, 42.205311099999982 ], [ -120.3170573, 42.120291900000034 ] ] ] } },
{ "type": "Feature", "properties": { "OBJECTID": 5224, "ID": "0005297601", "NAME": "SKY LAKES MEDICAL CENTER", "ADDRESS": "2865 DAGGETT AVENUE", "CITY": "KLAMATH FALLS", "STATE": "OR", "ZIP": "97601", "ZIP4": "NOT AVAILABLE", "TELEPHONE": "NOT AVAILABLE", "TYPE": "GENERAL ACUTE CARE", "STATUS": "OPEN", "POPULATION": 98, "COUNTY": "KLAMATH", "COUNTYFIPS": "41035", "COUNTRY": "USA", "LATITUDE": 42.253160655000002, "LONGITUDE": -121.785190767, "NAICS_CODE": "622110", "NAICS_DESC": "GENERAL MEDICAL AND SURGICAL HOSPITALS", "SOURCE": "https://public.health.oregon.gov/ProviderPartnerResources/HealthcareProvidersFacilities/HealthcareHealthCareRegulationQualityImprovement/Pages/forms.aspx#Hospital", "SOURCEDATE": "2018-08-10T00:00:00.000Z", "VAL_METHOD": "IMAGERY", "VAL_DATE": "2014-03-12T00:00:00.000Z", "WEBSITE": "www.skylakes.org", "STATE_ID": "14-0724", "ALT_NAME": "NOT AVAILABLE", "ST_FIPS": "41", "OWNER": "NON-PROFIT", "TTL_STAFF": -999, "BEDS": 98, "TRAUMA": "LEVEL III", "HELIPAD": "Y" }, "geometry": { "type": "Polygon", "coordinates": [ [ [ -121.7571357, 42.173081600000025 ], [ -121.7983575, 42.166172099999976 ], [ -121.8243704, 42.180825100000014 ], [ -121.8458433, 42.24629370000001 ], [ -121.828445, 42.346856599999988 ], [ -121.737617, 42.264555599999987 ], [ -121.7056895, 42.2175198 ], [ -121.7024556, 42.212138099999976 ], [ -121.696270100000021, 42.195826099999955 ], [ -121.697998, 42.192018899999987 ], [ -121.7571357, 42.173081600000025 ] ] ] } },
{ "type": "Feature", "properties": { "OBJECTID": 5238, "ID": "0001397850", "NAME": "GRANDE RONDE HOSPITAL", "ADDRESS": "900 SUNSET DRIVE", "CITY": "LA GRANDE", "STATE": "OR", "ZIP": "97850", "ZIP4": "NOT AVAILABLE", "TELEPHONE": "NOT AVAILABLE", "TYPE": "CRITICAL ACCESS", "STATUS": "OPEN", "POPULATION": 25, "COUNTY": "UNION", "COUNTYFIPS": "41061", "COUNTRY": "USA", "LATITUDE": 45.319427191000003, "LONGITUDE": -118.106070394, "NAICS_CODE": "622110", "NAICS_DESC": "GENERAL MEDICAL AND SURGICAL HOSPITALS", "SOURCE": "https://public.health.oregon.gov/ProviderPartnerResources/HealthcareProvidersFacilities/HealthcareHealthCareRegulationQualityImprovement/Pages/forms.aspx#Hospital", "SOURCEDATE": "2018-08-10T00:00:00.000Z", "VAL_METHOD": "IMAGERY/OTHER", "VAL_DATE": "2014-02-10T00:00:00.000Z", "WEBSITE": "www.grh.org", "STATE_ID": "14-0728", "ALT_NAME": "NOT AVAILABLE", "ST_FIPS": "41", "OWNER": "NON-PROFIT", "TTL_STAFF": -999, "BEDS": 25, "TRAUMA": "LEVEL IV", "HELIPAD": "Y" }, "geometry": { "type": "Polygon", "coordinates": [ [ [ -118.015261600000017, 45.237799 ], [ -118.14114, 45.287739 ], [ -118.2395905, 45.3392446 ], [ -118.2395678, 45.343269899999981 ], [ -118.096911899999981, 45.383524599999973 ], [ -118.002773, 45.3622965 ], [ -117.9948051, 45.3331782 ], [ -117.9960416, 45.282282400000028 ], [ -118.015261600000017, 45.237799 ] ] ] } },
{ "type": "Feature", "properties": { "OBJECTID": 5241, "ID": "0001197330", "NAME": "GOOD SAMARITAN REGIONAL MEDICAL CENTER", "ADDRESS": "3600 NW SAMARITAN DRIVE", "CITY": "CORVALLIS", "STATE": "OR", "ZIP": "97330", "ZIP4": "NOT AVAILABLE", "TELEPHONE": "NOT AVAILABLE", "TYPE": "GENERAL ACUTE CARE", "STATUS": "OPEN", "POPULATION": 164, "COUNTY": "BENTON", "COUNTYFIPS": "41003", "COUNTRY": "USA", "LATITUDE": 44.603222658999996, "LONGITUDE": -123.25262362300001, "NAICS_CODE": "622110", "NAICS_DESC": "GENERAL MEDICAL AND SURGICAL HOSPITALS", "SOURCE": "https://public.health.oregon.gov/ProviderPartnerResources/HealthcareProvidersFacilities/HealthcareHealthCareRegulationQualityImprovement/Pages/forms.aspx#Hospital", "SOURCEDATE": "2018-08-10T00:00:00.000Z", "VAL_METHOD": "IMAGERY/OTHER", "VAL_DATE": "2014-03-12T00:00:00.000Z", "WEBSITE": "http://www.samhealth.org/locations/goodsamaritanregionalmedicalcenter/Pages/default.aspx", "STATE_ID": "14-1074", "ALT_NAME": "NOT AVAILABLE", "ST_FIPS": "41", "OWNER": "NON-PROFIT", "TTL_STAFF": -999, "BEDS": 164, "TRAUMA": "LEVEL II", "HELIPAD": "Y" }, "geometry": { "type": "Polygon", "coordinates": [ [ [ -123.267664, 44.528901 ], [ -123.267782, 44.528905 ], [ -123.311865, 44.545742 ], [ -123.315031799999986, 44.5482989 ], [ -123.3277334, 44.57732 ], [ -123.32268, 44.595323 ], [ -123.2211491, 44.700571 ], [ -123.2194378, 44.699717400000011 ], [ -123.156382, 44.642871 ], [ -123.193817700000011, 44.588694600000018 ], [ -123.215479799999983, 44.5640657 ], [ -123.264269, 44.531073 ], [ -123.267664, 44.528901 ] ] ] } },
{ "type": "Feature", "properties": { "OBJECTID": 5361, "ID": "0132697504", "NAME": "ASANTE ROGUE REGIONAL MEDICAL CENTER", "ADDRESS": "2825 E BARNETT ROAD", "CITY": "MEDFORD", "STATE": "OR", "ZIP": "97504", "ZIP4": "NOT AVAILABLE", "TELEPHONE": "NOT AVAILABLE", "TYPE": "GENERAL ACUTE CARE", "STATUS": "OPEN", "POPULATION": 378, "COUNTY": "JACKSON", "COUNTYFIPS": "41029", "COUNTRY": "USA", "LATITUDE": 42.318067, "LONGITUDE": -122.830801, "NAICS_CODE": "622110", "NAICS_DESC": "GENERAL MEDICAL AND SURGICAL HOSPITALS", "SOURCE": "https://public.health.oregon.gov/ProviderPartnerResources/HealthcareProvidersFacilities/HealthcareHealthCareRegulationQualityImprovement/Pages/forms.aspx#Hospital", "SOURCEDATE": "2018-08-10T00:00:00.000Z", "VAL_METHOD": "IMAGERY/OTHER", "VAL_DATE": "2015-02-13T00:00:00.000Z", "WEBSITE": "http://www.asante.org/", "STATE_ID": "14-0451", "ALT_NAME": "NOT AVAILABLE", "ST_FIPS": "41", "OWNER": "NOT AVAILABLE", "TTL_STAFF": -999, "BEDS": 378, "TRAUMA": "LEVEL II", "HELIPAD": "Y" }, "geometry": { "type": "Polygon", "coordinates": [ [ [ -122.744295, 42.229506899999969 ], [ -122.812737, 42.242514299999982 ], [ -122.8926677, 42.27795840000001 ], [ -122.906335, 42.28469 ], [ -122.9322663, 42.301568699999962 ], [ -122.9350976, 42.323615800000034 ], [ -122.918814, 42.386255 ], [ -122.889527499999986, 42.3893293 ], [ -122.855898899999985, 42.384895 ], [ -122.813741, 42.378304100000015 ], [ -122.765774800000017, 42.330530399999986 ], [ -122.744295, 42.229506899999969 ] ] ] } },
{ "type": "Feature", "properties": { "OBJECTID": 5881, "ID": "0003297754", "NAME": "PIONEER MEMORIAL HOSPITAL", "ADDRESS": "1201 NE ELM STREET", "CITY": "PRINEVILLE", "STATE": "OR", "ZIP": "97754", "ZIP4": "NOT AVAILABLE", "TELEPHONE": "NOT AVAILABLE", "TYPE": "GENERAL ACUTE CARE", "STATUS": "CLOSED", "POPULATION": 25, "COUNTY": "CROOK", "COUNTYFIPS": "41013", "COUNTRY": "USA", "LATITUDE": 44.310316596000099, "LONGITUDE": -120.843374768, "NAICS_CODE": "622110", "NAICS_DESC": "GENERAL MEDICAL AND SURGICAL HOSPITALS", "SOURCE": "https://data.oregon.gov/dataset/Oregon-Hospitals-Map-2008-09-20/urjx-x2zf", "SOURCEDATE": "2012-07-18T00:00:00.000Z", "VAL_METHOD": "IMAGERY", "VAL_DATE": "2014-02-10T00:00:00.000Z", "WEBSITE": "http://www.stcharleshealthcare.org", "STATE_ID": "14-1466", "ALT_NAME": "NOT AVAILABLE", "ST_FIPS": "41", "OWNER": "NON-PROFIT", "TTL_STAFF": -999, "BEDS": 25, "TRAUMA": "LEVEL IV", "HELIPAD": "Y" }, "geometry": { "type": "Polygon", "coordinates": [ [ [ -120.8540273, 44.245352 ], [ -120.9370362, 44.252755399999963 ], [ -120.926877, 44.3630588 ], [ -120.856343599999988, 44.376115 ], [ -120.7000988, 44.307113600000029 ], [ -120.7057991, 44.303317 ], [ -120.8176181, 44.252451499999978 ], [ -120.8540273, 44.245352 ] ] ] } },
{ "type": "Feature", "properties": { "OBJECTID": 3082, "ID": "0000289703", "NAME": "CARSON TAHOE CONTINUING CARE HOSPITAL", "ADDRESS": "775 FLEISCHMANN WAY", "CITY": "CARSON CITY", "STATE": "NV", "ZIP": "89703", "ZIP4": "NOT AVAILABLE", "TELEPHONE": "(775) 445-7795", "TYPE": "LONG TERM CARE", "STATUS": "OPEN", "POPULATION": 29, "COUNTY": "CARSON CITY", "COUNTYFIPS": "32510", "COUNTRY": "USA", "LATITUDE": 39.1707809870001, "LONGITUDE": -119.772152136, "NAICS_CODE": "622310", "NAICS_DESC": "SPECIALTY (EXCEPT PSYCHIATRIC AND SUBSTANCE ABUSE) HOSPITALS", "SOURCE": "http://dpbh.nv.gov/Reg/HealthFacilities/Community_Resources/", "SOURCEDATE": "2018-08-09T00:00:00.000Z", "VAL_METHOD": "IMAGERY/OTHER", "VAL_DATE": "2014-02-10T00:00:00.000Z", "WEBSITE": "http://www.carsontahoe.com/ltach", "STATE_ID": "5213-HOS-13", "ALT_NAME": "NOT AVAILABLE", "ST_FIPS": "32", "OWNER": "PROPRIETARY", "TTL_STAFF": -999, "BEDS": 29, "TRAUMA": "NOT AVAILABLE", "HELIPAD": "Y" }, "geometry": { "type": "Polygon", "coordinates": [ [ [ -119.7749764, 39.098076900000024 ], [ -119.779553, 39.1004667 ], [ -119.797948, 39.113845 ], [ -119.815458, 39.153392 ], [ -119.8198582, 39.20032120000004 ], [ -119.817723, 39.203905 ], [ -119.810533, 39.208646 ], [ -119.7873789, 39.213350900000016 ], [ -119.74205, 39.217643 ], [ -119.6706668, 39.220001599999961 ], [ -119.662483200000011, 39.2179949 ], [ -119.6612281, 39.216603 ], [ -119.6635299, 39.213018400000024 ], [ -119.738998, 39.113926 ], [ -119.7476963, 39.106097699999978 ], [ -119.7749764, 39.098076900000024 ] ] ] } },
{ "type": "Feature", "properties": { "OBJECTID": 3108, "ID": "0005189410", "NAME": "CARSON VALLEY MEDICAL CENTER", "ADDRESS": "1107 HIGHWAY 395", "CITY": "GARDNERVILLE", "STATE": "NV", "ZIP": "89410", "ZIP4": "NOT AVAILABLE", "TELEPHONE": "(775) 782-1500", "TYPE": "GENERAL ACUTE CARE", "STATUS": "OPEN", "POPULATION": 23, "COUNTY": "DOUGLAS", "COUNTYFIPS": "32005", "COUNTRY": "USA", "LATITUDE": 38.919483871000097, "LONGITUDE": -119.71901753100001, "NAICS_CODE": "622110", "NAICS_DESC": "GENERAL MEDICAL AND SURGICAL HOSPITALS", "SOURCE": "http://dpbh.nv.gov/Reg/HealthFacilities/Community_Resources/", "SOURCEDATE": "2018-08-09T00:00:00.000Z", "VAL_METHOD": "IMAGERY/OTHER", "VAL_DATE": "2014-02-10T00:00:00.000Z", "WEBSITE": "http://www.carsonvalleymedicalcenter.com", "STATE_ID": "3986-RUH-18", "ALT_NAME": "NOT AVAILABLE", "ST_FIPS": "32", "OWNER": "NON-PROFIT", "TTL_STAFF": -999, "BEDS": 23, "TRAUMA": "NOT AVAILABLE", "HELIPAD": "Y" }, "geometry": { "type": "Polygon", "coordinates": [ [ [ -119.6416666, 38.845726300000024 ], [ -119.74154350000002, 38.8740124 ], [ -119.765329200000011, 38.88539 ], [ -119.8142862, 38.9104724 ], [ -119.8142127, 38.912533 ], [ -119.7867573, 38.965710900000019 ], [ -119.779536, 38.975885500000011 ], [ -119.779304399999987, 38.975871800000029 ], [ -119.7238138, 38.9658887 ], [ -119.7039078, 38.9615493 ], [ -119.7003906, 38.959884099999961 ], [ -119.6562983, 38.936262899999946 ], [ -119.6435992, 38.904767500000062 ], [ -119.6416666, 38.845726300000024 ] ] ] } },
{ "type": "Feature", "properties": { "OBJECTID": 3112, "ID": "0005389419", "NAME": "PERSHING GENERAL HOSPITAL", "ADDRESS": "855 SIXTH STREET", "CITY": "LOVELOCK", "STATE": "NV", "ZIP": "89419", "ZIP4": "NOT AVAILABLE", "TELEPHONE": "(775) 273-2621", "TYPE": "GENERAL ACUTE CARE", "STATUS": "OPEN", "POPULATION": 38, "COUNTY": "PERSHING", "COUNTYFIPS": "32027", "COUNTRY": "USA", "LATITUDE": 40.175986170999998, "LONGITUDE": -118.482110984, "NAICS_CODE": "622110", "NAICS_DESC": "GENERAL MEDICAL AND SURGICAL HOSPITALS", "SOURCE": "http://dpbh.nv.gov/Reg/HealthFacilities/Community_Resources/", "SOURCEDATE": "2018-08-09T00:00:00.000Z", "VAL_METHOD": "IMAGERY", "VAL_DATE": "2014-02-10T00:00:00.000Z", "WEBSITE": "http://www.pershinghospital.org", "STATE_ID": "655-RUH-25", "ALT_NAME": "NOT AVAILABLE", "ST_FIPS": "32", "OWNER": "GOVERNMENT - DISTRICT/AUTHORITY", "TTL_STAFF": -999, "BEDS": 38, "TRAUMA": "NOT AVAILABLE", "HELIPAD": "Y" }, "geometry": { "type": "Polygon", "coordinates": [ [ [ -118.648382, 40.063875 ], [ -118.52634, 40.205519700000011 ], [ -118.47603, 40.231284199999969 ], [ -118.391641, 40.258267 ], [ -118.3839446, 40.247063600000018 ], [ -118.403621, 40.182426 ], [ -118.476356, 40.115369 ], [ -118.648382, 40.063875 ] ] ] } },
{ "type": "Feature", "properties": { "OBJECTID": 3190, "ID": "0001383709", "NAME": "SOUTHWEST IDAHO ADVANCED CARE HOSPITAL", "ADDRESS": "6651 W. FRANKLIN ROAD", "CITY": "BOISE", "STATE": "ID", "ZIP": "83709", "ZIP4": "NOT AVAILABLE", "TELEPHONE": "(208) 685-2400", "TYPE": "GENERAL ACUTE CARE", "STATUS": "OPEN", "POPULATION": 40, "COUNTY": "ADA", "COUNTYFIPS": "16001", "COUNTRY": "USA", "LATITUDE": 43.603349705, "LONGITUDE": -116.26443081799999, "NAICS_CODE": "622110", "NAICS_DESC": "GENERAL MEDICAL AND SURGICAL HOSPITALS", "SOURCE": "http://healthandwelfare.idaho.gov/Portals/0/Medical/LicensingCertification/AlphaHospital.pdf", "SOURCEDATE": "2018-08-09T00:00:00.000Z", "VAL_METHOD": "IMAGERY", "VAL_DATE": "2013-11-12T00:00:00.000Z", "WEBSITE": "http://siach.ernesthealth.com/", "STATE_ID": "NOT AVAILABLE", "ALT_NAME": "NOT AVAILABLE", "ST_FIPS": "16", "OWNER": "PROPRIETARY", "TTL_STAFF": -999, "BEDS": 40, "TRAUMA": "NOT AVAILABLE", "HELIPAD": "N" }, "geometry": { "type": "Polygon", "coordinates": [ [ [ -116.158093461363748, 43.538238330161782 ], [ -116.275511267273615, 43.537946177924184 ], [ -116.354373976764251, 43.545058623870844 ], [ -116.393858199167965, 43.56098409991781 ], [ -116.434031334364349, 43.584962073595207 ], [ -116.434108253889221, 43.598578776708372 ], [ -116.433721262677579, 43.60472587850083 ], [ -116.354344031049024, 43.658837576962796 ], [ -116.294188645621418, 43.675434052615287 ], [ -116.27918514689344, 43.677967871291166 ], [ -116.217385282943283, 43.665701313587107 ], [ -116.216829281680916, 43.665283313677641 ], [ -116.187105208903034, 43.637356321326649 ], [ -116.182759797860967, 43.632719023237819 ], [ -116.169697158953312, 43.613321329486574 ], [ -116.166519241766352, 43.601567230176371 ], [ -116.154375159990806, 43.540911735853456 ], [ -116.154834458287269, 43.538871234965306 ], [ -116.158093461363748, 43.538238330161782 ] ] ] } },
{ "type": "Feature", "properties": { "OBJECTID": 3192, "ID": "0003283211", "NAME": "POWER COUNTY HOSPITAL DISTRICT", "ADDRESS": "510 ROOSEVELT STREET", "CITY": "AMERICAN FALLS", "STATE": "ID", "ZIP": "83211", "ZIP4": "NOT AVAILABLE", "TELEPHONE": "(208) 226-3200", "TYPE": "GENERAL ACUTE CARE", "STATUS": "OPEN", "POPULATION": 10, "COUNTY": "POWER", "COUNTYFIPS": "16077", "COUNTRY": "USA", "LATITUDE": 42.781448580000102, "LONGITUDE": -112.848630661, "NAICS_CODE": "622110", "NAICS_DESC": "GENERAL MEDICAL AND SURGICAL HOSPITALS", "SOURCE": "http://healthandwelfare.idaho.gov/Portals/0/Medical/LicensingCertification/AlphaHospital.pdf", "SOURCEDATE": "2018-08-09T00:00:00.000Z", "VAL_METHOD": "IMAGERY", "VAL_DATE": "2013-11-12T00:00:00.000Z", "WEBSITE": "http://www.pchd.net", "STATE_ID": "NOT AVAILABLE", "ALT_NAME": "NOT AVAILABLE", "ST_FIPS": "16", "OWNER": "GOVERNMENT - FEDERAL", "TTL_STAFF": -999, "BEDS": 10, "TRAUMA": "NOT AVAILABLE", "HELIPAD": "Y" }, "geometry": { "type": "Polygon", "coordinates": [ [ [ -112.9615839, 42.6937151 ], [ -112.929856, 42.791074 ], [ -112.894888, 42.82771 ], [ -112.6960918, 42.873972 ], [ -112.6853341, 42.8741894 ], [ -112.811848, 42.754878 ], [ -112.822323, 42.747298 ], [ -112.869085, 42.71933 ], [ -112.878734, 42.714425 ], [ -112.9615839, 42.6937151 ] ] ] } },
{ "type": "Feature", "properties": { "OBJECTID": 3197, "ID": "0000983686", "NAME": "SAINT ALPHONSUS MEDICAL CENTER - NAMPA", "ADDRESS": "1512 12TH AVENUE ROAD", "CITY": "NAMPA", "STATE": "ID", "ZIP": "83686", "ZIP4": "NOT AVAILABLE", "TELEPHONE": "(208) 463-5000", "TYPE": "GENERAL ACUTE CARE", "STATUS": "OPEN", "POPULATION": 152, "COUNTY": "CANYON", "COUNTYFIPS": "16027", "COUNTRY": "USA", "LATITUDE": 43.551846619000102, "LONGITUDE": -116.571452205, "NAICS_CODE": "622110", "NAICS_DESC": "GENERAL MEDICAL AND SURGICAL HOSPITALS", "SOURCE": "http://healthandwelfare.idaho.gov/Portals/0/Medical/LicensingCertification/AlphaHospital.pdf", "SOURCEDATE": "2018-08-09T00:00:00.000Z", "VAL_METHOD": "IMAGERY", "VAL_DATE": "2014-02-10T00:00:00.000Z", "WEBSITE": "http://www.mercynampa.org", "STATE_ID": "NOT AVAILABLE", "ALT_NAME": "NOT AVAILABLE", "ST_FIPS": "16", "OWNER": "NON-PROFIT", "TTL_STAFF": -999, "BEDS": 152, "TRAUMA": "NOT AVAILABLE", "HELIPAD": "N" }, "geometry": { "type": "Polygon", "coordinates": [ [ [ -116.57321, 43.430264 ], [ -116.649347, 43.498353 ], [ -116.653034, 43.502854 ], [ -116.662166900000017, 43.53182910000001 ], [ -116.666952, 43.568128 ], [ -116.6366693, 43.604882 ], [ -116.61847640000002, 43.616032700000027 ], [ -116.599838300000016, 43.624177499999981 ], [ -116.573206, 43.634135 ], [ -116.5524934, 43.6301384 ], [ -116.5131773, 43.615101100000047 ], [ -116.453595100639973, 43.561155652472813 ], [ -116.483545, 43.502971 ], [ -116.49344160000004, 43.492221299999962 ], [ -116.533319, 43.459336 ], [ -116.543321, 43.451928 ], [ -116.57321, 43.430264 ] ] ] } },
{ "type": "Feature", "properties": { "OBJECTID": 3198, "ID": "0002383605", "NAME": "WEST VALLEY MEDICAL CENTER", "ADDRESS": "1717 ARLINGTON AVENUE", "CITY": "CALDWELL", "STATE": "ID", "ZIP": "83605", "ZIP4": "NOT AVAILABLE", "TELEPHONE": "(208) 459-4641", "TYPE": "GENERAL ACUTE CARE", "STATUS": "OPEN", "POPULATION": 150, "COUNTY": "CANYON", "COUNTYFIPS": "16027", "COUNTRY": "USA", "LATITUDE": 43.654327932999998, "LONGITUDE": -116.694275928, "NAICS_CODE": "622110", "NAICS_DESC": "GENERAL MEDICAL AND SURGICAL HOSPITALS", "SOURCE": "http://healthandwelfare.idaho.gov/Portals/0/Medical/LicensingCertification/AlphaHospital.pdf", "SOURCEDATE": "2018-08-09T00:00:00.000Z", "VAL_METHOD": "IMAGERY", "VAL_DATE": "2014-03-12T00:00:00.000Z", "WEBSITE": "http://www.westvalleymedctr.com", "STATE_ID": "NOT AVAILABLE", "ALT_NAME": "NOT AVAILABLE", "ST_FIPS": "16", "OWNER": "PROPRIETARY", "TTL_STAFF": -999, "BEDS": 150, "TRAUMA": "NOT AVAILABLE", "HELIPAD": "Y" }, "geometry": { "type": "Polygon", "coordinates": [ [ [ -116.5720789, 43.594244499999974 ], [ -116.677921, 43.587754 ], [ -116.728668, 43.58788 ], [ -116.729304, 43.587994 ], [ -116.732878, 43.589105 ], [ -116.752506, 43.603304 ], [ -116.826716, 43.667749 ], [ -116.8268108, 43.669354700000049 ], [ -116.802787, 43.688784 ], [ -116.764285, 43.715521 ], [ -116.70261, 43.749987 ], [ -116.6526553, 43.726069 ], [ -116.6494243, 43.724502499999979 ], [ -116.6387156, 43.719306500000023 ], [ -116.638165899999976, 43.719033 ], [ -116.638059699999985, 43.7189655 ], [ -116.56342, 43.670453 ], [ -116.5533911, 43.663189500000016 ], [ -116.5571285, 43.5991926 ], [ -116.5720789, 43.594244499999974 ] ] ] } },
{ "type": "Feature", "properties": { "OBJECTID": 3206, "ID": "0000883440", "NAME": "MADISON MEMORIAL HOSPITAL", "ADDRESS": "450 EAST MAIN STREET", "CITY": "REXBURG", "STATE": "ID", "ZIP": "83440", "ZIP4": "NOT AVAILABLE", "TELEPHONE": "(208) 356-3691", "TYPE": "GENERAL ACUTE CARE", "STATUS": "OPEN", "POPULATION": 69, "COUNTY": "MADISON", "COUNTYFIPS": "16065", "COUNTRY": "USA", "LATITUDE": 43.825779792, "LONGITUDE": -111.77088665, "NAICS_CODE": "622110", "NAICS_DESC": "GENERAL MEDICAL AND SURGICAL HOSPITALS", "SOURCE": "http://healthandwelfare.idaho.gov/Portals/0/Medical/LicensingCertification/AlphaHospital.pdf", "SOURCEDATE": "2018-08-09T00:00:00.000Z", "VAL_METHOD": "IMAGERY", "VAL_DATE": "2014-02-10T00:00:00.000Z", "WEBSITE": "http://www.madisonhospital.org", "STATE_ID": "NOT AVAILABLE", "ALT_NAME": "NOT AVAILABLE", "ST_FIPS": "16", "OWNER": "GOVERNMENT - LOCAL", "TTL_STAFF": -999, "BEDS": 69, "TRAUMA": "NOT AVAILABLE", "HELIPAD": "Y" }, "geometry": { "type": "Polygon", "coordinates": [ [ [ -111.817694, 43.747436 ], [ -111.85161, 43.750641 ], [ -111.860148, 43.753724 ], [ -111.887668, 43.826217 ], [ -111.8872623, 43.828993699999955 ], [ -111.777837, 43.89824 ], [ -111.772302, 43.898248 ], [ -111.749376, 43.898217 ], [ -111.737832, 43.898175 ], [ -111.734033, 43.898157 ], [ -111.717954, 43.883644 ], [ -111.717972, 43.854703 ], [ -111.718095, 43.797114 ], [ -111.745712, 43.783348 ], [ -111.817694, 43.747436 ] ] ] } },
{ "type": "Feature", "properties": { "OBJECTID": 3214, "ID": "0000997424", "NAME": "PEACEHEALTH COTTAGE GROVE COMMUNITY HOSPITAL", "ADDRESS": "1515 VILLAGE DRIVE COTTAGE", "CITY": "COTTAGE GROVE", "STATE": "OR", "ZIP": "97424", "ZIP4": "NOT AVAILABLE", "TELEPHONE": "(541) 942-0511", "TYPE": "CRITICAL ACCESS", "STATUS": "OPEN", "POPULATION": 14, "COUNTY": "LANE", "COUNTYFIPS": "41039", "COUNTRY": "USA", "LATITUDE": 43.803727875000099, "LONGITUDE": -123.03969679399999, "NAICS_CODE": "622110", "NAICS_DESC": "GENERAL MEDICAL AND SURGICAL HOSPITALS", "SOURCE": "https://public.health.oregon.gov/ProviderPartnerResources/HealthcareProvidersFacilities/HealthcareHealthCareRegulationQualityImprovement/Pages/forms.aspx#Hospital", "SOURCEDATE": "2018-08-10T00:00:00.000Z", "VAL_METHOD": "IMAGERY/OTHER", "VAL_DATE": "2014-02-10T00:00:00.000Z", "WEBSITE": "http://www.peacehealth.org/cottage-grove/Pages/default.aspx", "STATE_ID": "40-0223", "ALT_NAME": "NOT AVAILABLE", "ST_FIPS": "41", "OWNER": "NON-PROFIT", "TTL_STAFF": -999, "BEDS": 14, "TRAUMA": "NOT AVAILABLE", "HELIPAD": "Y" }, "geometry": { "type": "Polygon", "coordinates": [ [ [ -123.0565293, 43.721214900000057 ], [ -123.1233972, 43.7494151 ], [ -123.1318848, 43.753306 ], [ -123.129892600000019, 43.824622 ], [ -123.0330349, 43.9177959 ], [ -123.024206, 43.923018 ], [ -123.0197408, 43.925306399999982 ], [ -123.016402700000015, 43.9263625 ], [ -123.0009411, 43.923773900000036 ], [ -122.9883823, 43.915690499999968 ], [ -122.92333570000001, 43.7836857 ], [ -122.938325599999985, 43.76965350000004 ], [ -122.9819362, 43.750590900000013 ], [ -123.0565293, 43.721214900000057 ] ] ] } },
{ "type": "Feature", "properties": { "OBJECTID": 3294, "ID": "0004283672", "NAME": "WEISER MEMORIAL HOSPITAL", "ADDRESS": "645 EAST 5TH STREET", "CITY": "WEISER", "STATE": "ID", "ZIP": "83672", "ZIP4": "NOT AVAILABLE", "TELEPHONE": "(208) 549-0370", "TYPE": "CRITICAL ACCESS", "STATUS": "OPEN", "POPULATION": 25, "COUNTY": "WASHINGTON", "COUNTYFIPS": "16087", "COUNTRY": "USA", "LATITUDE": 44.24872401, "LONGITUDE": -116.96244125699999, "NAICS_CODE": "622110", "NAICS_DESC": "GENERAL MEDICAL AND SURGICAL HOSPITALS", "SOURCE": "http://healthandwelfare.idaho.gov/Portals/0/Medical/LicensingCertification/AlphaHospital.pdf", "SOURCEDATE": "2018-08-09T00:00:00.000Z", "VAL_METHOD": "IMAGERY", "VAL_DATE": "2013-11-12T00:00:00.000Z", "WEBSITE": "www.weisermemorialhospital.org", "STATE_ID": "NOT AVAILABLE", "ALT_NAME": "NOT AVAILABLE", "ST_FIPS": "16", "OWNER": "GOVERNMENT - DISTRICT/AUTHORITY", "TTL_STAFF": -999, "BEDS": 25, "TRAUMA": "NOT AVAILABLE", "HELIPAD": "Y" }, "geometry": { "type": "Polygon", "coordinates": [ [ [ -116.9009473, 44.138940599999977 ], [ -117.0434492, 44.252798299999945 ], [ -117.05353239999998, 44.2672345 ], [ -117.05354, 44.272606 ], [ -116.8739414, 44.368936299999959 ], [ -116.8732659, 44.3687482 ], [ -116.8622598, 44.243667500000029 ], [ -116.875723, 44.152549 ], [ -116.898454, 44.14001 ], [ -116.9009473, 44.138940599999977 ] ] ] } },
{ "type": "Feature", "properties": { "OBJECTID": 3295, "ID": "0004697355", "NAME": "SAMARITAN LEBANON COMMUNITY HOSPITAL", "ADDRESS": "525 N SANTIAM HIGHWAY", "CITY": "LEBANON", "STATE": "OR", "ZIP": "97355", "ZIP4": "NOT AVAILABLE", "TELEPHONE": "NOT AVAILABLE", "TYPE": "GENERAL ACUTE CARE", "STATUS": "OPEN", "POPULATION": 25, "COUNTY": "LINN", "COUNTYFIPS": "41043", "COUNTRY": "USA", "LATITUDE": 44.5513269570001, "LONGITUDE": -122.906964077, "NAICS_CODE": "622110", "NAICS_DESC": "GENERAL MEDICAL AND SURGICAL HOSPITALS", "SOURCE": "https://public.health.oregon.gov/ProviderPartnerResources/HealthcareProvidersFacilities/HealthcareHealthCareRegulationQualityImprovement/Pages/forms.aspx#Hospital", "SOURCEDATE": "2018-08-10T00:00:00.000Z", "VAL_METHOD": "IMAGERY", "VAL_DATE": "2014-03-12T00:00:00.000Z", "WEBSITE": "www.samhealth.org", "STATE_ID": "14-1453", "ALT_NAME": "NOT AVAILABLE", "ST_FIPS": "41", "OWNER": "NON-PROFIT", "TTL_STAFF": -999, "BEDS": 25, "TRAUMA": "LEVEL IV", "HELIPAD": "Y" }, "geometry": { "type": "Polygon", "coordinates": [ [ [ -122.8201485, 44.476682600000025 ], [ -122.9059265, 44.4727116 ], [ -122.9115257, 44.4727234 ], [ -122.9541271, 44.481797 ], [ -122.9961428, 44.519346199999923 ], [ -123.0184324, 44.541005 ], [ -123.0220476, 44.555499499999982 ], [ -122.962937, 44.6397721 ], [ -122.8705877, 44.631872400000056 ], [ -122.822236, 44.5627029 ], [ -122.8201485, 44.476682600000025 ] ] ] } },
{ "type": "Feature", "properties": { "OBJECTID": 3601, "ID": "0008197448", "NAME": "OREGON STATE HOSPITAL JUNCTION CITY", "ADDRESS": "29398 RECOVERY WAY", "CITY": "JUNCTION CITY", "STATE": "OR", "ZIP": "97448", "ZIP4": "NOT AVAILABLE", "TELEPHONE": "(541) 465-2554", "TYPE": "PSYCHIATRIC", "STATUS": "OPEN", "POPULATION": -999, "COUNTY": "LANE", "COUNTYFIPS": "41039", "COUNTRY": "USA", "LATITUDE": 44.165774805000098, "LONGITUDE": -123.19418075, "NAICS_CODE": "622210", "NAICS_DESC": "PSYCHIATRIC AND SUBSTANCE ABUSE HOSPITALS", "SOURCE": "https://public.health.oregon.gov/ProviderPartnerResources/HealthcareProvidersFacilities/HealthcareHealthCareRegulationQualityImprovement/Pages/forms.aspx#Hospital", "SOURCEDATE": "2018-08-10T00:00:00.000Z", "VAL_METHOD": "IMAGERY", "VAL_DATE": "2016-09-26T00:00:00.000Z", "WEBSITE": "http://www.oregon.gov/oha/osh/Pages/about.aspx", "STATE_ID": "14-1474", "ALT_NAME": "NOT AVAILABLE", "ST_FIPS": "41", "OWNER": "GOVERNMENT - STATE", "TTL_STAFF": -999, "BEDS": -999, "TRAUMA": "NOT AVAILABLE", "HELIPAD": "N" }, "geometry": { "type": "Polygon", "coordinates": [ [ [ -123.1735623, 44.06462040000001 ], [ -123.173721700000016, 44.064617700000035 ], [ -123.2649793, 44.140858099999981 ], [ -123.2879062, 44.1862031 ], [ -123.2882775, 44.189263699999948 ], [ -123.2863657, 44.1931408 ], [ -123.230470400000016, 44.264567 ], [ -123.1780819, 44.266949900000036 ], [ -123.1262976, 44.131485200000014 ], [ -123.128014, 44.095592299999986 ], [ -123.1486823, 44.072677899999952 ], [ -123.1735623, 44.06462040000001 ] ] ] } },
{ "type": "Feature", "properties": { "OBJECTID": 3722, "ID": "0001389521", "NAME": "RENOWN SOUTH MEADOWS MEDICAL CENTER", "ADDRESS": "10101 DOUBLE R BOULEVARD", "CITY": "RENO", "STATE": "NV", "ZIP": "89521", "ZIP4": "NOT AVAILABLE", "TELEPHONE": "(775) 982-7000", "TYPE": "GENERAL ACUTE CARE", "STATUS": "OPEN", "POPULATION": 138, "COUNTY": "WASHOE", "COUNTYFIPS": "32031", "COUNTRY": "USA", "LATITUDE": 39.435570695000003, "LONGITUDE": -119.760590161, "NAICS_CODE": "622110", "NAICS_DESC": "GENERAL MEDICAL AND SURGICAL HOSPITALS", "SOURCE": "http://dpbh.nv.gov/Reg/HealthFacilities/Community_Resources/", "SOURCEDATE": "2018-08-09T00:00:00.000Z", "VAL_METHOD": "IMAGERY/OTHER", "VAL_DATE": "2014-02-10T00:00:00.000Z", "WEBSITE": "www.renown.org/southmeadows", "STATE_ID": "2373-HOS-38", "ALT_NAME": "NOT AVAILABLE", "ST_FIPS": "32", "OWNER": "NON-PROFIT", "TTL_STAFF": -999, "BEDS": 138, "TRAUMA": "NOT AVAILABLE", "HELIPAD": "N" }, "geometry": { "type": "Polygon", "coordinates": [ [ [ -119.778800300000015, 39.3463426 ], [ -119.8433317, 39.373098 ], [ -119.86117710000002, 39.480539200000024 ], [ -119.8612927, 39.483693099999968 ], [ -119.8611352, 39.487416100000011 ], [ -119.8607992, 39.488799899999982 ], [ -119.859301, 39.491544 ], [ -119.8049184, 39.568952199999984 ], [ -119.783637, 39.56705 ], [ -119.782073, 39.566597 ], [ -119.773247199999986, 39.561541 ], [ -119.7669974, 39.5565376 ], [ -119.736396699999986, 39.52734 ], [ -119.714445, 39.498249 ], [ -119.701376, 39.42725260000001 ], [ -119.704652, 39.370569 ], [ -119.778800300000015, 39.3463426 ] ] ] } },
{ "type": "Feature", "properties": { "OBJECTID": 3991, "ID": "0174689511", "NAME": "RENO BEHAVIORAL HEALTHCARE HOSPITAL", "ADDRESS": "6940 SIERRA CENTER PARKWAY", "CITY": "RENO", "STATE": "NV", "ZIP": "89511", "ZIP4": "NOT AVAILABLE", "TELEPHONE": "(248) 905-5091", "TYPE": "PSYCHIATRIC", "STATUS": "OPEN", "POPULATION": -999, "COUNTY": "WASHOE", "COUNTYFIPS": "32031", "COUNTRY": "USA", "LATITUDE": 39.46389, "LONGITUDE": -119.776027, "NAICS_CODE": "622210", "NAICS_DESC": "PSYCHIATRIC AND SUBSTANCE ABUSE HOSPITALS", "SOURCE": "http://dpbh.nv.gov/Reg/HealthFacilities/Community_Resources/", "SOURCEDATE": "2018-08-09T00:00:00.000Z", "VAL_METHOD": "IMAGERY", "VAL_DATE": "2019-05-09T00:00:00.000Z", "WEBSITE": "http://renobehavioral.com/", "STATE_ID": "8764-HOS-0", "ALT_NAME": "NOT AVAILABLE", "ST_FIPS": "32", "OWNER": "PROPRIETARY", "TTL_STAFF": -999, "BEDS": -999, "TRAUMA": "NOT AVAILABLE", "HELIPAD": "N" }, "geometry": { "type": "Polygon", "coordinates": [ [ [ -119.750589, 39.361218 ], [ -119.815069400000013, 39.385128 ], [ -119.867272, 39.48585479999997 ], [ -119.867382, 39.486752 ], [ -119.8594505, 39.507474 ], [ -119.812613399999989, 39.577464500000012 ], [ -119.781068, 39.574643 ], [ -119.7335828, 39.556270099999985 ], [ -119.715271, 39.542421700000041 ], [ -119.69995870000001, 39.528965400000033 ], [ -119.696784, 39.525177100000057 ], [ -119.7041339, 39.423722199999979 ], [ -119.717594, 39.379726 ], [ -119.7197402, 39.3770764 ], [ -119.750589, 39.361218 ] ] ] } }
]
}
