{
"type": "FeatureCollection",
"crs": { "type": "name", "properties": { "name": "urn:ogc:def:crs:OGC:1.3:CRS84" } },
"features": [
{ "type": "Feature", "properties": { "OBJECTID": 1138, "ID": "0010863935", "NAME": "SOUTHEASTHEALTH CENTER OF RIPLEY COUNTY", "ADDRESS": "109 PLUM STREET", "CITY": "DONIPHAN", "STATE": "MO", "ZIP": "63935", "ZIP4": "NOT AVAILABLE", "TELEPHONE": "(573) 996-2141", "TYPE": "GENERAL ACUTE CARE", "STATUS": "OPEN", "POPULATION": 21, "COUNTY": "RIPLEY", "COUNTYFIPS": "29181", "COUNTRY": "USA", "LATITUDE": 36.621297374999997, "LONGITUDE": -90.825819571999901, "NAICS_CODE": "622110", "NAICS_DESC": "GENERAL MEDICAL AND SURGICAL HOSPITALS", "SOURCE": "http://health.mo.gov/safety/healthservregs/directories.php", "SOURCEDATE": "2018-08-09T00:00:00.000Z", "VAL_METHOD": "IMAGERY", "VAL_DATE": "2013-09-23T00:00:00.000Z", "WEBSITE": "https://www.sehealth.org/locations/health-center-ripley-county", "STATE_ID": "H092", "ALT_NAME": "NOT AVAILABLE", "ST_FIPS": "29", "OWNER": "PROPRIETARY", "TTL_STAFF": -999, "BEDS": 21, "TRAUMA": "NOT AVAILABLE", "HELIPAD": "N" }, "geometry": { "type": "Polygon", "coordinates": [ [ [ -90.815657, 36.54557 ], [ -90.8777494, 36.566062299999963 ], [ -90.889068, 36.578335 ], [ -90.9041367, 36.5993104 ], [ -90.9048587, 36.6357312 ], [ -90.8647423, 36.69051840000003 ], [ -90.7969371, 36.710397099999973 ], [ -90.7303938, 36.66625089999998 ], [ -90.7289044, 36.593842799999976 ], [ -90.7732769, 36.55935050000005 ], [ -90.815657, 36.54557 ] ] ] } },
{ "type": "Feature", "properties": { "OBJECTID": 1166, "ID": "0018363901", "NAME": "POPLAR BLUFF REGIONAL MEDICAL CENTER", "ADDRESS": "2620 N WESTWOOD BLVD", "CITY": "POPLAR BLUFF", "STATE": "MO", "ZIP": "63901", "ZIP4": "NOT AVAILABLE", "TELEPHONE": "(573) 785-7721", "TYPE": "GENERAL ACUTE CARE", "STATUS": "OPEN", "POPULATION": 38, "COUNTY": "BUTLER", "COUNTYFIPS": "29023", "COUNTRY": "USA", "LATITUDE": 36.786910606, "LONGITUDE": -90.4432518899999, "NAICS_CODE": "622110", "NAICS_DESC": "GENERAL MEDICAL AND SURGICAL HOSPITALS", "SOURCE": "http://health.mo.gov/safety/healthservregs/directories.php", "SOURCEDATE": "2018-08-09T00:00:00.000Z", "VAL_METHOD": "IMAGERY/OTHER", "VAL_DATE": "2016-08-15T00:00:00.000Z", "WEBSITE": "http://www.poplarbluffregional.com/locations/poplar-bluff-rmc-oak-grove", "STATE_ID": "H180", "ALT_NAME": "NOT AVAILABLE", "ST_FIPS": "29", "OWNER": "PROPRIETARY", "TTL_STAFF": -999, "BEDS": 38, "TRAUMA": "NOT AVAILABLE", "HELIPAD": "Y" }, "geometry": { "type": "Polygon", "coordinates": [ [ [ -90.498481, 36.673413 ], [ -90.5497081, 36.845631 ], [ -90.5497164, 36.845878599999978 ], [ -90.498941, 36.887761 ], [ -90.417472, 36.85604 ], [ -90.32407, 36.819361 ], [ -90.316216, 36.812406 ], [ -90.29866, 36.785827 ], [ -90.373066, 36.712106 ], [ -90.495511, 36.674213 ], [ -90.498481, 36.673413 ] ] ] } },
{ "type": "Feature", "properties": { "OBJECTID": 1530, "ID": "0001842240", "NAME": "CUMBERLAND HALL HOSPITAL", "ADDRESS": "270 WALTON WAY", "CITY": "HOPKINSVILLE", "STATE": "KY", "ZIP": "42240", "ZIP4": "NOT AVAILABLE", "TELEPHONE": "(270) 886-1919", "TYPE": "PSYCHIATRIC", "STATUS": "OPEN", "POPULATION": 97, "COUNTY": "CHRISTIAN", "COUNTYFIPS": "21047", "COUNTRY": "USA", "LATITUDE": 36.738251660000103, "LONGITUDE": -87.468403327000004, "NAICS_CODE": "622110", "NAICS_DESC": "GENERAL MEDICAL AND SURGICAL HOSPITALS", "SOURCE": "https://chfs.ky.gov/agencies/os/oig/dhc/Documents/Directories/Hospital_Directory.pdf", "SOURCEDATE": "2018-08-11T00:00:00.000Z", "VAL_METHOD": "IMAGERY/OTHER", "VAL_DATE": "2014-02-10T00:00:00.000Z", "WEBSITE": "http://www.cumberlandhallhospital.com", "STATE_ID": "100597", "ALT_NAME": "NOT AVAILABLE", "ST_FIPS": "21", "OWNER": "PROPRIETARY", "TTL_STAFF": -999, "BEDS": 97, "TRAUMA": "NOT AVAILABLE", "HELIPAD": "N" }, "geometry": { "type": "Polygon", "coordinates": [ [ [ -87.439332100000016, 36.644031599999963 ], [ -87.490817, 36.690955 ], [ -87.5178941, 36.7481307 ], [ -87.484494240630667, 36.818354108924936 ], [ -87.474932634840357, 36.825730013010293 ], [ -87.473616434272444, 36.826488813410812 ], [ -87.47342003425014, 36.826462713382234 ], [ -87.412134109836586, 36.761381068077029 ], [ -87.385674, 36.702099 ], [ -87.403028, 36.668307 ], [ -87.4128019, 36.6584224 ], [ -87.4369766, 36.644211800000015 ], [ -87.439332100000016, 36.644031599999963 ] ] ] } },
{ "type": "Feature", "properties": { "OBJECTID": 1531, "ID": "0003942241", "NAME": "JENNIE STUART MEDICAL CENTER", "ADDRESS": "320 WEST 18TH STREET", "CITY": "HOPKINSVILLE", "STATE": "KY", "ZIP": "42241", "ZIP4": "NOT AVAILABLE", "TELEPHONE": "(270) 887-0100", "TYPE": "GENERAL ACUTE CARE", "STATUS": "OPEN", "POPULATION": 194, "COUNTY": "CHRISTIAN", "COUNTYFIPS": "21047", "COUNTRY": "USA", "LATITUDE": 36.861187116000103, "LONGITUDE": -87.494951248000007, "NAICS_CODE": "622110", "NAICS_DESC": "GENERAL MEDICAL AND SURGICAL HOSPITALS", "SOURCE": "https://chfs.ky.gov/agencies/os/oig/dhc/Documents/Directories/Hospital_Directory.pdf", "SOURCEDATE": "2018-08-11T00:00:00.000Z", "VAL_METHOD": "IMAGERY", "VAL_DATE": "2014-02-10T00:00:00.000Z", "WEBSITE": "http://www.jsmc.org", "STATE_ID": "100068", "ALT_NAME": "NOT AVAILABLE", "ST_FIPS": "21", "OWNER": "NON-PROFIT", "TTL_STAFF": -999, "BEDS": 194, "TRAUMA": "NOT AVAILABLE", "HELIPAD": "Y" }, "geometry": { "type": "Polygon", "coordinates": [ [ [ -87.509575, 36.749297300000016 ], [ -87.571707094541395, 36.80333309141988 ], [ -87.593009065995702, 36.835206099486506 ], [ -87.608121042978112, 36.881186109337655 ], [ -87.583311041182242, 36.921261133304597 ], [ -87.538853046256492, 36.940682165404972 ], [ -87.477917073391097, 36.954091194547637 ], [ -87.476299075376474, 36.953926194358573 ], [ -87.427861131455259, 36.93325817865896 ], [ -87.361806133467852, 36.85107712235186 ], [ -87.361953733070592, 36.850561322029407 ], [ -87.394876612437329, 36.805427495116881 ], [ -87.470612157721206, 36.767401075746797 ], [ -87.509575, 36.749297300000016 ] ] ] } },
{ "type": "Feature", "properties": { "OBJECTID": 2061, "ID": "0003472401", "NAME": "ST. BERNARDS BEHAVIORAL HEALTH", "ADDRESS": "2712 EAST JOHNSON AVENUE", "CITY": "JONESBORO", "STATE": "AR", "ZIP": "72401", "ZIP4": "NOT AVAILABLE", "TELEPHONE": "(870) 932-2800", "TYPE": "PSYCHIATRIC", "STATUS": "OPEN", "POPULATION": 60, "COUNTY": "CRAIGHEAD", "COUNTYFIPS": "05031", "COUNTRY": "USA", "LATITUDE": 35.852214823000097, "LONGITUDE": -90.669789257999994, "NAICS_CODE": "622210", "NAICS_DESC": "PSYCHIATRIC AND SUBSTANCE ABUSE HOSPITALS", "SOURCE": "http://www.healthy.arkansas.gov/programsServices/hsLicensingRegulation/HealthFacilityServices/Pages/ProviderLists.aspx", "SOURCEDATE": "2018-08-08T00:00:00.000Z", "VAL_METHOD": "IMAGERY/OTHER", "VAL_DATE": "2014-02-10T00:00:00.000Z", "WEBSITE": "http://www.sbrmc.com/", "STATE_ID": "040020DHFS", "ALT_NAME": "NOT AVAILABLE", "ST_FIPS": "05", "OWNER": "NON-PROFIT", "TTL_STAFF": -999, "BEDS": 60, "TRAUMA": "NOT AVAILABLE", "HELIPAD": "N" }, "geometry": { "type": "Polygon", "coordinates": [ [ [ -90.6793193, 35.754647099999964 ], [ -90.746696, 35.777855 ], [ -90.78598, 35.857544 ], [ -90.783274025378873, 35.870746039521855 ], [ -90.701408008382714, 35.915730021212894 ], [ -90.641520402886115, 35.939400015363525 ], [ -90.633188402297932, 35.942195914886092 ], [ -90.577157001795626, 35.914700014749606 ], [ -90.572701001967772, 35.907421014712035 ], [ -90.562340002842461, 35.878269014484388 ], [ -90.571609, 35.821857 ], [ -90.58683, 35.77388 ], [ -90.664047, 35.755093 ], [ -90.6793193, 35.754647099999964 ] ] ] } },
{ "type": "Feature", "properties": { "OBJECTID": 2062, "ID": "0003672401", "NAME": "ST. BERNARDS MEDICAL CENTER", "ADDRESS": "225 EAST JACKSON AVENUE", "CITY": "JONESBORO", "STATE": "AR", "ZIP": "72401", "ZIP4": "NOT AVAILABLE", "TELEPHONE": "(870) 972-4100", "TYPE": "GENERAL ACUTE CARE", "STATUS": "OPEN", "POPULATION": 378, "COUNTY": "CRAIGHEAD", "COUNTYFIPS": "05031", "COUNTRY": "USA", "LATITUDE": 35.836498021000097, "LONGITUDE": -90.702618582, "NAICS_CODE": "622110", "NAICS_DESC": "GENERAL MEDICAL AND SURGICAL HOSPITALS", "SOURCE": "http://www.healthy.arkansas.gov/programsServices/hsLicensingRegulation/HealthFacilityServices/Pages/ProviderLists.aspx", "SOURCEDATE": "2018-08-08T00:00:00.000Z", "VAL_METHOD": "IMAGERY/OTHER", "VAL_DATE": "2014-03-12T00:00:00.000Z", "WEBSITE": "http://www.sbrmc.com/", "STATE_ID": "040020", "ALT_NAME": "NOT AVAILABLE", "ST_FIPS": "05", "OWNER": "NON-PROFIT", "TTL_STAFF": -999, "BEDS": 378, "TRAUMA": "LEVEL III", "HELIPAD": "Y" }, "geometry": { "type": "Polygon", "coordinates": [ [ [ -90.6902377, 35.7525983 ], [ -90.713959, 35.755932 ], [ -90.755196, 35.763382 ], [ -90.785942, 35.770668 ], [ -90.7990041, 35.7779111 ], [ -90.810265, 35.853928 ], [ -90.799464521065573, 35.904167131686293 ], [ -90.710571007694696, 35.924328019952917 ], [ -90.702078907560619, 35.922225020004085 ], [ -90.645981006256861, 35.907284019331868 ], [ -90.597865205505428, 35.87844651801732 ], [ -90.586418, 35.821632 ], [ -90.616798, 35.789852 ], [ -90.665848, 35.755062 ], [ -90.679352, 35.752571 ], [ -90.6902377, 35.7525983 ] ] ] } },
{ "type": "Feature", "properties": { "OBJECTID": 2064, "ID": "0005272315", "NAME": "GREAT RIVER MEDICAL CENTER", "ADDRESS": "1520 NORTH DIVISION STREET", "CITY": "BLYTHEVILLE", "STATE": "AR", "ZIP": "72315", "ZIP4": "NOT AVAILABLE", "TELEPHONE": "(870) 838-7300", "TYPE": "GENERAL ACUTE CARE", "STATUS": "OPEN", "POPULATION": 168, "COUNTY": "MISSISSIPPI", "COUNTYFIPS": "05093", "COUNTRY": "USA", "LATITUDE": 35.943019933000102, "LONGITUDE": -89.917311252000005, "NAICS_CODE": "622110", "NAICS_DESC": "GENERAL MEDICAL AND SURGICAL HOSPITALS", "SOURCE": "http://www.healthy.arkansas.gov/programsServices/hsLicensingRegulation/HealthFacilityServices/Pages/ProviderLists.aspx", "SOURCEDATE": "2018-08-08T00:00:00.000Z", "VAL_METHOD": "IMAGERY", "VAL_DATE": "2014-02-10T00:00:00.000Z", "WEBSITE": "http://www.mchsys.org/getpage.php?name=greatriver", "STATE_ID": "040069", "ALT_NAME": "NOT AVAILABLE", "ST_FIPS": "05", "OWNER": "GOVERNMENT - LOCAL", "TTL_STAFF": -999, "BEDS": 168, "TRAUMA": "LEVEL IV", "HELIPAD": "Y" }, "geometry": { "type": "Polygon", "coordinates": [ [ [ -89.917773594888544, 35.842842699425631 ], [ -90.017555398829671, 35.867856900623352 ], [ -90.018476199252817, 35.952153800787592 ], [ -89.9857238, 35.982753399999979 ], [ -89.983026, 35.984535 ], [ -89.9734589, 35.9906162 ], [ -89.9144369, 36.022644600000021 ], [ -89.868632, 36.002608 ], [ -89.84091, 35.986896 ], [ -89.825240994554932, 35.921226999388161 ], [ -89.917773594888544, 35.842842699425631 ] ] ] } },
{ "type": "Feature", "properties": { "OBJECTID": 2079, "ID": "0007742041", "NAME": "PARKWAY REGIONAL HOSPITAL", "ADDRESS": "2000 HOLIDAY LANE", "CITY": "FULTON", "STATE": "KY", "ZIP": "42041", "ZIP4": "NOT AVAILABLE", "TELEPHONE": "(270) 472-2522", "TYPE": "GENERAL ACUTE CARE", "STATUS": "CLOSED", "POPULATION": 70, "COUNTY": "FULTON", "COUNTYFIPS": "21075", "COUNTRY": "USA", "LATITUDE": 36.51903178, "LONGITUDE": -88.895674057999898, "NAICS_CODE": "622110", "NAICS_DESC": "GENERAL MEDICAL AND SURGICAL HOSPITALS", "SOURCE": "http://chfs.ky.gov/os/oig/directories.htm", "SOURCEDATE": "2012-08-01T00:00:00.000Z", "VAL_METHOD": "IMAGERY/OTHER", "VAL_DATE": "2014-02-10T00:00:00.000Z", "WEBSITE": "http://www.parkwayregionalhospital.com", "STATE_ID": "100131", "ALT_NAME": "NOT AVAILABLE", "ST_FIPS": "21", "OWNER": "PROPRIETARY", "TTL_STAFF": -999, "BEDS": 70, "TRAUMA": "NOT AVAILABLE", "HELIPAD": "Y" }, "geometry": { "type": "Polygon", "coordinates": [ [ [ -88.8577652, 36.4300878 ], [ -88.990357048873662, 36.458805440880091 ], [ -89.0086364, 36.517576799999972 ], [ -88.971916, 36.549572 ], [ -88.92093, 36.576404 ], [ -88.906071, 36.576929 ], [ -88.899081, 36.576004 ], [ -88.831218, 36.546806 ], [ -88.832953, 36.502892 ], [ -88.839821003314185, 36.464698878869243 ], [ -88.8575289, 36.430087699999987 ], [ -88.8577652, 36.4300878 ] ] ] } },
{ "type": "Feature", "properties": { "OBJECTID": 2082, "ID": "0007242347", "NAME": "OHIO COUNTY HOSPITAL", "ADDRESS": "1211 OLD MAIN ST.", "CITY": "HARTFORD", "STATE": "KY", "ZIP": "42347", "ZIP4": "NOT AVAILABLE", "TELEPHONE": "(270) 298-7411", "TYPE": "CRITICAL ACCESS", "STATUS": "OPEN", "POPULATION": 25, "COUNTY": "OHIO", "COUNTYFIPS": "21183", "COUNTRY": "USA", "LATITUDE": 37.448466985000003, "LONGITUDE": -86.896447684999899, "NAICS_CODE": "622110", "NAICS_DESC": "GENERAL MEDICAL AND SURGICAL HOSPITALS", "SOURCE": "https://chfs.ky.gov/agencies/os/oig/dhc/Documents/Directories/Hospital_Directory.pdf", "SOURCEDATE": "2018-08-11T00:00:00.000Z", "VAL_METHOD": "IMAGERY", "VAL_DATE": "2014-02-10T00:00:00.000Z", "WEBSITE": "http://www.ohiocountyhospital.com", "STATE_ID": "600073", "ALT_NAME": "NOT AVAILABLE", "ST_FIPS": "21", "OWNER": "NON-PROFIT", "TTL_STAFF": -999, "BEDS": 25, "TRAUMA": "NOT AVAILABLE", "HELIPAD": "N" }, "geometry": { "type": "Polygon", "coordinates": [ [ [ -86.879816, 37.356038 ], [ -86.925743, 37.373847 ], [ -86.985590513596634, 37.414940307918691 ], [ -86.983547477559569, 37.49691231904216 ], [ -86.965968436870767, 37.524425299574666 ], [ -86.922265, 37.529039 ], [ -86.83529, 37.514931 ], [ -86.808418, 37.498998 ], [ -86.792062, 37.438891 ], [ -86.8083168, 37.385048100000056 ], [ -86.808666300000013, 37.3840514 ], [ -86.839033, 37.364614 ], [ -86.879816, 37.356038 ] ] ] } },
{ "type": "Feature", "properties": { "OBJECTID": 2154, "ID": "0000338654", "NAME": "PARKWOOD BEHAVIORAL HEALTH SYSTEM", "ADDRESS": "8135 GOODMAN ROAD", "CITY": "OLIVE BRANCH", "STATE": "MS", "ZIP": "38654", "ZIP4": "NOT AVAILABLE", "TELEPHONE": "(662) 895-4900", "TYPE": "PSYCHIATRIC", "STATUS": "OPEN", "POPULATION": 108, "COUNTY": "DESOTO", "COUNTYFIPS": "28033", "COUNTRY": "USA", "LATITUDE": 34.960982436000101, "LONGITUDE": -89.845680294999994, "NAICS_CODE": "622210", "NAICS_DESC": "PSYCHIATRIC AND SUBSTANCE ABUSE HOSPITALS", "SOURCE": "https://msdh.ms.gov/msdhsite/_static/resources/7660.pdf", "SOURCEDATE": "2018-08-09T00:00:00.000Z", "VAL_METHOD": "IMAGERY", "VAL_DATE": "2014-02-10T00:00:00.000Z", "WEBSITE": "http://www.parkwoodbhs.com", "STATE_ID": "LICENSE #32-316", "ALT_NAME": "NOT AVAILABLE", "ST_FIPS": "28", "OWNER": "PROPRIETARY", "TTL_STAFF": -999, "BEDS": 108, "TRAUMA": "NOT AVAILABLE", "HELIPAD": "N" }, "geometry": { "type": "Polygon", "coordinates": [ [ [ -89.830422, 34.871377699999982 ], [ -89.8655929, 34.875615800000027 ], [ -89.936765, 34.933252 ], [ -89.972145, 34.962628 ], [ -89.92646215914732, 35.051970321123065 ], [ -89.921967355296076, 35.051541913993645 ], [ -89.831263975968824, 35.037460742610186 ], [ -89.789997837975704, 35.020775311648642 ], [ -89.6889266, 34.962788199999963 ], [ -89.7209397, 34.8748332 ], [ -89.830422, 34.871377699999982 ] ] ] } },
{ "type": "Feature", "properties": { "OBJECTID": 2172, "ID": "0010138668", "NAME": "NORTH OAK REGIONAL MEDICAL CENTER", "ADDRESS": "401 GETWELL DRIVE", "CITY": "SENATOBIA", "STATE": "MS", "ZIP": "38668", "ZIP4": "NOT AVAILABLE", "TELEPHONE": "(662) 562-3100", "TYPE": "GENERAL ACUTE CARE", "STATUS": "OPEN", "POPULATION": 76, "COUNTY": "TATE", "COUNTYFIPS": "28137", "COUNTRY": "USA", "LATITUDE": 34.624619728, "LONGITUDE": -89.95627268, "NAICS_CODE": "622110", "NAICS_DESC": "GENERAL MEDICAL AND SURGICAL HOSPITALS", "SOURCE": "https://msdh.ms.gov/msdhsite/_static/resources/7660.pdf", "SOURCEDATE": "2018-08-09T00:00:00.000Z", "VAL_METHOD": "IMAGERY", "VAL_DATE": "2013-10-02T00:00:00.000Z", "WEBSITE": "http://www.normc.org", "STATE_ID": "LICENSE #16-286", "ALT_NAME": "NOT AVAILABLE", "ST_FIPS": "28", "OWNER": "PROPRIETARY", "TTL_STAFF": -999, "BEDS": 76, "TRAUMA": "NOT AVAILABLE", "HELIPAD": "N" }, "geometry": { "type": "Polygon", "coordinates": [ [ [ -89.9660531, 34.553917099999978 ], [ -90.069319299999989, 34.619475499999936 ], [ -89.9888287, 34.7211845 ], [ -89.9307642, 34.6999895 ], [ -89.8566345, 34.61221 ], [ -89.8805931, 34.593744199999968 ], [ -89.930026, 34.564826599999975 ], [ -89.9660531, 34.553917099999978 ] ] ] } },
{ "type": "Feature", "properties": { "OBJECTID": 2452, "ID": "0016638133", "NAME": "SAINT FRANCIS HOSPITAL BARTLETT", "ADDRESS": "2986 KATE BOND RD", "CITY": "BARTLETT", "STATE": "TN", "ZIP": "38133", "ZIP4": "NOT AVAILABLE", "TELEPHONE": "(901) 820-7050", "TYPE": "GENERAL ACUTE CARE", "STATUS": "OPEN", "POPULATION": 196, "COUNTY": "SHELBY", "COUNTYFIPS": "47157", "COUNTRY": "USA", "LATITUDE": 35.206992054000096, "LONGITUDE": -89.800582759999898, "NAICS_CODE": "622110", "NAICS_DESC": "GENERAL MEDICAL AND SURGICAL HOSPITALS", "SOURCE": "https://apps.health.tn.gov/FacilityListings", "SOURCEDATE": "2018-08-10T00:00:00.000Z", "VAL_METHOD": "IMAGERY/OTHER", "VAL_DATE": "2013-09-12T00:00:00.000Z", "WEBSITE": "http://www.saintfrancisbartlett.com/en-US/Pages/default.aspx", "STATE_ID": "NOT AVAILABLE", "ALT_NAME": "NOT AVAILABLE", "ST_FIPS": "47", "OWNER": "PROPRIETARY", "TTL_STAFF": -999, "BEDS": 196, "TRAUMA": "NOT AVAILABLE", "HELIPAD": "Y" }, "geometry": { "type": "Polygon", "coordinates": [ [ [ -89.803481234987771, 35.10766169985623 ], [ -89.8684089, 35.1258033 ], [ -89.9081766, 35.13946089999996 ], [ -89.9128736, 35.148822900000035 ], [ -89.9159189, 35.20568 ], [ -89.910029, 35.221749 ], [ -89.8945858, 35.234426199999959 ], [ -89.8604157, 35.2587899 ], [ -89.8380985, 35.2694779 ], [ -89.7190512, 35.271240699999971 ], [ -89.6644937, 35.261560599999981 ], [ -89.664237, 35.261218399999962 ], [ -89.6666877, 35.210601799999978 ], [ -89.7669309, 35.127941500000034 ], [ -89.7711426, 35.125269700000018 ], [ -89.803481234987771, 35.10766169985623 ] ] ] } },
{ "type": "Feature", "properties": { "OBJECTID": 2467, "ID": "0007038008", "NAME": "BOLIVAR GENERAL HOSPITAL", "ADDRESS": "650 NUCKOLLS ROAD", "CITY": "BOLIVAR", "STATE": "TN", "ZIP": "38008", "ZIP4": "NOT AVAILABLE", "TELEPHONE": "(731) 658-3100", "TYPE": "GENERAL ACUTE CARE", "STATUS": "OPEN", "POPULATION": 51, "COUNTY": "HARDEMAN", "COUNTYFIPS": "47069", "COUNTRY": "USA", "LATITUDE": 35.267572485000102, "LONGITUDE": -88.999292390999997, "NAICS_CODE": "622110", "NAICS_DESC": "GENERAL MEDICAL AND SURGICAL HOSPITALS", "SOURCE": "https://apps.health.tn.gov/FacilityListings", "SOURCEDATE": "2018-08-10T00:00:00.000Z", "VAL_METHOD": "IMAGERY", "VAL_DATE": "2014-02-10T00:00:00.000Z", "WEBSITE": "http://www.wth.org/locations/page/bolivar-general-hospital", "STATE_ID": "448774", "ALT_NAME": "NOT AVAILABLE", "ST_FIPS": "47", "OWNER": "GOVERNMENT - DISTRICT/AUTHORITY", "TTL_STAFF": -999, "BEDS": 51, "TRAUMA": "NOT AVAILABLE", "HELIPAD": "Y" }, "geometry": { "type": "Polygon", "coordinates": [ [ [ -88.9256313, 35.190661500000012 ], [ -89.082231, 35.202506 ], [ -89.1253109, 35.308394899999989 ], [ -89.0625329, 35.3331091 ], [ -88.9246094, 35.338042400000013 ], [ -88.8706826, 35.2341206 ], [ -88.8707574, 35.2339365 ], [ -88.9256313, 35.190661500000012 ] ] ] } },
{ "type": "Feature", "properties": { "OBJECTID": 2838, "ID": "0001200000", "NAME": "FORREST CITY MEDICAL CENTER", "ADDRESS": "1601 NEWCASTLE ROAD", "CITY": "FORREST CITY", "STATE": "AR", "ZIP": "72335", "ZIP4": "NOT AVAILABLE", "TELEPHONE": "(870) 261-0000", "TYPE": "GENERAL ACUTE CARE", "STATUS": "OPEN", "POPULATION": 118, "COUNTY": "ST. FRANCIS", "COUNTYFIPS": "05123", "COUNTRY": "USA", "LATITUDE": 35.040019252999997, "LONGITUDE": -90.775883920999902, "NAICS_CODE": "622110", "NAICS_DESC": "GENERAL MEDICAL AND SURGICAL HOSPITALS", "SOURCE": "http://www.healthy.arkansas.gov/programsServices/hsLicensingRegulation/HealthFacilityServices/Pages/ProviderLists.aspx", "SOURCEDATE": "2018-08-08T00:00:00.000Z", "VAL_METHOD": "IMAGERY", "VAL_DATE": "2014-03-12T00:00:00.000Z", "WEBSITE": "http://www.forrestcitymedicalcenter.com", "STATE_ID": "040019", "ALT_NAME": "NOT AVAILABLE", "ST_FIPS": "05", "OWNER": "PROPRIETARY", "TTL_STAFF": -999, "BEDS": 118, "TRAUMA": "LEVEL IV", "HELIPAD": "Y" }, "geometry": { "type": "Polygon", "coordinates": [ [ [ -90.7900923, 34.949455799999988 ], [ -90.790381, 34.949490199999985 ], [ -90.9065611, 34.969022599999988 ], [ -90.9218616, 34.979510200000043 ], [ -90.834561671004977, 35.103037569112423 ], [ -90.813301728686881, 35.131919550862243 ], [ -90.807055841674682, 35.131744257949023 ], [ -90.722970850608462, 35.117573877811708 ], [ -90.721409050270992, 35.116887669239546 ], [ -90.646965951012476, 35.081545420608215 ], [ -90.654704836329529, 35.051181070292095 ], [ -90.666266013687661, 35.017813939895056 ], [ -90.781571, 34.949385 ], [ -90.7900923, 34.949455799999988 ] ] ] } },
{ "type": "Feature", "properties": { "OBJECTID": 2840, "ID": "0006572401", "NAME": "THE SURGICAL HOSPITAL OF JONESBORO", "ADDRESS": "909 ENTERPRISE DRIVE", "CITY": "JONESBORO", "STATE": "AR", "ZIP": "72401", "ZIP4": "NOT AVAILABLE", "TELEPHONE": "(870) 336-1100", "TYPE": "GENERAL ACUTE CARE", "STATUS": "CLOSED", "POPULATION": 12, "COUNTY": "CRAIGHEAD", "COUNTYFIPS": "05031", "COUNTRY": "USA", "LATITUDE": 35.810069864000099, "LONGITUDE": -90.691542028000001, "NAICS_CODE": "622110", "NAICS_DESC": "GENERAL MEDICAL AND SURGICAL HOSPITALS", "SOURCE": "http://www.arkansassiteselection.com/aedc/gis-data-download.aspx", "SOURCEDATE": "2012-06-27T00:00:00.000Z", "VAL_METHOD": "IMAGERY/OTHER", "VAL_DATE": "2014-02-10T00:00:00.000Z", "WEBSITE": "http://www.tshj.com", "STATE_ID": "040145", "ALT_NAME": "NOT AVAILABLE", "ST_FIPS": "05", "OWNER": "PROPRIETARY", "TTL_STAFF": -999, "BEDS": 12, "TRAUMA": "NOT AVAILABLE", "HELIPAD": "N" }, "geometry": { "type": "Polygon", "coordinates": [ [ [ -90.6929535, 35.729422800000052 ], [ -90.816971, 35.778088 ], [ -90.810265, 35.853928 ], [ -90.79913732249031, 35.897828933545227 ], [ -90.798035021392408, 35.901730032266343 ], [ -90.700333010144874, 35.901848023784659 ], [ -90.655121008983983, 35.886349022671943 ], [ -90.652489008905278, 35.885311022569951 ], [ -90.613610807825211, 35.864356920703869 ], [ -90.575081, 35.821793 ], [ -90.5756363, 35.753878199999974 ], [ -90.661545, 35.73048 ], [ -90.6929535, 35.729422800000052 ] ] ] } },
{ "type": "Feature", "properties": { "OBJECTID": 2846, "ID": "0004872476", "NAME": "LAWRENCE MEMORIAL HOSPITAL", "ADDRESS": "1309 WEST MAIN", "CITY": "WALNUT RIDGE", "STATE": "AR", "ZIP": "72476", "ZIP4": "NOT AVAILABLE", "TELEPHONE": "(870) 886-1200", "TYPE": "CRITICAL ACCESS", "STATUS": "OPEN", "POPULATION": 25, "COUNTY": "LAWRENCE", "COUNTYFIPS": "05075", "COUNTRY": "USA", "LATITUDE": 36.073758500000103, "LONGITUDE": -90.967823451000001, "NAICS_CODE": "622110", "NAICS_DESC": "GENERAL MEDICAL AND SURGICAL HOSPITALS", "SOURCE": "http://www.healthy.arkansas.gov/programsServices/hsLicensingRegulation/HealthFacilityServices/Pages/ProviderLists.aspx", "SOURCEDATE": "2018-08-08T00:00:00.000Z", "VAL_METHOD": "IMAGERY/OTHER", "VAL_DATE": "2014-02-10T00:00:00.000Z", "WEBSITE": "http://www.lawrencehealth.net", "STATE_ID": "041309", "ALT_NAME": "NOT AVAILABLE", "ST_FIPS": "05", "OWNER": "GOVERNMENT - LOCAL", "TTL_STAFF": -999, "BEDS": 25, "TRAUMA": "NOT AVAILABLE", "HELIPAD": "Y" }, "geometry": { "type": "Polygon", "coordinates": [ [ [ -90.941363, 35.98566 ], [ -91.0149422, 35.993639 ], [ -91.101044, 36.104954 ], [ -90.9587537, 36.1796257 ], [ -90.870862, 36.129958800000018 ], [ -90.851591500000012, 36.070302600000012 ], [ -90.8878927, 35.9961222 ], [ -90.941363, 35.98566 ] ] ] } },
{ "type": "Feature", "properties": { "OBJECTID": 2855, "ID": "0061272401", "NAME": "HEALTHSOUTH REHABILITATION HOSPITAL OF JONESBORO", "ADDRESS": "1201 FLEMING AVENUE", "CITY": "JONESBORO", "STATE": "AR", "ZIP": "72401", "ZIP4": "NOT AVAILABLE", "TELEPHONE": "(870) 932-0440", "TYPE": "REHABILITATION", "STATUS": "OPEN", "POPULATION": -999, "COUNTY": "CRAIGHEAD", "COUNTYFIPS": "05031", "COUNTRY": "USA", "LATITUDE": 35.832677496000002, "LONGITUDE": -90.693035905000002, "NAICS_CODE": "622310", "NAICS_DESC": "REHABILITATION HOSPITALS (EXCEPT ALCOHOLISM, DRUG ADDICTION)", "SOURCE": "http://www.healthy.arkansas.gov/programsServices/hsLicensingRegulation/HealthFacilityServices/Pages/ProviderLists.aspx", "SOURCEDATE": "2018-08-08T00:00:00.000Z", "VAL_METHOD": "IMAGERY/OTHER", "VAL_DATE": "2014-11-18T00:00:00.000Z", "WEBSITE": "NOT AVAILABLE", "STATE_ID": "NOT AVAILABLE", "ALT_NAME": "NOT AVAILABLE", "ST_FIPS": "05", "OWNER": "NOT AVAILABLE", "TTL_STAFF": -999, "BEDS": -999, "TRAUMA": "NOT AVAILABLE", "HELIPAD": "N" }, "geometry": { "type": "Polygon", "coordinates": [ [ [ -90.6792723, 35.7582361 ], [ -90.746185, 35.763279 ], [ -90.7859377, 35.777918500000048 ], [ -90.803185, 35.857212 ], [ -90.790329023333825, 35.886963035752878 ], [ -90.702078907560619, 35.922225020004085 ], [ -90.645819605889329, 35.91088851888825 ], [ -90.597865205505428, 35.87844651801732 ], [ -90.584068, 35.821667 ], [ -90.584053, 35.819141 ], [ -90.591019, 35.778358 ], [ -90.6792723, 35.7582361 ] ] ] } },
{ "type": "Feature", "properties": { "OBJECTID": 2870, "ID": "0001142749", "NAME": "THE MEDICAL CENTER AT CAVERNA", "ADDRESS": "1501 S. DIXIE STREET", "CITY": "HORSE CAVE", "STATE": "KY", "ZIP": "42749", "ZIP4": "NOT AVAILABLE", "TELEPHONE": "(270) 786-2191", "TYPE": "CRITICAL ACCESS", "STATUS": "OPEN", "POPULATION": 25, "COUNTY": "HART", "COUNTYFIPS": "21099", "COUNTRY": "USA", "LATITUDE": 37.161306148000101, "LONGITUDE": -85.923038156000004, "NAICS_CODE": "622110", "NAICS_DESC": "GENERAL MEDICAL AND SURGICAL HOSPITALS", "SOURCE": "https://chfs.ky.gov/agencies/os/oig/dhc/Documents/Directories/Hospital_Directory.pdf", "SOURCEDATE": "2018-08-11T00:00:00.000Z", "VAL_METHOD": "IMAGERY", "VAL_DATE": "2014-02-10T00:00:00.000Z", "WEBSITE": "http://www.cavernahospital.com", "STATE_ID": "600065", "ALT_NAME": "CAVERNA MEMORIAL HOSPITAL", "ST_FIPS": "21", "OWNER": "NON-PROFIT", "TTL_STAFF": -999, "BEDS": 25, "TRAUMA": "NOT AVAILABLE", "HELIPAD": "Y" }, "geometry": { "type": "Polygon", "coordinates": [ [ [ -85.892214, 37.116098 ], [ -85.902333, 37.117637 ], [ -85.931945, 37.12256 ], [ -85.961921, 37.129114 ], [ -85.963379, 37.139726 ], [ -85.970023, 37.216762 ], [ -85.967468, 37.225171 ], [ -85.926624100000012, 37.244878600000021 ], [ -85.886749, 37.2549855 ], [ -85.822849, 37.192168 ], [ -85.803511, 37.165829 ], [ -85.892214, 37.116098 ] ] ] } },
{ "type": "Feature", "properties": { "OBJECTID": 2939, "ID": "0001263857", "NAME": "TWIN RIVERS REGIONAL MEDICAL CENTER", "ADDRESS": "1301 FIRST STREET", "CITY": "KENNETT", "STATE": "MO", "ZIP": "63857", "ZIP4": "NOT AVAILABLE", "TELEPHONE": "(573) 888-8522", "TYPE": "GENERAL ACUTE CARE", "STATUS": "OPEN", "POPULATION": 116, "COUNTY": "DUNKLIN", "COUNTYFIPS": "29069", "COUNTRY": "USA", "LATITUDE": 36.235403298999998, "LONGITUDE": -90.041166989000004, "NAICS_CODE": "622110", "NAICS_DESC": "GENERAL MEDICAL AND SURGICAL HOSPITALS", "SOURCE": "http://health.mo.gov/safety/healthservregs/directories.php", "SOURCEDATE": "2018-08-09T00:00:00.000Z", "VAL_METHOD": "IMAGERY", "VAL_DATE": "2014-03-12T00:00:00.000Z", "WEBSITE": "http://www.twinriversregional.com/", "STATE_ID": "H140", "ALT_NAME": "NOT AVAILABLE", "ST_FIPS": "29", "OWNER": "PROPRIETARY", "TTL_STAFF": -999, "BEDS": 116, "TRAUMA": "NOT AVAILABLE", "HELIPAD": "Y" }, "geometry": { "type": "Polygon", "coordinates": [ [ [ -90.145609, 36.148732 ], [ -90.1407888, 36.207277199999986 ], [ -90.12717, 36.2365226 ], [ -90.110226, 36.254522 ], [ -90.027954, 36.333277 ], [ -90.009035, 36.324177 ], [ -89.8886155, 36.234055500000018 ], [ -89.8886118, 36.233826100000023 ], [ -89.888616, 36.2335796 ], [ -90.07365, 36.156179 ], [ -90.14125, 36.148777 ], [ -90.145609, 36.148732 ] ] ] } },
{ "type": "Feature", "properties": { "OBJECTID": 2953, "ID": "0007938606", "NAME": "PANOLA MEDICAL CENTER", "ADDRESS": "303 MEDICAL CENTER", "CITY": "BATESVILLE", "STATE": "MS", "ZIP": "38606", "ZIP4": "NOT AVAILABLE", "TELEPHONE": "(662) 563-5611", "TYPE": "GENERAL ACUTE CARE", "STATUS": "OPEN", "POPULATION": 112, "COUNTY": "PANOLA", "COUNTYFIPS": "28107", "COUNTRY": "USA", "LATITUDE": 34.306298142000102, "LONGITUDE": -89.91460188000001, "NAICS_CODE": "622110", "NAICS_DESC": "GENERAL MEDICAL AND SURGICAL HOSPITALS", "SOURCE": "https://msdh.ms.gov/msdhsite/_static/resources/7660.pdf", "SOURCEDATE": "2018-08-09T00:00:00.000Z", "VAL_METHOD": "IMAGERY", "VAL_DATE": "2014-03-12T00:00:00.000Z", "WEBSITE": "https://www.panolamedicalcenter.org/", "STATE_ID": "LICENSE #12-287", "ALT_NAME": "MERIT HEALTH BATESVILLE", "ST_FIPS": "28", "OWNER": "PROPRIETARY", "TTL_STAFF": -999, "BEDS": 112, "TRAUMA": "NOT AVAILABLE", "HELIPAD": "Y" }, "geometry": { "type": "Polygon", "coordinates": [ [ [ -89.9385241, 34.2016374 ], [ -90.044721900000013, 34.295782200000041 ], [ -89.9113718, 34.4370536 ], [ -89.9079832, 34.438322299999975 ], [ -89.9001297, 34.439813200000032 ], [ -89.898444, 34.439684 ], [ -89.8923851, 34.4372449 ], [ -89.7473462, 34.340249800000016 ], [ -89.836007, 34.274506 ], [ -89.857936, 34.258844 ], [ -89.9380083, 34.2016671 ], [ -89.9385241, 34.2016374 ] ] ] } },
{ "type": "Feature", "properties": { "OBJECTID": 6297, "ID": "0009238138", "NAME": "METHODIST LE BONHEUR GERMANTOWN HOSPITAL", "ADDRESS": "7691 POPLAR AVENUE", "CITY": "GERMANTOWN", "STATE": "TN", "ZIP": "38138", "ZIP4": "NOT AVAILABLE", "TELEPHONE": "(901) 754-6418", "TYPE": "GENERAL ACUTE CARE", "STATUS": "OPEN", "POPULATION": 309, "COUNTY": "SHELBY", "COUNTYFIPS": "47157", "COUNTRY": "USA", "LATITUDE": 35.089818160999997, "LONGITUDE": -89.808366228999901, "NAICS_CODE": "622110", "NAICS_DESC": "GENERAL MEDICAL AND SURGICAL HOSPITALS", "SOURCE": "https://apps.health.tn.gov/FacilityListings", "SOURCEDATE": "2018-08-10T00:00:00.000Z", "VAL_METHOD": "IMAGERY/OTHER", "VAL_DATE": "2014-02-10T00:00:00.000Z", "WEBSITE": "http://www.methodisthealth.org/locations/methodist-le-bonheur-germantown-hospital", "STATE_ID": "819393", "ALT_NAME": "NOT AVAILABLE", "ST_FIPS": "47", "OWNER": "NON-PROFIT", "TTL_STAFF": -999, "BEDS": 309, "TRAUMA": "NOT AVAILABLE", "HELIPAD": "Y" }, "geometry": { "type": "Polygon", "coordinates": [ [ [ -89.7953752, 34.9945474 ], [ -89.8308949, 34.9997243 ], [ -89.848644102307276, 35.012677220141676 ], [ -89.867078714797458, 35.02904752976567 ], [ -89.888604225036261, 35.050589174309508 ], [ -89.911738829236313, 35.078011158054473 ], [ -89.91857861570773, 35.107176736627515 ], [ -89.911968304050703, 35.118346993847673 ], [ -89.909244500000014, 35.121649900000037 ], [ -89.8834579, 35.152299200000023 ], [ -89.7931266, 35.188446800000051 ], [ -89.7927138, 35.188446199999987 ], [ -89.792508, 35.188442399999971 ], [ -89.7612017, 35.163727 ], [ -89.7365972, 35.132519499999958 ], [ -89.706017012199553, 35.087690123782274 ], [ -89.707966802537513, 35.04679450662605 ], [ -89.722969697120206, 35.024401589870699 ], [ -89.7596129, 35.0060319 ], [ -89.7953752, 34.9945474 ] ] ] } },
{ "type": "Feature", "properties": { "OBJECTID": 6298, "ID": "0009338128", "NAME": "METHODIST HOSPITAL-NORTH", "ADDRESS": "3960 NEW COVINGTON PIKE", "CITY": "MEMPHIS", "STATE": "TN", "ZIP": "38128", "ZIP4": "NOT AVAILABLE", "TELEPHONE": "(901) 384-5200", "TYPE": "GENERAL ACUTE CARE", "STATUS": "OPEN", "POPULATION": 246, "COUNTY": "SHELBY", "COUNTYFIPS": "47157", "COUNTRY": "USA", "LATITUDE": 35.234070245000098, "LONGITUDE": -89.892820927999907, "NAICS_CODE": "622110", "NAICS_DESC": "GENERAL MEDICAL AND SURGICAL HOSPITALS", "SOURCE": "https://apps.health.tn.gov/FacilityListings", "SOURCEDATE": "2018-08-10T00:00:00.000Z", "VAL_METHOD": "IMAGERY/OTHER", "VAL_DATE": "2014-02-10T00:00:00.000Z", "WEBSITE": "http://www.methodisthealth.org/locations/methodist-north-hospital", "STATE_ID": "778599", "ALT_NAME": "NOT AVAILABLE", "ST_FIPS": "47", "OWNER": "NON-PROFIT", "TTL_STAFF": -999, "BEDS": 246, "TRAUMA": "NOT AVAILABLE", "HELIPAD": "Y" }, "geometry": { "type": "Polygon", "coordinates": [ [ [ -89.9086836, 35.130583799999982 ], [ -89.951655200000019, 35.141657100000025 ], [ -89.9671535, 35.147476 ], [ -89.9805102, 35.155803299999981 ], [ -90.0179279, 35.187065300000057 ], [ -90.0205831, 35.195113600000013 ], [ -90.0127938, 35.21789069999997 ], [ -89.9691584, 35.278915399999988 ], [ -89.920315, 35.3320901 ], [ -89.9190997, 35.332920200000025 ], [ -89.8971507, 35.342321600000012 ], [ -89.8306063, 35.327962 ], [ -89.8153621, 35.321268500000023 ], [ -89.792790100000019, 35.304658499999988 ], [ -89.784634, 35.261358799999975 ], [ -89.7979115, 35.2149028 ], [ -89.8023936, 35.2030899 ], [ -89.8680022, 35.1305071 ], [ -89.9086836, 35.130583799999982 ] ] ] } },
{ "type": "Feature", "properties": { "OBJECTID": 6299, "ID": "0009438116", "NAME": "METHODIST HOSPITAL-SOUTH", "ADDRESS": "1300 WESLEY DRIVE", "CITY": "MEMPHIS", "STATE": "TN", "ZIP": "38116", "ZIP4": "NOT AVAILABLE", "TELEPHONE": "(901) 346-3770", "TYPE": "GENERAL ACUTE CARE", "STATUS": "OPEN", "POPULATION": 156, "COUNTY": "SHELBY", "COUNTYFIPS": "47157", "COUNTRY": "USA", "LATITUDE": 35.032982873000002, "LONGITUDE": -90.021200694999905, "NAICS_CODE": "622110", "NAICS_DESC": "GENERAL MEDICAL AND SURGICAL HOSPITALS", "SOURCE": "https://apps.health.tn.gov/FacilityListings", "SOURCEDATE": "2018-08-10T00:00:00.000Z", "VAL_METHOD": "IMAGERY", "VAL_DATE": "2014-02-10T00:00:00.000Z", "WEBSITE": "http://www.methodisthealth.org/locations/methodist-south-hospital", "STATE_ID": "836534", "ALT_NAME": "NOT AVAILABLE", "ST_FIPS": "47", "OWNER": "NON-PROFIT", "TTL_STAFF": -999, "BEDS": 156, "TRAUMA": "NOT AVAILABLE", "HELIPAD": "N" }, "geometry": { "type": "Polygon", "coordinates": [ [ [ -89.991317, 34.900185 ], [ -90.1262035, 34.9955106 ], [ -90.128286751293231, 35.032453299612882 ], [ -90.128129549608289, 35.0395775468469 ], [ -90.077790447823588, 35.108103016244371 ], [ -90.074746547316565, 35.110705833909833 ], [ -90.0223331, 35.1452495 ], [ -89.984298650445353, 35.119492791143244 ], [ -89.927007640847009, 35.079259782412734 ], [ -89.910760744772247, 35.051843304266278 ], [ -89.904565357782232, 35.020624816386878 ], [ -89.904564757870446, 35.020476615524615 ], [ -89.991317, 34.900185 ] ] ] } },
{ "type": "Feature", "properties": { "OBJECTID": 6300, "ID": "0012738104", "NAME": "METHODIST EXTENDED CARE HOSPITAL", "ADDRESS": "225 SOUTH CLAYBROOK", "CITY": "MEMPHIS", "STATE": "TN", "ZIP": "38104", "ZIP4": "NOT AVAILABLE", "TELEPHONE": "(901) 516-2152", "TYPE": "LONG TERM CARE", "STATUS": "CLOSED", "POPULATION": 36, "COUNTY": "SHELBY", "COUNTYFIPS": "47157", "COUNTRY": "USA", "LATITUDE": 35.135149539000103, "LONGITUDE": -90.01835992, "NAICS_CODE": "622310", "NAICS_DESC": "EXTENDED CARE HOSPITALS (EXCEPT MENTAL, SUBSTANCE ABUSE)", "SOURCE": "http://tnmap.state.tn.us/portal/metadata.asp", "SOURCEDATE": "2012-06-11T00:00:00.000Z", "VAL_METHOD": "IMAGERY/OTHER", "VAL_DATE": "2014-03-12T00:00:00.000Z", "WEBSITE": "http://www.methodisthealth.org/locations/methodist-extended-care-hospital", "STATE_ID": "804251", "ALT_NAME": "NOT AVAILABLE", "ST_FIPS": "47", "OWNER": "NON-PROFIT", "TTL_STAFF": -999, "BEDS": 36, "TRAUMA": "NOT AVAILABLE", "HELIPAD": "Y" }, "geometry": { "type": "Polygon", "coordinates": [ [ [ -90.002702155162623, 35.020857903998895 ], [ -90.025186731901741, 35.02705482807788 ], [ -90.062653785416728, 35.055378985183928 ], [ -90.084182162511979, 35.074927500189609 ], [ -90.097095644962877, 35.100879963165951 ], [ -90.100985740107745, 35.109470217786878 ], [ -90.04589, 35.2159518 ], [ -90.04068, 35.225848 ], [ -90.0250111, 35.23506859999997 ], [ -90.0084799, 35.242854199999982 ], [ -90.008291, 35.242745 ], [ -89.9198396, 35.19116469999998 ], [ -89.904741300000012, 35.14609430000003 ], [ -89.9041265, 35.144233899999968 ], [ -89.905741601557267, 35.115713770750133 ], [ -89.927558859535054, 35.052870027549403 ], [ -90.002702155162623, 35.020857903998895 ] ] ] } },
{ "type": "Feature", "properties": { "OBJECTID": 6301, "ID": "0013038017", "NAME": "BAPTIST MEMORIAL HOSPITAL - COLLIERVILLE", "ADDRESS": "1500 WEST POPLAR", "CITY": "COLLIERVILLE", "STATE": "TN", "ZIP": "38017", "ZIP4": "NOT AVAILABLE", "TELEPHONE": "(901) 861-9400", "TYPE": "GENERAL ACUTE CARE", "STATUS": "OPEN", "POPULATION": 81, "COUNTY": "SHELBY", "COUNTYFIPS": "47157", "COUNTRY": "USA", "LATITUDE": 35.049484368000002, "LONGITUDE": -89.714512801999902, "NAICS_CODE": "622110", "NAICS_DESC": "GENERAL MEDICAL AND SURGICAL HOSPITALS", "SOURCE": "https://apps.health.tn.gov/FacilityListings", "SOURCEDATE": "2018-08-10T00:00:00.000Z", "VAL_METHOD": "IMAGERY/OTHER", "VAL_DATE": "2014-02-10T00:00:00.000Z", "WEBSITE": "http://www.baptistonline.org/collierville/", "STATE_ID": "832568", "ALT_NAME": "NOT AVAILABLE", "ST_FIPS": "47", "OWNER": "NON-PROFIT", "TTL_STAFF": -999, "BEDS": 81, "TRAUMA": "NOT AVAILABLE", "HELIPAD": "N" }, "geometry": { "type": "Polygon", "coordinates": [ [ [ -89.6889936, 34.961102399999987 ], [ -89.7879929, 35.0059867 ], [ -89.80562375437195, 35.02044332423305 ], [ -89.837161677804801, 35.049353914844438 ], [ -89.833985572106727, 35.057969359670103 ], [ -89.81290364461978, 35.094634039536693 ], [ -89.792823328222383, 35.103249362924394 ], [ -89.7280578, 35.129492599999978 ], [ -89.7090866, 35.120174800000022 ], [ -89.657365324735778, 35.079194172428807 ], [ -89.649658323798718, 35.072760237075613 ], [ -89.649170123721802, 35.072349934820011 ], [ -89.64577232262468, 35.068519213904821 ], [ -89.64511272238579, 35.067754009728027 ], [ -89.642665821091768, 35.064234290588622 ], [ -89.642186917655337, 35.057652155336484 ], [ -89.641265597785207, 35.020726357789485 ], [ -89.644824093497093, 35.012669615275335 ], [ -89.6889936, 34.961102399999987 ] ] ] } },
{ "type": "Feature", "properties": { "OBJECTID": 6302, "ID": "0013338120", "NAME": "BAPTIST MEMORIAL HOSPITAL FOR WOMEN", "ADDRESS": "6225 HUMPHREYS BOULEVARD", "CITY": "MEMPHIS", "STATE": "TN", "ZIP": "38120", "ZIP4": "NOT AVAILABLE", "TELEPHONE": "(901) 227-9000", "TYPE": "WOMEN", "STATUS": "OPEN", "POPULATION": 140, "COUNTY": "SHELBY", "COUNTYFIPS": "47157", "COUNTRY": "USA", "LATITUDE": 35.1278750170001, "LONGITUDE": -89.85529467000001, "NAICS_CODE": "622310", "NAICS_DESC": "SPECIALTY (EXCEPT PSYCHIATRIC AND SUBSTANCE ABUSE) HOSPITALS", "SOURCE": "https://apps.health.tn.gov/FacilityListings", "SOURCEDATE": "2018-08-10T00:00:00.000Z", "VAL_METHOD": "IMAGERY/OTHER", "VAL_DATE": "2014-03-13T00:00:00.000Z", "WEBSITE": "http://www.baptistonline.org/womens/", "STATE_ID": "807203", "ALT_NAME": "NOT AVAILABLE", "ST_FIPS": "47", "OWNER": "NON-PROFIT", "TTL_STAFF": -999, "BEDS": 140, "TRAUMA": "NOT AVAILABLE", "HELIPAD": "N" }, "geometry": { "type": "Polygon", "coordinates": [ [ [ -89.847109591030957, 35.038652664804417 ], [ -89.9081161427696, 35.051137297439439 ], [ -89.932148652188346, 35.069156928481519 ], [ -89.948088055415695, 35.082550825593081 ], [ -89.9755918, 35.147092700000051 ], [ -89.9814557, 35.1921567 ], [ -89.9255371, 35.2269181 ], [ -89.893833, 35.225155499999985 ], [ -89.7750911, 35.202851500000023 ], [ -89.7280578, 35.129492599999978 ], [ -89.738451001729942, 35.094877665885484 ], [ -89.759027504471391, 35.079872497903423 ], [ -89.809508351923327, 35.049970390092291 ], [ -89.831152074693733, 35.041259263653195 ], [ -89.847109591030957, 35.038652664804417 ] ] ] } },
{ "type": "Feature", "properties": { "OBJECTID": 6303, "ID": "0013438128", "NAME": "HEALTHSOUTH REHABILITATION HOSPITAL - NORTH", "ADDRESS": "4100 AUSTIN PEAY", "CITY": "MEMPHIS", "STATE": "TN", "ZIP": "38128", "ZIP4": "NOT AVAILABLE", "TELEPHONE": "(901) 213-5400", "TYPE": "REHABILITATION", "STATUS": "OPEN", "POPULATION": 72, "COUNTY": "SHELBY", "COUNTYFIPS": "47157", "COUNTRY": "USA", "LATITUDE": 35.237201303000099, "LONGITUDE": -89.891940178, "NAICS_CODE": "622310", "NAICS_DESC": "REHABILITATION HOSPITALS (EXCEPT ALCOHOLISM, DRUG ADDICTION)", "SOURCE": "https://apps.health.tn.gov/FacilityListings", "SOURCEDATE": "2018-08-10T00:00:00.000Z", "VAL_METHOD": "IMAGERY/OTHER", "VAL_DATE": "2014-03-13T00:00:00.000Z", "WEBSITE": "http://www.healthsouthmemphis.com", "STATE_ID": "777806", "ALT_NAME": "NOT AVAILABLE", "ST_FIPS": "47", "OWNER": "PROPRIETARY", "TTL_STAFF": -999, "BEDS": 72, "TRAUMA": "NOT AVAILABLE", "HELIPAD": "N" }, "geometry": { "type": "Polygon", "coordinates": [ [ [ -89.9086836, 35.130583799999982 ], [ -89.951655200000019, 35.141657100000025 ], [ -89.9671535, 35.147476 ], [ -89.9805102, 35.155803299999981 ], [ -90.0179279, 35.187065300000057 ], [ -90.0205831, 35.195113600000013 ], [ -90.0127938, 35.21789069999997 ], [ -89.9691584, 35.278915399999988 ], [ -89.920315, 35.3320901 ], [ -89.9190997, 35.332920200000025 ], [ -89.8971507, 35.342321600000012 ], [ -89.8305681, 35.329652800000019 ], [ -89.768466, 35.310503 ], [ -89.7969621, 35.218447 ], [ -89.8023757, 35.204569800000037 ], [ -89.867830500000011, 35.1336395 ], [ -89.9086836, 35.130583799999982 ] ] ] } },
{ "type": "Feature", "properties": { "OBJECTID": 6316, "ID": "0005038063", "NAME": "LAUDERDALE COMMUNITY HOSPITAL", "ADDRESS": "326 ASBURY AVENUE", "CITY": "RIPLEY", "STATE": "TN", "ZIP": "38063", "ZIP4": "NOT AVAILABLE", "TELEPHONE": "(731) 221-2200", "TYPE": "CRITICAL ACCESS", "STATUS": "OPEN", "POPULATION": 25, "COUNTY": "LAUDERDALE", "COUNTYFIPS": "47097", "COUNTRY": "USA", "LATITUDE": 35.744352517000003, "LONGITUDE": -89.549635189999904, "NAICS_CODE": "622110", "NAICS_DESC": "GENERAL MEDICAL AND SURGICAL HOSPITALS", "SOURCE": "https://apps.health.tn.gov/FacilityListings", "SOURCEDATE": "2018-08-10T00:00:00.000Z", "VAL_METHOD": "IMAGERY", "VAL_DATE": "2014-03-13T00:00:00.000Z", "WEBSITE": "www.lauderdalehospital.com/?", "STATE_ID": "723053", "ALT_NAME": "BAPTIST MEMORIAL HOSPITAL LAUDERDALE", "ST_FIPS": "47", "OWNER": "PROPRIETARY", "TTL_STAFF": -999, "BEDS": 25, "TRAUMA": "NOT AVAILABLE", "HELIPAD": "Y" }, "geometry": { "type": "Polygon", "coordinates": [ [ [ -89.6035012587175, 35.645327818488546 ], [ -89.6037423588743, 35.645496818186402 ], [ -89.63488871410415, 35.773178776074175 ], [ -89.615515805696191, 35.781337354790764 ], [ -89.601250800566334, 35.786859407500067 ], [ -89.554059688956357, 35.802842356301312 ], [ -89.53653818035994, 35.807754109288759 ], [ -89.461409166808338, 35.821241931121534 ], [ -89.465369905675189, 35.714101822221949 ], [ -89.6035012587175, 35.645327818488546 ] ] ] } },
{ "type": "Feature", "properties": { "OBJECTID": 6317, "ID": "0005338261", "NAME": "BAPTIST MEMORIAL HOSPITAL - UNION CITY", "ADDRESS": "1201 BISHOP STREET", "CITY": "UNION CITY", "STATE": "TN", "ZIP": "38261", "ZIP4": "NOT AVAILABLE", "TELEPHONE": "(731) 885-2410", "TYPE": "GENERAL ACUTE CARE", "STATUS": "OPEN", "POPULATION": 137, "COUNTY": "OBION", "COUNTYFIPS": "47131", "COUNTRY": "USA", "LATITUDE": 36.414233778000003, "LONGITUDE": -89.044968581000006, "NAICS_CODE": "622110", "NAICS_DESC": "GENERAL MEDICAL AND SURGICAL HOSPITALS", "SOURCE": "https://apps.health.tn.gov/FacilityListings", "SOURCEDATE": "2018-08-10T00:00:00.000Z", "VAL_METHOD": "IMAGERY/OTHER", "VAL_DATE": "2014-03-12T00:00:00.000Z", "WEBSITE": "http://www.baptistonline.org/union-city/", "STATE_ID": "1066576", "ALT_NAME": "NOT AVAILABLE", "ST_FIPS": "47", "OWNER": "NON-PROFIT", "TTL_STAFF": -999, "BEDS": 137, "TRAUMA": "NOT AVAILABLE", "HELIPAD": "Y" }, "geometry": { "type": "Polygon", "coordinates": [ [ [ -89.075555962750485, 36.30207121877465 ], [ -89.1533177, 36.343722 ], [ -89.1509921, 36.4363842 ], [ -89.146147, 36.441505 ], [ -89.112508, 36.476853 ], [ -89.0355386, 36.4965496 ], [ -88.95619659127307, 36.468541993134565 ], [ -88.942311, 36.377601 ], [ -89.075555962750485, 36.30207121877465 ] ] ] } },
{ "type": "Feature", "properties": { "OBJECTID": 6321, "ID": "0005237043", "NAME": "TENNOVA HEALTHCARE - CLARKSVILLE", "ADDRESS": "651 DUNLOP LANE", "CITY": "CLARKSVILLE", "STATE": "TN", "ZIP": "37043", "ZIP4": "NOT AVAILABLE", "TELEPHONE": "(931) 551-1010", "TYPE": "GENERAL ACUTE CARE", "STATUS": "OPEN", "POPULATION": 270, "COUNTY": "MONTGOMERY", "COUNTYFIPS": "47125", "COUNTRY": "USA", "LATITUDE": 36.581976402000102, "LONGITUDE": -87.270473518000003, "NAICS_CODE": "622110", "NAICS_DESC": "GENERAL MEDICAL AND SURGICAL HOSPITALS", "SOURCE": "https://apps.health.tn.gov/FacilityListings", "SOURCEDATE": "2018-08-10T00:00:00.000Z", "VAL_METHOD": "IMAGERY/OTHER", "VAL_DATE": "2014-02-10T00:00:00.000Z", "WEBSITE": "http://www.tennovamiddle.com/locations/tennova-healthcare-clarksville", "STATE_ID": "1109732", "ALT_NAME": "GATEWAY MEDICAL CENTER", "ST_FIPS": "47", "OWNER": "PROPRIETARY", "TTL_STAFF": -999, "BEDS": 270, "TRAUMA": "NOT AVAILABLE", "HELIPAD": "Y" }, "geometry": { "type": "Polygon", "coordinates": [ [ [ -87.2835651, 36.492959399999975 ], [ -87.2873448, 36.494261899999977 ], [ -87.3521268, 36.522658400000012 ], [ -87.3637073, 36.5278537 ], [ -87.4062177, 36.586833600000027 ], [ -87.4065656, 36.587481199999964 ], [ -87.40588, 36.5881299 ], [ -87.3355116, 36.64089330000003 ], [ -87.314934, 36.6416921 ], [ -87.201474, 36.643483 ], [ -87.1853753, 36.5710064 ], [ -87.2023131, 36.527954200000018 ], [ -87.2412144, 36.501115500000019 ], [ -87.2835651, 36.492959399999975 ] ] ] } },
{ "type": "Feature", "properties": { "OBJECTID": 6323, "ID": "0000938344", "NAME": "BAPTIST MEMORIAL HOSPITAL - HUNTINGTON", "ADDRESS": "631 R.B. WILSON DRIVE", "CITY": "HUNTINGDON", "STATE": "TN", "ZIP": "38344", "ZIP4": "NOT AVAILABLE", "TELEPHONE": "(731) 986-4461", "TYPE": "GENERAL ACUTE CARE", "STATUS": "OPEN", "POPULATION": 70, "COUNTY": "CARROLL", "COUNTYFIPS": "47017", "COUNTRY": "USA", "LATITUDE": 36.023167343000097, "LONGITUDE": -88.412408587999906, "NAICS_CODE": "622110", "NAICS_DESC": "GENERAL MEDICAL AND SURGICAL HOSPITALS", "SOURCE": "https://apps.health.tn.gov/FacilityListings", "SOURCEDATE": "2018-08-10T00:00:00.000Z", "VAL_METHOD": "IMAGERY/OTHER", "VAL_DATE": "2014-02-10T00:00:00.000Z", "WEBSITE": "http://www.baptistonline.org/huntingdon/", "STATE_ID": "964099", "ALT_NAME": "NOT AVAILABLE", "ST_FIPS": "47", "OWNER": "NON-PROFIT", "TTL_STAFF": -999, "BEDS": 70, "TRAUMA": "NOT AVAILABLE", "HELIPAD": "Y" }, "geometry": { "type": "Polygon", "coordinates": [ [ [ -88.407138, 35.922733099999981 ], [ -88.468103, 35.951198 ], [ -88.471095, 35.953316 ], [ -88.519994, 36.000161 ], [ -88.520842, 36.00236 ], [ -88.4987932, 36.115757399999964 ], [ -88.4922056, 36.119251699999978 ], [ -88.4919576, 36.119213399999964 ], [ -88.3417304, 36.087929300000035 ], [ -88.3020237, 36.0380347 ], [ -88.3226957, 35.9838172 ], [ -88.403511, 35.9233803 ], [ -88.407138, 35.922733099999981 ] ] ] } },
{ "type": "Feature", "properties": { "OBJECTID": 6324, "ID": "0001038201", "NAME": "MCKENZIE REGIONAL HOSPITAL", "ADDRESS": "161 HOSPITAL DRIVE", "CITY": "MC KENZIE", "STATE": "TN", "ZIP": "38201", "ZIP4": "NOT AVAILABLE", "TELEPHONE": "(731) 352-5344", "TYPE": "GENERAL ACUTE CARE", "STATUS": "OPEN", "POPULATION": 45, "COUNTY": "CARROLL", "COUNTYFIPS": "47017", "COUNTRY": "USA", "LATITUDE": 36.137427350000102, "LONGITUDE": -88.489360332999993, "NAICS_CODE": "622110", "NAICS_DESC": "GENERAL MEDICAL AND SURGICAL HOSPITALS", "SOURCE": "https://apps.health.tn.gov/FacilityListings", "SOURCEDATE": "2018-08-10T00:00:00.000Z", "VAL_METHOD": "IMAGERY/OTHER", "VAL_DATE": "2014-03-13T00:00:00.000Z", "WEBSITE": "http://www.mckenzieregionalhospital.com", "STATE_ID": "978254", "ALT_NAME": "NOT AVAILABLE", "ST_FIPS": "47", "OWNER": "PROPRIETARY", "TTL_STAFF": -999, "BEDS": 45, "TRAUMA": "NOT AVAILABLE", "HELIPAD": "Y" }, "geometry": { "type": "Polygon", "coordinates": [ [ [ -88.4457609, 36.0274071 ], [ -88.5755132, 36.063579 ], [ -88.5956647, 36.149452899999986 ], [ -88.59086240000002, 36.151934799999985 ], [ -88.5798187, 36.15502930000001 ], [ -88.4341902, 36.149481 ], [ -88.403012, 36.124063 ], [ -88.4455848, 36.027556300000022 ], [ -88.4457609, 36.0274071 ] ] ] } },
{ "type": "Feature", "properties": { "OBJECTID": 6332, "ID": "0003138363", "NAME": "DECATUR COUNTY GENERAL HOSPITAL", "ADDRESS": "969 TENNESSEE AVENUE SOUTH", "CITY": "PARSONS", "STATE": "TN", "ZIP": "38363", "ZIP4": "NOT AVAILABLE", "TELEPHONE": "(731) 847-3031", "TYPE": "GENERAL ACUTE CARE", "STATUS": "OPEN", "POPULATION": 40, "COUNTY": "DECATUR", "COUNTYFIPS": "47039", "COUNTRY": "USA", "LATITUDE": 35.635950701000098, "LONGITUDE": -88.122244891999998, "NAICS_CODE": "622110", "NAICS_DESC": "GENERAL MEDICAL AND SURGICAL HOSPITALS", "SOURCE": "https://apps.health.tn.gov/FacilityListings", "SOURCEDATE": "2018-08-10T00:00:00.000Z", "VAL_METHOD": "IMAGERY/OTHER", "VAL_DATE": "2014-03-12T00:00:00.000Z", "WEBSITE": "http://www.dcgh.org", "STATE_ID": "993774", "ALT_NAME": "NOT AVAILABLE", "ST_FIPS": "47", "OWNER": "GOVERNMENT - LOCAL", "TTL_STAFF": -999, "BEDS": 40, "TRAUMA": "NOT AVAILABLE", "HELIPAD": "Y" }, "geometry": { "type": "Polygon", "coordinates": [ [ [ -88.1474844, 35.518758499999983 ], [ -88.170114, 35.5477039 ], [ -88.19715, 35.598907 ], [ -88.189876, 35.674365 ], [ -88.16553, 35.697245 ], [ -88.0833098, 35.756216500000043 ], [ -88.0259275, 35.6254209 ], [ -88.0641071, 35.5817185 ], [ -88.1474844, 35.518758499999983 ] ] ] } },
{ "type": "Feature", "properties": { "OBJECTID": 6339, "ID": "0016438024", "NAME": "TENNOVA HEALTHCARE - DYERSBURG REGIONAL", "ADDRESS": "400 TICKLE ST", "CITY": "DYERSBURG", "STATE": "TN", "ZIP": "38024", "ZIP4": "NOT AVAILABLE", "TELEPHONE": "(731) 285-2410", "TYPE": "GENERAL ACUTE CARE", "STATUS": "OPEN", "POPULATION": 225, "COUNTY": "DYER", "COUNTYFIPS": "47045", "COUNTRY": "USA", "LATITUDE": 36.048185578000101, "LONGITUDE": -89.379914415000002, "NAICS_CODE": "622110", "NAICS_DESC": "GENERAL MEDICAL AND SURGICAL HOSPITALS", "SOURCE": "https://apps.health.tn.gov/FacilityListings", "SOURCEDATE": "2018-08-10T00:00:00.000Z", "VAL_METHOD": "IMAGERY/OTHER", "VAL_DATE": "2014-02-10T00:00:00.000Z", "WEBSITE": "http://www.tennovawest.com/locations/tennova-healthcare-dyersburg-regional", "STATE_ID": "NOT AVAILABLE", "ALT_NAME": "DYERSBURG REGIONAL MEDICAL CENTER", "ST_FIPS": "47", "OWNER": "PROPRIETARY", "TTL_STAFF": -999, "BEDS": 225, "TRAUMA": "NOT AVAILABLE", "HELIPAD": "Y" }, "geometry": { "type": "Polygon", "coordinates": [ [ [ -89.405345114540268, 35.950331069092684 ], [ -89.405492914689063, 35.950438869527481 ], [ -89.4893698, 36.036086699999949 ], [ -89.5021353, 36.076245799999967 ], [ -89.4316788, 36.134149799999989 ], [ -89.2771398, 36.125450200000017 ], [ -89.2709626, 36.121454 ], [ -89.272585, 36.028706 ], [ -89.2728567, 36.024231100000051 ], [ -89.332022775507198, 35.965217961423257 ], [ -89.405345114540268, 35.950331069092684 ] ] ] } },
{ "type": "Feature", "properties": { "OBJECTID": 6342, "ID": "0013538237", "NAME": "HEALTHSOUTH CANE CREEK REHABILITATION CENTER", "ADDRESS": "180 MT. PELIA ROAD", "CITY": "MARTIN", "STATE": "TN", "ZIP": "38237", "ZIP4": "NOT AVAILABLE", "TELEPHONE": "(731) 587-4231", "TYPE": "REHABILITATION", "STATUS": "OPEN", "POPULATION": 40, "COUNTY": "WEAKLEY", "COUNTYFIPS": "47183", "COUNTRY": "USA", "LATITUDE": 36.332552717000098, "LONGITUDE": -88.869910487, "NAICS_CODE": "622310", "NAICS_DESC": "REHABILITATION HOSPITALS (EXCEPT ALCOHOLISM, DRUG ADDICTION)", "SOURCE": "https://apps.health.tn.gov/FacilityListings", "SOURCEDATE": "2018-08-10T00:00:00.000Z", "VAL_METHOD": "IMAGERY/OTHER", "VAL_DATE": "2014-02-10T00:00:00.000Z", "WEBSITE": "http://www.healthsouthcanecreek.com", "STATE_ID": "1104772", "ALT_NAME": "NOT AVAILABLE", "ST_FIPS": "47", "OWNER": "PROPRIETARY", "TTL_STAFF": -999, "BEDS": 40, "TRAUMA": "NOT AVAILABLE", "HELIPAD": "N" }, "geometry": { "type": "Polygon", "coordinates": [ [ [ -88.831294, 36.219692400000014 ], [ -88.9559977, 36.303973800000016 ], [ -89.0014852, 36.420069400000024 ], [ -88.8549755, 36.407056 ], [ -88.836427, 36.396027 ], [ -88.784037, 36.343206 ], [ -88.7386229, 36.2924994 ], [ -88.7368304, 36.290249500000037 ], [ -88.7369613, 36.2901419 ], [ -88.8297685, 36.219651500000026 ], [ -88.831294, 36.219692400000014 ] ] ] } },
{ "type": "Feature", "properties": { "OBJECTID": 6820, "ID": "0008838138", "NAME": "BAPTIST REHABILITATION-GERMANTOWN", "ADDRESS": "2100 EXETER ROAD", "CITY": "GERMANTOWN", "STATE": "TN", "ZIP": "38138", "ZIP4": "NOT AVAILABLE", "TELEPHONE": "(901) 757-1350", "TYPE": "REHABILITATION", "STATUS": "CLOSED", "POPULATION": 68, "COUNTY": "SHELBY", "COUNTYFIPS": "47157", "COUNTRY": "USA", "LATITUDE": 35.092621432000001, "LONGITUDE": -89.801090204000005, "NAICS_CODE": "622310", "NAICS_DESC": "REHABILITATION HOSPITALS (EXCEPT ALCOHOLISM, DRUG ADDICTION)", "SOURCE": "http://tnmap.state.tn.us/portal/metadata.asp", "SOURCEDATE": "2012-06-11T00:00:00.000Z", "VAL_METHOD": "IMAGERY/OTHER", "VAL_DATE": "2014-03-13T00:00:00.000Z", "WEBSITE": "http://www.baptistonline.org/germantown/", "STATE_ID": "819198", "ALT_NAME": "NOT AVAILABLE", "ST_FIPS": "47", "OWNER": "NON-PROFIT", "TTL_STAFF": -999, "BEDS": 68, "TRAUMA": "NOT AVAILABLE", "HELIPAD": "N" }, "geometry": { "type": "Polygon", "coordinates": [ [ [ -89.795517, 35.005935699999981 ], [ -89.831201583632023, 35.012305102463515 ], [ -89.832197184503016, 35.012957706989454 ], [ -89.84828089749962, 35.02444968604852 ], [ -89.860739705874323, 35.034951957211177 ], [ -89.907979625704897, 35.078763058248732 ], [ -89.911230610694503, 35.106962726477157 ], [ -89.911968304050703, 35.118346993847673 ], [ -89.8809994, 35.1497069 ], [ -89.7923105, 35.1944143 ], [ -89.751740600000019, 35.159812700000018 ], [ -89.692195816219922, 35.085452510168636 ], [ -89.692234815962479, 35.084626705777644 ], [ -89.705408002840102, 35.046544804935259 ], [ -89.72156709805482, 35.030163420250616 ], [ -89.759665106463061, 35.012396639036389 ], [ -89.795517, 35.005935699999981 ] ] ] } },
{ "type": "Feature", "properties": { "OBJECTID": 6871, "ID": "0009538103", "NAME": "REGIONAL MEDICAL CENTER AT MEMPHIS", "ADDRESS": "877 JEFFERSON AVENUE", "CITY": "MEMPHIS", "STATE": "TN", "ZIP": "38103", "ZIP4": "NOT AVAILABLE", "TELEPHONE": "(901) 545-7928", "TYPE": "GENERAL ACUTE CARE", "STATUS": "OPEN", "POPULATION": 631, "COUNTY": "SHELBY", "COUNTYFIPS": "47157", "COUNTRY": "USA", "LATITUDE": 35.141803980000098, "LONGITUDE": -90.031828833999995, "NAICS_CODE": "622110", "NAICS_DESC": "GENERAL MEDICAL AND SURGICAL HOSPITALS", "SOURCE": "https://apps.health.tn.gov/FacilityListings", "SOURCEDATE": "2018-08-10T00:00:00.000Z", "VAL_METHOD": "IMAGERY/OTHER", "VAL_DATE": "2014-02-10T00:00:00.000Z", "WEBSITE": "http://www.regionalonehealth.org/regional-medical-center/", "STATE_ID": "802082", "ALT_NAME": "REGIONAL ONE HEALTH", "ST_FIPS": "47", "OWNER": "NON-PROFIT", "TTL_STAFF": -999, "BEDS": 631, "TRAUMA": "LEVEL I", "HELIPAD": "Y" }, "geometry": { "type": "Polygon", "coordinates": [ [ [ -90.025174028525342, 35.031099853282996 ], [ -90.03152392042341, 35.035302675706909 ], [ -90.060123887016516, 35.055282185873544 ], [ -90.084182162511979, 35.074927500189609 ], [ -90.097095644962877, 35.100879963165951 ], [ -90.100985740107745, 35.109470217786878 ], [ -90.0563289, 35.210633800000053 ], [ -90.040491, 35.231489 ], [ -90.0218695, 35.244239500000042 ], [ -90.0084799, 35.242854199999982 ], [ -90.008291, 35.242745 ], [ -89.926727, 35.1926237 ], [ -89.9126511, 35.1454723 ], [ -89.9173968, 35.1206799 ], [ -89.941544763173681, 35.065168414980761 ], [ -90.025174028525342, 35.031099853282996 ] ] ] } },
{ "type": "Feature", "properties": { "OBJECTID": 6949, "ID": "0009738105", "NAME": "ST. JOSEPH HOSPITAL", "ADDRESS": "220 OVERTON AVE.", "CITY": "MEMPHIS", "STATE": "TN", "ZIP": "38105", "ZIP4": "NOT AVAILABLE", "TELEPHONE": "(901) 577-2700", "TYPE": "GENERAL ACUTE CARE", "STATUS": "CLOSED", "POPULATION": 511, "COUNTY": "SHELBY", "COUNTYFIPS": "47157", "COUNTRY": "USA", "LATITUDE": 35.153273583999997, "LONGITUDE": -90.041874301999897, "NAICS_CODE": "622110", "NAICS_DESC": "GENERAL MEDICAL AND SURGICAL HOSPITALS", "SOURCE": "http://tnmap.state.tn.us/portal/metadata.asp", "SOURCEDATE": "2012-06-11T00:00:00.000Z", "VAL_METHOD": "IMAGERY/OTHER", "VAL_DATE": "2014-02-10T00:00:00.000Z", "WEBSITE": "http://www.saintfrancishosp.com", "STATE_ID": "798594", "ALT_NAME": "NOT AVAILABLE", "ST_FIPS": "47", "OWNER": "PROPRIETARY", "TTL_STAFF": -999, "BEDS": 511, "TRAUMA": "NOT AVAILABLE", "HELIPAD": "N" }, "geometry": { "type": "Polygon", "coordinates": [ [ [ -90.060123887016516, 35.055282185873544 ], [ -90.084182162511979, 35.074927500189609 ], [ -90.110312440920168, 35.099244847900898 ], [ -90.0563289, 35.210633800000053 ], [ -90.040491, 35.231489 ], [ -90.0084799, 35.242854199999982 ], [ -90.008291, 35.242745 ], [ -89.957608, 35.196913699999982 ], [ -89.9512269, 35.1900778 ], [ -89.9412054, 35.174033 ], [ -89.9410577, 35.1737359 ], [ -89.938798600000013, 35.1624882 ], [ -89.939789500000018, 35.1266439 ], [ -89.964152663694009, 35.087988676432502 ], [ -90.017113909629359, 35.059310733052968 ], [ -90.024755507663741, 35.056321810609518 ], [ -90.060123887016516, 35.055282185873544 ] ] ] } },
{ "type": "Feature", "properties": { "OBJECTID": 6997, "ID": "0006738012", "NAME": "HAYWOOD PARK COMMUNITY HOSPITAL", "ADDRESS": "2545 NORTH WASHINGTON AVENUE", "CITY": "BROWNSVILLE", "STATE": "TN", "ZIP": "38012", "ZIP4": "NOT AVAILABLE", "TELEPHONE": "(731) 772-4110", "TYPE": "GENERAL ACUTE CARE", "STATUS": "CLOSED", "POPULATION": 36, "COUNTY": "HAYWOOD", "COUNTYFIPS": "47075", "COUNTRY": "USA", "LATITUDE": 35.610572243999997, "LONGITUDE": -89.242976564999907, "NAICS_CODE": "622110", "NAICS_DESC": "GENERAL MEDICAL AND SURGICAL HOSPITALS", "SOURCE": "http://tnmap.state.tn.us/portal/metadata.asp", "SOURCEDATE": "2012-06-11T00:00:00.000Z", "VAL_METHOD": "IMAGERY/OTHER", "VAL_DATE": "2014-02-10T00:00:00.000Z", "WEBSITE": "http://www.haywoodparkcommunity.com", "STATE_ID": "1025284", "ALT_NAME": "NOT AVAILABLE", "ST_FIPS": "47", "OWNER": "PROPRIETARY", "TTL_STAFF": -999, "BEDS": 36, "TRAUMA": "NOT AVAILABLE", "HELIPAD": "Y" }, "geometry": { "type": "Polygon", "coordinates": [ [ [ -89.2562983, 35.517406799999961 ], [ -89.3271502, 35.546226800000035 ], [ -89.359957, 35.590555 ], [ -89.3389368, 35.6384681 ], [ -89.211526, 35.68182 ], [ -89.1414726, 35.672461399999953 ], [ -89.140773, 35.671625499999976 ], [ -89.132039, 35.587071 ], [ -89.18054, 35.545907899999953 ], [ -89.2562983, 35.517406799999961 ] ] ] } },
{ "type": "Feature", "properties": { "OBJECTID": 4098, "ID": "0017138103", "NAME": "REGIONAL ONE HEALTH EXTENDED CARE HOSPITAL", "ADDRESS": "890 MADISON AVENUE, 4TH FLOOR", "CITY": "MEMPHIS", "STATE": "TN", "ZIP": "38103", "ZIP4": "NOT AVAILABLE", "TELEPHONE": "(901) 515-3000", "TYPE": "LONG TERM CARE", "STATUS": "OPEN", "POPULATION": 24, "COUNTY": "SHELBY", "COUNTYFIPS": "47157", "COUNTRY": "USA", "LATITUDE": 35.140842678000098, "LONGITUDE": -90.031952566000001, "NAICS_CODE": "622310", "NAICS_DESC": "SPECIALTY (EXCEPT PSYCHIATRIC AND SUBSTANCE ABUSE) HOSPITALS", "SOURCE": "https://apps.health.tn.gov/FacilityListings", "SOURCEDATE": "2018-08-10T00:00:00.000Z", "VAL_METHOD": "IMAGERY/OTHER", "VAL_DATE": "2016-11-21T00:00:00.000Z", "WEBSITE": "http://www.regionalonehealth.org/extended-care-hospital/", "STATE_ID": "NOT AVAILABLE", "ALT_NAME": "NOT AVAILABLE", "ST_FIPS": "47", "OWNER": "NON-PROFIT", "TTL_STAFF": -999, "BEDS": 24, "TRAUMA": "NOT AVAILABLE", "HELIPAD": "Y" }, "geometry": { "type": "Polygon", "coordinates": [ [ [ -90.00263775151717, 35.024689127580849 ], [ -90.025186731901741, 35.02705482807788 ], [ -90.062653785416728, 35.055378985183928 ], [ -90.084182162511979, 35.074927500189609 ], [ -90.097095644962877, 35.100879963165951 ], [ -90.100985740107745, 35.109470217786878 ], [ -90.04589, 35.2159518 ], [ -90.04068, 35.225848 ], [ -90.0250111, 35.23506859999997 ], [ -90.0084799, 35.242854199999982 ], [ -90.008291, 35.242745 ], [ -89.926727, 35.1926237 ], [ -89.9173968, 35.1206799 ], [ -89.938531960605715, 35.065104411375749 ], [ -90.00263775151717, 35.024689127580849 ] ] ] } },
{ "type": "Feature", "properties": { "OBJECTID": 4158, "ID": "0017438119", "NAME": "SELECT SPECIALTY HOSPITAL - MEMPHIS", "ADDRESS": "5959 PARK AVENUE, 12TH FLOOR", "CITY": "MEMPHIS", "STATE": "TN", "ZIP": "38119", "ZIP4": "NOT AVAILABLE", "TELEPHONE": "(901) 765-1425", "TYPE": "LONG TERM CARE", "STATUS": "OPEN", "POPULATION": 39, "COUNTY": "SHELBY", "COUNTYFIPS": "47157", "COUNTRY": "USA", "LATITUDE": 35.098233585000102, "LONGITUDE": -89.864004308999895, "NAICS_CODE": "622310", "NAICS_DESC": "SPECIALTY (EXCEPT PSYCHIATRIC AND SUBSTANCE ABUSE) HOSPITALS", "SOURCE": "https://apps.health.tn.gov/FacilityListings", "SOURCEDATE": "2018-08-10T00:00:00.000Z", "VAL_METHOD": "IMAGERY", "VAL_DATE": "2016-11-21T00:00:00.000Z", "WEBSITE": "http://memphis.selectspecialtyhospitals.com/", "STATE_ID": "NOT AVAILABLE", "ALT_NAME": "NOT AVAILABLE", "ST_FIPS": "47", "OWNER": "PROPRIETARY", "TTL_STAFF": -999, "BEDS": 39, "TRAUMA": "NOT AVAILABLE", "HELIPAD": "Y" }, "geometry": { "type": "Polygon", "coordinates": [ [ [ -89.8643627, 35.008833499999987 ], [ -89.937122378085533, 35.039459257952593 ], [ -89.985853390679054, 35.07702733460323 ], [ -89.97703145566129, 35.108293514200952 ], [ -89.966161, 35.134433100000045 ], [ -89.9189061, 35.1907742 ], [ -89.8362319, 35.17987890000002 ], [ -89.7870872, 35.130495400000029 ], [ -89.759597304560486, 35.097099090338652 ], [ -89.759609904572912, 35.096957089596792 ], [ -89.768289312373994, 35.072643569543445 ], [ -89.793131640177677, 35.027682952123307 ], [ -89.795732343075557, 35.026162146292656 ], [ -89.831228682704278, 35.015420619837606 ], [ -89.8643627, 35.008833499999987 ] ] ] } },
{ "type": "Feature", "properties": { "OBJECTID": 4330, "ID": "0008238301", "NAME": "JACKSON - MADISON COUNTY GENERAL HOSPITAL", "ADDRESS": "620 SKYLINE DRIVE", "CITY": "JACKSON", "STATE": "TN", "ZIP": "38301", "ZIP4": "NOT AVAILABLE", "TELEPHONE": "(731) 425-5000", "TYPE": "GENERAL ACUTE CARE", "STATUS": "OPEN", "POPULATION": 635, "COUNTY": "MADISON", "COUNTYFIPS": "47113", "COUNTRY": "USA", "LATITUDE": 35.636732657000003, "LONGITUDE": -88.831789685999993, "NAICS_CODE": "622110", "NAICS_DESC": "GENERAL MEDICAL AND SURGICAL HOSPITALS", "SOURCE": "https://apps.health.tn.gov/FacilityListings", "SOURCEDATE": "2018-08-10T00:00:00.000Z", "VAL_METHOD": "IMAGERY/OTHER", "VAL_DATE": "2014-02-10T00:00:00.000Z", "WEBSITE": "http://www.wth.org/locations/page/jackson-madison-co-general", "STATE_ID": "124979", "ALT_NAME": "NOT AVAILABLE", "ST_FIPS": "47", "OWNER": "GOVERNMENT - DISTRICT/AUTHORITY", "TTL_STAFF": -999, "BEDS": 635, "TRAUMA": "NOT AVAILABLE", "HELIPAD": "Y" }, "geometry": { "type": "Polygon", "coordinates": [ [ [ -88.8269991, 35.534508700000011 ], [ -88.9527391, 35.632221899999983 ], [ -88.908166, 35.699882899999984 ], [ -88.8688198, 35.732443199999977 ], [ -88.8488803, 35.7384415 ], [ -88.730477300000018, 35.696687200000014 ], [ -88.727782, 35.6787488 ], [ -88.7478844, 35.6111518 ], [ -88.7889962, 35.5370089 ], [ -88.789771, 35.536350400000018 ], [ -88.8269991, 35.534508700000011 ] ] ] } },
{ "type": "Feature", "properties": { "OBJECTID": 4332, "ID": "0008938118", "NAME": "DELTA MEDICAL CENTER", "ADDRESS": "3000 GETWELL ROAD", "CITY": "MEMPHIS", "STATE": "TN", "ZIP": "38118", "ZIP4": "NOT AVAILABLE", "TELEPHONE": "(901) 369-8100", "TYPE": "GENERAL ACUTE CARE", "STATUS": "OPEN", "POPULATION": 223, "COUNTY": "SHELBY", "COUNTYFIPS": "47157", "COUNTRY": "USA", "LATITUDE": 35.067067456000103, "LONGITUDE": -89.931151192999906, "NAICS_CODE": "622110", "NAICS_DESC": "GENERAL MEDICAL AND SURGICAL HOSPITALS", "SOURCE": "https://apps.health.tn.gov/FacilityListings", "SOURCEDATE": "2018-08-10T00:00:00.000Z", "VAL_METHOD": "IMAGERY/OTHER", "VAL_DATE": "2013-09-11T00:00:00.000Z", "WEBSITE": "http://www.deltamedcenter.com", "STATE_ID": "1107946", "ALT_NAME": "NOT AVAILABLE", "ST_FIPS": "47", "OWNER": "PROPRIETARY", "TTL_STAFF": -999, "BEDS": 223, "TRAUMA": "NOT AVAILABLE", "HELIPAD": "N" }, "geometry": { "type": "Polygon", "coordinates": [ [ [ -89.843215, 34.95334 ], [ -89.8657354, 34.958551 ], [ -89.9899083, 34.998726700000027 ], [ -90.017984242849636, 35.020890694331385 ], [ -90.052083092095017, 35.055010288303947 ], [ -90.065589668758946, 35.079851739837565 ], [ -90.0310015, 35.1334549 ], [ -90.0296235, 35.1348749 ], [ -89.9805102, 35.155803299999981 ], [ -89.9263475, 35.164002700000019 ], [ -89.9058951, 35.1588874 ], [ -89.8834579, 35.152299200000023 ], [ -89.8444971, 35.13500860000002 ], [ -89.821658850768401, 35.09620305846191 ], [ -89.803906346863471, 35.049254580459333 ], [ -89.843215, 34.95334 ] ] ] } },
{ "type": "Feature", "properties": { "OBJECTID": 4334, "ID": "0016037055", "NAME": "TRISTAR HORIZON MEDICAL CENTER", "ADDRESS": "111 HIGHWAY 70 EAST", "CITY": "DICKSON", "STATE": "TN", "ZIP": "37055", "ZIP4": "NOT AVAILABLE", "TELEPHONE": "(615) 446-0446", "TYPE": "GENERAL ACUTE CARE", "STATUS": "OPEN", "POPULATION": 157, "COUNTY": "DICKSON", "COUNTYFIPS": "47043", "COUNTRY": "USA", "LATITUDE": 36.073306166000101, "LONGITUDE": -87.375727161, "NAICS_CODE": "622110", "NAICS_DESC": "GENERAL MEDICAL AND SURGICAL HOSPITALS", "SOURCE": "https://apps.health.tn.gov/FacilityListings", "SOURCEDATE": "2018-08-10T00:00:00.000Z", "VAL_METHOD": "IMAGERY/OTHER", "VAL_DATE": "2014-02-10T00:00:00.000Z", "WEBSITE": "http://tristarhorizon.com/", "STATE_ID": "NOT AVAILABLE", "ALT_NAME": "NOT AVAILABLE", "ST_FIPS": "47", "OWNER": "PROPRIETARY", "TTL_STAFF": -999, "BEDS": 157, "TRAUMA": "LEVEL III", "HELIPAD": "Y" }, "geometry": { "type": "Polygon", "coordinates": [ [ [ -87.315493600000011, 35.976280099999975 ], [ -87.4465688, 36.017725 ], [ -87.497635, 36.088484 ], [ -87.4970932, 36.091971399999977 ], [ -87.4310891, 36.149056799999961 ], [ -87.3478628, 36.170747299999974 ], [ -87.2518809, 36.1073464 ], [ -87.2746891, 36.04593 ], [ -87.3148758, 35.976270100000036 ], [ -87.315493600000011, 35.976280099999975 ] ] ] } },
{ "type": "Feature", "properties": { "OBJECTID": 4338, "ID": "0004438382", "NAME": "GIBSON GENERAL HOSPITAL", "ADDRESS": "200 HOSPITAL DRIVE", "CITY": "TRENTON", "STATE": "TN", "ZIP": "38382", "ZIP4": "NOT AVAILABLE", "TELEPHONE": "(731) 855-7900", "TYPE": "GENERAL ACUTE CARE", "STATUS": "CLOSED", "POPULATION": 32, "COUNTY": "GIBSON", "COUNTYFIPS": "47053", "COUNTRY": "USA", "LATITUDE": 35.963157549000101, "LONGITUDE": -88.93894563000001, "NAICS_CODE": "622110", "NAICS_DESC": "GENERAL MEDICAL AND SURGICAL HOSPITALS", "SOURCE": "http://tnmap.state.tn.us/portal/metadata.asp", "SOURCEDATE": "2012-06-11T00:00:00.000Z", "VAL_METHOD": "IMAGERY", "VAL_DATE": "2013-09-16T00:00:00.000Z", "WEBSITE": "http://www.wth.net", "STATE_ID": "1021380", "ALT_NAME": "NOT AVAILABLE", "ST_FIPS": "47", "OWNER": "GOVERNMENT - DISTRICT/AUTHORITY", "TTL_STAFF": -999, "BEDS": 32, "TRAUMA": "NOT AVAILABLE", "HELIPAD": "N" }, "geometry": { "type": "Polygon", "coordinates": [ [ [ -88.9154303, 35.846980300000034 ], [ -89.0103078, 35.913624299999974 ], [ -89.0612406, 35.991464899999976 ], [ -89.0612253, 35.9917118 ], [ -88.9953198, 36.0530822 ], [ -88.9951416, 36.0532067 ], [ -88.8841088, 36.04706969999998 ], [ -88.83353, 35.978673 ], [ -88.8501216, 35.940580099999977 ], [ -88.8646001, 35.916682199999983 ], [ -88.9154303, 35.846980300000034 ] ] ] } },
{ "type": "Feature", "properties": { "OBJECTID": 4339, "ID": "0018138301", "NAME": "SPIRE REHABILITATION HOSPITAL", "ADDRESS": "616 WEST FORREST AVENUE", "CITY": "JACKSON", "STATE": "TN", "ZIP": "38301", "ZIP4": "NOT AVAILABLE", "TELEPHONE": "(731) 541-5000", "TYPE": "REHABILITATION", "STATUS": "OPEN", "POPULATION": 48, "COUNTY": "MADISON", "COUNTYFIPS": "47113", "COUNTRY": "USA", "LATITUDE": 35.634876677000101, "LONGITUDE": -88.828420369, "NAICS_CODE": "622310", "NAICS_DESC": "REHABILITATION HOSPITALS (EXCEPT ALCOHOLISM, DRUG ADDICTION)", "SOURCE": "https://apps.health.tn.gov/FacilityListings", "SOURCEDATE": "2018-08-10T00:00:00.000Z", "VAL_METHOD": "IMAGERY/OTHER", "VAL_DATE": "2016-11-22T00:00:00.000Z", "WEBSITE": "NOT AVAILABLE", "STATE_ID": "NOT AVAILABLE", "ALT_NAME": "WEST TENNESSEE REHABILITATION HOSPITAL, LLC", "ST_FIPS": "47", "OWNER": "PROPRIETARY", "TTL_STAFF": -999, "BEDS": 48, "TRAUMA": "NOT AVAILABLE", "HELIPAD": "N" }, "geometry": { "type": "Polygon", "coordinates": [ [ [ -88.8270376, 35.5335044 ], [ -88.9527391, 35.632221899999983 ], [ -88.908166, 35.699882899999984 ], [ -88.8681499, 35.7313854 ], [ -88.8488803, 35.7384415 ], [ -88.730477300000018, 35.696687200000014 ], [ -88.727782, 35.6787488 ], [ -88.7478844, 35.6111518 ], [ -88.7889962, 35.5370089 ], [ -88.789771, 35.536350400000018 ], [ -88.8270376, 35.5335044 ] ] ] } },
{ "type": "Feature", "properties": { "OBJECTID": 4973, "ID": "0003300000", "NAME": "NEA BAPTIST MEMORIAL HEALTH", "ADDRESS": "4800 E JOHNSON AVE", "CITY": "JONESBORO", "STATE": "AR", "ZIP": "72401", "ZIP4": "NOT AVAILABLE", "TELEPHONE": "(870) 936-1000", "TYPE": "GENERAL ACUTE CARE", "STATUS": "OPEN", "POPULATION": 181, "COUNTY": "CRAIGHEAD", "COUNTYFIPS": "05031", "COUNTRY": "USA", "LATITUDE": 35.866829367999998, "LONGITUDE": -90.636514313999996, "NAICS_CODE": "622110", "NAICS_DESC": "GENERAL MEDICAL AND SURGICAL HOSPITALS", "SOURCE": "http://www.healthy.arkansas.gov/programsServices/hsLicensingRegulation/HealthFacilityServices/Pages/ProviderLists.aspx", "SOURCEDATE": "2018-08-08T00:00:00.000Z", "VAL_METHOD": "IMAGERY/OTHER", "VAL_DATE": "2014-02-10T00:00:00.000Z", "WEBSITE": "http://www.neabaptist.com", "STATE_ID": "040118", "ALT_NAME": "NOT AVAILABLE", "ST_FIPS": "05", "OWNER": "NON-PROFIT", "TTL_STAFF": -999, "BEDS": 181, "TRAUMA": "LEVEL IV", "HELIPAD": "Y" }, "geometry": { "type": "Polygon", "coordinates": [ [ [ -90.6697869, 35.7871071 ], [ -90.7016564, 35.807327300000011 ], [ -90.736176, 35.847866 ], [ -90.736694, 35.849476 ], [ -90.645767004556618, 35.92427801727586 ], [ -90.581202700659233, 35.936657914123003 ], [ -90.576949800704767, 35.932922914136704 ], [ -90.535507000825888, 35.87814301180557 ], [ -90.5961005, 35.821495900000038 ], [ -90.6697869, 35.7871071 ] ] ] } },
{ "type": "Feature", "properties": { "OBJECTID": 4978, "ID": "0006272450", "NAME": "ARKANSAS METHODIST MEDICAL CENTER", "ADDRESS": "900 WEST KINGSHIGHWAY", "CITY": "PARAGOULD", "STATE": "AR", "ZIP": "72450", "ZIP4": "NOT AVAILABLE", "TELEPHONE": "(870) 239-7000", "TYPE": "GENERAL ACUTE CARE", "STATUS": "OPEN", "POPULATION": 129, "COUNTY": "GREENE", "COUNTYFIPS": "05055", "COUNTRY": "USA", "LATITUDE": 36.051944306000102, "LONGITUDE": -90.498457036000005, "NAICS_CODE": "622110", "NAICS_DESC": "GENERAL MEDICAL AND SURGICAL HOSPITALS", "SOURCE": "http://www.healthy.arkansas.gov/programsServices/hsLicensingRegulation/HealthFacilityServices/Pages/ProviderLists.aspx", "SOURCEDATE": "2018-08-08T00:00:00.000Z", "VAL_METHOD": "IMAGERY/OTHER", "VAL_DATE": "2014-02-10T00:00:00.000Z", "WEBSITE": "http://www.arkansasmethodist.org", "STATE_ID": "040039", "ALT_NAME": "NOT AVAILABLE", "ST_FIPS": "05", "OWNER": "NON-PROFIT", "TTL_STAFF": -999, "BEDS": 129, "TRAUMA": "LEVEL IV", "HELIPAD": "Y" }, "geometry": { "type": "Polygon", "coordinates": [ [ [ -90.560615998383369, 35.965312113238738 ], [ -90.5983887, 36.0149929 ], [ -90.6224499, 36.073911699999947 ], [ -90.5100283, 36.14550969999997 ], [ -90.4295148, 36.12701730000002 ], [ -90.3622958, 36.05191830000004 ], [ -90.362326100000018, 36.0518165 ], [ -90.441695, 35.997571 ], [ -90.468689, 35.986904 ], [ -90.486841296435841, 35.979853314624897 ], [ -90.558467998323096, 35.965464013259805 ], [ -90.560615998383369, 35.965312113238738 ] ] ] } },
{ "type": "Feature", "properties": { "OBJECTID": 4984, "ID": "0061472401", "NAME": "NEA BAPTIST MEMORIAL HOSPITAL", "ADDRESS": "3024 STADIUM BOULEVARD", "CITY": "JONESBORO", "STATE": "AR", "ZIP": "72401", "ZIP4": "NOT AVAILABLE", "TELEPHONE": "(870) 972-7000", "TYPE": "GENERAL ACUTE CARE", "STATUS": "CLOSED", "POPULATION": -999, "COUNTY": "CRAIGHEAD", "COUNTYFIPS": "05031", "COUNTRY": "USA", "LATITUDE": 35.808225724000103, "LONGITUDE": -90.666340422000005, "NAICS_CODE": "622110", "NAICS_DESC": "GENERAL MEDICAL AND SURGICAL HOSPITALS", "SOURCE": "ftp://ftp.geostor.arkansas.gov", "SOURCEDATE": "2014-09-18T00:00:00.000Z", "VAL_METHOD": "IMAGERY/OTHER", "VAL_DATE": "2014-11-18T00:00:00.000Z", "WEBSITE": "NOT AVAILABLE", "STATE_ID": "NOT AVAILABLE", "ALT_NAME": "NOT AVAILABLE", "ST_FIPS": "05", "OWNER": "NON-PROFIT", "TTL_STAFF": -999, "BEDS": -999, "TRAUMA": "NOT AVAILABLE", "HELIPAD": "Y" }, "geometry": { "type": "Polygon", "coordinates": [ [ [ -90.6930985, 35.712364599999958 ], [ -90.7990041, 35.7779111 ], [ -90.803343, 35.8538363 ], [ -90.803185, 35.857212 ], [ -90.790329023333825, 35.886963035752878 ], [ -90.64589700634825, 35.906315019443213 ], [ -90.597865205505428, 35.87844651801732 ], [ -90.55291, 35.822132 ], [ -90.558411, 35.741917 ], [ -90.561554, 35.734619 ], [ -90.661621, 35.712036 ], [ -90.6930985, 35.712364599999958 ] ] ] } },
{ "type": "Feature", "properties": { "OBJECTID": 4991, "ID": "0003842743", "NAME": "JANE TODD CRAWFORD MEMORIAL HOSPITAL", "ADDRESS": "202-206 MILBY STREET", "CITY": "GREENSBURG", "STATE": "KY", "ZIP": "42743", "ZIP4": "NOT AVAILABLE", "TELEPHONE": "(270) 932-4211", "TYPE": "CRITICAL ACCESS", "STATUS": "OPEN", "POPULATION": 35, "COUNTY": "GREEN", "COUNTYFIPS": "21087", "COUNTRY": "USA", "LATITUDE": 37.242869922000096, "LONGITUDE": -85.494790913000003, "NAICS_CODE": "622110", "NAICS_DESC": "GENERAL MEDICAL AND SURGICAL HOSPITALS", "SOURCE": "https://chfs.ky.gov/agencies/os/oig/dhc/Documents/Directories/Hospital_Directory.pdf", "SOURCEDATE": "2018-08-11T00:00:00.000Z", "VAL_METHOD": "IMAGERY", "VAL_DATE": "2014-03-12T00:00:00.000Z", "WEBSITE": "NOT AVAILABLE", "STATE_ID": "600077", "ALT_NAME": "NOT AVAILABLE", "ST_FIPS": "21", "OWNER": "GOVERNMENT - LOCAL", "TTL_STAFF": -999, "BEDS": 35, "TRAUMA": "NOT AVAILABLE", "HELIPAD": "Y" }, "geometry": { "type": "Polygon", "coordinates": [ [ [ -85.5341135, 37.1658278 ], [ -85.568505, 37.200806 ], [ -85.561215, 37.264897 ], [ -85.544016, 37.325832 ], [ -85.471658, 37.330639 ], [ -85.428917, 37.307798 ], [ -85.407349, 37.209546 ], [ -85.419266, 37.173951 ], [ -85.421206, 37.17279 ], [ -85.5341135, 37.1658278 ] ] ] } },
{ "type": "Feature", "properties": { "OBJECTID": 183, "ID": "0008872455", "NAME": "FIVE RIVER MEDICAL CENTER", "ADDRESS": "2801 MEDICAL CENTER DRIVE", "CITY": "POCAHONTAS", "STATE": "AR", "ZIP": "72455", "ZIP4": "NOT AVAILABLE", "TELEPHONE": "(870) 892-6000", "TYPE": "GENERAL ACUTE CARE", "STATUS": "OPEN", "POPULATION": 50, "COUNTY": "RANDOLPH", "COUNTYFIPS": "05121", "COUNTRY": "USA", "LATITUDE": 36.289760273000098, "LONGITUDE": -90.99738763000001, "NAICS_CODE": "622110", "NAICS_DESC": "GENERAL MEDICAL AND SURGICAL HOSPITALS", "SOURCE": "http://www.healthy.arkansas.gov/programsServices/hsLicensingRegulation/HealthFacilityServices/Pages/ProviderLists.aspx", "SOURCEDATE": "2018-08-08T00:00:00.000Z", "VAL_METHOD": "IMAGERY/OTHER", "VAL_DATE": "2014-02-10T00:00:00.000Z", "WEBSITE": "http://www.fiveriversmedicalcenter.com", "STATE_ID": "040047", "ALT_NAME": "NOT AVAILABLE", "ST_FIPS": "05", "OWNER": "NON-PROFIT", "TTL_STAFF": -999, "BEDS": 50, "TRAUMA": "LEVEL IV", "HELIPAD": "Y" }, "geometry": { "type": "Polygon", "coordinates": [ [ [ -90.958659, 36.194221 ], [ -91.0646979, 36.24437470000003 ], [ -91.065023, 36.24566 ], [ -91.076937, 36.31542 ], [ -91.0667886, 36.35509960000001 ], [ -91.0626071, 36.355056499999989 ], [ -90.9422596, 36.3473236 ], [ -90.915741, 36.279983 ], [ -90.9170555, 36.237881700000031 ], [ -90.958659, 36.194221 ] ] ] } },
{ "type": "Feature", "properties": { "OBJECTID": 185, "ID": "0004100000", "NAME": "CRITTENDEN HOSPITAL ASSOCIATION", "ADDRESS": "200 WEST TYLER AVENUE", "CITY": "WEST MEMPHIS", "STATE": "AR", "ZIP": "72301", "ZIP4": "NOT AVAILABLE", "TELEPHONE": "(870) 735-1500", "TYPE": "GENERAL ACUTE CARE", "STATUS": "CLOSED", "POPULATION": 152, "COUNTY": "CRITTENDEN", "COUNTYFIPS": "05035", "COUNTRY": "USA", "LATITUDE": 35.143110235000101, "LONGITUDE": -90.189098510999898, "NAICS_CODE": "622110", "NAICS_DESC": "GENERAL MEDICAL AND SURGICAL HOSPITALS", "SOURCE": "http://www.arkansassiteselection.com/aedc/gis-data-download.aspx", "SOURCEDATE": "2012-06-27T00:00:00.000Z", "VAL_METHOD": "IMAGERY/OTHER", "VAL_DATE": "2014-02-10T00:00:00.000Z", "WEBSITE": "http://www.crittendenregional.org/", "STATE_ID": "040042", "ALT_NAME": "NOT AVAILABLE", "ST_FIPS": "05", "OWNER": "NON-PROFIT", "TTL_STAFF": -999, "BEDS": 152, "TRAUMA": "NOT AVAILABLE", "HELIPAD": "Y" }, "geometry": { "type": "Polygon", "coordinates": [ [ [ -90.229650194260628, 35.08741912326623 ], [ -90.293016465476967, 35.131317929056095 ], [ -90.3106482, 35.1475002 ], [ -90.3106242, 35.14825110000001 ], [ -90.2272178, 35.2619469 ], [ -90.1220908, 35.1904001 ], [ -90.1215446, 35.189907399999989 ], [ -90.0953836, 35.1428995 ], [ -90.0946228, 35.139298799999985 ], [ -90.0992146, 35.129396200000031 ], [ -90.229650194260628, 35.08741912326623 ] ] ] } },
{ "type": "Feature", "properties": { "OBJECTID": 189, "ID": "0002372454", "NAME": "PIGGOTT COMMUNITY HOSPITAL", "ADDRESS": "1206 GORDON DUCKWORTH DRIVE", "CITY": "PIGGOTT", "STATE": "AR", "ZIP": "72454", "ZIP4": "NOT AVAILABLE", "TELEPHONE": "(870) 598-3881", "TYPE": "CRITICAL ACCESS", "STATUS": "OPEN", "POPULATION": 25, "COUNTY": "CLAY", "COUNTYFIPS": "05021", "COUNTRY": "USA", "LATITUDE": 36.390119473, "LONGITUDE": -90.20483796000001, "NAICS_CODE": "622110", "NAICS_DESC": "GENERAL MEDICAL AND SURGICAL HOSPITALS", "SOURCE": "http://www.healthy.arkansas.gov/programsServices/hsLicensingRegulation/HealthFacilityServices/Pages/ProviderLists.aspx", "SOURCEDATE": "2018-08-08T00:00:00.000Z", "VAL_METHOD": "IMAGERY", "VAL_DATE": "2014-02-10T00:00:00.000Z", "WEBSITE": "http://www.piggottcommunityhospital.com", "STATE_ID": "041330", "ALT_NAME": "NOT AVAILABLE", "ST_FIPS": "05", "OWNER": "GOVERNMENT - LOCAL", "TTL_STAFF": -999, "BEDS": 25, "TRAUMA": "LEVEL IV", "HELIPAD": "Y" }, "geometry": { "type": "Polygon", "coordinates": [ [ [ -90.2205013, 36.316652 ], [ -90.239518, 36.3314 ], [ -90.2651535, 36.374831400000012 ], [ -90.2958426, 36.4312647 ], [ -90.2645731, 36.4510052 ], [ -90.246348, 36.450737600000039 ], [ -90.1472625, 36.4364654 ], [ -90.1113841, 36.388700400000019 ], [ -90.112413, 36.374256 ], [ -90.1216124, 36.359865 ], [ -90.1574055, 36.330830799999973 ], [ -90.2205013, 36.316652 ] ] ] } },
{ "type": "Feature", "properties": { "OBJECTID": 211, "ID": "0062572396", "NAME": "CROSSRIDGE COMMUNITY HOSPITAL", "ADDRESS": "310 SOUTH FALLS BOULEVARD", "CITY": "WYNNE", "STATE": "AR", "ZIP": "72396", "ZIP4": "NOT AVAILABLE", "TELEPHONE": "(870) 238-3300", "TYPE": "GENERAL ACUTE CARE", "STATUS": "OPEN", "POPULATION": 25, "COUNTY": "CROSS", "COUNTYFIPS": "05037", "COUNTRY": "USA", "LATITUDE": 35.219557917000003, "LONGITUDE": -90.786640535999894, "NAICS_CODE": "622110", "NAICS_DESC": "GENERAL MEDICAL AND SURGICAL HOSPITALS", "SOURCE": "http://www.healthy.arkansas.gov/programsServices/hsLicensingRegulation/HealthFacilityServices/Pages/ProviderLists.aspx", "SOURCEDATE": "2018-08-08T00:00:00.000Z", "VAL_METHOD": "IMAGERY/OTHER", "VAL_DATE": "2014-12-02T00:00:00.000Z", "WEBSITE": "NOT AVAILABLE", "STATE_ID": "NOT AVAILABLE", "ALT_NAME": "NOT AVAILABLE", "ST_FIPS": "05", "OWNER": "NOT AVAILABLE", "TTL_STAFF": -999, "BEDS": 25, "TRAUMA": "NOT AVAILABLE", "HELIPAD": "Y" }, "geometry": { "type": "Polygon", "coordinates": [ [ [ -90.811617223031902, 35.117016924688663 ], [ -90.833915985730243, 35.132541027601178 ], [ -90.882169, 35.200434 ], [ -90.871696, 35.251763 ], [ -90.7909922, 35.309404299999983 ], [ -90.7842241, 35.313668599999986 ], [ -90.6925765, 35.2590219 ], [ -90.6923443, 35.258336400000026 ], [ -90.7109702, 35.1980348 ], [ -90.7250534, 35.176688499999948 ], [ -90.7279279, 35.1735445 ], [ -90.811617223031902, 35.117016924688663 ] ] ] } },
{ "type": "Feature", "properties": { "OBJECTID": 393, "ID": "0011442754", "NAME": "TWIN LAKES REGIONAL MEDICAL CENTER", "ADDRESS": "910 WALLACE AVENUE", "CITY": "LEITCHFIELD", "STATE": "KY", "ZIP": "42754", "ZIP4": "NOT AVAILABLE", "TELEPHONE": "(270) 259-9400", "TYPE": "GENERAL ACUTE CARE", "STATUS": "OPEN", "POPULATION": 75, "COUNTY": "GRAYSON", "COUNTYFIPS": "21085", "COUNTRY": "USA", "LATITUDE": 37.472515304000098, "LONGITUDE": -86.288593089000003, "NAICS_CODE": "622110", "NAICS_DESC": "GENERAL MEDICAL AND SURGICAL HOSPITALS", "SOURCE": "https://chfs.ky.gov/agencies/os/oig/dhc/Documents/Directories/Hospital_Directory.pdf", "SOURCEDATE": "2018-08-11T00:00:00.000Z", "VAL_METHOD": "IMAGERY", "VAL_DATE": "2014-02-10T00:00:00.000Z", "WEBSITE": "http://www.tlrmc.com", "STATE_ID": "100151", "ALT_NAME": "NOT AVAILABLE", "ST_FIPS": "21", "OWNER": "NON-PROFIT", "TTL_STAFF": -999, "BEDS": 75, "TRAUMA": "LEVEL IV", "HELIPAD": "Y" }, "geometry": { "type": "Polygon", "coordinates": [ [ [ -86.274042, 37.402644 ], [ -86.356457, 37.426179 ], [ -86.38129, 37.449838 ], [ -86.393808, 37.501644 ], [ -86.337624, 37.534431 ], [ -86.292154, 37.554247 ], [ -86.282631, 37.552542 ], [ -86.239502, 37.540289 ], [ -86.191647, 37.506927 ], [ -86.183946, 37.482735 ], [ -86.1971544, 37.444768299999971 ], [ -86.252304, 37.406727 ], [ -86.26416, 37.404223 ], [ -86.274042, 37.402644 ] ] ] } },
{ "type": "Feature", "properties": { "OBJECTID": 420, "ID": "0010942101", "NAME": "THE MEDICAL CENTER AT BOWLING GREEN", "ADDRESS": "250 PARK STREET", "CITY": "BOWLING GREEN", "STATE": "KY", "ZIP": "42101", "ZIP4": "NOT AVAILABLE", "TELEPHONE": "(270) 745-1000", "TYPE": "GENERAL ACUTE CARE", "STATUS": "OPEN", "POPULATION": 337, "COUNTY": "WARREN", "COUNTYFIPS": "21227", "COUNTRY": "USA", "LATITUDE": 36.995971505000099, "LONGITUDE": -86.42975938, "NAICS_CODE": "622110", "NAICS_DESC": "GENERAL MEDICAL AND SURGICAL HOSPITALS", "SOURCE": "https://chfs.ky.gov/agencies/os/oig/dhc/Documents/Directories/Hospital_Directory.pdf", "SOURCEDATE": "2018-08-11T00:00:00.000Z", "VAL_METHOD": "IMAGERY/OTHER", "VAL_DATE": "2014-03-12T00:00:00.000Z", "WEBSITE": "http://www.themedicalcenter.org", "STATE_ID": "100404", "ALT_NAME": "NOT AVAILABLE", "ST_FIPS": "21", "OWNER": "NON-PROFIT", "TTL_STAFF": -999, "BEDS": 337, "TRAUMA": "NOT AVAILABLE", "HELIPAD": "Y" }, "geometry": { "type": "Polygon", "coordinates": [ [ [ -86.424833600000014, 36.908593099999962 ], [ -86.432227, 36.9092923 ], [ -86.4901902, 36.9321962 ], [ -86.5209693, 36.946604399999948 ], [ -86.528, 36.994816 ], [ -86.528223, 37.011532 ], [ -86.516896, 37.049046 ], [ -86.444731, 37.077895 ], [ -86.31, 37.051345 ], [ -86.3127384, 37.0308747 ], [ -86.334799, 36.946585 ], [ -86.4041363, 36.911671799999979 ], [ -86.424833600000014, 36.908593099999962 ] ] ] } },
{ "type": "Feature", "properties": { "OBJECTID": 552, "ID": "0006342345", "NAME": "MUHLENBERG COMMUNITY HOSPITAL", "ADDRESS": "440 HOPKINSVILLE STREET", "CITY": "GREENVILLE", "STATE": "KY", "ZIP": "42345", "ZIP4": "NOT AVAILABLE", "TELEPHONE": "(270) 338-8000", "TYPE": "GENERAL ACUTE CARE", "STATUS": "OPEN", "POPULATION": 90, "COUNTY": "MUHLENBERG", "COUNTYFIPS": "21177", "COUNTRY": "USA", "LATITUDE": 37.196535391000097, "LONGITUDE": -87.189294499, "NAICS_CODE": "622110", "NAICS_DESC": "GENERAL MEDICAL AND SURGICAL HOSPITALS", "SOURCE": "https://chfs.ky.gov/agencies/os/oig/dhc/Documents/Directories/Hospital_Directory.pdf", "SOURCEDATE": "2018-08-11T00:00:00.000Z", "VAL_METHOD": "IMAGERY", "VAL_DATE": "2014-02-10T00:00:00.000Z", "WEBSITE": "http://www.mchky.org", "STATE_ID": "100344", "ALT_NAME": "NOT AVAILABLE", "ST_FIPS": "21", "OWNER": "NON-PROFIT", "TTL_STAFF": -999, "BEDS": 90, "TRAUMA": "NOT AVAILABLE", "HELIPAD": "N" }, "geometry": { "type": "Polygon", "coordinates": [ [ [ -87.195419, 37.087693 ], [ -87.20763, 37.088654 ], [ -87.276814, 37.128355 ], [ -87.281968, 37.132293 ], [ -87.31334, 37.231767 ], [ -87.28005, 37.256704 ], [ -87.209139, 37.281016 ], [ -87.208849, 37.281073 ], [ -87.136897, 37.294615 ], [ -87.127792, 37.293178 ], [ -87.118717, 37.289492 ], [ -87.073045, 37.207068 ], [ -87.073941, 37.196146 ], [ -87.095537, 37.155946 ], [ -87.134127, 37.126216 ], [ -87.195419, 37.087693 ] ] ] } },
{ "type": "Feature", "properties": { "OBJECTID": 553, "ID": "0000742445", "NAME": "CALDWELL MEDICAL CENTER", "ADDRESS": "100 MEDICAL CENTER DRIVE", "CITY": "PRINCETON", "STATE": "KY", "ZIP": "42445", "ZIP4": "NOT AVAILABLE", "TELEPHONE": "(270) 365-0300", "TYPE": "CRITICAL ACCESS", "STATUS": "OPEN", "POPULATION": 25, "COUNTY": "CALDWELL", "COUNTYFIPS": "21033", "COUNTRY": "USA", "LATITUDE": 37.113674312999997, "LONGITUDE": -87.909600475999994, "NAICS_CODE": "622110", "NAICS_DESC": "GENERAL MEDICAL AND SURGICAL HOSPITALS", "SOURCE": "https://chfs.ky.gov/agencies/os/oig/dhc/Documents/Directories/Hospital_Directory.pdf", "SOURCEDATE": "2018-08-11T00:00:00.000Z", "VAL_METHOD": "IMAGERY", "VAL_DATE": "2014-02-10T00:00:00.000Z", "WEBSITE": "http://cmcky.org/", "STATE_ID": "600072", "ALT_NAME": "NOT AVAILABLE", "ST_FIPS": "21", "OWNER": "NON-PROFIT", "TTL_STAFF": -999, "BEDS": 25, "TRAUMA": "NOT AVAILABLE", "HELIPAD": "Y" }, "geometry": { "type": "Polygon", "coordinates": [ [ [ -87.881122, 37.046641 ], [ -88.004557, 37.089293 ], [ -88.0365737, 37.101964099999975 ], [ -88.03556, 37.104804 ], [ -87.98001, 37.160195 ], [ -87.909171, 37.196036 ], [ -87.848984, 37.194773 ], [ -87.797469, 37.13152 ], [ -87.811059, 37.072348 ], [ -87.845152, 37.058165 ], [ -87.881122, 37.046641 ] ] ] } },
{ "type": "Feature", "properties": { "OBJECTID": 554, "ID": "0010442141", "NAME": "T J SAMSON COMMUNITY HOSPITAL", "ADDRESS": "1301 NORTH RACE STREET", "CITY": "GLASGOW", "STATE": "KY", "ZIP": "42141", "ZIP4": "NOT AVAILABLE", "TELEPHONE": "(270) 651-4159", "TYPE": "GENERAL ACUTE CARE", "STATUS": "OPEN", "POPULATION": 180, "COUNTY": "BARREN", "COUNTYFIPS": "21009", "COUNTRY": "USA", "LATITUDE": 37.011392389000001, "LONGITUDE": -85.904513973999897, "NAICS_CODE": "622110", "NAICS_DESC": "GENERAL MEDICAL AND SURGICAL HOSPITALS", "SOURCE": "https://chfs.ky.gov/agencies/os/oig/dhc/Documents/Directories/Hospital_Directory.pdf", "SOURCEDATE": "2018-08-11T00:00:00.000Z", "VAL_METHOD": "IMAGERY", "VAL_DATE": "2014-02-10T00:00:00.000Z", "WEBSITE": "http://www.tjsamson.org", "STATE_ID": "100016", "ALT_NAME": "NOT AVAILABLE", "ST_FIPS": "21", "OWNER": "NON-PROFIT", "TTL_STAFF": -999, "BEDS": 180, "TRAUMA": "NOT AVAILABLE", "HELIPAD": "Y" }, "geometry": { "type": "Polygon", "coordinates": [ [ [ -85.917926, 36.906558 ], [ -85.997906, 36.927375 ], [ -85.998708, 36.929707 ], [ -86.011937, 36.987552 ], [ -86.001653, 37.03407 ], [ -85.972892, 37.092912 ], [ -85.870552, 37.111793 ], [ -85.794875, 37.017637 ], [ -85.794899, 37.017148 ], [ -85.813796, 36.931416 ], [ -85.917926, 36.906558 ] ] ] } },
{ "type": "Feature", "properties": { "OBJECTID": 562, "ID": "0012042240", "NAME": "WESTERN STATE HOSPITAL", "ADDRESS": "2400 RUSSELLVILLE ROAD", "CITY": "HOPKINSVILLE", "STATE": "KY", "ZIP": "42240", "ZIP4": "NOT AVAILABLE", "TELEPHONE": "(270) 889-6025", "TYPE": "PSYCHIATRIC", "STATUS": "OPEN", "POPULATION": 495, "COUNTY": "CHRISTIAN", "COUNTYFIPS": "21047", "COUNTRY": "USA", "LATITUDE": 36.864669216000003, "LONGITUDE": -87.451266716999996, "NAICS_CODE": "622110", "NAICS_DESC": "GENERAL MEDICAL AND SURGICAL HOSPITALS", "SOURCE": "https://chfs.ky.gov/agencies/os/oig/dhc/Documents/Directories/Hospital_Directory.pdf", "SOURCEDATE": "2018-08-11T00:00:00.000Z", "VAL_METHOD": "IMAGERY", "VAL_DATE": "2014-02-10T00:00:00.000Z", "WEBSITE": "http://ww2.westernstatehospital.org/?folio=9PO8QU3X6", "STATE_ID": "100072", "ALT_NAME": "NOT AVAILABLE", "ST_FIPS": "21", "OWNER": "GOVERNMENT - STATE", "TTL_STAFF": -999, "BEDS": 495, "TRAUMA": "NOT AVAILABLE", "HELIPAD": "N" }, "geometry": { "type": "Polygon", "coordinates": [ [ [ -87.5178941, 36.7481307 ], [ -87.570183077068506, 36.84761710973121 ], [ -87.576013760614529, 36.879122020489476 ], [ -87.576008060550407, 36.879290120557229 ], [ -87.561285056848064, 36.904302136893982 ], [ -87.52721305751615, 36.927326164652015 ], [ -87.485738068050338, 36.947224190607024 ], [ -87.47902007473796, 36.948737191212189 ], [ -87.419601140354473, 36.940529182854419 ], [ -87.362311172986622, 36.904470156660871 ], [ -87.301257133481243, 36.847203116246391 ], [ -87.300620128409392, 36.843543113842536 ], [ -87.300862126147322, 36.841919112807325 ], [ -87.382882804381481, 36.799068990291616 ], [ -87.509575, 36.749297300000016 ], [ -87.5178941, 36.7481307 ] ] ] } },
{ "type": "Feature", "properties": { "OBJECTID": 620, "ID": "0009038103", "NAME": "LE BONHEUR CHILDREN'S HOSPITAL", "ADDRESS": "50 NORTH DUNLAP", "CITY": "MEMPHIS", "STATE": "TN", "ZIP": "38103", "ZIP4": "NOT AVAILABLE", "TELEPHONE": "(901) 572-5952", "TYPE": "CHILDREN", "STATUS": "OPEN", "POPULATION": 225, "COUNTY": "SHELBY", "COUNTYFIPS": "47157", "COUNTRY": "USA", "LATITUDE": 35.145050795000003, "LONGITUDE": -90.031801216000005, "NAICS_CODE": "622110", "NAICS_DESC": "CHILDREN'S HOSPITALS, GENERAL", "SOURCE": "https://apps.health.tn.gov/FacilityListings", "SOURCEDATE": "2018-08-10T00:00:00.000Z", "VAL_METHOD": "IMAGERY", "VAL_DATE": "2014-02-10T00:00:00.000Z", "WEBSITE": "http://www.methodisthealth.org/locations/le-bonheur-children-s-hospital", "STATE_ID": "802961", "ALT_NAME": "NOT AVAILABLE", "ST_FIPS": "47", "OWNER": "NON-PROFIT", "TTL_STAFF": -999, "BEDS": 225, "TRAUMA": "LEVEL I", "HELIPAD": "Y" }, "geometry": { "type": "Polygon", "coordinates": [ [ [ -90.025174028525342, 35.031099853282996 ], [ -90.084182162511979, 35.074927500189609 ], [ -90.097095644962877, 35.100879963165951 ], [ -90.100985740107745, 35.109470217786878 ], [ -90.0563289, 35.210633800000053 ], [ -90.040491, 35.231489 ], [ -90.0220361, 35.2441403 ], [ -90.0218695, 35.244239500000042 ], [ -90.0084799, 35.242854199999982 ], [ -89.9755165, 35.22504 ], [ -89.9248722, 35.194289 ], [ -89.9198396, 35.19116469999998 ], [ -89.904741300000012, 35.14609430000003 ], [ -89.9142245, 35.119290900000017 ], [ -89.94266576311847, 35.066536724311788 ], [ -90.025174028525342, 35.031099853282996 ] ] ] } },
{ "type": "Feature", "properties": { "OBJECTID": 621, "ID": "0009138104", "NAME": "METHODIST HEALTHCARE - UNIVERSITY HOSPITAL", "ADDRESS": "1265 UNION AVENUE", "CITY": "MEMPHIS", "STATE": "TN", "ZIP": "38104", "ZIP4": "NOT AVAILABLE", "TELEPHONE": "(901) 726-8274", "TYPE": "GENERAL ACUTE CARE", "STATUS": "OPEN", "POPULATION": 617, "COUNTY": "SHELBY", "COUNTYFIPS": "47157", "COUNTRY": "USA", "LATITUDE": 35.136668545000099, "LONGITUDE": -90.019467514, "NAICS_CODE": "622110", "NAICS_DESC": "GENERAL MEDICAL AND SURGICAL HOSPITALS", "SOURCE": "https://apps.health.tn.gov/FacilityListings", "SOURCEDATE": "2018-08-10T00:00:00.000Z", "VAL_METHOD": "IMAGERY/OTHER", "VAL_DATE": "2014-03-12T00:00:00.000Z", "WEBSITE": "http://www.methodisthealth.org/locations/methodist-university-hospital", "STATE_ID": "803807", "ALT_NAME": "NOT AVAILABLE", "ST_FIPS": "47", "OWNER": "NON-PROFIT", "TTL_STAFF": -999, "BEDS": 617, "TRAUMA": "LEVEL I", "HELIPAD": "Y" }, "geometry": { "type": "Polygon", "coordinates": [ [ [ -90.002728058284475, 35.017599583960852 ], [ -90.025197433852995, 35.024713713487827 ], [ -90.063791684704043, 35.055412884812839 ], [ -90.072900074711242, 35.063284930565146 ], [ -90.084182162511979, 35.074927500189609 ], [ -90.097095644962877, 35.100879963165951 ], [ -90.100985740107745, 35.109470217786878 ], [ -90.0563289, 35.210633800000053 ], [ -90.040491, 35.231489 ], [ -90.0084799, 35.242854199999982 ], [ -89.9755165, 35.22504 ], [ -89.9252911, 35.19644820000002 ], [ -89.9198396, 35.19116469999998 ], [ -89.9037545, 35.144219899999975 ], [ -89.905741601557267, 35.115713770750133 ], [ -89.928774459885545, 35.053967935273732 ], [ -90.002728058284475, 35.017599583960852 ] ] ] } },
{ "type": "Feature", "properties": { "OBJECTID": 650, "ID": "0008338305", "NAME": "TENNOVA HEALTHCARE - REGIONAL JACKSON", "ADDRESS": "367 HOSPITAL BLVD.", "CITY": "JACKSON", "STATE": "TN", "ZIP": "38305", "ZIP4": "NOT AVAILABLE", "TELEPHONE": "(731) 661-2000", "TYPE": "GENERAL ACUTE CARE", "STATUS": "OPEN", "POPULATION": 152, "COUNTY": "MADISON", "COUNTYFIPS": "47113", "COUNTRY": "USA", "LATITUDE": 35.684447111000097, "LONGITUDE": -88.854048475, "NAICS_CODE": "622110", "NAICS_DESC": "GENERAL MEDICAL AND SURGICAL HOSPITALS", "SOURCE": "https://apps.health.tn.gov/FacilityListings", "SOURCEDATE": "2018-08-10T00:00:00.000Z", "VAL_METHOD": "IMAGERY/OTHER", "VAL_DATE": "2014-02-10T00:00:00.000Z", "WEBSITE": "http://www.tennovawest.com/locations/tennova-healthcare-regional-jackson", "STATE_ID": "76774", "ALT_NAME": "NOT AVAILABLE", "ST_FIPS": "47", "OWNER": "PROPRIETARY", "TTL_STAFF": -999, "BEDS": 152, "TRAUMA": "NOT AVAILABLE", "HELIPAD": "Y" }, "geometry": { "type": "Polygon", "coordinates": [ [ [ -88.8145587, 35.5793876 ], [ -88.9272465, 35.602494299999968 ], [ -88.9751179, 35.634276 ], [ -88.9739348, 35.679847899999963 ], [ -88.9737981, 35.6800481 ], [ -88.8745683, 35.792486899999972 ], [ -88.8743729, 35.792605400000014 ], [ -88.8289138, 35.788813400000038 ], [ -88.8063509, 35.7843748 ], [ -88.730477300000018, 35.696687200000014 ], [ -88.727782, 35.6787488 ], [ -88.7837952, 35.610174699999988 ], [ -88.8145587, 35.5793876 ] ] ] } },
{ "type": "Feature", "properties": { "OBJECTID": 651, "ID": "0006538242", "NAME": "HENRY COUNTY MEDICAL CENTER", "ADDRESS": "301 TYSON AVENUE", "CITY": "PARIS", "STATE": "TN", "ZIP": "38242", "ZIP4": "NOT AVAILABLE", "TELEPHONE": "(731) 642-1220", "TYPE": "GENERAL ACUTE CARE", "STATUS": "OPEN", "POPULATION": 142, "COUNTY": "HENRY", "COUNTYFIPS": "47079", "COUNTRY": "USA", "LATITUDE": 36.296542692000102, "LONGITUDE": -88.310304584999997, "NAICS_CODE": "622110", "NAICS_DESC": "GENERAL MEDICAL AND SURGICAL HOSPITALS", "SOURCE": "https://apps.health.tn.gov/FacilityListings", "SOURCEDATE": "2018-08-10T00:00:00.000Z", "VAL_METHOD": "IMAGERY/OTHER", "VAL_DATE": "2014-02-10T00:00:00.000Z", "WEBSITE": "http://www.hcmc-tn.org", "STATE_ID": "862759", "ALT_NAME": "NOT AVAILABLE", "ST_FIPS": "47", "OWNER": "GOVERNMENT - DISTRICT/AUTHORITY", "TTL_STAFF": -999, "BEDS": 142, "TRAUMA": "NOT AVAILABLE", "HELIPAD": "Y" }, "geometry": { "type": "Polygon", "coordinates": [ [ [ -88.4047383, 36.2058025 ], [ -88.4049223, 36.205932300000029 ], [ -88.4336056, 36.291252 ], [ -88.3858534, 36.346194699999948 ], [ -88.3337356, 36.3868336 ], [ -88.1979883, 36.3695736 ], [ -88.2078047, 36.2217483 ], [ -88.3085677, 36.205387500000015 ], [ -88.3831981, 36.205356700000046 ], [ -88.4047383, 36.2058025 ] ] ] } },
{ "type": "Feature", "properties": { "OBJECTID": 656, "ID": "0000338320", "NAME": "CAMDEN GENERAL HOSPITAL", "ADDRESS": "175 HOSPITAL STREET", "CITY": "CAMDEN", "STATE": "TN", "ZIP": "38320", "ZIP4": "NOT AVAILABLE", "TELEPHONE": "(731) 584-6135", "TYPE": "GENERAL ACUTE CARE", "STATUS": "OPEN", "POPULATION": 25, "COUNTY": "BENTON", "COUNTYFIPS": "47005", "COUNTRY": "USA", "LATITUDE": 36.055216823000102, "LONGITUDE": -88.107946485999904, "NAICS_CODE": "622110", "NAICS_DESC": "GENERAL MEDICAL AND SURGICAL HOSPITALS", "SOURCE": "https://apps.health.tn.gov/FacilityListings", "SOURCEDATE": "2018-08-10T00:00:00.000Z", "VAL_METHOD": "IMAGERY/OTHER", "VAL_DATE": "2014-02-10T00:00:00.000Z", "WEBSITE": "http://www.wth.org/locations/page/camden-general-hospital", "STATE_ID": "968294", "ALT_NAME": "NOT AVAILABLE", "ST_FIPS": "47", "OWNER": "GOVERNMENT - DISTRICT/AUTHORITY", "TTL_STAFF": -999, "BEDS": 25, "TRAUMA": "NOT AVAILABLE", "HELIPAD": "Y" }, "geometry": { "type": "Polygon", "coordinates": [ [ [ -88.1115037, 35.949502900000013 ], [ -88.216112, 36.035344 ], [ -88.1359931, 36.1453724 ], [ -88.1071793, 36.134631600000013 ], [ -88.02516, 36.072811 ], [ -88.021978, 36.06921 ], [ -88.0073452, 36.0168534 ], [ -88.1115037, 35.949502900000013 ] ] ] } },
{ "type": "Feature", "properties": { "OBJECTID": 671, "ID": "0006638351", "NAME": "HENDERSON COUNTY COMMUNITY HOSPITAL", "ADDRESS": "200 WEST CHURCH STREET", "CITY": "LEXINGTON", "STATE": "TN", "ZIP": "38351", "ZIP4": "NOT AVAILABLE", "TELEPHONE": "(731) 968-1801", "TYPE": "GENERAL ACUTE CARE", "STATUS": "OPEN", "POPULATION": 45, "COUNTY": "HENDERSON", "COUNTYFIPS": "47077", "COUNTRY": "USA", "LATITUDE": 35.655301926999996, "LONGITUDE": -88.398664135999994, "NAICS_CODE": "622110", "NAICS_DESC": "GENERAL MEDICAL AND SURGICAL HOSPITALS", "SOURCE": "https://apps.health.tn.gov/FacilityListings", "SOURCEDATE": "2018-08-10T00:00:00.000Z", "VAL_METHOD": "IMAGERY/OTHER", "VAL_DATE": "2013-09-13T00:00:00.000Z", "WEBSITE": "http://www.hendersoncchospital.com", "STATE_ID": "1031817", "ALT_NAME": "NOT AVAILABLE", "ST_FIPS": "47", "OWNER": "PROPRIETARY", "TTL_STAFF": -999, "BEDS": 45, "TRAUMA": "NOT AVAILABLE", "HELIPAD": "Y" }, "geometry": { "type": "Polygon", "coordinates": [ [ [ -88.385104, 35.564271 ], [ -88.393973, 35.565628 ], [ -88.448872, 35.586309 ], [ -88.5454191, 35.69553640000003 ], [ -88.473378, 35.722038 ], [ -88.393369, 35.74928 ], [ -88.340483, 35.720518 ], [ -88.2499284, 35.639537 ], [ -88.2499015, 35.63935390000001 ], [ -88.3380448, 35.584604299999981 ], [ -88.358629, 35.5732874 ], [ -88.385104, 35.564271 ] ] ] } },
{ "type": "Feature", "properties": { "OBJECTID": 7138, "ID": "0003742066", "NAME": "JACKSON PURCHASE MEDICAL CENTER", "ADDRESS": "1099 MEDICAL CENTER CIRCLE", "CITY": "MAYFIELD", "STATE": "KY", "ZIP": "42066", "ZIP4": "NOT AVAILABLE", "TELEPHONE": "(270) 251-4100", "TYPE": "GENERAL ACUTE CARE", "STATUS": "OPEN", "POPULATION": 107, "COUNTY": "GRAVES", "COUNTYFIPS": "21083", "COUNTRY": "USA", "LATITUDE": 36.759208991999998, "LONGITUDE": -88.65125908, "NAICS_CODE": "622110", "NAICS_DESC": "GENERAL MEDICAL AND SURGICAL HOSPITALS", "SOURCE": "https://chfs.ky.gov/agencies/os/oig/dhc/Documents/Directories/Hospital_Directory.pdf", "SOURCEDATE": "2018-08-11T00:00:00.000Z", "VAL_METHOD": "IMAGERY", "VAL_DATE": "2014-02-10T00:00:00.000Z", "WEBSITE": "http://www.jacksonpurchase.com", "STATE_ID": "100143", "ALT_NAME": "NOT AVAILABLE", "ST_FIPS": "21", "OWNER": "PROPRIETARY", "TTL_STAFF": -999, "BEDS": 107, "TRAUMA": "NOT AVAILABLE", "HELIPAD": "Y" }, "geometry": { "type": "Polygon", "coordinates": [ [ [ -88.75368, 36.645804 ], [ -88.755513500000021, 36.64680969999997 ], [ -88.756295, 36.647868 ], [ -88.751886, 36.772623 ], [ -88.741088, 36.814343 ], [ -88.680080984036593, 36.876563023025433 ], [ -88.67975798397957, 36.876553022940286 ], [ -88.593797, 36.825588 ], [ -88.576966, 36.810411 ], [ -88.5512302, 36.7749757 ], [ -88.5599596, 36.6927603 ], [ -88.5600055, 36.69260389999998 ], [ -88.632727, 36.671232 ], [ -88.75368, 36.645804 ] ] ] } },
{ "type": "Feature", "properties": { "OBJECTID": 7149, "ID": "0002942102", "NAME": "GREENVIEW REGIONAL HOSPITAL", "ADDRESS": "1801 ASHLEY CIRCLE", "CITY": "BOWLING GREEN", "STATE": "KY", "ZIP": "42102", "ZIP4": "NOT AVAILABLE", "TELEPHONE": "(270) 793-1000", "TYPE": "GENERAL ACUTE CARE", "STATUS": "OPEN", "POPULATION": 211, "COUNTY": "WARREN", "COUNTYFIPS": "21227", "COUNTRY": "USA", "LATITUDE": 36.965037616000103, "LONGITUDE": -86.435979771999897, "NAICS_CODE": "622110", "NAICS_DESC": "GENERAL MEDICAL AND SURGICAL HOSPITALS", "SOURCE": "https://chfs.ky.gov/agencies/os/oig/dhc/Documents/Directories/Hospital_Directory.pdf", "SOURCEDATE": "2018-08-11T00:00:00.000Z", "VAL_METHOD": "IMAGERY/OTHER", "VAL_DATE": "2014-02-10T00:00:00.000Z", "WEBSITE": "http://www.greenviewhospital.com", "STATE_ID": "100406", "ALT_NAME": "NOT AVAILABLE", "ST_FIPS": "21", "OWNER": "PROPRIETARY", "TTL_STAFF": -999, "BEDS": 211, "TRAUMA": "NOT AVAILABLE", "HELIPAD": "Y" }, "geometry": { "type": "Polygon", "coordinates": [ [ [ -86.417669, 36.872797 ], [ -86.4503593, 36.88721240000001 ], [ -86.507344, 36.916659799999984 ], [ -86.532617, 36.939383 ], [ -86.528, 36.994816 ], [ -86.52268, 36.998008 ], [ -86.437377, 37.045615 ], [ -86.327549, 37.011547 ], [ -86.3565266, 36.8778614 ], [ -86.417669, 36.872797 ] ] ] } },
{ "type": "Feature", "properties": { "OBJECTID": 7150, "ID": "0008442103", "NAME": "RIVENDELL BEHAVIORAL HEALTH SERVICES", "ADDRESS": "1035 PORTER PIKE RD", "CITY": "BOWLING GREEN", "STATE": "KY", "ZIP": "42103", "ZIP4": "NOT AVAILABLE", "TELEPHONE": "(270) 843-1199", "TYPE": "PSYCHIATRIC", "STATUS": "OPEN", "POPULATION": 125, "COUNTY": "WARREN", "COUNTYFIPS": "21227", "COUNTRY": "USA", "LATITUDE": 36.997072008000004, "LONGITUDE": -86.383136953999994, "NAICS_CODE": "622110", "NAICS_DESC": "GENERAL MEDICAL AND SURGICAL HOSPITALS", "SOURCE": "https://chfs.ky.gov/agencies/os/oig/dhc/Documents/Directories/Hospital_Directory.pdf", "SOURCEDATE": "2018-08-11T00:00:00.000Z", "VAL_METHOD": "IMAGERY", "VAL_DATE": "2014-02-10T00:00:00.000Z", "WEBSITE": "http://www.rivendellbehavioral.com", "STATE_ID": "100564", "ALT_NAME": "NOT AVAILABLE", "ST_FIPS": "21", "OWNER": "PROPRIETARY", "TTL_STAFF": -999, "BEDS": 125, "TRAUMA": "NOT AVAILABLE", "HELIPAD": "N" }, "geometry": { "type": "Polygon", "coordinates": [ [ [ -86.4278952, 36.918063899999979 ], [ -86.470732, 36.976468 ], [ -86.4823904, 37.005645 ], [ -86.445034, 37.035926 ], [ -86.394256, 37.059126 ], [ -86.323497, 37.065947 ], [ -86.293881, 37.059846 ], [ -86.279211, 36.973729 ], [ -86.283708, 36.961059300000031 ], [ -86.4278952, 36.918063899999979 ] ] ] } },
{ "type": "Feature", "properties": { "OBJECTID": 7221, "ID": "0006442071", "NAME": "MURRAY CALLOWAY COUNTY HOSPITAL", "ADDRESS": "803 POPLAR STREET", "CITY": "MURRAY", "STATE": "KY", "ZIP": "42071", "ZIP4": "NOT AVAILABLE", "TELEPHONE": "(270) 762-1100", "TYPE": "GENERAL ACUTE CARE", "STATUS": "OPEN", "POPULATION": 152, "COUNTY": "CALLOWAY", "COUNTYFIPS": "21035", "COUNTRY": "USA", "LATITUDE": 36.606888906000101, "LONGITUDE": -88.309993903999995, "NAICS_CODE": "622110", "NAICS_DESC": "GENERAL MEDICAL AND SURGICAL HOSPITALS", "SOURCE": "https://chfs.ky.gov/agencies/os/oig/dhc/Documents/Directories/Hospital_Directory.pdf", "SOURCEDATE": "2018-08-11T00:00:00.000Z", "VAL_METHOD": "IMAGERY/OTHER", "VAL_DATE": "2014-02-10T00:00:00.000Z", "WEBSITE": "http://www.murrayhospital.org", "STATE_ID": "100053", "ALT_NAME": "NOT AVAILABLE", "ST_FIPS": "21", "OWNER": "GOVERNMENT - LOCAL", "TTL_STAFF": -999, "BEDS": 152, "TRAUMA": "NOT AVAILABLE", "HELIPAD": "Y" }, "geometry": { "type": "Polygon", "coordinates": [ [ [ -88.325855, 36.503304 ], [ -88.424347, 36.592669 ], [ -88.405308, 36.641552 ], [ -88.3958988, 36.652638 ], [ -88.320761, 36.706238 ], [ -88.300167, 36.717374 ], [ -88.299865, 36.717341 ], [ -88.2117712, 36.6637559 ], [ -88.2116216, 36.663623699999953 ], [ -88.2010471, 36.624486 ], [ -88.215413, 36.569884 ], [ -88.216672, 36.568754 ], [ -88.325855, 36.503304 ] ] ] } },
{ "type": "Feature", "properties": { "OBJECTID": 7254, "ID": "0016538104", "NAME": "MEMPHIS VETERANS AFFAIRS MEDICAL CENTER", "ADDRESS": "1030 JEFFERSON AVENUE", "CITY": "MEMPHIS", "STATE": "TN", "ZIP": "38104", "ZIP4": "NOT AVAILABLE", "TELEPHONE": "(901) 523-8990", "TYPE": "MILITARY", "STATUS": "OPEN", "POPULATION": 280, "COUNTY": "SHELBY", "COUNTYFIPS": "47157", "COUNTRY": "USA", "LATITUDE": 35.143520746999997, "LONGITUDE": -90.026343678999993, "NAICS_CODE": "622110", "NAICS_DESC": "GENERAL MEDICAL AND SURGICAL HOSPITALS", "SOURCE": "https://www.va.gov/directory/guide/allstate.asp", "SOURCEDATE": "2018-09-26T00:00:00.000Z", "VAL_METHOD": "IMAGERY/OTHER", "VAL_DATE": "2014-03-12T00:00:00.000Z", "WEBSITE": "http://www.memphis.va.gov/", "STATE_ID": "NOT AVAILABLE", "ALT_NAME": "NOT AVAILABLE", "ST_FIPS": "47", "OWNER": "GOVERNMENT - FEDERAL", "TTL_STAFF": -999, "BEDS": 280, "TRAUMA": "NOT AVAILABLE", "HELIPAD": "N" }, "geometry": { "type": "Polygon", "coordinates": [ [ [ -90.002702155162623, 35.020857903998895 ], [ -90.025186731901741, 35.02705482807788 ], [ -90.062653785416728, 35.055378985183928 ], [ -90.084182162511979, 35.074927500189609 ], [ -90.097095644962877, 35.100879963165951 ], [ -90.100985740107745, 35.109470217786878 ], [ -90.040491, 35.231489 ], [ -90.0084799, 35.242854199999982 ], [ -90.008291, 35.242745 ], [ -89.9198396, 35.19116469999998 ], [ -89.904741300000012, 35.14609430000003 ], [ -89.9142245, 35.119290900000017 ], [ -89.937712662396436, 35.061684790235191 ], [ -90.002702155162623, 35.020857903998895 ] ] ] } },
{ "type": "Feature", "properties": { "OBJECTID": 7267, "ID": "0004238068", "NAME": "METHODIST HEALTHCARE - FAYETTE HOSPITAL", "ADDRESS": "214 LAKEVIEW DRIVE", "CITY": "SOMERVILLE", "STATE": "TN", "ZIP": "38068", "ZIP4": "NOT AVAILABLE", "TELEPHONE": "(901) 465-3594", "TYPE": "GENERAL ACUTE CARE", "STATUS": "CLOSED", "POPULATION": 10, "COUNTY": "FAYETTE", "COUNTYFIPS": "47047", "COUNTRY": "USA", "LATITUDE": 35.246831281, "LONGITUDE": -89.36379663, "NAICS_CODE": "622110", "NAICS_DESC": "GENERAL MEDICAL AND SURGICAL HOSPITALS", "SOURCE": "http://tnmap.state.tn.us/portal/metadata.asp", "SOURCEDATE": "2012-06-11T00:00:00.000Z", "VAL_METHOD": "IMAGERY/OTHER", "VAL_DATE": "2014-02-10T00:00:00.000Z", "WEBSITE": "http://www.methodisthealth.org", "STATE_ID": "233338", "ALT_NAME": "NOT AVAILABLE", "ST_FIPS": "47", "OWNER": "NON-PROFIT", "TTL_STAFF": -999, "BEDS": 10, "TRAUMA": "NOT AVAILABLE", "HELIPAD": "Y" }, "geometry": { "type": "Polygon", "coordinates": [ [ [ -89.3664291, 35.163076799999978 ], [ -89.501500048633261, 35.226067956192459 ], [ -89.50508534191593, 35.227826255626283 ], [ -89.504016338342382, 35.22913465696989 ], [ -89.4185461, 35.3102004 ], [ -89.396500700000018, 35.3186226 ], [ -89.34712, 35.324589 ], [ -89.2405654, 35.28707619999998 ], [ -89.303224, 35.190444 ], [ -89.3664291, 35.163076799999978 ] ] ] } },
{ "type": "Feature", "properties": { "OBJECTID": 7268, "ID": "0016738019", "NAME": "BAPTIST MEMORIAL HOSPITAL TIPTON", "ADDRESS": "1995 HIGHWAY 51 S", "CITY": "COVINGTON", "STATE": "TN", "ZIP": "38019", "ZIP4": "NOT AVAILABLE", "TELEPHONE": "(901) 476-2621", "TYPE": "GENERAL ACUTE CARE", "STATUS": "OPEN", "POPULATION": 100, "COUNTY": "TIPTON", "COUNTYFIPS": "47167", "COUNTRY": "USA", "LATITUDE": 35.535710159000097, "LONGITUDE": -89.677606689000001, "NAICS_CODE": "622110", "NAICS_DESC": "GENERAL MEDICAL AND SURGICAL HOSPITALS", "SOURCE": "https://apps.health.tn.gov/FacilityListings", "SOURCEDATE": "2018-08-10T00:00:00.000Z", "VAL_METHOD": "IMAGERY/OTHER", "VAL_DATE": "2014-02-10T00:00:00.000Z", "WEBSITE": "http://www.baptistonline.org/tipton/", "STATE_ID": "NOT AVAILABLE", "ALT_NAME": "NOT AVAILABLE", "ST_FIPS": "47", "OWNER": "NON-PROFIT", "TTL_STAFF": -999, "BEDS": 100, "TRAUMA": "NOT AVAILABLE", "HELIPAD": "Y" }, "geometry": { "type": "Polygon", "coordinates": [ [ [ -89.791357500000018, 35.4421888 ], [ -89.7918786, 35.4426872 ], [ -89.7917651, 35.445136799999986 ], [ -89.7905455, 35.449815099999988 ], [ -89.732228, 35.561238 ], [ -89.711704, 35.593969 ], [ -89.667565, 35.613072 ], [ -89.615762957818689, 35.629132082367903 ], [ -89.606757753261178, 35.62582509594187 ], [ -89.557141716369614, 35.551997115876318 ], [ -89.584784711219612, 35.478051264719873 ], [ -89.6536043, 35.4406327 ], [ -89.791357500000018, 35.4421888 ] ] ] } },
{ "type": "Feature", "properties": { "OBJECTID": 7272, "ID": "0011038237", "NAME": "TENNOVA HEALTHCARE - VOLUNTEER MARTIN", "ADDRESS": "161 MOUNT PELIA ROAD", "CITY": "MARTIN", "STATE": "TN", "ZIP": "38237", "ZIP4": "NOT AVAILABLE", "TELEPHONE": "(731) 587-4261", "TYPE": "GENERAL ACUTE CARE", "STATUS": "OPEN", "POPULATION": 100, "COUNTY": "WEAKLEY", "COUNTYFIPS": "47183", "COUNTRY": "USA", "LATITUDE": 36.3347483760001, "LONGITUDE": -88.868496272999906, "NAICS_CODE": "622110", "NAICS_DESC": "GENERAL MEDICAL AND SURGICAL HOSPITALS", "SOURCE": "https://apps.health.tn.gov/FacilityListings", "SOURCEDATE": "2018-08-10T00:00:00.000Z", "VAL_METHOD": "IMAGERY/OTHER", "VAL_DATE": "2013-09-13T00:00:00.000Z", "WEBSITE": "http://www.tennovawest.com/locations/tennova-healthcare-volunteer-martin", "STATE_ID": "1103993", "ALT_NAME": "VOLUNTEER COMMUNITY HOSPITAL", "ST_FIPS": "47", "OWNER": "PROPRIETARY", "TTL_STAFF": -999, "BEDS": 100, "TRAUMA": "NOT AVAILABLE", "HELIPAD": "Y" }, "geometry": { "type": "Polygon", "coordinates": [ [ [ -88.831294, 36.219692400000014 ], [ -88.8481747, 36.232218 ], [ -88.9499641, 36.311416 ], [ -88.9548277, 36.318046500000037 ], [ -88.9998449, 36.416343600000019 ], [ -88.8549755, 36.407056 ], [ -88.836427, 36.396027 ], [ -88.784037, 36.343206 ], [ -88.7368304, 36.290249500000037 ], [ -88.7369613, 36.2901419 ], [ -88.831294, 36.219692400000014 ] ] ] } },
{ "type": "Feature", "properties": { "OBJECTID": 7279, "ID": "0004538343", "NAME": "HUMBOLDT GENERAL HOSPITAL", "ADDRESS": "3525 CHERE CAROL ROAD", "CITY": "HUMBOLDT", "STATE": "TN", "ZIP": "38343", "ZIP4": "NOT AVAILABLE", "TELEPHONE": "(731) 784-2321", "TYPE": "GENERAL ACUTE CARE", "STATUS": "CLOSED", "POPULATION": 30, "COUNTY": "GIBSON", "COUNTYFIPS": "47053", "COUNTRY": "USA", "LATITUDE": 35.815846841000102, "LONGITUDE": -88.895251333999994, "NAICS_CODE": "622110", "NAICS_DESC": "GENERAL MEDICAL AND SURGICAL HOSPITALS", "SOURCE": "http://tnmap.state.tn.us/portal/metadata.asp", "SOURCEDATE": "2012-06-11T00:00:00.000Z", "VAL_METHOD": "IMAGERY/OTHER", "VAL_DATE": "2013-09-16T00:00:00.000Z", "WEBSITE": "http://www.wth.net", "STATE_ID": "1013645", "ALT_NAME": "NOT AVAILABLE", "ST_FIPS": "47", "OWNER": "GOVERNMENT - DISTRICT/AUTHORITY", "TTL_STAFF": -999, "BEDS": 30, "TRAUMA": "NOT AVAILABLE", "HELIPAD": "Y" }, "geometry": { "type": "Polygon", "coordinates": [ [ [ -88.8509391, 35.704163 ], [ -88.8581925, 35.711084 ], [ -88.9674975, 35.83205310000001 ], [ -88.965513500000014, 35.861559299999975 ], [ -88.9387933, 35.918296200000022 ], [ -88.843011599999983, 35.8920763 ], [ -88.8268276, 35.884019499999965 ], [ -88.7893831, 35.7931847 ], [ -88.836168, 35.718016399999975 ], [ -88.8509391, 35.704163 ] ] ] } },
{ "type": "Feature", "properties": { "OBJECTID": 7280, "ID": "0016338358", "NAME": "MILAN GENERAL HOSPITAL", "ADDRESS": "4039 HIGHLAND ST", "CITY": "MILAN", "STATE": "TN", "ZIP": "38358", "ZIP4": "NOT AVAILABLE", "TELEPHONE": "(731) 686-1591", "TYPE": "GENERAL ACUTE CARE", "STATUS": "OPEN", "POPULATION": 70, "COUNTY": "GIBSON", "COUNTYFIPS": "47053", "COUNTRY": "USA", "LATITUDE": 35.912286405000003, "LONGITUDE": -88.754141319, "NAICS_CODE": "622110", "NAICS_DESC": "GENERAL MEDICAL AND SURGICAL HOSPITALS", "SOURCE": "https://apps.health.tn.gov/FacilityListings", "SOURCEDATE": "2018-08-10T00:00:00.000Z", "VAL_METHOD": "IMAGERY/OTHER", "VAL_DATE": "2014-03-12T00:00:00.000Z", "WEBSITE": "http://www.wth.org/locations/milan-general-hospital", "STATE_ID": "NOT AVAILABLE", "ALT_NAME": "NOT AVAILABLE", "ST_FIPS": "47", "OWNER": "GOVERNMENT - DISTRICT/AUTHORITY", "TTL_STAFF": -999, "BEDS": 70, "TRAUMA": "NOT AVAILABLE", "HELIPAD": "Y" }, "geometry": { "type": "Polygon", "coordinates": [ [ [ -88.7893831, 35.7931847 ], [ -88.8484121, 35.8633751 ], [ -88.8542512, 35.871273 ], [ -88.86282, 35.8834535 ], [ -88.8648612, 35.947706700000019 ], [ -88.8562821, 35.979812800000019 ], [ -88.8132059, 36.033385700000018 ], [ -88.8123588, 36.034054 ], [ -88.6565178, 35.985088299999951 ], [ -88.651890400000013, 35.9751067 ], [ -88.6354869, 35.908502800000015 ], [ -88.7623329, 35.805416 ], [ -88.7670643, 35.8021366 ], [ -88.7879067, 35.793162399999979 ], [ -88.7893831, 35.7931847 ] ] ] } },
{ "type": "Feature", "properties": { "OBJECTID": 7283, "ID": "0004937061", "NAME": "HOUSTON COUNTY COMMUNITY HOSPITAL", "ADDRESS": "5001 E. MAIN STREET", "CITY": "ERIN", "STATE": "TN", "ZIP": "37061", "ZIP4": "NOT AVAILABLE", "TELEPHONE": "(931) 289-4211", "TYPE": "GENERAL ACUTE CARE", "STATUS": "OPEN", "POPULATION": 25, "COUNTY": "HOUSTON", "COUNTYFIPS": "47083", "COUNTRY": "USA", "LATITUDE": 36.320170566000101, "LONGITUDE": -87.689643485999994, "NAICS_CODE": "622110", "NAICS_DESC": "GENERAL MEDICAL AND SURGICAL HOSPITALS", "SOURCE": "https://apps.health.tn.gov/FacilityListings", "SOURCEDATE": "2018-08-10T00:00:00.000Z", "VAL_METHOD": "IMAGERY/OTHER", "VAL_DATE": "2014-02-10T00:00:00.000Z", "WEBSITE": "http://www.patientschoicemedicalcenter.com/", "STATE_ID": "959522", "ALT_NAME": "PATIENTS CHOICE HOSPITAL", "ST_FIPS": "47", "OWNER": "PROPRIETARY", "TTL_STAFF": -999, "BEDS": 25, "TRAUMA": "NOT AVAILABLE", "HELIPAD": "Y" }, "geometry": { "type": "Polygon", "coordinates": [ [ [ -87.6502356, 36.23516140000001 ], [ -87.657162, 36.236711 ], [ -87.695888, 36.247454 ], [ -87.784488, 36.302882 ], [ -87.7818797, 36.31684340000001 ], [ -87.7816934, 36.317667899999982 ], [ -87.7783536, 36.326606700000013 ], [ -87.7738145, 36.332259500000021 ], [ -87.757292, 36.343085500000015 ], [ -87.697089, 36.363542 ], [ -87.678374, 36.369679 ], [ -87.6496885, 36.369604800000033 ], [ -87.6079108, 36.362453 ], [ -87.5779002, 36.335721 ], [ -87.5682805, 36.277278500000037 ], [ -87.6502356, 36.23516140000001 ] ] ] } },
{ "type": "Feature", "properties": { "OBJECTID": 7299, "ID": "0016438138", "NAME": "BAPTIST MEMORIAL REHABILITATION HOSPITAL", "ADDRESS": "1240 S. GERMANTOWN ROAD", "CITY": "GERMANTOWN", "STATE": "TN", "ZIP": "38138", "ZIP4": "NOT AVAILABLE", "TELEPHONE": "(901) 275-3303", "TYPE": "REHABILITATION", "STATUS": "OPEN", "POPULATION": 49, "COUNTY": "SHELBY", "COUNTYFIPS": "47157", "COUNTRY": "USA", "LATITUDE": 35.1139104700001, "LONGITUDE": -89.79951397000001, "NAICS_CODE": "622310", "NAICS_DESC": "REHABILITATION HOSPITALS (EXCEPT ALCOHOLISM, DRUG ADDICTION)", "SOURCE": "https://apps.health.tn.gov/FacilityListings", "SOURCEDATE": "2018-08-10T00:00:00.000Z", "VAL_METHOD": "IMAGERY", "VAL_DATE": "2016-11-15T00:00:00.000Z", "WEBSITE": "http://www.baptistrehab.com/", "STATE_ID": "NOT AVAILABLE", "ALT_NAME": "NOT AVAILABLE", "ST_FIPS": "47", "OWNER": "NON-PROFIT", "TTL_STAFF": -999, "BEDS": 49, "TRAUMA": "NOT AVAILABLE", "HELIPAD": "N" }, "geometry": { "type": "Polygon", "coordinates": [ [ [ -89.797521644907803, 35.026156547943913 ], [ -89.831425678638283, 35.029306097350954 ], [ -89.845286488122454, 35.041773180539238 ], [ -89.853323592730717, 35.049659933017864 ], [ -89.877211999138183, 35.08188054174812 ], [ -89.9135445, 35.1312349 ], [ -89.9110794, 35.145622800000019 ], [ -89.9045615, 35.172086700000044 ], [ -89.7919596, 35.22091530000003 ], [ -89.7604151, 35.208122799999984 ], [ -89.7359973, 35.181070199999986 ], [ -89.721148600000021, 35.1599302 ], [ -89.703411, 35.1200555 ], [ -89.695126315293933, 35.085577711198951 ], [ -89.695134615239269, 35.085393710220714 ], [ -89.695164215045125, 35.084739806744516 ], [ -89.733034199500821, 35.051819636838609 ], [ -89.759690705905768, 35.039017580925474 ], [ -89.795732343075557, 35.026162146292656 ], [ -89.797521644907803, 35.026156547943913 ] ] ] } },
{ "type": "Feature", "properties": { "OBJECTID": 7300, "ID": "0016538120", "NAME": "BAPTIST MEMORIAL RESTORATIVE CARE HOSPITAL", "ADDRESS": "6019 WALNUT GROVE ROAD", "CITY": "MEMPHIS", "STATE": "TN", "ZIP": "38120", "ZIP4": "NOT AVAILABLE", "TELEPHONE": "(901) 226-4200", "TYPE": "LONG TERM CARE", "STATUS": "OPEN", "POPULATION": 30, "COUNTY": "SHELBY", "COUNTYFIPS": "47157", "COUNTRY": "USA", "LATITUDE": 35.1290341690001, "LONGITUDE": -89.861588596999994, "NAICS_CODE": "622310", "NAICS_DESC": "SPECIALTY (EXCEPT PSYCHIATRIC AND SUBSTANCE ABUSE) HOSPITALS", "SOURCE": "https://apps.health.tn.gov/FacilityListings", "SOURCEDATE": "2018-08-10T00:00:00.000Z", "VAL_METHOD": "IMAGERY", "VAL_DATE": "2016-11-16T00:00:00.000Z", "WEBSITE": "http://www.baptistonline.org/restorative-care/", "STATE_ID": "NOT AVAILABLE", "ALT_NAME": "NOT AVAILABLE", "ST_FIPS": "47", "OWNER": "NON-PROFIT", "TTL_STAFF": -999, "BEDS": 30, "TRAUMA": "NOT AVAILABLE", "HELIPAD": "Y" }, "geometry": { "type": "Polygon", "coordinates": [ [ [ -89.866477411572902, 35.034890962426118 ], [ -89.90884814865143, 35.042695048979247 ], [ -89.959396266831931, 35.07963592087382 ], [ -89.9820619, 35.146688599999983 ], [ -89.9827026, 35.151056600000018 ], [ -89.9820966, 35.199215 ], [ -89.9758947, 35.2047723 ], [ -89.9377755, 35.22776049999996 ], [ -89.925731400000018, 35.2342252 ], [ -89.8915715, 35.2301463 ], [ -89.7675964, 35.20665970000001 ], [ -89.7640839, 35.2049107 ], [ -89.7365972, 35.132519499999958 ], [ -89.7368345, 35.1296148 ], [ -89.754184800551641, 35.097641286844279 ], [ -89.755006401161808, 35.096601082286242 ], [ -89.758044403466869, 35.093429568974933 ], [ -89.809508351923327, 35.049970390092291 ], [ -89.831152074693733, 35.041259263653195 ], [ -89.866477411572902, 35.034890962426118 ] ] ] } },
{ "type": "Feature", "properties": { "OBJECTID": 7305, "ID": "0017738105", "NAME": "ST. JUDE CHILDREN'S RESEARCH HOSPITAL", "ADDRESS": "262 DANNY THOMAS PLACES", "CITY": "MEMPHIS", "STATE": "TN", "ZIP": "38105", "ZIP4": "NOT AVAILABLE", "TELEPHONE": "(901) 595-3301", "TYPE": "CHILDREN", "STATUS": "OPEN", "POPULATION": 80, "COUNTY": "SHELBY", "COUNTYFIPS": "47157", "COUNTRY": "USA", "LATITUDE": 35.154215851000103, "LONGITUDE": -90.042902228999907, "NAICS_CODE": "622110", "NAICS_DESC": "CHILDREN'S HOSPITALS, GENERAL", "SOURCE": "https://apps.health.tn.gov/FacilityListings", "SOURCEDATE": "2018-08-10T00:00:00.000Z", "VAL_METHOD": "IMAGERY/OTHER", "VAL_DATE": "2016-11-22T00:00:00.000Z", "WEBSITE": "https://www.stjude.org/", "STATE_ID": "NOT AVAILABLE", "ALT_NAME": "NOT AVAILABLE", "ST_FIPS": "47", "OWNER": "NON-PROFIT", "TTL_STAFF": -999, "BEDS": 80, "TRAUMA": "NOT AVAILABLE", "HELIPAD": "N" }, "geometry": { "type": "Polygon", "coordinates": [ [ [ -90.026566108239635, 35.05431159714918 ], [ -90.05959518474647, 35.059320611825811 ], [ -90.063578580892425, 35.061778225493896 ], [ -90.084182162511979, 35.074927500189609 ], [ -90.097095644962877, 35.100879963165951 ], [ -90.100985740107745, 35.109470217786878 ], [ -90.0563289, 35.210633800000053 ], [ -90.040491, 35.231489 ], [ -90.0251341, 35.250838700000031 ], [ -90.0249263, 35.250894700000053 ], [ -90.0152997, 35.2500968 ], [ -89.9932162, 35.243847200000033 ], [ -89.9251304, 35.1971865 ], [ -89.9198396, 35.19116469999998 ], [ -89.9173285, 35.162033900000019 ], [ -89.9240558, 35.146193499999988 ], [ -89.96166566391561, 35.085384657940125 ], [ -90.024994609239528, 35.054269797706034 ], [ -90.026566108239635, 35.05431159714918 ] ] ] } },
{ "type": "Feature", "properties": { "OBJECTID": 7306, "ID": "0017837185", "NAME": "THREE RIVERS HOSPITAL", "ADDRESS": "451 HIGHWAY 13 SOUTH", "CITY": "WAVERLY", "STATE": "TN", "ZIP": "37185", "ZIP4": "NOT AVAILABLE", "TELEPHONE": "(931) 296-4203", "TYPE": "CRITICAL ACCESS", "STATUS": "OPEN", "POPULATION": 25, "COUNTY": "HUMPHREYS", "COUNTYFIPS": "47085", "COUNTRY": "USA", "LATITUDE": 36.076031061000002, "LONGITUDE": -87.792335281999996, "NAICS_CODE": "622110", "NAICS_DESC": "GENERAL MEDICAL AND SURGICAL HOSPITALS", "SOURCE": "https://apps.health.tn.gov/FacilityListings", "SOURCEDATE": "2018-08-10T00:00:00.000Z", "VAL_METHOD": "IMAGERY", "VAL_DATE": "2016-11-22T00:00:00.000Z", "WEBSITE": "http://www.threerivershospital.com/", "STATE_ID": "NOT AVAILABLE", "ALT_NAME": "NOT AVAILABLE", "ST_FIPS": "47", "OWNER": "GOVERNMENT - LOCAL", "TTL_STAFF": -999, "BEDS": 25, "TRAUMA": "NOT AVAILABLE", "HELIPAD": "Y" }, "geometry": { "type": "Polygon", "coordinates": [ [ [ -87.7627536, 35.9774114 ], [ -87.904356, 36.05370419999997 ], [ -87.7843468, 36.155905100000027 ], [ -87.772517, 36.161214 ], [ -87.768996, 36.162414 ], [ -87.7540758, 36.163615 ], [ -87.6973591, 36.114557599999969 ], [ -87.685828, 36.104161 ], [ -87.727613, 35.998455 ], [ -87.7627536, 35.9774114 ] ] ] } },
{ "type": "Feature", "properties": { "OBJECTID": 7577, "ID": "0181742223", "NAME": "BLANCHFIELD ARMY COMMUNITY HOSPITAL", "ADDRESS": "650 JOEL DRIVE", "CITY": "FORT CAMPBELL", "STATE": "KY", "ZIP": "42223", "ZIP4": "NOT AVAILABLE", "TELEPHONE": "(270) 798-8400", "TYPE": "MILITARY", "STATUS": "OPEN", "POPULATION": -999, "COUNTY": "MONTGOMERY", "COUNTYFIPS": "47125", "COUNTRY": "USA", "LATITUDE": 36.6366409, "LONGITUDE": -87.4474845, "NAICS_CODE": "622110", "NAICS_DESC": "GENERAL MEDICAL AND SURGICAL HOSPITALS", "SOURCE": "http://www.tricare.mil/mtf", "SOURCEDATE": "2019-04-02T00:00:00.000Z", "VAL_METHOD": "IMAGERY/OTHER", "VAL_DATE": "2019-05-16T00:00:00.000Z", "WEBSITE": "NOT AVAILABLE", "STATE_ID": "NOT AVAILABLE", "ALT_NAME": "NOT AVAILABLE", "ST_FIPS": "21", "OWNER": "GOVERNMENT - FEDERAL", "TTL_STAFF": -999, "BEDS": -999, "TRAUMA": "NOT AVAILABLE", "HELIPAD": "Y" }, "geometry": { "type": "Polygon", "coordinates": [ [ [ -87.3968212, 36.556658599999935 ], [ -87.477460900000011, 36.577699 ], [ -87.5506435, 36.622899099999941 ], [ -87.533506, 36.652356 ], [ -87.460018, 36.720566 ], [ -87.394526, 36.701132 ], [ -87.377905, 36.629649300000018 ], [ -87.3846569, 36.585903299999977 ], [ -87.3968212, 36.556658599999935 ] ] ] } },
{ "type": "Feature", "properties": { "OBJECTID": 5053, "ID": "0002663901", "NAME": "BLACK RIVER COMMUNITY MEDICAL CENTER", "ADDRESS": "217 PHYSICIANS PARK DRIVE", "CITY": "POPLAR BLUFF", "STATE": "MO", "ZIP": "63901", "ZIP4": "NOT AVAILABLE", "TELEPHONE": "(573) 727-9080", "TYPE": "GENERAL ACUTE CARE", "STATUS": "OPEN", "POPULATION": 8, "COUNTY": "BUTLER", "COUNTYFIPS": "29023", "COUNTRY": "USA", "LATITUDE": 36.772145623, "LONGITUDE": -90.457551323000004, "NAICS_CODE": "622110", "NAICS_DESC": "GENERAL MEDICAL AND SURGICAL HOSPITALS", "SOURCE": "http://health.mo.gov/safety/healthservregs/directories.php", "SOURCEDATE": "2018-08-09T00:00:00.000Z", "VAL_METHOD": "IMAGERY/OTHER", "VAL_DATE": "2013-09-25T00:00:00.000Z", "WEBSITE": "http://blackrivermedical.com/", "STATE_ID": "H178", "ALT_NAME": "NOT AVAILABLE", "ST_FIPS": "29", "OWNER": "PROPRIETARY", "TTL_STAFF": -999, "BEDS": 8, "TRAUMA": "NOT AVAILABLE", "HELIPAD": "N" }, "geometry": { "type": "Polygon", "coordinates": [ [ [ -90.48816, 36.683571 ], [ -90.505454, 36.728677 ], [ -90.539617, 36.843345 ], [ -90.537366, 36.845686 ], [ -90.502629, 36.878075 ], [ -90.502283, 36.878027 ], [ -90.323216, 36.811832 ], [ -90.307676, 36.792975 ], [ -90.307674, 36.792742 ], [ -90.307679, 36.786136 ], [ -90.38357, 36.72386 ], [ -90.383741, 36.72373 ], [ -90.48816, 36.683571 ] ] ] } },
{ "type": "Feature", "properties": { "OBJECTID": 5054, "ID": "0002963901", "NAME": "POPLAR BLUFF REGIONAL MEDICAL CENTER - WESTWOOD", "ADDRESS": "2620 NORTH WESTWOOD BOULEVARD", "CITY": "POPLAR BLUFF", "STATE": "MO", "ZIP": "63901", "ZIP4": "NOT AVAILABLE", "TELEPHONE": "(573) 785-7721", "TYPE": "GENERAL ACUTE CARE", "STATUS": "OPEN", "POPULATION": 38, "COUNTY": "BUTLER", "COUNTYFIPS": "29023", "COUNTRY": "USA", "LATITUDE": 36.78558106, "LONGITUDE": -90.426125502999994, "NAICS_CODE": "622110", "NAICS_DESC": "GENERAL MEDICAL AND SURGICAL HOSPITALS", "SOURCE": "http://health.mo.gov/safety/healthservregs/directories.php", "SOURCEDATE": "2018-08-09T00:00:00.000Z", "VAL_METHOD": "IMAGERY/OTHER", "VAL_DATE": "2013-09-25T00:00:00.000Z", "WEBSITE": "http://www.poplarbluffregional.com/locations/poplar-bluff-rmc-westwood", "STATE_ID": "H134", "ALT_NAME": "POPLAR BLUFF REGIONAL MEDICAL CENTER - NORTH", "ST_FIPS": "29", "OWNER": "PROPRIETARY", "TTL_STAFF": -999, "BEDS": 38, "TRAUMA": "NOT AVAILABLE", "HELIPAD": "Y" }, "geometry": { "type": "Polygon", "coordinates": [ [ [ -90.484014, 36.686972 ], [ -90.4846373, 36.687612099999981 ], [ -90.5497081, 36.845631 ], [ -90.5497164, 36.845878599999978 ], [ -90.502629, 36.878075 ], [ -90.502283, 36.878027 ], [ -90.323216, 36.811832 ], [ -90.307676, 36.792975 ], [ -90.307674, 36.792742 ], [ -90.307679, 36.786136 ], [ -90.363103, 36.703312 ], [ -90.484014, 36.686972 ] ] ] } },
{ "type": "Feature", "properties": { "OBJECTID": 5257, "ID": "0008738120", "NAME": "BAPTIST MEMORIAL HOSPITAL", "ADDRESS": "6019 WALNUT GROVE ROAD", "CITY": "MEMPHIS", "STATE": "TN", "ZIP": "38120", "ZIP4": "NOT AVAILABLE", "TELEPHONE": "(901) 226-5000", "TYPE": "GENERAL ACUTE CARE", "STATUS": "OPEN", "POPULATION": 927, "COUNTY": "SHELBY", "COUNTYFIPS": "47157", "COUNTRY": "USA", "LATITUDE": 35.129521959000002, "LONGITUDE": -89.861558853999995, "NAICS_CODE": "622110", "NAICS_DESC": "GENERAL MEDICAL AND SURGICAL HOSPITALS", "SOURCE": "https://apps.health.tn.gov/FacilityListings", "SOURCEDATE": "2018-08-10T00:00:00.000Z", "VAL_METHOD": "IMAGERY/OTHER", "VAL_DATE": "2014-02-10T00:00:00.000Z", "WEBSITE": "http://www.baptistonline.org/memphis/", "STATE_ID": "806111", "ALT_NAME": "NOT AVAILABLE", "ST_FIPS": "47", "OWNER": "NON-PROFIT", "TTL_STAFF": -999, "BEDS": 927, "TRAUMA": "NOT AVAILABLE", "HELIPAD": "Y" }, "geometry": { "type": "Polygon", "coordinates": [ [ [ -89.866477411572902, 35.034890962426118 ], [ -89.90884814865143, 35.042695048979247 ], [ -89.959396266831931, 35.07963592087382 ], [ -89.9820619, 35.146688599999983 ], [ -89.9827026, 35.151056600000018 ], [ -89.9820966, 35.199215 ], [ -89.9758947, 35.2047723 ], [ -89.9377755, 35.22776049999996 ], [ -89.925731400000018, 35.2342252 ], [ -89.8915715, 35.2301463 ], [ -89.7675964, 35.20665970000001 ], [ -89.7640839, 35.2049107 ], [ -89.7365972, 35.132519499999958 ], [ -89.7368345, 35.1296148 ], [ -89.754184800551641, 35.097641286844279 ], [ -89.755006401161808, 35.096601082286242 ], [ -89.758044403466869, 35.093429568974933 ], [ -89.809508351923327, 35.049970390092291 ], [ -89.831152074693733, 35.041259263653195 ], [ -89.866477411572902, 35.034890962426118 ] ] ] } },
{ "type": "Feature", "properties": { "OBJECTID": 5390, "ID": "0000000081", "NAME": "SAINT FRANCIS HOSPITAL MEMPHIS", "ADDRESS": "5959 PARK AVE", "CITY": "MEMPHIS", "STATE": "TN", "ZIP": "38119", "ZIP4": "NOT AVAILABLE", "TELEPHONE": "(901) 765-1000", "TYPE": "GENERAL ACUTE CARE", "STATUS": "OPEN", "POPULATION": 479, "COUNTY": "SHELBY", "COUNTYFIPS": "47157", "COUNTRY": "USA", "LATITUDE": 35.098205032000102, "LONGITUDE": -89.8648751919999, "NAICS_CODE": "622110", "NAICS_DESC": "GENERAL MEDICAL AND SURGICAL HOSPITALS", "SOURCE": "https://apps.health.tn.gov/FacilityListings", "SOURCEDATE": "2018-08-10T00:00:00.000Z", "VAL_METHOD": "IMAGERY/OTHER", "VAL_DATE": "2015-05-22T00:00:00.000Z", "WEBSITE": "http://www.saintfrancishosp.com/en-US/Pages/default.aspx", "STATE_ID": "NOT AVAILABLE", "ALT_NAME": "NOT AVAILABLE", "ST_FIPS": "47", "OWNER": "NON-PROFIT", "TTL_STAFF": -999, "BEDS": 479, "TRAUMA": "NOT AVAILABLE", "HELIPAD": "Y" }, "geometry": { "type": "Polygon", "coordinates": [ [ [ -89.8643627, 35.008833499999987 ], [ -89.937122378085533, 35.039459257952593 ], [ -89.985853390679054, 35.07702733460323 ], [ -89.97703145566129, 35.108293514200952 ], [ -89.966161, 35.134433100000045 ], [ -89.9189061, 35.1907742 ], [ -89.8362319, 35.17987890000002 ], [ -89.7870872, 35.130495400000029 ], [ -89.759597304560486, 35.097099090338652 ], [ -89.759609904572912, 35.096957089596792 ], [ -89.768289312373994, 35.072643569543445 ], [ -89.793131640177677, 35.027682952123307 ], [ -89.795732343075557, 35.026162146292656 ], [ -89.831228682704278, 35.015420619837606 ], [ -89.8643627, 35.008833499999987 ] ] ] } },
{ "type": "Feature", "properties": { "OBJECTID": 5564, "ID": "0007100000", "NAME": "HELENA REGIONAL MEDICAL CENTER", "ADDRESS": "1801 MARTIN LUTHER KING DRIVE", "CITY": "HELENA", "STATE": "AR", "ZIP": "72342", "ZIP4": "NOT AVAILABLE", "TELEPHONE": "(870) 338-5800", "TYPE": "GENERAL ACUTE CARE", "STATUS": "OPEN", "POPULATION": 155, "COUNTY": "PHILLIPS", "COUNTYFIPS": "05107", "COUNTRY": "USA", "LATITUDE": 34.510285338000102, "LONGITUDE": -90.627103362, "NAICS_CODE": "622110", "NAICS_DESC": "GENERAL MEDICAL AND SURGICAL HOSPITALS", "SOURCE": "http://www.healthy.arkansas.gov/programsServices/hsLicensingRegulation/HealthFacilityServices/Pages/ProviderLists.aspx", "SOURCEDATE": "2018-08-08T00:00:00.000Z", "VAL_METHOD": "IMAGERY/OTHER", "VAL_DATE": "2014-02-10T00:00:00.000Z", "WEBSITE": "http://www.helenarmc.com", "STATE_ID": "040085", "ALT_NAME": "NOT AVAILABLE", "ST_FIPS": "05", "OWNER": "PROPRIETARY", "TTL_STAFF": -999, "BEDS": 155, "TRAUMA": "NOT AVAILABLE", "HELIPAD": "Y" }, "geometry": { "type": "Polygon", "coordinates": [ [ [ -90.6458423, 34.421578500000059 ], [ -90.702363, 34.489867 ], [ -90.7554804, 34.55498850000005 ], [ -90.697482500000021, 34.587715899999971 ], [ -90.6713514, 34.598449699999975 ], [ -90.652335, 34.600636 ], [ -90.586758, 34.544806 ], [ -90.5838602, 34.537515399999982 ], [ -90.5820363, 34.521632099999962 ], [ -90.593476, 34.465592 ], [ -90.601112, 34.449576 ], [ -90.6414898, 34.423233100000026 ], [ -90.6458423, 34.421578500000059 ] ] ] } },
{ "type": "Feature", "properties": { "OBJECTID": 5566, "ID": "0005772370", "NAME": "SOUTH MISSISSIPPI COUNTY REGIONAL MEDICAL CENTER", "ADDRESS": "611 WEST LEE AVENUE", "CITY": "OSCEOLA", "STATE": "AR", "ZIP": "72370", "ZIP4": "NOT AVAILABLE", "TELEPHONE": "(870) 563-7000", "TYPE": "CRITICAL ACCESS", "STATUS": "OPEN", "POPULATION": 25, "COUNTY": "MISSISSIPPI", "COUNTYFIPS": "05093", "COUNTRY": "USA", "LATITUDE": 35.699705084000101, "LONGITUDE": -89.975570036999997, "NAICS_CODE": "622110", "NAICS_DESC": "GENERAL MEDICAL AND SURGICAL HOSPITALS", "SOURCE": "http://www.healthy.arkansas.gov/programsServices/hsLicensingRegulation/HealthFacilityServices/Pages/ProviderLists.aspx", "SOURCEDATE": "2018-08-08T00:00:00.000Z", "VAL_METHOD": "IMAGERY/OTHER", "VAL_DATE": "2014-03-12T00:00:00.000Z", "WEBSITE": "http://www.mchsys.org/getpage.php?name=smrmc", "STATE_ID": "041316", "ALT_NAME": "NOT AVAILABLE", "ST_FIPS": "05", "OWNER": "GOVERNMENT - LOCAL", "TTL_STAFF": -999, "BEDS": 25, "TRAUMA": "LEVEL IV", "HELIPAD": "Y" }, "geometry": { "type": "Polygon", "coordinates": [ [ [ -90.012733, 35.609149 ], [ -90.0169214, 35.609736 ], [ -90.0901067, 35.698526599999987 ], [ -90.017594, 35.756157 ], [ -90.000088, 35.763379 ], [ -89.9277581, 35.7849635 ], [ -89.910267, 35.762752 ], [ -89.910155, 35.762318 ], [ -89.919136, 35.652721 ], [ -89.99996, 35.610192 ], [ -90.012733, 35.609149 ] ] ] } },
{ "type": "Feature", "properties": { "OBJECTID": 5569, "ID": "0012072301", "NAME": "OAKRIDGE BEHAVIORAL CENTER", "ADDRESS": "600 NORTH 7TH ST", "CITY": "WEST MEMPHIS", "STATE": "AR", "ZIP": "72301", "ZIP4": "3235", "TELEPHONE": "(870) 394-4113", "TYPE": "PSYCHIATRIC", "STATUS": "OPEN", "POPULATION": 54, "COUNTY": "CRITTENDEN", "COUNTYFIPS": "05035", "COUNTRY": "USA", "LATITUDE": 35.1528921990001, "LONGITUDE": -90.177189309, "NAICS_CODE": "622210", "NAICS_DESC": "PSYCHIATRIC AND SUBSTANCE ABUSE HOSPITALS", "SOURCE": "http://www.healthy.arkansas.gov/programsServices/hsLicensingRegulation/HealthFacilityServices/Pages/ProviderLists.aspx", "SOURCEDATE": "2018-08-08T00:00:00.000Z", "VAL_METHOD": "IMAGERY/OTHER", "VAL_DATE": "2016-07-09T00:00:00.000Z", "WEBSITE": "http://www.woodridgecare.com/center-oak-ridge.html", "STATE_ID": "NOT AVAILABLE", "ALT_NAME": "NOT AVAILABLE", "ST_FIPS": "05", "OWNER": "PROPRIETARY", "TTL_STAFF": -999, "BEDS": 54, "TRAUMA": "NOT AVAILABLE", "HELIPAD": "N" }, "geometry": { "type": "Polygon", "coordinates": [ [ [ -90.229488197607267, 35.097583194461471 ], [ -90.2982691, 35.148041099999986 ], [ -90.2299974, 35.266790100000058 ], [ -90.1220908, 35.1904001 ], [ -90.1215446, 35.189907399999989 ], [ -90.0953836, 35.1428995 ], [ -90.0946228, 35.139298799999985 ], [ -90.0992146, 35.129396200000031 ], [ -90.183511514936157, 35.10396035440472 ], [ -90.229488197607267, 35.097583194461471 ] ] ] } },
{ "type": "Feature", "properties": { "OBJECTID": 5658, "ID": "0015863841", "NAME": "SOUTHEASTHEALTH CENTER OF STODDARD COUNTY", "ADDRESS": "1200 NORTH ONE MILE ROAD", "CITY": "DEXTER", "STATE": "MO", "ZIP": "63841", "ZIP4": "NOT AVAILABLE", "TELEPHONE": "(573) 624-5566", "TYPE": "GENERAL ACUTE CARE", "STATUS": "OPEN", "POPULATION": 48, "COUNTY": "STODDARD", "COUNTYFIPS": "29207", "COUNTRY": "USA", "LATITUDE": 36.807479592000099, "LONGITUDE": -89.968323743, "NAICS_CODE": "622110", "NAICS_DESC": "GENERAL MEDICAL AND SURGICAL HOSPITALS", "SOURCE": "http://health.mo.gov/safety/healthservregs/directories.php", "SOURCEDATE": "2018-08-09T00:00:00.000Z", "VAL_METHOD": "IMAGERY/OTHER", "VAL_DATE": "2014-03-12T00:00:00.000Z", "WEBSITE": "https://www.sehealth.org/locations/health-center-stoddard-county", "STATE_ID": "H069", "ALT_NAME": "NOT AVAILABLE", "ST_FIPS": "29", "OWNER": "PROPRIETARY", "TTL_STAFF": -999, "BEDS": 48, "TRAUMA": "NOT AVAILABLE", "HELIPAD": "Y" }, "geometry": { "type": "Polygon", "coordinates": [ [ [ -89.965613, 36.7131471 ], [ -90.097447, 36.787251 ], [ -90.097975, 36.788044 ], [ -90.098493, 36.790141 ], [ -90.097506, 36.805422 ], [ -90.097318, 36.806387 ], [ -90.042093, 36.851402 ], [ -89.983996, 36.88012 ], [ -89.93287, 36.905279 ], [ -89.922296, 36.90699 ], [ -89.807547, 36.830076 ], [ -89.80755, 36.829831 ], [ -89.8619464, 36.7878925 ], [ -89.965613, 36.7131471 ] ] ] } },
{ "type": "Feature", "properties": { "OBJECTID": 5659, "ID": "0011363801", "NAME": "MISSOURI DELTA MEDICAL CENTER", "ADDRESS": "1008 NORTH MAIN STREET", "CITY": "SIKESTON", "STATE": "MO", "ZIP": "63801", "ZIP4": "NOT AVAILABLE", "TELEPHONE": "(573) 471-1600", "TYPE": "GENERAL ACUTE CARE", "STATUS": "OPEN", "POPULATION": 144, "COUNTY": "SCOTT", "COUNTYFIPS": "29201", "COUNTRY": "USA", "LATITUDE": 36.88984248, "LONGITUDE": -89.583462685000001, "NAICS_CODE": "622110", "NAICS_DESC": "GENERAL MEDICAL AND SURGICAL HOSPITALS", "SOURCE": "http://health.mo.gov/safety/healthservregs/directories.php", "SOURCEDATE": "2018-08-09T00:00:00.000Z", "VAL_METHOD": "IMAGERY/OTHER", "VAL_DATE": "2014-02-10T00:00:00.000Z", "WEBSITE": "http://www.missouridelta.com", "STATE_ID": "H068", "ALT_NAME": "NOT AVAILABLE", "ST_FIPS": "29", "OWNER": "NON-PROFIT", "TTL_STAFF": -999, "BEDS": 144, "TRAUMA": "NOT AVAILABLE", "HELIPAD": "Y" }, "geometry": { "type": "Polygon", "coordinates": [ [ [ -89.571987, 36.797973 ], [ -89.6308378, 36.818525699999974 ], [ -89.689258, 36.846653 ], [ -89.6888351, 36.8888156 ], [ -89.684009, 36.918062 ], [ -89.624164, 36.987725 ], [ -89.622439, 36.987771 ], [ -89.515517, 36.927992 ], [ -89.499385, 36.917425 ], [ -89.497941, 36.913502 ], [ -89.500719, 36.902175 ], [ -89.506593, 36.884772 ], [ -89.567521400000018, 36.798287 ], [ -89.571987, 36.797973 ] ] ] } },
{ "type": "Feature", "properties": { "OBJECTID": 5661, "ID": "0002863901", "NAME": "POPLAR BLUFF REGIONAL MEDICAL CENTER - SOUTH", "ADDRESS": "621 WEST PINE STREET", "CITY": "POPLAR BLUFF", "STATE": "MO", "ZIP": "63901", "ZIP4": "NOT AVAILABLE", "TELEPHONE": "(573) 686-4111", "TYPE": "GENERAL ACUTE CARE", "STATUS": "CLOSED", "POPULATION": -999, "COUNTY": "BUTLER", "COUNTYFIPS": "29023", "COUNTRY": "USA", "LATITUDE": 36.757972791, "LONGITUDE": -90.397319964000005, "NAICS_CODE": "622110", "NAICS_DESC": "GENERAL MEDICAL AND SURGICAL HOSPITALS", "SOURCE": "http://gis.dhss.mo.gov/Website/AGS_healthFacility/healthFacility.html", "SOURCEDATE": "2013-02-15T00:00:00.000Z", "VAL_METHOD": "IMAGERY/OTHER", "VAL_DATE": "2013-09-25T00:00:00.000Z", "WEBSITE": "http://www.poplarbluffregional.com", "STATE_ID": "H135", "ALT_NAME": "NOT AVAILABLE", "ST_FIPS": "29", "OWNER": "PROPRIETARY", "TTL_STAFF": -999, "BEDS": -999, "TRAUMA": "NOT AVAILABLE", "HELIPAD": "N" }, "geometry": { "type": "Polygon", "coordinates": [ [ [ -90.41993, 36.666448 ], [ -90.48816, 36.683571 ], [ -90.496611, 36.733311 ], [ -90.505868, 36.792855 ], [ -90.497511, 36.840266 ], [ -90.323673, 36.832126 ], [ -90.322239, 36.831838 ], [ -90.262872, 36.791509 ], [ -90.262828, 36.790985 ], [ -90.333283, 36.673482 ], [ -90.41993, 36.666448 ] ] ] } },
{ "type": "Feature", "properties": { "OBJECTID": 5663, "ID": "0009663851", "NAME": "PEMISCOT COUNTY HEALTH CENTER", "ADDRESS": "810 EAST REED", "CITY": "HAYTI", "STATE": "MO", "ZIP": "63851", "ZIP4": "NOT AVAILABLE", "TELEPHONE": "(573) 359-1656", "TYPE": "GENERAL ACUTE CARE", "STATUS": "OPEN", "POPULATION": 167, "COUNTY": "PEMISCOT", "COUNTYFIPS": "29155", "COUNTRY": "USA", "LATITUDE": 36.237307471000101, "LONGITUDE": -89.740709830999904, "NAICS_CODE": "622110", "NAICS_DESC": "GENERAL MEDICAL AND SURGICAL HOSPITALS", "SOURCE": "http://health.mo.gov/safety/healthservregs/directories.php", "SOURCEDATE": "2018-08-09T00:00:00.000Z", "VAL_METHOD": "IMAGERY/OTHER", "VAL_DATE": "2014-02-10T00:00:00.000Z", "WEBSITE": "https://www.pemiscothealth.com/", "STATE_ID": "H079", "ALT_NAME": "NOT AVAILABLE", "ST_FIPS": "29", "OWNER": "PROPRIETARY", "TTL_STAFF": -999, "BEDS": 167, "TRAUMA": "NOT AVAILABLE", "HELIPAD": "Y" }, "geometry": { "type": "Polygon", "coordinates": [ [ [ -89.7510909, 36.139265899999963 ], [ -89.879864, 36.233949 ], [ -89.702899, 36.349774 ], [ -89.7006408, 36.349802 ], [ -89.69903650000002, 36.349816599999947 ], [ -89.650484, 36.19203 ], [ -89.6497863, 36.1889003 ], [ -89.6595009, 36.152359500000017 ], [ -89.66351, 36.147334 ], [ -89.7510909, 36.139265899999963 ] ] ] } },
{ "type": "Feature", "properties": { "OBJECTID": 5667, "ID": "0008063901", "NAME": "JOHN J. PERSHING VA MEDICAL CENTER", "ADDRESS": "1500 N WESTWOOD BLVD", "CITY": "POPLAR BLUFF", "STATE": "MO", "ZIP": "63901", "ZIP4": "NOT AVAILABLE", "TELEPHONE": "(573) 686-4151", "TYPE": "GENERAL ACUTE CARE", "STATUS": "OPEN", "POPULATION": 58, "COUNTY": "BUTLER", "COUNTYFIPS": "29023", "COUNTRY": "USA", "LATITUDE": 36.772368033000099, "LONGITUDE": -90.416556268999997, "NAICS_CODE": "622110", "NAICS_DESC": "GENERAL MEDICAL AND SURGICAL HOSPITALS", "SOURCE": "https://www.va.gov/directory/guide/allstate.asp", "SOURCEDATE": "2018-09-26T00:00:00.000Z", "VAL_METHOD": "IMAGERY/OTHER", "VAL_DATE": "2015-05-22T00:00:00.000Z", "WEBSITE": "http://www.poplarbluff.va.gov/", "STATE_ID": "NOT AVAILABLE", "ALT_NAME": "NOT AVAILABLE", "ST_FIPS": "29", "OWNER": "GOVERNMENT - FEDERAL", "TTL_STAFF": -999, "BEDS": 58, "TRAUMA": "NOT AVAILABLE", "HELIPAD": "Y" }, "geometry": { "type": "Polygon", "coordinates": [ [ [ -90.4844433, 36.687456799999985 ], [ -90.4846373, 36.687612099999981 ], [ -90.493309, 36.72957 ], [ -90.505868, 36.792855 ], [ -90.506962, 36.856958 ], [ -90.506651, 36.8571 ], [ -90.327007, 36.808723 ], [ -90.307676, 36.792975 ], [ -90.307674, 36.792742 ], [ -90.315605, 36.76462 ], [ -90.35273, 36.692932 ], [ -90.411938, 36.689827 ], [ -90.4844433, 36.687456799999985 ] ] ] } },
{ "type": "Feature", "properties": { "OBJECTID": 5670, "ID": "0000238671", "NAME": "BAPTIST MEMORIAL HOSPITAL - DESOTO", "ADDRESS": "7601 SOUTHCREST PARKWAY", "CITY": "SOUTHAVEN", "STATE": "MS", "ZIP": "38671", "ZIP4": "NOT AVAILABLE", "TELEPHONE": "(662) 772-4000", "TYPE": "GENERAL ACUTE CARE", "STATUS": "OPEN", "POPULATION": 339, "COUNTY": "DESOTO", "COUNTYFIPS": "28033", "COUNTRY": "USA", "LATITUDE": 34.969864745000102, "LONGITUDE": -89.998165681000003, "NAICS_CODE": "622110", "NAICS_DESC": "GENERAL MEDICAL AND SURGICAL HOSPITALS", "SOURCE": "https://msdh.ms.gov/msdhsite/_static/resources/7660.pdf", "SOURCEDATE": "2018-08-09T00:00:00.000Z", "VAL_METHOD": "IMAGERY", "VAL_DATE": "2014-02-10T00:00:00.000Z", "WEBSITE": "http://www.baptistonline.org/desoto/", "STATE_ID": "LICENSE #13-318", "ALT_NAME": "NOT AVAILABLE", "ST_FIPS": "28", "OWNER": "NON-PROFIT", "TTL_STAFF": -999, "BEDS": 339, "TRAUMA": "LEVEL III", "HELIPAD": "Y" }, "geometry": { "type": "Polygon", "coordinates": [ [ [ -89.977904, 34.823934 ], [ -90.0376695, 34.868072199999979 ], [ -90.1145828, 34.962433800000021 ], [ -90.11382, 34.966285 ], [ -90.046355890278335, 35.062417537998648 ], [ -90.024998682093084, 35.086656699426285 ], [ -89.984313896988311, 35.068773382694552 ], [ -89.931184085610226, 35.020629040936726 ], [ -89.9013997, 34.991493 ], [ -89.873486, 34.962211 ], [ -89.9752625, 34.823888100000048 ], [ -89.9770792, 34.823916 ], [ -89.977904, 34.823934 ] ] ] } },
{ "type": "Feature", "properties": { "OBJECTID": 5676, "ID": "0002338614", "NAME": "MERIT HEALTH NORTHWEST MISSISSIPPI", "ADDRESS": "1970 HOSPITAL DRIVE", "CITY": "CLARKSDALE", "STATE": "MS", "ZIP": "38614", "ZIP4": "NOT AVAILABLE", "TELEPHONE": "(662) 627-3211", "TYPE": "GENERAL ACUTE CARE", "STATUS": "OPEN", "POPULATION": 181, "COUNTY": "COAHOMA", "COUNTYFIPS": "28027", "COUNTRY": "USA", "LATITUDE": 34.195960321000001, "LONGITUDE": -90.552216278999893, "NAICS_CODE": "622110", "NAICS_DESC": "GENERAL MEDICAL AND SURGICAL HOSPITALS", "SOURCE": "https://msdh.ms.gov/msdhsite/_static/resources/7660.pdf", "SOURCEDATE": "2018-08-09T00:00:00.000Z", "VAL_METHOD": "IMAGERY", "VAL_DATE": "2014-02-10T00:00:00.000Z", "WEBSITE": "http://www.merithealthnorthwestms.com/locations/merit-health-northwest-mississippi", "STATE_ID": "LICENSE #16-035", "ALT_NAME": "NORTHWEST MS REGIONAL MEDICAL CENTER", "ST_FIPS": "28", "OWNER": "PROPRIETARY", "TTL_STAFF": -999, "BEDS": 181, "TRAUMA": "LEVEL IV", "HELIPAD": "Y" }, "geometry": { "type": "Polygon", "coordinates": [ [ [ -90.676743, 34.122905 ], [ -90.6767999, 34.1231321 ], [ -90.641939, 34.205056 ], [ -90.500336, 34.320633 ], [ -90.500044, 34.320644 ], [ -90.420281, 34.233167 ], [ -90.516514, 34.116839 ], [ -90.521506, 34.116894 ], [ -90.676743, 34.122905 ] ] ] } },
{ "type": "Feature", "properties": { "OBJECTID": 5679, "ID": "0006838635", "NAME": "ALLIANCE HEALTHCARE SYSTEM", "ADDRESS": "1430 HIGHWAY 4 EAST", "CITY": "HOLLY SPRINGS", "STATE": "MS", "ZIP": "38635", "ZIP4": "NOT AVAILABLE", "TELEPHONE": "(662) 252-1212", "TYPE": "GENERAL ACUTE CARE", "STATUS": "OPEN", "POPULATION": 40, "COUNTY": "MARSHALL", "COUNTYFIPS": "28093", "COUNTRY": "USA", "LATITUDE": 34.787098867000097, "LONGITUDE": -89.416659476000007, "NAICS_CODE": "622110", "NAICS_DESC": "GENERAL MEDICAL AND SURGICAL HOSPITALS", "SOURCE": "https://msdh.ms.gov/msdhsite/_static/resources/7660.pdf", "SOURCEDATE": "2018-08-09T00:00:00.000Z", "VAL_METHOD": "IMAGERY", "VAL_DATE": "2013-10-02T00:00:00.000Z", "WEBSITE": "http://www.alliancehealth.us", "STATE_ID": "LICENSE # 16-252", "ALT_NAME": "NOT AVAILABLE", "ST_FIPS": "28", "OWNER": "PROPRIETARY", "TTL_STAFF": -999, "BEDS": 40, "TRAUMA": "LEVEL IV", "HELIPAD": "Y" }, "geometry": { "type": "Polygon", "coordinates": [ [ [ -89.4643657, 34.7020265 ], [ -89.4847942, 34.7121613 ], [ -89.5702936, 34.827622799999979 ], [ -89.495877, 34.856294 ], [ -89.3961484, 34.862687199999968 ], [ -89.3054259, 34.824436700000021 ], [ -89.2991254, 34.820682500000032 ], [ -89.3688363, 34.741398 ], [ -89.4131439, 34.713261099999976 ], [ -89.4643657, 34.7020265 ] ] ] } },
{ "type": "Feature", "properties": { "OBJECTID": 5705, "ID": "0012638654", "NAME": "METHODIST HEALTH CARE - OLIVE BRANCH HOSPITAL", "ADDRESS": "4250 BETHEL ROAD", "CITY": "OLIVE BRANCH", "STATE": "MS", "ZIP": "38654", "ZIP4": "NOT AVAILABLE", "TELEPHONE": "(662) 932-9000", "TYPE": "GENERAL ACUTE CARE", "STATUS": "OPEN", "POPULATION": 67, "COUNTY": "DESOTO", "COUNTYFIPS": "28033", "COUNTRY": "USA", "LATITUDE": 34.92264456, "LONGITUDE": -89.792027019000002, "NAICS_CODE": "622110", "NAICS_DESC": "GENERAL MEDICAL AND SURGICAL HOSPITALS", "SOURCE": "https://msdh.ms.gov/msdhsite/_static/resources/7660.pdf", "SOURCEDATE": "2018-08-09T00:00:00.000Z", "VAL_METHOD": "IMAGERY", "VAL_DATE": "2016-08-17T00:00:00.000Z", "WEBSITE": "http://www.methodisthealth.org/locations/methodist-olive-branch-hospital/", "STATE_ID": "LICENSE #13-349", "ALT_NAME": "NOT AVAILABLE", "ST_FIPS": "28", "OWNER": "NON-PROFIT", "TTL_STAFF": -999, "BEDS": 67, "TRAUMA": "LEVEL IV", "HELIPAD": "Y" }, "geometry": { "type": "Polygon", "coordinates": [ [ [ -89.6868996, 34.830797500000017 ], [ -89.7683816, 34.843258 ], [ -89.830422, 34.871377699999982 ], [ -89.85101, 34.961679 ], [ -89.7951716, 34.966924199999966 ], [ -89.688736, 34.924825 ], [ -89.6672393, 34.867575 ], [ -89.6680562, 34.864155199999963 ], [ -89.6754189, 34.845551 ], [ -89.6810044, 34.83312530000002 ], [ -89.6824257, 34.8309244 ], [ -89.6868996, 34.830797500000017 ] ] ] } },
{ "type": "Feature", "properties": { "OBJECTID": 3358, "ID": "0011342211", "NAME": "TRIGG COUNTY HOSPITAL INC.", "ADDRESS": "254 MAIN STREET", "CITY": "CADIZ", "STATE": "KY", "ZIP": "42211", "ZIP4": "NOT AVAILABLE", "TELEPHONE": "(270) 522-3215", "TYPE": "GENERAL ACUTE CARE", "STATUS": "OPEN", "POPULATION": 25, "COUNTY": "TRIGG", "COUNTYFIPS": "21221", "COUNTRY": "USA", "LATITUDE": 36.866340232, "LONGITUDE": -87.821538781999905, "NAICS_CODE": "622110", "NAICS_DESC": "GENERAL MEDICAL AND SURGICAL HOSPITALS", "SOURCE": "https://chfs.ky.gov/agencies/os/oig/dhc/Documents/Directories/Hospital_Directory.pdf", "SOURCEDATE": "2018-08-11T00:00:00.000Z", "VAL_METHOD": "IMAGERY", "VAL_DATE": "2014-02-10T00:00:00.000Z", "WEBSITE": "http://www.trigghospital.org", "STATE_ID": "600055", "ALT_NAME": "NOT AVAILABLE", "ST_FIPS": "21", "OWNER": "GOVERNMENT - LOCAL", "TTL_STAFF": -999, "BEDS": 25, "TRAUMA": "NOT AVAILABLE", "HELIPAD": "Y" }, "geometry": { "type": "Polygon", "coordinates": [ [ [ -87.80645693705813, 36.784580038951049 ], [ -87.878518938699415, 36.790179997113803 ], [ -87.931622742951603, 36.804594569479818 ], [ -87.931679643016395, 36.804809469493335 ], [ -87.917488966551787, 36.881957991101778 ], [ -87.869041983410526, 36.9339790141753 ], [ -87.774876984255499, 36.930419041274227 ], [ -87.673102008952256, 36.881063085125838 ], [ -87.6730810089622, 36.880877085118328 ], [ -87.711350982756286, 36.843884072360233 ], [ -87.80645693705813, 36.784580038951049 ] ] ] } },
{ "type": "Feature", "properties": { "OBJECTID": 3359, "ID": "0009642104", "NAME": "SOUTHERN KENTUCKY REHABILITATION HOSPITAL", "ADDRESS": "1300 CAMPBELL LANE", "CITY": "BOWLING GREEN", "STATE": "KY", "ZIP": "42104", "ZIP4": "NOT AVAILABLE", "TELEPHONE": "(270) 782-6900", "TYPE": "REHABILITATION", "STATUS": "OPEN", "POPULATION": 60, "COUNTY": "WARREN", "COUNTYFIPS": "21227", "COUNTRY": "USA", "LATITUDE": 36.957038813000104, "LONGITUDE": -86.44648889, "NAICS_CODE": "622110", "NAICS_DESC": "GENERAL MEDICAL AND SURGICAL HOSPITALS", "SOURCE": "https://chfs.ky.gov/agencies/os/oig/dhc/Documents/Directories/Hospital_Directory.pdf", "SOURCEDATE": "2018-08-11T00:00:00.000Z", "VAL_METHOD": "IMAGERY", "VAL_DATE": "2013-12-17T00:00:00.000Z", "WEBSITE": "http://www.skyrehab.com", "STATE_ID": "100655", "ALT_NAME": "NOT AVAILABLE", "ST_FIPS": "21", "OWNER": "PROPRIETARY", "TTL_STAFF": -999, "BEDS": 60, "TRAUMA": "NOT AVAILABLE", "HELIPAD": "N" }, "geometry": { "type": "Polygon", "coordinates": [ [ [ -86.5255272, 36.8835084 ], [ -86.571169, 36.91402 ], [ -86.571262, 36.914182 ], [ -86.554941, 36.996227 ], [ -86.495302, 37.032057 ], [ -86.4453578, 37.031286200000025 ], [ -86.34082, 37.010797499999953 ], [ -86.3595184, 36.8811612 ], [ -86.3599767, 36.8807583 ], [ -86.419708, 36.875721 ], [ -86.5255272, 36.8835084 ] ] ] } },
{ "type": "Feature", "properties": { "OBJECTID": 3429, "ID": "0002838104", "NAME": "HEALTHSOUTH REHABILITATION HOSPITAL OF MEMPHIS", "ADDRESS": "1282 UNION AVENUE", "CITY": "MEMPHIS", "STATE": "TN", "ZIP": "38104", "ZIP4": "NOT AVAILABLE", "TELEPHONE": "(901) 722-2000", "TYPE": "REHABILITATION", "STATUS": "OPEN", "POPULATION": 72, "COUNTY": "SHELBY", "COUNTYFIPS": "47157", "COUNTRY": "USA", "LATITUDE": 35.137800223000099, "LONGITUDE": -90.0191809, "NAICS_CODE": "622310", "NAICS_DESC": "REHABILITATION HOSPITALS (EXCEPT ALCOHOLISM, DRUG ADDICTION)", "SOURCE": "https://apps.health.tn.gov/FacilityListings", "SOURCEDATE": "2018-08-10T00:00:00.000Z", "VAL_METHOD": "IMAGERY/OTHER", "VAL_DATE": "2014-03-12T00:00:00.000Z", "WEBSITE": "http://www.healthsouthmemphis.com", "STATE_ID": "803807", "ALT_NAME": "NOT AVAILABLE", "ST_FIPS": "47", "OWNER": "PROPRIETARY", "TTL_STAFF": -999, "BEDS": 72, "TRAUMA": "NOT AVAILABLE", "HELIPAD": "Y" }, "geometry": { "type": "Polygon", "coordinates": [ [ [ -90.002702155162623, 35.020857903998895 ], [ -90.025186731901741, 35.02705482807788 ], [ -90.062653785416728, 35.055378985183928 ], [ -90.084182162511979, 35.074927500189609 ], [ -90.097095644962877, 35.100879963165951 ], [ -90.100985740107745, 35.109470217786878 ], [ -90.0563289, 35.210633800000053 ], [ -90.040491, 35.231489 ], [ -90.0084799, 35.242854199999982 ], [ -90.0000838, 35.238194900000018 ], [ -89.9755437, 35.224151300000031 ], [ -89.9248722, 35.194289 ], [ -89.9198396, 35.19116469999998 ], [ -89.9037545, 35.144219899999975 ], [ -89.906689501942466, 35.11611927428627 ], [ -89.931122160646069, 35.0559271492655 ], [ -90.002702155162623, 35.020857903998895 ] ] ] } },
{ "type": "Feature", "properties": { "OBJECTID": 3447, "ID": "0005342025", "NAME": "MARSHALL COUNTY HOSPITAL", "ADDRESS": "615 OLD SYMSONIA ROAD, PO BOX 630", "CITY": "BENTON", "STATE": "KY", "ZIP": "42025", "ZIP4": "NOT AVAILABLE", "TELEPHONE": "(270) 527-4800", "TYPE": "CRITICAL ACCESS", "STATUS": "OPEN", "POPULATION": 25, "COUNTY": "MARSHALL", "COUNTYFIPS": "21157", "COUNTRY": "USA", "LATITUDE": 36.867083618000002, "LONGITUDE": -88.369799391999905, "NAICS_CODE": "622110", "NAICS_DESC": "GENERAL MEDICAL AND SURGICAL HOSPITALS", "SOURCE": "https://chfs.ky.gov/agencies/os/oig/dhc/Documents/Directories/Hospital_Directory.pdf", "SOURCEDATE": "2018-08-11T00:00:00.000Z", "VAL_METHOD": "IMAGERY", "VAL_DATE": "2014-02-10T00:00:00.000Z", "WEBSITE": "http://www.marshallcountyhospital.org", "STATE_ID": "600078", "ALT_NAME": "NOT AVAILABLE", "ST_FIPS": "21", "OWNER": "GOVERNMENT - DISTRICT/AUTHORITY", "TTL_STAFF": -999, "BEDS": 25, "TRAUMA": "NOT AVAILABLE", "HELIPAD": "Y" }, "geometry": { "type": "Polygon", "coordinates": [ [ [ -88.431368, 36.797303 ], [ -88.456162953286068, 36.853367603497702 ], [ -88.471991967453462, 36.902534950425284 ], [ -88.471979968164277, 36.904570951371213 ], [ -88.3472513, 36.9912661 ], [ -88.3361122, 36.991841 ], [ -88.301292001502915, 36.955378881537754 ], [ -88.269776988228642, 36.854091625120304 ], [ -88.326145, 36.79373 ], [ -88.369201, 36.79464 ], [ -88.431368, 36.797303 ] ] ] } },
{ "type": "Feature", "properties": { "OBJECTID": 3478, "ID": "0008838646", "NAME": "QUITMAN COUNTY HOSPITAL", "ADDRESS": "340 GETWELL DRIVE", "CITY": "MARKS", "STATE": "MS", "ZIP": "38646", "ZIP4": "NOT AVAILABLE", "TELEPHONE": "(662) 326-8031", "TYPE": "GENERAL ACUTE CARE", "STATUS": "CLOSED", "POPULATION": 33, "COUNTY": "QUITMAN", "COUNTYFIPS": "28119", "COUNTRY": "USA", "LATITUDE": 34.246955379, "LONGITUDE": -90.277502496999901, "NAICS_CODE": "622110", "NAICS_DESC": "GENERAL MEDICAL AND SURGICAL HOSPITALS", "SOURCE": "https://msdh.ms.gov/msdhsite/_static/resources/7660.pdf", "SOURCEDATE": "2018-08-09T00:00:00.000Z", "VAL_METHOD": "IMAGERY", "VAL_DATE": "2014-02-11T00:00:00.000Z", "WEBSITE": "http://qchospital.net/", "STATE_ID": "LICENSE #16-291", "ALT_NAME": "NOT AVAILABLE", "ST_FIPS": "28", "OWNER": "PROPRIETARY", "TTL_STAFF": -999, "BEDS": 33, "TRAUMA": "NOT AVAILABLE", "HELIPAD": "Y" }, "geometry": { "type": "Polygon", "coordinates": [ [ [ -90.31038, 34.159707 ], [ -90.316461, 34.160816 ], [ -90.388639, 34.243367 ], [ -90.365764, 34.288876 ], [ -90.27371, 34.337452 ], [ -90.258831, 34.335172 ], [ -90.15034, 34.287145 ], [ -90.231308, 34.186781 ], [ -90.2808736, 34.1680735 ], [ -90.305381, 34.159475 ], [ -90.31038, 34.159707 ] ] ] } }
]
}
