{
"type": "FeatureCollection",
"crs": { "type": "name", "properties": { "name": "urn:ogc:def:crs:OGC:1.3:CRS84" } },
"features": [
{ "type": "Feature", "properties": { "OBJECTID": 1404, "ID": "0002846825", "NAME": "DUPONT HOSPITAL LLC", "ADDRESS": "2520 E DUPONT RD", "CITY": "FORT WAYNE", "STATE": "IN", "ZIP": "46825", "ZIP4": "NOT AVAILABLE", "TELEPHONE": "(260) 416-3023", "TYPE": "GENERAL ACUTE CARE", "STATUS": "OPEN", "POPULATION": 131, "COUNTY": "ALLEN", "COUNTYFIPS": "18003", "COUNTRY": "USA", "LATITUDE": 41.17526916, "LONGITUDE": -85.108930621, "NAICS_CODE": "622110", "NAICS_DESC": "GENERAL MEDICAL AND SURGICAL HOSPITALS", "SOURCE": "http://www.in.gov/isdh/reports/QAMIS/hosdir", "SOURCEDATE": "2018-08-16T00:00:00.000Z", "VAL_METHOD": "IMAGERY", "VAL_DATE": "2014-03-12T00:00:00.000Z", "WEBSITE": "http://www.thedupontdifference.com", "STATE_ID": "17-002408-1", "ALT_NAME": "NOT AVAILABLE", "ST_FIPS": "18", "OWNER": "PROPRIETARY", "TTL_STAFF": -999, "BEDS": 131, "TRAUMA": "NOT AVAILABLE", "HELIPAD": "Y" }, "geometry": { "type": "Polygon", "coordinates": [ [ [ -85.143339800000021, 41.087710300000012 ], [ -85.192217, 41.1044285 ], [ -85.2113563, 41.114955100000024 ], [ -85.2264336, 41.125199700000017 ], [ -85.2264306, 41.1254018 ], [ -85.2169752, 41.191251399999977 ], [ -85.1674678, 41.242843799999989 ], [ -85.167174, 41.242933700000023 ], [ -85.1346775, 41.252863399999988 ], [ -85.096627, 41.25101 ], [ -85.0123678, 41.221123799999958 ], [ -84.983767728554213, 41.136149001811233 ], [ -85.019817555053791, 41.114985940236501 ], [ -85.0242563, 41.112952299999968 ], [ -85.0603999, 41.1048491 ], [ -85.140263200000021, 41.0877353 ], [ -85.1422525, 41.087698400000029 ], [ -85.143339800000021, 41.087710300000012 ] ] ] } },
{ "type": "Feature", "properties": { "OBJECTID": 1405, "ID": "0010246845", "NAME": "ORTHOPAEDIC HOSPITAL AT PARKVIEW NORTH LLC", "ADDRESS": "11130 PARKVIEW CIRCLE DR", "CITY": "FORT WAYNE", "STATE": "IN", "ZIP": "46845", "ZIP4": "NOT AVAILABLE", "TELEPHONE": "(260) 672-4050", "TYPE": "GENERAL ACUTE CARE", "STATUS": "OPEN", "POPULATION": 37, "COUNTY": "ALLEN", "COUNTYFIPS": "18003", "COUNTRY": "USA", "LATITUDE": 41.189577579000101, "LONGITUDE": -85.100669573999895, "NAICS_CODE": "622110", "NAICS_DESC": "GENERAL MEDICAL AND SURGICAL HOSPITALS", "SOURCE": "http://www.in.gov/isdh/reports/QAMIS/hosdir", "SOURCEDATE": "2018-08-16T00:00:00.000Z", "VAL_METHOD": "IMAGERY", "VAL_DATE": "2014-02-10T00:00:00.000Z", "WEBSITE": "www.parkview.com", "STATE_ID": "17-005845-1", "ALT_NAME": "NOT AVAILABLE", "ST_FIPS": "18", "OWNER": "PROPRIETARY", "TTL_STAFF": -999, "BEDS": 37, "TRAUMA": "NOT AVAILABLE", "HELIPAD": "Y" }, "geometry": { "type": "Polygon", "coordinates": [ [ [ -85.1402734, 41.094258699999976 ], [ -85.1923859, 41.1158962 ], [ -85.2115, 41.125023600000013 ], [ -85.213316400000011, 41.126134 ], [ -85.2084448, 41.191267500000016 ], [ -85.1834012, 41.222729 ], [ -85.172005, 41.2324004 ], [ -85.1695248, 41.234393 ], [ -85.1349649, 41.260716399999986 ], [ -85.077815, 41.265603699999964 ], [ -85.009571, 41.226958899999964 ], [ -85.0071779, 41.225473099999974 ], [ -85.004218655927346, 41.222699951390567 ], [ -85.003249753676101, 41.221528252843157 ], [ -85.002157890996955, 41.130250913111574 ], [ -85.008391112774618, 41.126184620752966 ], [ -85.018360246946031, 41.121740928932162 ], [ -85.1402734, 41.094258699999976 ] ] ] } },
{ "type": "Feature", "properties": { "OBJECTID": 1413, "ID": "0010646755", "NAME": "PARKVIEW NOBLE HOSPITAL", "ADDRESS": "401 SAWYER RD", "CITY": "KENDALLVILLE", "STATE": "IN", "ZIP": "46755", "ZIP4": "NOT AVAILABLE", "TELEPHONE": "(260) 347-8700", "TYPE": "GENERAL ACUTE CARE", "STATUS": "OPEN", "POPULATION": 31, "COUNTY": "NOBLE", "COUNTYFIPS": "18113", "COUNTRY": "USA", "LATITUDE": 41.448340345000098, "LONGITUDE": -85.2961583109999, "NAICS_CODE": "622110", "NAICS_DESC": "GENERAL MEDICAL AND SURGICAL HOSPITALS", "SOURCE": "http://www.in.gov/isdh/reports/QAMIS/hosdir", "SOURCEDATE": "2018-08-16T00:00:00.000Z", "VAL_METHOD": "IMAGERY", "VAL_DATE": "2014-03-12T00:00:00.000Z", "WEBSITE": "http://www.parkview.com", "STATE_ID": "17-002434-1", "ALT_NAME": "NOT AVAILABLE", "ST_FIPS": "18", "OWNER": "NON-PROFIT", "TTL_STAFF": -999, "BEDS": 31, "TRAUMA": "NOT AVAILABLE", "HELIPAD": "Y" }, "geometry": { "type": "Polygon", "coordinates": [ [ [ -85.237550068949204, 41.362039938354521 ], [ -85.328564925370827, 41.390588981468362 ], [ -85.423359769070231, 41.438603232164624 ], [ -85.442766450116366, 41.453088044353024 ], [ -85.379527328813495, 41.4965133020115 ], [ -85.318776205349877, 41.510602121855783 ], [ -85.273343523961827, 41.515875130624345 ], [ -85.226516418045932, 41.48857909041007 ], [ -85.212820470568943, 41.474038056595546 ], [ -85.193464651550585, 41.452215714646471 ], [ -85.188711981197144, 41.444932804090378 ], [ -85.184682609423788, 41.438150295222137 ], [ -85.21953802696477, 41.365248941198196 ], [ -85.237550068949204, 41.362039938354521 ] ] ] } },
{ "type": "Feature", "properties": { "OBJECTID": 1425, "ID": "0002946514", "NAME": "ELKHART GENERAL HOSPITAL", "ADDRESS": "600 EAST BLVD", "CITY": "ELKHART", "STATE": "IN", "ZIP": "46514", "ZIP4": "NOT AVAILABLE", "TELEPHONE": "(574) 294-2621", "TYPE": "GENERAL ACUTE CARE", "STATUS": "OPEN", "POPULATION": 270, "COUNTY": "ELKHART", "COUNTYFIPS": "18039", "COUNTRY": "USA", "LATITUDE": 41.6793473500001, "LONGITUDE": -85.993270562999996, "NAICS_CODE": "622110", "NAICS_DESC": "GENERAL MEDICAL AND SURGICAL HOSPITALS", "SOURCE": "http://www.in.gov/isdh/reports/QAMIS/hosdir", "SOURCEDATE": "2018-08-16T00:00:00.000Z", "VAL_METHOD": "IMAGERY/OTHER", "VAL_DATE": "2014-02-10T00:00:00.000Z", "WEBSITE": "http://www.egh.org", "STATE_ID": "12-005017-1", "ALT_NAME": "NOT AVAILABLE", "ST_FIPS": "18", "OWNER": "NON-PROFIT", "TTL_STAFF": -999, "BEDS": 270, "TRAUMA": "LEVEL III", "HELIPAD": "Y" }, "geometry": { "type": "Polygon", "coordinates": [ [ [ -86.002327773401646, 41.594247530805958 ], [ -86.098066163754524, 41.659738428001639 ], [ -86.099013259481126, 41.660646324847264 ], [ -86.117013665317842, 41.682813335262978 ], [ -86.062276, 41.736157 ], [ -86.0462074, 41.7413701 ], [ -85.9991754, 41.756202399999985 ], [ -85.9748299, 41.7600361 ], [ -85.885977700000012, 41.709449799999959 ], [ -85.8820131, 41.701550100000034 ], [ -85.880878550847513, 41.666756367627144 ], [ -85.905912657035429, 41.627346100585548 ], [ -85.906661261844775, 41.626711202787483 ], [ -86.002327773401646, 41.594247530805958 ] ] ] } },
{ "type": "Feature", "properties": { "OBJECTID": 1426, "ID": "0010046527", "NAME": "OAKLAWN PSYCHIATRIC CENTER INC", "ADDRESS": "330 LAKEVIEW DR", "CITY": "GOSHEN", "STATE": "IN", "ZIP": "46527", "ZIP4": "NOT AVAILABLE", "TELEPHONE": "(574) 533-1234", "TYPE": "PSYCHIATRIC", "STATUS": "OPEN", "POPULATION": 16, "COUNTY": "ELKHART", "COUNTYFIPS": "18039", "COUNTRY": "USA", "LATITUDE": 41.603604119000103, "LONGITUDE": -85.839485401999994, "NAICS_CODE": "622210", "NAICS_DESC": "PSYCHIATRIC AND SUBSTANCE ABUSE HOSPITALS", "SOURCE": "http://www.in.gov/isdh/reports/QAMIS/hosdir", "SOURCEDATE": "2018-08-16T00:00:00.000Z", "VAL_METHOD": "IMAGERY", "VAL_DATE": "2014-02-10T00:00:00.000Z", "WEBSITE": "http://www.oaklawn.org", "STATE_ID": "NOT AVAILABLE", "ALT_NAME": "NOT AVAILABLE", "ST_FIPS": "18", "OWNER": "NON-PROFIT", "TTL_STAFF": -999, "BEDS": 16, "TRAUMA": "NOT AVAILABLE", "HELIPAD": "N" }, "geometry": { "type": "Polygon", "coordinates": [ [ [ -85.828384694396689, 41.522456731187773 ], [ -85.912426667171204, 41.551271555909153 ], [ -85.92581958876815, 41.608744965360074 ], [ -85.927069593348676, 41.623879514575187 ], [ -85.923925103158552, 41.637683567800551 ], [ -85.921562587444384, 41.639788860502627 ], [ -85.855543743827738, 41.675368538044403 ], [ -85.816775, 41.692853599999985 ], [ -85.797321680649432, 41.682183313708833 ], [ -85.772695575939494, 41.667594658903177 ], [ -85.753688139590452, 41.638610348626294 ], [ -85.743670117274448, 41.612950221890237 ], [ -85.752274620316413, 41.581268327959094 ], [ -85.770487383767019, 41.543385850590674 ], [ -85.7737095100467, 41.540286461100926 ], [ -85.779917230455467, 41.537352171807413 ], [ -85.813491085822193, 41.526158615544688 ], [ -85.828384694396689, 41.522456731187773 ] ] ] } },
{ "type": "Feature", "properties": { "OBJECTID": 1438, "ID": "0001546506", "NAME": "COMMUNITY HOSPITAL OF BREMEN INC", "ADDRESS": "1020 HIGH RD", "CITY": "BREMEN", "STATE": "IN", "ZIP": "46506", "ZIP4": "NOT AVAILABLE", "TELEPHONE": "(574) 546-2211", "TYPE": "CRITICAL ACCESS", "STATUS": "OPEN", "POPULATION": 24, "COUNTY": "MARSHALL", "COUNTYFIPS": "18099", "COUNTRY": "USA", "LATITUDE": 41.456467767, "LONGITUDE": -86.158849722999904, "NAICS_CODE": "622110", "NAICS_DESC": "GENERAL MEDICAL AND SURGICAL HOSPITALS", "SOURCE": "http://www.in.gov/isdh/reports/QAMIS/hosdir", "SOURCEDATE": "2018-08-16T00:00:00.000Z", "VAL_METHOD": "IMAGERY", "VAL_DATE": "2014-03-12T00:00:00.000Z", "WEBSITE": "http://www.bremenhospital.com", "STATE_ID": "17-005097-1", "ALT_NAME": "NOT AVAILABLE", "ST_FIPS": "18", "OWNER": "NON-PROFIT", "TTL_STAFF": -999, "BEDS": 24, "TRAUMA": "NOT AVAILABLE", "HELIPAD": "Y" }, "geometry": { "type": "Polygon", "coordinates": [ [ [ -86.16474, 41.376248 ], [ -86.310473918085364, 41.448290341431637 ], [ -86.311806611041689, 41.44953673831634 ], [ -86.311843410338241, 41.449649138248375 ], [ -86.173964384495576, 41.550024175296464 ], [ -86.059444973745798, 41.479103078572685 ], [ -86.013979599517327, 41.442709964957018 ], [ -86.117174, 41.390443 ], [ -86.155139, 41.376047 ], [ -86.16474, 41.376248 ] ] ] } },
{ "type": "Feature", "properties": { "OBJECTID": 1439, "ID": "0002646506", "NAME": "DOCTORS NEUROPSYCHIATRIC HOSPITAL", "ADDRESS": "417 S WHITLOCK ST", "CITY": "BREMEN", "STATE": "IN", "ZIP": "46506", "ZIP4": "NOT AVAILABLE", "TELEPHONE": "(574) 546-0330", "TYPE": "PSYCHIATRIC", "STATUS": "OPEN", "POPULATION": 37, "COUNTY": "MARSHALL", "COUNTYFIPS": "18099", "COUNTRY": "USA", "LATITUDE": 41.443335034, "LONGITUDE": -86.150319347999996, "NAICS_CODE": "622210", "NAICS_DESC": "PSYCHIATRIC AND SUBSTANCE ABUSE HOSPITALS", "SOURCE": "http://www.in.gov/isdh/reports/QAMIS/hosdir", "SOURCEDATE": "2018-08-16T00:00:00.000Z", "VAL_METHOD": "IMAGERY/OTHER", "VAL_DATE": "2014-02-10T00:00:00.000Z", "WEBSITE": "http://www.physicianshospitalsystem.net", "STATE_ID": "16-38-1-P-IP", "ALT_NAME": "NOT AVAILABLE", "ST_FIPS": "18", "OWNER": "PROPRIETARY", "TTL_STAFF": -999, "BEDS": 37, "TRAUMA": "NOT AVAILABLE", "HELIPAD": "N" }, "geometry": { "type": "Polygon", "coordinates": [ [ [ -86.155163, 41.361584 ], [ -86.290772690832569, 41.449931192607174 ], [ -86.169362953046274, 41.529326182925509 ], [ -86.16880135415839, 41.52944018049611 ], [ -86.117903656158546, 41.508083229830895 ], [ -86.059444973745798, 41.479103078572685 ], [ -86.014161290282843, 41.444300063768438 ], [ -86.012350903641263, 41.442702659951742 ], [ -86.1171203, 41.383189299999962 ], [ -86.155163, 41.361584 ] ] ] } },
{ "type": "Feature", "properties": { "OBJECTID": 1445, "ID": "0007347960", "NAME": "INDIANA UNIVERSITY HEALTH WHITE MEMORIAL HOSPITAL", "ADDRESS": "720 SOUTH SIXTH ST", "CITY": "MONTICELLO", "STATE": "IN", "ZIP": "47960", "ZIP4": "NOT AVAILABLE", "TELEPHONE": "(574) 583-7111", "TYPE": "CRITICAL ACCESS", "STATUS": "OPEN", "POPULATION": 25, "COUNTY": "WHITE", "COUNTYFIPS": "18181", "COUNTRY": "USA", "LATITUDE": 40.733974689, "LONGITUDE": -86.777599605000006, "NAICS_CODE": "622110", "NAICS_DESC": "GENERAL MEDICAL AND SURGICAL HOSPITALS", "SOURCE": "http://www.in.gov/isdh/reports/QAMIS/hosdir", "SOURCEDATE": "2018-08-16T00:00:00.000Z", "VAL_METHOD": "IMAGERY", "VAL_DATE": "2014-02-10T00:00:00.000Z", "WEBSITE": "http://www.iuhealth.org/white-memorial", "STATE_ID": "17-005034-1", "ALT_NAME": "NOT AVAILABLE", "ST_FIPS": "18", "OWNER": "NON-PROFIT", "TTL_STAFF": -999, "BEDS": 25, "TRAUMA": "NOT AVAILABLE", "HELIPAD": "Y" }, "geometry": { "type": "Polygon", "coordinates": [ [ [ -86.812963843890302, 40.666559410048094 ], [ -86.881009578005447, 40.749095230945173 ], [ -86.876245978604501, 40.754437132870287 ], [ -86.787023029284512, 40.80311243568562 ], [ -86.744907766515809, 40.803209531188422 ], [ -86.696871222173471, 40.773977017491688 ], [ -86.677921244111644, 40.758808405008018 ], [ -86.759949181987764, 40.671868013053981 ], [ -86.768078176892274, 40.668991011601783 ], [ -86.812963843890302, 40.666559410048094 ] ] ] } },
{ "type": "Feature", "properties": { "OBJECTID": 1645, "ID": "0099962703", "NAME": "SPRINGFIELD HOSPITAL INC - DBA LINCOLN PRAIRIE BEHAVIORAL HEALTH CENTER", "ADDRESS": "5230 SOUTH SIXTH STREET", "CITY": "SPRINGFIELD", "STATE": "IL", "ZIP": "62703", "ZIP4": "NOT AVAILABLE", "TELEPHONE": "(217) 585-1180", "TYPE": "PSYCHIATRIC", "STATUS": "OPEN", "POPULATION": 88, "COUNTY": "SANGAMON", "COUNTYFIPS": "17167", "COUNTRY": "USA", "LATITUDE": 39.725561960999997, "LONGITUDE": -89.640773952000004, "NAICS_CODE": "622110", "NAICS_DESC": "GENERAL MEDICAL AND SURGICAL HOSPITALS", "SOURCE": "https://data.illinois.gov/", "SOURCEDATE": "2018-08-09T00:00:00.000Z", "VAL_METHOD": "IMAGERY/OTHER", "VAL_DATE": "2015-02-21T00:00:00.000Z", "WEBSITE": "http://www.lincolnprairiebhc.com/", "STATE_ID": "NOT AVAILABLE", "ALT_NAME": "NOT AVAILABLE", "ST_FIPS": "17", "OWNER": "NOT AVAILABLE", "TTL_STAFF": -999, "BEDS": 88, "TRAUMA": "NOT AVAILABLE", "HELIPAD": "N" }, "geometry": { "type": "Polygon", "coordinates": [ [ [ -89.6468293, 39.596441599999949 ], [ -89.7431763, 39.719785 ], [ -89.7414246, 39.7521595 ], [ -89.6421667, 39.797111100000052 ], [ -89.5938829, 39.8062481 ], [ -89.5853405, 39.804025300000013 ], [ -89.5710152, 39.76924139999997 ], [ -89.5692971, 39.755219700000026 ], [ -89.5786057, 39.71689150000001 ], [ -89.5872461, 39.692456099999966 ], [ -89.6468293, 39.596441599999949 ] ] ] } },
{ "type": "Feature", "properties": { "OBJECTID": 1732, "ID": "0004246805", "NAME": "VA MEDICAL CENTER - FORT WAYNE CAMPUS", "ADDRESS": "2121 LAKE AVE", "CITY": "FORT WAYNE", "STATE": "IN", "ZIP": "46805", "ZIP4": "NOT AVAILABLE", "TELEPHONE": "(260) 426-5431", "TYPE": "MILITARY", "STATUS": "OPEN", "POPULATION": -999, "COUNTY": "ALLEN", "COUNTYFIPS": "18003", "COUNTRY": "USA", "LATITUDE": 41.0907864610001, "LONGITUDE": -85.109517881000002, "NAICS_CODE": "622110", "NAICS_DESC": "GENERAL MEDICAL AND SURGICAL HOSPITALS", "SOURCE": "https://www.va.gov/directory/guide/allstate.asp", "SOURCEDATE": "2018-09-26T00:00:00.000Z", "VAL_METHOD": "IMAGERY/OTHER", "VAL_DATE": "2015-05-18T00:00:00.000Z", "WEBSITE": "http://www.northernindiana.va.gov/", "STATE_ID": "NOT AVAILABLE", "ALT_NAME": "NOT AVAILABLE", "ST_FIPS": "18", "OWNER": "GOVERNMENT - FEDERAL", "TTL_STAFF": -999, "BEDS": -999, "TRAUMA": "NOT AVAILABLE", "HELIPAD": "N" }, "geometry": { "type": "Polygon", "coordinates": [ [ [ -85.1117267, 41.0006262 ], [ -85.1746967, 41.038216499999969 ], [ -85.2123248, 41.061326399999977 ], [ -85.2164281, 41.0744518 ], [ -85.2264306, 41.1254018 ], [ -85.1672936, 41.161221100000027 ], [ -85.1654741, 41.1622056 ], [ -85.10332870000002, 41.171569299999945 ], [ -85.0638839, 41.164900200000012 ], [ -85.008216709277477, 41.132509309806153 ], [ -85.007970208566519, 41.132350810052891 ], [ -84.987809861242454, 41.087314084793221 ], [ -84.991474577618817, 41.077856702365423 ], [ -85.010870051198538, 41.061871531147645 ], [ -85.0730995, 41.018285800000029 ], [ -85.0993047, 41.000205300000026 ], [ -85.1117267, 41.0006262 ] ] ] } },
{ "type": "Feature", "properties": { "OBJECTID": 2102, "ID": "0002749085", "NAME": "LAKELAND HOSPITAL, ST JOSEPH", "ADDRESS": "1234 NAPIER AVENUE", "CITY": "ST JOSEPH", "STATE": "MI", "ZIP": "49085", "ZIP4": "NOT AVAILABLE", "TELEPHONE": "NOT AVAILABLE", "TYPE": "GENERAL ACUTE CARE", "STATUS": "OPEN", "POPULATION": 215, "COUNTY": "BERRIEN", "COUNTYFIPS": "26021", "COUNTRY": "USA", "LATITUDE": 42.088254167000102, "LONGITUDE": -86.478771465999998, "NAICS_CODE": "622110", "NAICS_DESC": "GENERAL MEDICAL AND SURGICAL HOSPITALS", "SOURCE": "https://w2.lara.state.mi.us/VAL/License/Search", "SOURCEDATE": "2018-08-09T00:00:00.000Z", "VAL_METHOD": "IMAGERY", "VAL_DATE": "2014-02-10T00:00:00.000Z", "WEBSITE": "http://www.lakelandhealth.org", "STATE_ID": "NOT AVAILABLE", "ALT_NAME": "NOT AVAILABLE", "ST_FIPS": "26", "OWNER": "NON-PROFIT", "TTL_STAFF": -999, "BEDS": 215, "TRAUMA": "NOT AVAILABLE", "HELIPAD": "Y" }, "geometry": { "type": "Polygon", "coordinates": [ [ [ -86.3961737, 41.992448100000018 ], [ -86.5337988, 42.0070094 ], [ -86.5455559, 42.010506 ], [ -86.532452, 42.034674 ], [ -86.527543, 42.04337 ], [ -86.4857857, 42.116803 ], [ -86.434803, 42.163557 ], [ -86.4309106, 42.1647062 ], [ -86.3681562, 42.140779499999979 ], [ -86.3443291, 42.091058700000026 ], [ -86.3961737, 41.992448100000018 ] ] ] } },
{ "type": "Feature", "properties": { "OBJECTID": 2103, "ID": "0003149120", "NAME": "LAKELAND HOSPITAL, NILES", "ADDRESS": "31 NORTH ST JOSEPH AVE", "CITY": "NILES", "STATE": "MI", "ZIP": "49120", "ZIP4": "NOT AVAILABLE", "TELEPHONE": "NOT AVAILABLE", "TYPE": "GENERAL ACUTE CARE", "STATUS": "OPEN", "POPULATION": 76, "COUNTY": "BERRIEN", "COUNTYFIPS": "26021", "COUNTRY": "USA", "LATITUDE": 41.827925202000102, "LONGITUDE": -86.260488534000004, "NAICS_CODE": "622110", "NAICS_DESC": "GENERAL MEDICAL AND SURGICAL HOSPITALS", "SOURCE": "https://w2.lara.state.mi.us/VAL/License/Search", "SOURCEDATE": "2018-08-09T00:00:00.000Z", "VAL_METHOD": "IMAGERY", "VAL_DATE": "2014-02-10T00:00:00.000Z", "WEBSITE": "http://www.lakelandhealth.org/", "STATE_ID": "NOT AVAILABLE", "ALT_NAME": "NOT AVAILABLE", "ST_FIPS": "26", "OWNER": "NON-PROFIT", "TTL_STAFF": -999, "BEDS": 76, "TRAUMA": "NOT AVAILABLE", "HELIPAD": "N" }, "geometry": { "type": "Polygon", "coordinates": [ [ [ -86.2507269, 41.737641099999941 ], [ -86.358111, 41.775694 ], [ -86.3906934, 41.8052512 ], [ -86.381253, 41.8273 ], [ -86.377904, 41.832765 ], [ -86.3142215, 41.922642100000019 ], [ -86.268999, 41.911683 ], [ -86.247404, 41.906083 ], [ -86.223394, 41.895974 ], [ -86.173249, 41.858323 ], [ -86.156308400000015, 41.840886600000019 ], [ -86.1562473, 41.8405676 ], [ -86.155789, 41.813963900000012 ], [ -86.1667649, 41.781949199999964 ], [ -86.183749500000019, 41.768089799999956 ], [ -86.2507269, 41.737641099999941 ] ] ] } },
{ "type": "Feature", "properties": { "OBJECTID": 2106, "ID": "0003549047", "NAME": "BORGESS-LEE MEMORIAL HOSPITAL", "ADDRESS": "420 W HIGH STREET", "CITY": "DOWAGIAC", "STATE": "MI", "ZIP": "49047", "ZIP4": "NOT AVAILABLE", "TELEPHONE": "NOT AVAILABLE", "TYPE": "GENERAL ACUTE CARE", "STATUS": "OPEN", "POPULATION": 25, "COUNTY": "CASS", "COUNTYFIPS": "26027", "COUNTRY": "USA", "LATITUDE": 41.983138480999997, "LONGITUDE": -86.115580743999899, "NAICS_CODE": "622110", "NAICS_DESC": "GENERAL MEDICAL AND SURGICAL HOSPITALS", "SOURCE": "https://w2.lara.state.mi.us/VAL/License/Search", "SOURCEDATE": "2018-08-09T00:00:00.000Z", "VAL_METHOD": "IMAGERY/OTHER", "VAL_DATE": "2014-03-12T00:00:00.000Z", "WEBSITE": "http://www.borgess.com", "STATE_ID": "NOT AVAILABLE", "ALT_NAME": "NOT AVAILABLE", "ST_FIPS": "26", "OWNER": "NON-PROFIT", "TTL_STAFF": -999, "BEDS": 25, "TRAUMA": "NOT AVAILABLE", "HELIPAD": "Y" }, "geometry": { "type": "Polygon", "coordinates": [ [ [ -86.17803, 41.910846 ], [ -86.180468, 41.911718 ], [ -86.217553, 41.967911 ], [ -86.222817, 41.991785 ], [ -86.209894, 42.006081 ], [ -86.165611, 42.034665 ], [ -86.1271459, 42.056208799999965 ], [ -86.107834, 42.063359 ], [ -86.09847, 42.063264 ], [ -86.030457899999988, 42.019725900000019 ], [ -86.004682, 41.98366 ], [ -86.004747, 41.981997 ], [ -86.029674, 41.944364 ], [ -86.034055, 41.938763 ], [ -86.097239, 41.91208 ], [ -86.17803, 41.910846 ] ] ] } },
{ "type": "Feature", "properties": { "OBJECTID": 2344, "ID": "0009946706", "NAME": "NORTHEASTERN CENTER", "ADDRESS": "1850 WESLEY RD", "CITY": "AUBURN", "STATE": "IN", "ZIP": "46706", "ZIP4": "NOT AVAILABLE", "TELEPHONE": "(260) 927-0726", "TYPE": "PSYCHIATRIC", "STATUS": "OPEN", "POPULATION": 16, "COUNTY": "DEKALB", "COUNTYFIPS": "18033", "COUNTRY": "USA", "LATITUDE": 41.3709560510001, "LONGITUDE": -85.029953851000002, "NAICS_CODE": "622210", "NAICS_DESC": "PSYCHIATRIC AND SUBSTANCE ABUSE HOSPITALS", "SOURCE": "http://www.in.gov/isdh/reports/QAMIS/hosdir", "SOURCEDATE": "2018-08-16T00:00:00.000Z", "VAL_METHOD": "IMAGERY", "VAL_DATE": "2014-02-10T00:00:00.000Z", "WEBSITE": "http://www.necmh.org", "STATE_ID": "NOT AVAILABLE", "ALT_NAME": "NOT AVAILABLE", "ST_FIPS": "18", "OWNER": "NOT AVAILABLE", "TTL_STAFF": -999, "BEDS": 16, "TRAUMA": "NOT AVAILABLE", "HELIPAD": "N" }, "geometry": { "type": "Polygon", "coordinates": [ [ [ -85.0208561, 41.295404099999956 ], [ -85.078059, 41.301609 ], [ -85.1076116, 41.305118899999961 ], [ -85.1430289, 41.350366 ], [ -85.155164630299225, 41.366061936629116 ], [ -85.118061712638195, 41.398441936600292 ], [ -85.063170423361768, 41.439487894693336 ], [ -85.053535892800099, 41.442688084839162 ], [ -85.024956307259259, 41.451145852784784 ], [ -85.004924298954961, 41.446980338067206 ], [ -84.922719819425708, 41.384747239528473 ], [ -84.926855305639648, 41.359396552492143 ], [ -85.0208561, 41.295404099999956 ] ] ] } },
{ "type": "Feature", "properties": { "OBJECTID": 2345, "ID": "0008546580", "NAME": "KOSCIUSKO COMMUNITY HOSPITAL", "ADDRESS": "2101 E DUBOIS DR", "CITY": "WARSAW", "STATE": "IN", "ZIP": "46580", "ZIP4": "NOT AVAILABLE", "TELEPHONE": "(574) 267-3200", "TYPE": "GENERAL ACUTE CARE", "STATUS": "OPEN", "POPULATION": 72, "COUNTY": "KOSCIUSKO", "COUNTYFIPS": "18085", "COUNTRY": "USA", "LATITUDE": 41.248343815000098, "LONGITUDE": -85.828844241999903, "NAICS_CODE": "622110", "NAICS_DESC": "GENERAL MEDICAL AND SURGICAL HOSPITALS", "SOURCE": "http://www.in.gov/isdh/reports/QAMIS/hosdir", "SOURCEDATE": "2018-08-16T00:00:00.000Z", "VAL_METHOD": "IMAGERY", "VAL_DATE": "2014-03-12T00:00:00.000Z", "WEBSITE": "http://www.kch.com", "STATE_ID": "17-005113-1", "ALT_NAME": "NOT AVAILABLE", "ST_FIPS": "18", "OWNER": "PROPRIETARY", "TTL_STAFF": -999, "BEDS": 72, "TRAUMA": "NOT AVAILABLE", "HELIPAD": "Y" }, "geometry": { "type": "Polygon", "coordinates": [ [ [ -85.837305, 41.176197 ], [ -85.877224, 41.182774 ], [ -85.989669, 41.265055 ], [ -85.941087, 41.290504 ], [ -85.853942, 41.332926 ], [ -85.848244, 41.333023 ], [ -85.795471, 41.302402 ], [ -85.776074, 41.28779 ], [ -85.728577, 41.250195 ], [ -85.718784, 41.235908 ], [ -85.7052658, 41.204511 ], [ -85.7052643, 41.204293700000036 ], [ -85.78726, 41.177168 ], [ -85.789216, 41.177117 ], [ -85.837305, 41.176197 ] ] ] } },
{ "type": "Feature", "properties": { "OBJECTID": 2396, "ID": "0011846804", "NAME": "REHABILITATION HOSPITAL OF FORT WAYNE GENERAL PAR", "ADDRESS": "7970 W JEFFERSON BLVD", "CITY": "FORT WAYNE", "STATE": "IN", "ZIP": "46804", "ZIP4": "NOT AVAILABLE", "TELEPHONE": "(260) 435-6100", "TYPE": "REHABILITATION", "STATUS": "OPEN", "POPULATION": 36, "COUNTY": "ALLEN", "COUNTYFIPS": "18003", "COUNTRY": "USA", "LATITUDE": 41.042790267000001, "LONGITUDE": -85.248212189, "NAICS_CODE": "622310", "NAICS_DESC": "REHABILITATION HOSPITALS (EXCEPT ALCOHOLISM, DRUG ADDICTION)", "SOURCE": "http://www.in.gov/isdh/reports/QAMIS/hosdir", "SOURCEDATE": "2018-08-16T00:00:00.000Z", "VAL_METHOD": "IMAGERY", "VAL_DATE": "2014-01-22T00:00:00.000Z", "WEBSITE": "http://www.rehabhospital.com/Pages/home.aspx", "STATE_ID": "17-006245-1", "ALT_NAME": "NOT AVAILABLE", "ST_FIPS": "18", "OWNER": "PROPRIETARY", "TTL_STAFF": -999, "BEDS": 36, "TRAUMA": "NOT AVAILABLE", "HELIPAD": "N" }, "geometry": { "type": "Polygon", "coordinates": [ [ [ -85.3145503, 40.956861699999983 ], [ -85.3175136, 40.957194800000025 ], [ -85.319588, 40.960369300000053 ], [ -85.341507, 40.997942 ], [ -85.3552536, 41.0493358 ], [ -85.3367375, 41.070927 ], [ -85.3071254, 41.089593800000017 ], [ -85.294658, 41.097192600000014 ], [ -85.2457617, 41.1182228 ], [ -85.1934584, 41.126031600000026 ], [ -85.1833791, 41.125293900000024 ], [ -85.136863500000018, 41.080853 ], [ -85.1357256, 41.0766978 ], [ -85.138731100000015, 41.050073199999979 ], [ -85.1491156, 41.0271059 ], [ -85.1825093, 41.000845 ], [ -85.2548885, 40.953116 ], [ -85.2593351, 40.9525141 ], [ -85.3145503, 40.956861699999983 ] ] ] } },
{ "type": "Feature", "properties": { "OBJECTID": 2398, "ID": "0011446996", "NAME": "PULASKI MEMORIAL HOSPITAL", "ADDRESS": "616 E 13TH ST", "CITY": "WINAMAC", "STATE": "IN", "ZIP": "46996", "ZIP4": "NOT AVAILABLE", "TELEPHONE": "(574) 946-2100", "TYPE": "CRITICAL ACCESS", "STATUS": "OPEN", "POPULATION": 25, "COUNTY": "PULASKI", "COUNTYFIPS": "18131", "COUNTRY": "USA", "LATITUDE": 41.056267569000099, "LONGITUDE": -86.595998494999904, "NAICS_CODE": "622110", "NAICS_DESC": "GENERAL MEDICAL AND SURGICAL HOSPITALS", "SOURCE": "http://www.in.gov/isdh/reports/QAMIS/hosdir", "SOURCEDATE": "2018-08-16T00:00:00.000Z", "VAL_METHOD": "IMAGERY", "VAL_DATE": "2014-01-24T00:00:00.000Z", "WEBSITE": "http://www.pmhnet.com", "STATE_ID": "17-005084-1", "ALT_NAME": "NOT AVAILABLE", "ST_FIPS": "18", "OWNER": "GOVERNMENT - LOCAL", "TTL_STAFF": -999, "BEDS": 25, "TRAUMA": "NOT AVAILABLE", "HELIPAD": "N" }, "geometry": { "type": "Polygon", "coordinates": [ [ [ -86.603049330028952, 40.984276149533997 ], [ -86.623628306060439, 40.99210612960097 ], [ -86.699522249013512, 41.040940019744333 ], [ -86.721886239484306, 41.055418990369553 ], [ -86.60255437913807, 41.142321060440466 ], [ -86.491709, 41.066379 ], [ -86.496812, 41.04807 ], [ -86.50621043998062, 41.034564254296939 ], [ -86.555806485005974, 40.986927610607943 ], [ -86.568984369669593, 40.983478190353722 ], [ -86.583573352693207, 40.983604172710827 ], [ -86.603049330028952, 40.984276149533997 ] ] ] } },
{ "type": "Feature", "properties": { "OBJECTID": 2818, "ID": "0016346807", "NAME": "VIBRA HOSPITAL OF FORT WAYNE", "ADDRESS": "2626 FAIRFIELD AVE", "CITY": "FORT WAYNE", "STATE": "IN", "ZIP": "46807", "ZIP4": "NOT AVAILABLE", "TELEPHONE": "(260) 399-2900", "TYPE": "LONG TERM CARE", "STATUS": "CLOSED", "POPULATION": 24, "COUNTY": "ALLEN", "COUNTYFIPS": "18003", "COUNTRY": "USA", "LATITUDE": 41.061139353000002, "LONGITUDE": -85.145508136000004, "NAICS_CODE": "622110", "NAICS_DESC": "GENERAL MEDICAL AND SURGICAL HOSPITALS", "SOURCE": "http://www.state.in.us/isdh/reports/QAMIS/hosdir/wdirhos.htm", "SOURCEDATE": "2012-11-06T00:00:00.000Z", "VAL_METHOD": "IMAGERY", "VAL_DATE": "2014-02-10T00:00:00.000Z", "WEBSITE": "http://www.vhfortwayne.com", "STATE_ID": "12-012132-1", "ALT_NAME": "NOT AVAILABLE", "ST_FIPS": "18", "OWNER": "PROPRIETARY", "TTL_STAFF": -999, "BEDS": 24, "TRAUMA": "NOT AVAILABLE", "HELIPAD": "N" }, "geometry": { "type": "Polygon", "coordinates": [ [ [ -85.1682109, 40.9747031 ], [ -85.2034985, 40.9979784 ], [ -85.207022, 41.001611699999984 ], [ -85.2484504, 41.045226599999978 ], [ -85.2551616, 41.0742714 ], [ -85.2159466, 41.126138800000028 ], [ -85.2052128, 41.137851900000022 ], [ -85.165338, 41.150088600000025 ], [ -85.1650758, 41.150112400000012 ], [ -85.1366261, 41.1498644 ], [ -85.1176599, 41.1430374 ], [ -85.1148922, 41.141922500000021 ], [ -85.0807433, 41.119766700000042 ], [ -85.0592892, 41.1011673 ], [ -85.0302105, 41.070095 ], [ -85.030172, 41.068726699999978 ], [ -85.0339603, 41.055969599999976 ], [ -85.085272, 40.982013299999977 ], [ -85.0857564, 40.9815617 ], [ -85.1394333, 40.975305599999984 ], [ -85.1682109, 40.9747031 ] ] ] } },
{ "type": "Feature", "properties": { "OBJECTID": 6040, "ID": "0008746804", "NAME": "LUTHERAN HOSPITAL OF INDIANA", "ADDRESS": "7950 W JEFFERSON BLVD", "CITY": "FORT WAYNE", "STATE": "IN", "ZIP": "46804", "ZIP4": "NOT AVAILABLE", "TELEPHONE": "(260) 435-7001", "TYPE": "GENERAL ACUTE CARE", "STATUS": "OPEN", "POPULATION": 396, "COUNTY": "ALLEN", "COUNTYFIPS": "18003", "COUNTRY": "USA", "LATITUDE": 41.039211686999998, "LONGITUDE": -85.249849395999902, "NAICS_CODE": "622110", "NAICS_DESC": "GENERAL MEDICAL AND SURGICAL HOSPITALS", "SOURCE": "http://www.in.gov/isdh/reports/QAMIS/hosdir", "SOURCEDATE": "2018-08-16T00:00:00.000Z", "VAL_METHOD": "IMAGERY/OTHER", "VAL_DATE": "2014-03-12T00:00:00.000Z", "WEBSITE": "http://www.lutheranhospital.com", "STATE_ID": "17-005016-1", "ALT_NAME": "NOT AVAILABLE", "ST_FIPS": "18", "OWNER": "PROPRIETARY", "TTL_STAFF": -999, "BEDS": 396, "TRAUMA": "LEVEL II, LEVEL II PEDIATRIC", "HELIPAD": "Y" }, "geometry": { "type": "Polygon", "coordinates": [ [ [ -85.270325600000021, 40.989059399999988 ], [ -85.2741924, 40.990383799999982 ], [ -85.3032886, 41.0157534 ], [ -85.3222685, 41.073487800000052 ], [ -85.2848646, 41.103700599999982 ], [ -85.2168387, 41.146714500000044 ], [ -85.1642523, 41.146708200000035 ], [ -85.1363312, 41.143591499999978 ], [ -85.1303392, 41.14032550000006 ], [ -85.1295172, 41.133777 ], [ -85.1294359, 41.13207349999994 ], [ -85.1357256, 41.0766978 ], [ -85.1368496, 41.074139099999989 ], [ -85.145257, 41.0659499 ], [ -85.1686798, 41.045792 ], [ -85.188787, 41.029000399999987 ], [ -85.2617442, 40.9922254 ], [ -85.270325600000021, 40.989059399999988 ] ] ] } },
{ "type": "Feature", "properties": { "OBJECTID": 6062, "ID": "0007446526", "NAME": "IU HEALTH GOSHEN HOSPITAL", "ADDRESS": "200 HIGH PARK AVE", "CITY": "GOSHEN", "STATE": "IN", "ZIP": "46526", "ZIP4": "NOT AVAILABLE", "TELEPHONE": "(574) 364-2141", "TYPE": "GENERAL ACUTE CARE", "STATUS": "OPEN", "POPULATION": 120, "COUNTY": "ELKHART", "COUNTYFIPS": "18039", "COUNTRY": "USA", "LATITUDE": 41.563292078000103, "LONGITUDE": -85.830604706000003, "NAICS_CODE": "622110", "NAICS_DESC": "GENERAL MEDICAL AND SURGICAL HOSPITALS", "SOURCE": "http://www.in.gov/isdh/reports/QAMIS/hosdir", "SOURCEDATE": "2018-08-16T00:00:00.000Z", "VAL_METHOD": "IMAGERY", "VAL_DATE": "2014-02-10T00:00:00.000Z", "WEBSITE": "http://www.iuhealth.org", "STATE_ID": "17-005025-1", "ALT_NAME": "NOT AVAILABLE", "ST_FIPS": "18", "OWNER": "NON-PROFIT", "TTL_STAFF": -999, "BEDS": 120, "TRAUMA": "NOT AVAILABLE", "HELIPAD": "N" }, "geometry": { "type": "Polygon", "coordinates": [ [ [ -85.839553517243601, 41.471276320217058 ], [ -85.943930437312915, 41.53429632014906 ], [ -85.952701229125566, 41.550995465415539 ], [ -85.907482859078797, 41.627201601240287 ], [ -85.827612588151425, 41.652711310026859 ], [ -85.821157480332744, 41.652694009597084 ], [ -85.813232203762752, 41.648927421100524 ], [ -85.806437127603729, 41.645395431868195 ], [ -85.720364430888495, 41.568276316362891 ], [ -85.719921246407864, 41.566824919438808 ], [ -85.726394966196949, 41.522998251657725 ], [ -85.752079018556785, 41.502665373912137 ], [ -85.784960890696752, 41.478921495865158 ], [ -85.836786423043165, 41.471280919060341 ], [ -85.839553517243601, 41.471276320217058 ] ] ] } },
{ "type": "Feature", "properties": { "OBJECTID": 6063, "ID": "0002446706", "NAME": "DEKALB HEALTH", "ADDRESS": "1316 E SEVENTH ST", "CITY": "AUBURN", "STATE": "IN", "ZIP": "46706", "ZIP4": "NOT AVAILABLE", "TELEPHONE": "(260) 925-4600", "TYPE": "GENERAL ACUTE CARE", "STATUS": "OPEN", "POPULATION": 56, "COUNTY": "DEKALB", "COUNTYFIPS": "18033", "COUNTRY": "USA", "LATITUDE": 41.368866859000001, "LONGITUDE": -85.035394170999993, "NAICS_CODE": "622110", "NAICS_DESC": "GENERAL MEDICAL AND SURGICAL HOSPITALS", "SOURCE": "http://www.in.gov/isdh/reports/QAMIS/hosdir", "SOURCEDATE": "2018-08-16T00:00:00.000Z", "VAL_METHOD": "IMAGERY", "VAL_DATE": "2014-02-10T00:00:00.000Z", "WEBSITE": "http://www.dekalbhealth.com", "STATE_ID": "17-005041-1", "ALT_NAME": "NOT AVAILABLE", "ST_FIPS": "18", "OWNER": "NON-PROFIT", "TTL_STAFF": -999, "BEDS": 56, "TRAUMA": "NOT AVAILABLE", "HELIPAD": "Y" }, "geometry": { "type": "Polygon", "coordinates": [ [ [ -85.0780653, 41.294685800000011 ], [ -85.1076116, 41.305118899999961 ], [ -85.168381850277655, 41.365869937639168 ], [ -85.063170423361768, 41.439487894693336 ], [ -85.053535892800099, 41.442688084839162 ], [ -85.024956307259259, 41.451145852784784 ], [ -85.004924298954961, 41.446980338067206 ], [ -84.922719819425708, 41.384747239528473 ], [ -84.926855305639648, 41.359396552492143 ], [ -85.0208561, 41.295404099999956 ], [ -85.0780653, 41.294685800000011 ] ] ] } },
{ "type": "Feature", "properties": { "OBJECTID": 6066, "ID": "0007647978", "NAME": "FRANCISCAN HEALTHCARE RENSSLAER", "ADDRESS": "1104 E GRACE ST", "CITY": "RENSSELAER", "STATE": "IN", "ZIP": "47978", "ZIP4": "NOT AVAILABLE", "TELEPHONE": "(219) 866-5141", "TYPE": "CRITICAL ACCESS", "STATUS": "OPEN", "POPULATION": 46, "COUNTY": "JASPER", "COUNTYFIPS": "18073", "COUNTRY": "USA", "LATITUDE": 40.934513124, "LONGITUDE": -87.138779208999907, "NAICS_CODE": "622110", "NAICS_DESC": "GENERAL MEDICAL AND SURGICAL HOSPITALS", "SOURCE": "http://www.in.gov/isdh/reports/QAMIS/hosdir", "SOURCEDATE": "2018-08-16T00:00:00.000Z", "VAL_METHOD": "IMAGERY", "VAL_DATE": "2016-04-28T00:00:00.000Z", "WEBSITE": "http://www.jchh.com", "STATE_ID": "17-005072-1", "ALT_NAME": "NOT AVAILABLE", "ST_FIPS": "18", "OWNER": "GOVERNMENT - LOCAL", "TTL_STAFF": -999, "BEDS": 46, "TRAUMA": "NOT AVAILABLE", "HELIPAD": "Y" }, "geometry": { "type": "Polygon", "coordinates": [ [ [ -87.154574, 40.851824 ], [ -87.237694, 40.911644 ], [ -87.25732, 40.926129 ], [ -87.2526, 40.940697 ], [ -87.23814, 40.95542 ], [ -87.151756, 41.019694 ], [ -87.037776, 40.946316 ], [ -87.0219595, 40.935982400000022 ], [ -87.0220245, 40.9340033 ], [ -87.041302, 40.914442 ], [ -87.119224, 40.86662 ], [ -87.154574, 40.851824 ] ] ] } },
{ "type": "Feature", "properties": { "OBJECTID": 6073, "ID": "0000146628", "NAME": "A ROSIE PLACE", "ADDRESS": "53131 QUINCE RD", "CITY": "SOUTH BEND", "STATE": "IN", "ZIP": "46628", "ZIP4": "NOT AVAILABLE", "TELEPHONE": "(574) 235-8899", "TYPE": "CHILDREN", "STATUS": "OPEN", "POPULATION": 10, "COUNTY": "ST. JOSEPH", "COUNTYFIPS": "18141", "COUNTRY": "USA", "LATITUDE": 41.720046037000003, "LONGITUDE": -86.381464342000001, "NAICS_CODE": "622110", "NAICS_DESC": "GENERAL MEDICAL AND SURGICAL HOSPITALS", "SOURCE": "http://www.in.gov/isdh/reports/QAMIS/hosdir", "SOURCEDATE": "2018-08-16T00:00:00.000Z", "VAL_METHOD": "IMAGERY", "VAL_DATE": "2014-02-10T00:00:00.000Z", "WEBSITE": "http://arosieplace.org/index.php", "STATE_ID": "17-012157-1", "ALT_NAME": "NOT AVAILABLE", "ST_FIPS": "18", "OWNER": "NON-PROFIT", "TTL_STAFF": -999, "BEDS": 10, "TRAUMA": "NOT AVAILABLE", "HELIPAD": "N" }, "geometry": { "type": "Polygon", "coordinates": [ [ [ -86.300619308078112, 41.638889666825705 ], [ -86.387799915730156, 41.647872918903488 ], [ -86.452709750895195, 41.67192365852231 ], [ -86.4962842, 41.707659 ], [ -86.426179, 41.75965 ], [ -86.387215, 41.776292 ], [ -86.3236531, 41.758870900000026 ], [ -86.260671400000021, 41.722472599999982 ], [ -86.273946423011694, 41.685395170209127 ], [ -86.294670310529227, 41.639496363969329 ], [ -86.300619308078112, 41.638889666825705 ] ] ] } },
{ "type": "Feature", "properties": { "OBJECTID": 6075, "ID": "0009746563", "NAME": "MICHIANA BEHAVIORAL HEALTH CENTER", "ADDRESS": "1800 N OAK RD", "CITY": "PLYMOUTH", "STATE": "IN", "ZIP": "46563", "ZIP4": "NOT AVAILABLE", "TELEPHONE": "(574) 936-3784", "TYPE": "PSYCHIATRIC", "STATUS": "OPEN", "POPULATION": 51, "COUNTY": "MARSHALL", "COUNTYFIPS": "18099", "COUNTRY": "USA", "LATITUDE": 41.3569279210001, "LONGITUDE": -86.327573916999896, "NAICS_CODE": "622210", "NAICS_DESC": "PSYCHIATRIC AND SUBSTANCE ABUSE HOSPITALS", "SOURCE": "http://www.in.gov/isdh/reports/QAMIS/hosdir", "SOURCEDATE": "2018-08-16T00:00:00.000Z", "VAL_METHOD": "IMAGERY", "VAL_DATE": "2014-02-10T00:00:00.000Z", "WEBSITE": "http://www.michianabhc.com", "STATE_ID": "NOT AVAILABLE", "ALT_NAME": "NOT AVAILABLE", "ST_FIPS": "18", "OWNER": "PROPRIETARY", "TTL_STAFF": -999, "BEDS": 51, "TRAUMA": "NOT AVAILABLE", "HELIPAD": "N" }, "geometry": { "type": "Polygon", "coordinates": [ [ [ -86.267447, 41.266142 ], [ -86.338041, 41.275295 ], [ -86.476094169928217, 41.366132960499911 ], [ -86.476080169808185, 41.366338360390216 ], [ -86.444367, 41.38245 ], [ -86.3117254, 41.4367225 ], [ -86.3113537, 41.4367084 ], [ -86.261709, 41.395414 ], [ -86.1737531, 41.317611500000012 ], [ -86.173751, 41.31715 ], [ -86.267134, 41.26614559999998 ], [ -86.267447, 41.266142 ] ] ] } },
{ "type": "Feature", "properties": { "OBJECTID": 6143, "ID": "0013646802", "NAME": "ST JOSEPH HOSPITAL", "ADDRESS": "700 BROADWAY", "CITY": "FORT WAYNE", "STATE": "IN", "ZIP": "46802", "ZIP4": "NOT AVAILABLE", "TELEPHONE": "(260) 425-3000", "TYPE": "GENERAL ACUTE CARE", "STATUS": "OPEN", "POPULATION": 145, "COUNTY": "ALLEN", "COUNTYFIPS": "18003", "COUNTRY": "USA", "LATITUDE": 41.078000734000099, "LONGITUDE": -85.149277198999997, "NAICS_CODE": "622110", "NAICS_DESC": "GENERAL MEDICAL AND SURGICAL HOSPITALS", "SOURCE": "http://www.in.gov/isdh/reports/QAMIS/hosdir", "SOURCEDATE": "2018-08-16T00:00:00.000Z", "VAL_METHOD": "IMAGERY", "VAL_DATE": "2014-03-12T00:00:00.000Z", "WEBSITE": "http://www.stjoehospital.com", "STATE_ID": "17-005043-1", "ALT_NAME": "NOT AVAILABLE", "ST_FIPS": "18", "OWNER": "PROPRIETARY", "TTL_STAFF": -999, "BEDS": 145, "TRAUMA": "NOT AVAILABLE", "HELIPAD": "Y" }, "geometry": { "type": "Polygon", "coordinates": [ [ [ -85.1723705, 40.997554900000019 ], [ -85.1832763, 41.000837699999977 ], [ -85.2556726, 41.032397799999956 ], [ -85.2558155, 41.0325221 ], [ -85.2748517, 41.074191600000027 ], [ -85.2748428, 41.075420599999966 ], [ -85.2456913, 41.125603100000042 ], [ -85.2167687, 41.147885599999967 ], [ -85.2143758, 41.149724099999979 ], [ -85.1658867, 41.168512300000032 ], [ -85.10332870000002, 41.171569299999945 ], [ -85.0405908, 41.106632600000026 ], [ -85.0302105, 41.070095 ], [ -85.030172, 41.068726699999978 ], [ -85.098678, 41.000445 ], [ -85.0993047, 41.000205300000026 ], [ -85.1351675, 40.996071200000031 ], [ -85.1723705, 40.997554900000019 ] ] ] } },
{ "type": "Feature", "properties": { "OBJECTID": 6171, "ID": "0016246545", "NAME": "UNITY MEDICAL AND SURGICAL HOSPITAL", "ADDRESS": "4455 EDISON LAKES PKWY", "CITY": "MISHAWAKA", "STATE": "IN", "ZIP": "46545", "ZIP4": "NOT AVAILABLE", "TELEPHONE": "(574) 231-6800", "TYPE": "GENERAL ACUTE CARE", "STATUS": "OPEN", "POPULATION": 29, "COUNTY": "ST. JOSEPH", "COUNTYFIPS": "18141", "COUNTRY": "USA", "LATITUDE": 41.701232434000097, "LONGITUDE": -86.178003809000003, "NAICS_CODE": "622110", "NAICS_DESC": "GENERAL MEDICAL AND SURGICAL HOSPITALS", "SOURCE": "http://www.in.gov/isdh/reports/QAMIS/hosdir", "SOURCEDATE": "2018-08-16T00:00:00.000Z", "VAL_METHOD": "IMAGERY", "VAL_DATE": "2014-01-23T00:00:00.000Z", "WEBSITE": "http://www.physicianshospitalsystem.net", "STATE_ID": "17-012113-1", "ALT_NAME": "NOT AVAILABLE", "ST_FIPS": "18", "OWNER": "PROPRIETARY", "TTL_STAFF": -999, "BEDS": 29, "TRAUMA": "NOT AVAILABLE", "HELIPAD": "N" }, "geometry": { "type": "Polygon", "coordinates": [ [ [ -86.177214172806615, 41.625418736410339 ], [ -86.188513845658633, 41.629584031322366 ], [ -86.22715233742386, 41.654833630862591 ], [ -86.256124661646268, 41.677677707742717 ], [ -86.2666723, 41.693016799999981 ], [ -86.2556696, 41.7235267 ], [ -86.255621, 41.723601 ], [ -86.236012300000013, 41.737308599999977 ], [ -86.2200895, 41.748203299999957 ], [ -86.2108958, 41.754476899999965 ], [ -86.1897739, 41.768167700000028 ], [ -86.1863293, 41.7681385 ], [ -86.183749500000019, 41.768089799999956 ], [ -86.1540706, 41.7624574 ], [ -86.1192577, 41.753392800000029 ], [ -86.0658923, 41.695433 ], [ -86.095190153561489, 41.663371206781548 ], [ -86.138240728390599, 41.625736164577923 ], [ -86.176884173291455, 41.625416635829104 ], [ -86.177214172806615, 41.625418736410339 ] ] ] } },
{ "type": "Feature", "properties": { "OBJECTID": 6745, "ID": "0012846545", "NAME": "SAINT JOSEPH REGIONAL MEDICAL CENTER", "ADDRESS": "5215 HOLY CROSS PKWY", "CITY": "MISHAWAKA", "STATE": "IN", "ZIP": "46545", "ZIP4": "NOT AVAILABLE", "TELEPHONE": "(574) 335-5000", "TYPE": "GENERAL ACUTE CARE", "STATUS": "OPEN", "POPULATION": 294, "COUNTY": "ST. JOSEPH", "COUNTYFIPS": "18141", "COUNTRY": "USA", "LATITUDE": 41.707177381000101, "LONGITUDE": -86.174469580999997, "NAICS_CODE": "622110", "NAICS_DESC": "GENERAL MEDICAL AND SURGICAL HOSPITALS", "SOURCE": "http://www.in.gov/isdh/reports/QAMIS/hosdir", "SOURCEDATE": "2018-08-16T00:00:00.000Z", "VAL_METHOD": "IMAGERY", "VAL_DATE": "2014-03-12T00:00:00.000Z", "WEBSITE": "http://www.sjmed.com", "STATE_ID": "17-005012-1", "ALT_NAME": "NOT AVAILABLE", "ST_FIPS": "18", "OWNER": "NON-PROFIT", "TTL_STAFF": -999, "BEDS": 294, "TRAUMA": "NOT AVAILABLE", "HELIPAD": "Y" }, "geometry": { "type": "Polygon", "coordinates": [ [ [ -86.176890272514356, 41.625699934157389 ], [ -86.186503548522296, 41.629568427917498 ], [ -86.261275576750805, 41.667189881803218 ], [ -86.268137958943072, 41.672123552553423 ], [ -86.271995245759257, 41.676159328540813 ], [ -86.283789, 41.693806 ], [ -86.279625300000021, 41.722967699999963 ], [ -86.2534255, 41.744935199999986 ], [ -86.1991422, 41.785509099999985 ], [ -86.1862099, 41.78872 ], [ -86.1570732, 41.7827116 ], [ -86.1084653, 41.762602 ], [ -86.09472, 41.756864 ], [ -86.09095, 41.753815 ], [ -86.0603409, 41.715015300000019 ], [ -86.0578035, 41.710184 ], [ -86.0658923, 41.695433 ], [ -86.095190153561489, 41.663371206781548 ], [ -86.138240728390599, 41.625736164577923 ], [ -86.176890272514356, 41.625699934157389 ] ] ] } },
{ "type": "Feature", "properties": { "OBJECTID": 4040, "ID": "0156346805", "NAME": "VIBRA HOSPITAL OF FORT WAYNE", "ADDRESS": "2200 RANDALLIA DRIVE, 5TH FLOOR", "CITY": "FORT WAYNE", "STATE": "IN", "ZIP": "46805", "ZIP4": "NOT AVAILABLE", "TELEPHONE": "(260) 399-2900", "TYPE": "LONG TERM CARE", "STATUS": "OPEN", "POPULATION": -999, "COUNTY": "ALLEN", "COUNTYFIPS": "18003", "COUNTRY": "USA", "LATITUDE": 41.096171462000001, "LONGITUDE": -85.110219027, "NAICS_CODE": "622110", "NAICS_DESC": "GENERAL MEDICAL AND SURGICAL HOSPITALS", "SOURCE": "http://www.in.gov/isdh/reports/QAMIS/hosdir", "SOURCEDATE": "2018-08-16T00:00:00.000Z", "VAL_METHOD": "IMAGERY/OTHER", "VAL_DATE": "2015-03-30T00:00:00.000Z", "WEBSITE": "NOT AVAILABLE", "STATE_ID": "NOT AVAILABLE", "ALT_NAME": "NOT AVAILABLE", "ST_FIPS": "18", "OWNER": "PROPRIETARY", "TTL_STAFF": -999, "BEDS": 48, "TRAUMA": "NOT AVAILABLE", "HELIPAD": "Y" }, "geometry": { "type": "Polygon", "coordinates": [ [ [ -85.11198060000001, 41.009454400000038 ], [ -85.1193991, 41.011592700000023 ], [ -85.2090152, 41.0622593 ], [ -85.2260289, 41.088863799999984 ], [ -85.2265839, 41.113180300000032 ], [ -85.2265382, 41.11763889999996 ], [ -85.2264336, 41.125199700000017 ], [ -85.2264306, 41.1254018 ], [ -85.226289100000017, 41.132909600000026 ], [ -85.215443, 41.146696899999974 ], [ -85.1659963, 41.171666399999985 ], [ -85.1033172, 41.1811864 ], [ -85.0985616, 41.181699700000017 ], [ -85.0549915, 41.173136600000014 ], [ -85.002991991108942, 41.135964703146357 ], [ -85.002157890996955, 41.130250913111574 ], [ -84.9988825020923, 41.080168301373782 ], [ -85.014648261638797, 41.067054021279787 ], [ -85.0767531, 41.0248985 ], [ -85.0946889, 41.016053099999979 ], [ -85.1089259, 41.009359599999975 ], [ -85.11198060000001, 41.009454400000038 ] ] ] } },
{ "type": "Feature", "properties": { "OBJECTID": 4103, "ID": "0156246802", "NAME": "SELECT SPECIALTY HOSPITAL-FORT WAYNE", "ADDRESS": "700 BROADWAY, 7TH FL E", "CITY": "FORT WAYNE", "STATE": "IN", "ZIP": "46802", "ZIP4": "NOT AVAILABLE", "TELEPHONE": "(260) 425-3840", "TYPE": "LONG TERM CARE", "STATUS": "CLOSED", "POPULATION": -999, "COUNTY": "ALLEN", "COUNTYFIPS": "18003", "COUNTRY": "USA", "LATITUDE": 41.078295523000101, "LONGITUDE": -85.149166007999995, "NAICS_CODE": "622310", "NAICS_DESC": "HOSPITALS, SPECIALTY (EXCEPT PSYCHIATRIC, SUBSTANCE ABUSE)", "SOURCE": "http://www.in.gov/isdh/reports/QAMIS/hosdir", "SOURCEDATE": "2016-04-13T00:00:00.000Z", "VAL_METHOD": "IMAGERY/OTHER", "VAL_DATE": "2015-03-30T00:00:00.000Z", "WEBSITE": "NOT AVAILABLE", "STATE_ID": "NOT AVAILABLE", "ALT_NAME": "NOT AVAILABLE", "ST_FIPS": "18", "OWNER": "PROPRIETARY", "TTL_STAFF": -999, "BEDS": 32, "TRAUMA": "NOT AVAILABLE", "HELIPAD": "Y" }, "geometry": { "type": "Polygon", "coordinates": [ [ [ -85.1723705, 40.997554900000019 ], [ -85.1832763, 41.000837699999977 ], [ -85.2556726, 41.032397799999956 ], [ -85.2558155, 41.0325221 ], [ -85.2748517, 41.074191600000027 ], [ -85.2748428, 41.075420599999966 ], [ -85.2456913, 41.125603100000042 ], [ -85.2167687, 41.147885599999967 ], [ -85.2143758, 41.149724099999979 ], [ -85.1658867, 41.168512300000032 ], [ -85.10332870000002, 41.171569299999945 ], [ -85.0405908, 41.106632600000026 ], [ -85.0302105, 41.070095 ], [ -85.030172, 41.068726699999978 ], [ -85.098678, 41.000445 ], [ -85.0993047, 41.000205300000026 ], [ -85.1351675, 40.996071200000031 ], [ -85.1723705, 40.997554900000019 ] ] ] } },
{ "type": "Feature", "properties": { "OBJECTID": 4261, "ID": "0008146544", "NAME": "KINDRED HOSPITAL NORTHERN INDIANA", "ADDRESS": "215 W 4TH ST, STE 200", "CITY": "MISHAWAKA", "STATE": "IN", "ZIP": "46544", "ZIP4": "NOT AVAILABLE", "TELEPHONE": "(574) 252-2000", "TYPE": "LONG TERM CARE", "STATUS": "OPEN", "POPULATION": 32, "COUNTY": "ST. JOSEPH", "COUNTYFIPS": "18141", "COUNTRY": "USA", "LATITUDE": 41.658708069000099, "LONGITUDE": -86.181979790999904, "NAICS_CODE": "622110", "NAICS_DESC": "GENERAL MEDICAL AND SURGICAL HOSPITALS", "SOURCE": "http://www.in.gov/isdh/reports/QAMIS/hosdir", "SOURCEDATE": "2018-08-16T00:00:00.000Z", "VAL_METHOD": "IMAGERY", "VAL_DATE": "2014-02-10T00:00:00.000Z", "WEBSITE": "http://www.khnorthernindiana.com/", "STATE_ID": "12-002605-1", "ALT_NAME": "NOT AVAILABLE", "ST_FIPS": "18", "OWNER": "PROPRIETARY", "TTL_STAFF": -999, "BEDS": 32, "TRAUMA": "NOT AVAILABLE", "HELIPAD": "N" }, "geometry": { "type": "Polygon", "coordinates": [ [ [ -86.176707199593423, 41.578971311261505 ], [ -86.259385203079788, 41.605278799641646 ], [ -86.265467595247941, 41.608448673466818 ], [ -86.294366710830047, 41.639458064236564 ], [ -86.30456591832143, 41.671886574738622 ], [ -86.291284, 41.690458400000018 ], [ -86.18904, 41.743787 ], [ -86.1793814, 41.744804299999977 ], [ -86.178496, 41.744801 ], [ -86.1515546, 41.7369201 ], [ -86.1296, 41.728969 ], [ -86.0775599, 41.691211299999956 ], [ -86.051506990843762, 41.665109644100696 ], [ -86.089647296321147, 41.626395574255348 ], [ -86.138108329455576, 41.593760836918719 ], [ -86.173162306583151, 41.578985002500168 ], [ -86.176707199593423, 41.578971311261505 ] ] ] } },
{ "type": "Feature", "properties": { "OBJECTID": 4301, "ID": "0016261747", "NAME": "HOPEDALE MEDICAL COMPLEX", "ADDRESS": "107 TREMONT STREET", "CITY": "HOPEDALE", "STATE": "IL", "ZIP": "61747", "ZIP4": "NOT AVAILABLE", "TELEPHONE": "(309) 449-3321", "TYPE": "CRITICAL ACCESS", "STATUS": "OPEN", "POPULATION": 25, "COUNTY": "TAZEWELL", "COUNTYFIPS": "17179", "COUNTRY": "USA", "LATITUDE": 40.418411462999998, "LONGITUDE": -89.4175622449999, "NAICS_CODE": "622110", "NAICS_DESC": "GENERAL MEDICAL AND SURGICAL HOSPITALS", "SOURCE": "https://data.illinois.gov/", "SOURCEDATE": "2018-08-09T00:00:00.000Z", "VAL_METHOD": "IMAGERY", "VAL_DATE": "2014-02-10T00:00:00.000Z", "WEBSITE": "http://www.hopedalemc.com", "STATE_ID": "141330", "ALT_NAME": "NOT AVAILABLE", "ST_FIPS": "17", "OWNER": "NON-PROFIT", "TTL_STAFF": -999, "BEDS": 25, "TRAUMA": "NOT AVAILABLE", "HELIPAD": "N" }, "geometry": { "type": "Polygon", "coordinates": [ [ [ -89.454688500000017, 40.366431299999959 ], [ -89.474184100000016, 40.3804685 ], [ -89.4914373, 40.409376699999967 ], [ -89.495045, 40.417851 ], [ -89.4990777, 40.4345112 ], [ -89.492641300000017, 40.48120260000001 ], [ -89.466889400000014, 40.496315199999948 ], [ -89.3517263, 40.459239700000012 ], [ -89.3122909, 40.44129210000002 ], [ -89.3552956, 40.3970531 ], [ -89.378856, 40.378236 ], [ -89.3976665, 40.3675433 ], [ -89.419699, 40.365545 ], [ -89.454688500000017, 40.366431299999959 ] ] ] } },
{ "type": "Feature", "properties": { "OBJECTID": 4304, "ID": "0004461455", "NAME": "MC DONOUGH DISTRICT HOSPITAL", "ADDRESS": "525 EAST GRANT STREET", "CITY": "MACOMB", "STATE": "IL", "ZIP": "61455", "ZIP4": "NOT AVAILABLE", "TELEPHONE": "(309) 833-4101", "TYPE": "GENERAL ACUTE CARE", "STATUS": "OPEN", "POPULATION": 95, "COUNTY": "MCDONOUGH", "COUNTYFIPS": "17109", "COUNTRY": "USA", "LATITUDE": 40.447165610000098, "LONGITUDE": -90.664406474000003, "NAICS_CODE": "622110", "NAICS_DESC": "GENERAL MEDICAL AND SURGICAL HOSPITALS", "SOURCE": "https://data.illinois.gov/", "SOURCEDATE": "2018-08-09T00:00:00.000Z", "VAL_METHOD": "IMAGERY", "VAL_DATE": "2014-01-17T00:00:00.000Z", "WEBSITE": "http://www.mdh.org", "STATE_ID": "140089", "ALT_NAME": "NOT AVAILABLE", "ST_FIPS": "17", "OWNER": "GOVERNMENT - DISTRICT/AUTHORITY", "TTL_STAFF": -999, "BEDS": 95, "TRAUMA": "NOT AVAILABLE", "HELIPAD": "Y" }, "geometry": { "type": "Polygon", "coordinates": [ [ [ -90.677199, 40.374525 ], [ -90.780717, 40.429505 ], [ -90.693865, 40.537344 ], [ -90.673635, 40.559759 ], [ -90.656809, 40.550699 ], [ -90.544487, 40.454792 ], [ -90.619028, 40.381642 ], [ -90.677199, 40.374525 ] ] ] } },
{ "type": "Feature", "properties": { "OBJECTID": 4418, "ID": "0097962702", "NAME": "VIBRA HOSPITAL OF SPRINGFIELD, LLC", "ADDRESS": "701 N. WALNUT STREET", "CITY": "SPRINGFIELD", "STATE": "IL", "ZIP": "62702", "ZIP4": "NOT AVAILABLE", "TELEPHONE": "(217) 528-1217", "TYPE": "LONG TERM CARE", "STATUS": "OPEN", "POPULATION": 50, "COUNTY": "SANGAMON", "COUNTYFIPS": "17167", "COUNTRY": "USA", "LATITUDE": 39.809421532999998, "LONGITUDE": -89.664578165999998, "NAICS_CODE": "622110", "NAICS_DESC": "GENERAL MEDICAL AND SURGICAL HOSPITALS", "SOURCE": "https://data.illinois.gov/", "SOURCEDATE": "2018-08-09T00:00:00.000Z", "VAL_METHOD": "IMAGERY/OTHER", "VAL_DATE": "2016-04-26T00:00:00.000Z", "WEBSITE": "http://www.vhspringfield.com/", "STATE_ID": "NOT AVAILABLE", "ALT_NAME": "NOT AVAILABLE", "ST_FIPS": "17", "OWNER": "NOT AVAILABLE", "TTL_STAFF": -999, "BEDS": 50, "TRAUMA": "NOT AVAILABLE", "HELIPAD": "N" }, "geometry": { "type": "Polygon", "coordinates": [ [ [ -89.6750437, 39.735246900000014 ], [ -89.7061935, 39.744952799999965 ], [ -89.7064757, 39.745048199999985 ], [ -89.7322762, 39.7563732 ], [ -89.7624896, 39.786519299999959 ], [ -89.7727229, 39.8325664 ], [ -89.6736154, 39.912970599999987 ], [ -89.6056429, 39.892268699999967 ], [ -89.6052706, 39.892074799999968 ], [ -89.6048212, 39.891834 ], [ -89.5587397, 39.8232551 ], [ -89.5537853, 39.8024416 ], [ -89.571459500000017, 39.767312399999966 ], [ -89.6445052, 39.737325100000028 ], [ -89.6750437, 39.735246900000014 ] ] ] } },
{ "type": "Feature", "properties": { "OBJECTID": 247, "ID": "0003049098", "NAME": "LAKELAND COMMUNITY HOSPITAL, WATERVLIET", "ADDRESS": "400 MEDICAL PARK DR", "CITY": "WATERVLIET", "STATE": "MI", "ZIP": "49098", "ZIP4": "NOT AVAILABLE", "TELEPHONE": "NOT AVAILABLE", "TYPE": "GENERAL ACUTE CARE", "STATUS": "OPEN", "POPULATION": 38, "COUNTY": "BERRIEN", "COUNTYFIPS": "26021", "COUNTRY": "USA", "LATITUDE": 42.184880464000102, "LONGITUDE": -86.249925826999998, "NAICS_CODE": "622110", "NAICS_DESC": "GENERAL MEDICAL AND SURGICAL HOSPITALS", "SOURCE": "https://w2.lara.state.mi.us/VAL/License/Search", "SOURCEDATE": "2018-08-09T00:00:00.000Z", "VAL_METHOD": "IMAGERY", "VAL_DATE": "2014-03-12T00:00:00.000Z", "WEBSITE": "http://www.lakelandhealth.org/watervliet", "STATE_ID": "NOT AVAILABLE", "ALT_NAME": "NOT AVAILABLE", "ST_FIPS": "26", "OWNER": "NON-PROFIT", "TTL_STAFF": -999, "BEDS": 38, "TRAUMA": "NOT AVAILABLE", "HELIPAD": "Y" }, "geometry": { "type": "Polygon", "coordinates": [ [ [ -86.3892187, 42.120659900000014 ], [ -86.359468, 42.186169 ], [ -86.262424, 42.257895 ], [ -86.16688, 42.229464 ], [ -86.138902, 42.208862 ], [ -86.195537, 42.157096 ], [ -86.2619278, 42.1154985 ], [ -86.3892187, 42.120659900000014 ] ] ] } },
{ "type": "Feature", "properties": { "OBJECTID": 265, "ID": "0009446601", "NAME": "MEMORIAL HOSPITAL OF SOUTH BEND", "ADDRESS": "615 N MICHIGAN ST", "CITY": "SOUTH BEND", "STATE": "IN", "ZIP": "46601", "ZIP4": "NOT AVAILABLE", "TELEPHONE": "(574) 647-1000", "TYPE": "GENERAL ACUTE CARE", "STATUS": "OPEN", "POPULATION": 416, "COUNTY": "ST. JOSEPH", "COUNTYFIPS": "18141", "COUNTRY": "USA", "LATITUDE": 41.684055286000003, "LONGITUDE": -86.25157885, "NAICS_CODE": "622110", "NAICS_DESC": "GENERAL MEDICAL AND SURGICAL HOSPITALS", "SOURCE": "http://www.in.gov/isdh/reports/QAMIS/hosdir", "SOURCEDATE": "2018-08-16T00:00:00.000Z", "VAL_METHOD": "IMAGERY", "VAL_DATE": "2014-03-12T00:00:00.000Z", "WEBSITE": "http://www.qualityoflife.org", "STATE_ID": "17-005053-1", "ALT_NAME": "NOT AVAILABLE", "ST_FIPS": "18", "OWNER": "NON-PROFIT", "TTL_STAFF": -999, "BEDS": 416, "TRAUMA": "LEVEL II", "HELIPAD": "Y" }, "geometry": { "type": "Polygon", "coordinates": [ [ [ -86.26543800375363, 41.604387700434266 ], [ -86.322073356158342, 41.617265581476715 ], [ -86.330865629208162, 41.625158434853311 ], [ -86.374353839767522, 41.671821514535729 ], [ -86.374360439237407, 41.671966013914385 ], [ -86.360857, 41.714467 ], [ -86.341222, 41.737358 ], [ -86.2549437, 41.7746954 ], [ -86.2506989, 41.7746928 ], [ -86.14376, 41.733384 ], [ -86.137901156371996, 41.680378469209316 ], [ -86.149320099370925, 41.663062477149779 ], [ -86.172641132521719, 41.642418628219467 ], [ -86.234691431723235, 41.604767379177524 ], [ -86.26543800375363, 41.604387700434266 ] ] ] } },
{ "type": "Feature", "properties": { "OBJECTID": 396, "ID": "0002962650", "NAME": "PASSAVANT AREA HOSPITAL", "ADDRESS": "1600 W WALNUT ST", "CITY": "JACKSONVILLE", "STATE": "IL", "ZIP": "62650", "ZIP4": "NOT AVAILABLE", "TELEPHONE": "(217) 245-9551", "TYPE": "GENERAL ACUTE CARE", "STATUS": "OPEN", "POPULATION": 108, "COUNTY": "MORGAN", "COUNTYFIPS": "17137", "COUNTRY": "USA", "LATITUDE": 39.746084993000103, "LONGITUDE": -90.260486635999897, "NAICS_CODE": "622110", "NAICS_DESC": "GENERAL MEDICAL AND SURGICAL HOSPITALS", "SOURCE": "https://data.illinois.gov/", "SOURCEDATE": "2018-08-09T00:00:00.000Z", "VAL_METHOD": "IMAGERY", "VAL_DATE": "2014-02-10T00:00:00.000Z", "WEBSITE": "http://www.passavanthospital.com", "STATE_ID": "140058", "ALT_NAME": "NOT AVAILABLE", "ST_FIPS": "17", "OWNER": "NON-PROFIT", "TTL_STAFF": -999, "BEDS": 108, "TRAUMA": "NOT AVAILABLE", "HELIPAD": "Y" }, "geometry": { "type": "Polygon", "coordinates": [ [ [ -90.297405, 39.663160500000011 ], [ -90.341532, 39.701357 ], [ -90.348183, 39.70928 ], [ -90.3994294, 39.770508699999979 ], [ -90.3994166, 39.772210799999961 ], [ -90.277797, 39.819656 ], [ -90.219671, 39.81414 ], [ -90.182401, 39.766773 ], [ -90.167094, 39.737588 ], [ -90.1649715, 39.722993699999975 ], [ -90.228695, 39.672571 ], [ -90.267702, 39.665397 ], [ -90.2900497, 39.6635345 ], [ -90.297405, 39.663160500000011 ] ] ] } },
{ "type": "Feature", "properties": { "OBJECTID": 418, "ID": "0014860942", "NAME": "HOOPESTON COMMUNITY MEMORIAL HOSPITAL", "ADDRESS": "701 EAST ORANGE STREET", "CITY": "HOOPESTON", "STATE": "IL", "ZIP": "60942", "ZIP4": "NOT AVAILABLE", "TELEPHONE": "(217) 283-5531", "TYPE": "CRITICAL ACCESS", "STATUS": "OPEN", "POPULATION": 99, "COUNTY": "VERMILION", "COUNTYFIPS": "17183", "COUNTRY": "USA", "LATITUDE": 40.458689892000102, "LONGITUDE": -87.659733270999894, "NAICS_CODE": "622110", "NAICS_DESC": "GENERAL MEDICAL AND SURGICAL HOSPITALS", "SOURCE": "https://data.illinois.gov/", "SOURCEDATE": "2018-08-09T00:00:00.000Z", "VAL_METHOD": "IMAGERY", "VAL_DATE": "2014-03-12T00:00:00.000Z", "WEBSITE": "http://www.carle.org", "STATE_ID": "141316", "ALT_NAME": "NOT AVAILABLE", "ST_FIPS": "17", "OWNER": "NON-PROFIT", "TTL_STAFF": -999, "BEDS": 99, "TRAUMA": "NOT AVAILABLE", "HELIPAD": "Y" }, "geometry": { "type": "Polygon", "coordinates": [ [ [ -87.6697958, 40.380965 ], [ -87.7813297, 40.458816199999973 ], [ -87.692396, 40.538389 ], [ -87.555058, 40.468376 ], [ -87.5451495, 40.461361 ], [ -87.605357, 40.409559 ], [ -87.6697958, 40.380965 ] ] ] } },
{ "type": "Feature", "properties": { "OBJECTID": 419, "ID": "0004761832", "NAME": "PRESENCE UNITED SAMARITANS MEDCTR-LOGAN", "ADDRESS": "812 N LOGAN", "CITY": "DANVILLE", "STATE": "IL", "ZIP": "61832", "ZIP4": "NOT AVAILABLE", "TELEPHONE": "(217) 443-5000", "TYPE": "GENERAL ACUTE CARE", "STATUS": "OPEN", "POPULATION": 127, "COUNTY": "VERMILION", "COUNTYFIPS": "17183", "COUNTRY": "USA", "LATITUDE": 40.137832453000001, "LONGITUDE": -87.645433243999904, "NAICS_CODE": "622110", "NAICS_DESC": "GENERAL MEDICAL AND SURGICAL HOSPITALS", "SOURCE": "https://data.illinois.gov/", "SOURCEDATE": "2018-08-09T00:00:00.000Z", "VAL_METHOD": "IMAGERY", "VAL_DATE": "2016-04-25T00:00:00.000Z", "WEBSITE": "http://www.presencehealth.org/presence-united-samaritans-medical-center-danville", "STATE_ID": "140093", "ALT_NAME": "NOT AVAILABLE", "ST_FIPS": "17", "OWNER": "NON-PROFIT", "TTL_STAFF": -999, "BEDS": 127, "TRAUMA": "NOT AVAILABLE", "HELIPAD": "Y" }, "geometry": { "type": "Polygon", "coordinates": [ [ [ -87.6385866, 40.0409295 ], [ -87.6398231, 40.041705299999983 ], [ -87.7336499, 40.114859 ], [ -87.748491700000017, 40.1276854 ], [ -87.7205961, 40.159995400000021 ], [ -87.6693285, 40.215660399999969 ], [ -87.641549, 40.222177 ], [ -87.6400015, 40.221330399999935 ], [ -87.6194644, 40.209698600000046 ], [ -87.6130306, 40.2046463 ], [ -87.5107843, 40.1176488 ], [ -87.6374918, 40.041569299999985 ], [ -87.6385866, 40.0409295 ] ] ] } },
{ "type": "Feature", "properties": { "OBJECTID": 475, "ID": "0001261856", "NAME": "KIRBY MEDICAL CENTER", "ADDRESS": "1000 MEDICAL CENTER DRIVE", "CITY": "MONTICELLO", "STATE": "IL", "ZIP": "61856", "ZIP4": "NOT AVAILABLE", "TELEPHONE": "(217) 762-2115", "TYPE": "CRITICAL ACCESS", "STATUS": "OPEN", "POPULATION": 16, "COUNTY": "PIATT", "COUNTYFIPS": "17147", "COUNTRY": "USA", "LATITUDE": 40.06044805, "LONGITUDE": -88.558821703999996, "NAICS_CODE": "622110", "NAICS_DESC": "GENERAL MEDICAL AND SURGICAL HOSPITALS", "SOURCE": "https://data.illinois.gov/", "SOURCEDATE": "2018-08-09T00:00:00.000Z", "VAL_METHOD": "IMAGERY", "VAL_DATE": "2014-02-10T00:00:00.000Z", "WEBSITE": "http://www.kirbyhealth.org", "STATE_ID": "0005785", "ALT_NAME": "NOT AVAILABLE", "ST_FIPS": "17", "OWNER": "NON-PROFIT", "TTL_STAFF": -999, "BEDS": 16, "TRAUMA": "NOT AVAILABLE", "HELIPAD": "Y" }, "geometry": { "type": "Polygon", "coordinates": [ [ [ -88.5748012, 39.988516699999984 ], [ -88.6349469, 40.019345699999967 ], [ -88.6316864, 40.0545295 ], [ -88.6232167, 40.0761975 ], [ -88.5742223, 40.114712 ], [ -88.5586387, 40.1160326 ], [ -88.5105215, 40.1150994 ], [ -88.4886349, 40.105765800000029 ], [ -88.4822738, 40.098392599999976 ], [ -88.5295921, 40.025220599999983 ], [ -88.5748012, 39.988516699999984 ] ] ] } },
{ "type": "Feature", "properties": { "OBJECTID": 476, "ID": "0003561603", "NAME": "SAINT FRANCIS MEDICAL CENTER", "ADDRESS": "530 NE GLEN OAK AVE", "CITY": "PEORIA", "STATE": "IL", "ZIP": "61603", "ZIP4": "NOT AVAILABLE", "TELEPHONE": "(309) 655-2000", "TYPE": "GENERAL ACUTE CARE", "STATUS": "OPEN", "POPULATION": 631, "COUNTY": "PEORIA", "COUNTYFIPS": "17143", "COUNTRY": "USA", "LATITUDE": 40.702746816999998, "LONGITUDE": -89.591965424999998, "NAICS_CODE": "622110", "NAICS_DESC": "GENERAL MEDICAL AND SURGICAL HOSPITALS", "SOURCE": "https://data.illinois.gov/", "SOURCEDATE": "2018-08-09T00:00:00.000Z", "VAL_METHOD": "IMAGERY", "VAL_DATE": "2014-03-12T00:00:00.000Z", "WEBSITE": "http://www.osfsaintfrancis.org", "STATE_ID": "140067", "ALT_NAME": "NOT AVAILABLE", "ST_FIPS": "17", "OWNER": "NON-PROFIT", "TTL_STAFF": -999, "BEDS": 631, "TRAUMA": "LEVEL I, LEVEL I PEDIATRIC", "HELIPAD": "Y" }, "geometry": { "type": "Polygon", "coordinates": [ [ [ -89.654436982961414, 40.625925939592257 ], [ -89.6779606, 40.645167799999975 ], [ -89.7050123, 40.698747 ], [ -89.6799064, 40.778028099999972 ], [ -89.679244, 40.77905430000007 ], [ -89.666883, 40.781538500000018 ], [ -89.6032183, 40.79067730000002 ], [ -89.5050546, 40.752647799999977 ], [ -89.462165, 40.717568299999954 ], [ -89.5336443, 40.633308899999967 ], [ -89.569644767823235, 40.631018739690724 ], [ -89.654436982961414, 40.625925939592257 ] ] ] } },
{ "type": "Feature", "properties": { "OBJECTID": 482, "ID": "0010261603", "NAME": "METHODIST MEDICAL CENTER OF ILLINOIS", "ADDRESS": "221 N E GLEN OAK AVE", "CITY": "PEORIA", "STATE": "IL", "ZIP": "61606", "ZIP4": "NOT AVAILABLE", "TELEPHONE": "(309) 672-5522", "TYPE": "GENERAL ACUTE CARE", "STATUS": "OPEN", "POPULATION": 269, "COUNTY": "PEORIA", "COUNTYFIPS": "17143", "COUNTRY": "USA", "LATITUDE": 40.700305796000102, "LONGITUDE": -89.594916835999996, "NAICS_CODE": "622110", "NAICS_DESC": "GENERAL MEDICAL AND SURGICAL HOSPITALS", "SOURCE": "https://data.illinois.gov/", "SOURCEDATE": "2018-08-09T00:00:00.000Z", "VAL_METHOD": "IMAGERY", "VAL_DATE": "2016-04-26T00:00:00.000Z", "WEBSITE": "http://www.mymethodist.net", "STATE_ID": "140209", "ALT_NAME": "NOT AVAILABLE", "ST_FIPS": "17", "OWNER": "NON-PROFIT", "TTL_STAFF": -999, "BEDS": 269, "TRAUMA": "LEVEL II", "HELIPAD": "Y" }, "geometry": { "type": "Polygon", "coordinates": [ [ [ -89.65812611655798, 40.616445625618034 ], [ -89.6803928, 40.643330900000016 ], [ -89.6815515, 40.645188599999983 ], [ -89.7050123, 40.698747 ], [ -89.7050501, 40.7007701 ], [ -89.6843663, 40.77918110000001 ], [ -89.6791776, 40.782168499999962 ], [ -89.631083600000011, 40.789612599999963 ], [ -89.6043364, 40.792054499999963 ], [ -89.6031698, 40.792120899999986 ], [ -89.6028314, 40.792126099999976 ], [ -89.5085497, 40.748407499999956 ], [ -89.5084084, 40.7483404 ], [ -89.5079264, 40.748106699999965 ], [ -89.4664623, 40.716712799999975 ], [ -89.513169569375023, 40.631084439219215 ], [ -89.540838573731435, 40.626739340006836 ], [ -89.65812611655798, 40.616445625618034 ] ] ] } },
{ "type": "Feature", "properties": { "OBJECTID": 546, "ID": "0007262702", "NAME": "MEMORIAL MEDICAL CENTER", "ADDRESS": "701 N FIRST ST", "CITY": "SPRINGFIELD", "STATE": "IL", "ZIP": "62702", "ZIP4": "NOT AVAILABLE", "TELEPHONE": "(217) 788-3000", "TYPE": "GENERAL ACUTE CARE", "STATUS": "OPEN", "POPULATION": 473, "COUNTY": "SANGAMON", "COUNTYFIPS": "17167", "COUNTRY": "USA", "LATITUDE": 39.80936884, "LONGITUDE": -89.655779101999897, "NAICS_CODE": "622110", "NAICS_DESC": "GENERAL MEDICAL AND SURGICAL HOSPITALS", "SOURCE": "https://data.illinois.gov/", "SOURCEDATE": "2018-08-09T00:00:00.000Z", "VAL_METHOD": "IMAGERY", "VAL_DATE": "2014-03-12T00:00:00.000Z", "WEBSITE": "http://www.memorialmedical.com", "STATE_ID": "140148", "ALT_NAME": "NOT AVAILABLE", "ST_FIPS": "17", "OWNER": "NON-PROFIT", "TTL_STAFF": -999, "BEDS": 473, "TRAUMA": "LEVEL I", "HELIPAD": "Y" }, "geometry": { "type": "Polygon", "coordinates": [ [ [ -89.6444709, 39.735184 ], [ -89.6731741, 39.73929619999997 ], [ -89.7212628, 39.756988 ], [ -89.7536479, 39.786572800000044 ], [ -89.7727229, 39.8325664 ], [ -89.6734097, 39.9035181 ], [ -89.6105823, 39.88471549999997 ], [ -89.5557359, 39.828588300000035 ], [ -89.534862300000015, 39.802561699999949 ], [ -89.571459500000017, 39.767312399999966 ], [ -89.5787073, 39.762414699999951 ], [ -89.6444709, 39.735184 ] ] ] } },
{ "type": "Feature", "properties": { "OBJECTID": 548, "ID": "0004661801", "NAME": "THE CARLE FOUNDATION HOSPITAL", "ADDRESS": "611 WEST PARK STREET", "CITY": "URBANA", "STATE": "IL", "ZIP": "61801", "ZIP4": "NOT AVAILABLE", "TELEPHONE": "(217) 383-3311", "TYPE": "GENERAL ACUTE CARE", "STATUS": "OPEN", "POPULATION": 322, "COUNTY": "CHAMPAIGN", "COUNTYFIPS": "17019", "COUNTRY": "USA", "LATITUDE": 40.117041763000003, "LONGITUDE": -88.214948659999905, "NAICS_CODE": "622110", "NAICS_DESC": "GENERAL MEDICAL AND SURGICAL HOSPITALS", "SOURCE": "https://data.illinois.gov/", "SOURCEDATE": "2018-08-09T00:00:00.000Z", "VAL_METHOD": "IMAGERY", "VAL_DATE": "2016-04-26T00:00:00.000Z", "WEBSITE": "http://www.carle.com/hospital", "STATE_ID": "140091", "ALT_NAME": "NOT AVAILABLE", "ST_FIPS": "17", "OWNER": "NON-PROFIT", "TTL_STAFF": -999, "BEDS": 322, "TRAUMA": "LEVEL I", "HELIPAD": "Y" }, "geometry": { "type": "Polygon", "coordinates": [ [ [ -88.2092, 40.03984 ], [ -88.2539304, 40.047506900000016 ], [ -88.3144628, 40.108818700000043 ], [ -88.318009, 40.113268 ], [ -88.3180395, 40.1146693 ], [ -88.3147022, 40.131514100000011 ], [ -88.296618, 40.159948 ], [ -88.258473, 40.185652 ], [ -88.1824653, 40.2035322 ], [ -88.1822814, 40.203533299999968 ], [ -88.039374, 40.120222 ], [ -88.036959, 40.116828 ], [ -88.0391336, 40.113160299999969 ], [ -88.041683, 40.111422 ], [ -88.2092, 40.03984 ] ] ] } },
{ "type": "Feature", "properties": { "OBJECTID": 561, "ID": "0014662644", "NAME": "MASON DISTRICT HOSPITAL", "ADDRESS": "615 NORTH PROMENADE STREET, P O BOX 530", "CITY": "HAVANA", "STATE": "IL", "ZIP": "62644", "ZIP4": "NOT AVAILABLE", "TELEPHONE": "(309) 543-4431", "TYPE": "CRITICAL ACCESS", "STATUS": "OPEN", "POPULATION": 20, "COUNTY": "MASON", "COUNTYFIPS": "17125", "COUNTRY": "USA", "LATITUDE": 40.305423138000002, "LONGITUDE": -90.054090695999903, "NAICS_CODE": "622110", "NAICS_DESC": "GENERAL MEDICAL AND SURGICAL HOSPITALS", "SOURCE": "https://data.illinois.gov/", "SOURCEDATE": "2018-08-09T00:00:00.000Z", "VAL_METHOD": "IMAGERY", "VAL_DATE": "2014-03-12T00:00:00.000Z", "WEBSITE": "http://www.masondistricthospital.org", "STATE_ID": "141313", "ALT_NAME": "NOT AVAILABLE", "ST_FIPS": "17", "OWNER": "GOVERNMENT - DISTRICT/AUTHORITY", "TTL_STAFF": -999, "BEDS": 20, "TRAUMA": "NOT AVAILABLE", "HELIPAD": "Y" }, "geometry": { "type": "Polygon", "coordinates": [ [ [ -90.113359, 40.233277 ], [ -90.11341, 40.235068 ], [ -90.055071, 40.321301 ], [ -90.045482, 40.332856 ], [ -90.04519, 40.3332 ], [ -90.036825, 40.341825 ], [ -90.030396, 40.347488 ], [ -90.022504, 40.3526771 ], [ -89.998622, 40.341581 ], [ -89.941776, 40.297425 ], [ -90.003344, 40.231946 ], [ -90.008779, 40.231915 ], [ -90.113359, 40.233277 ] ] ] } },
{ "type": "Feature", "properties": { "OBJECTID": 570, "ID": "0007961701", "NAME": "ST JOSEPH MEDICAL CENTER", "ADDRESS": "2200 E WASHINGTON", "CITY": "BLOOMINGTON", "STATE": "IL", "ZIP": "61701", "ZIP4": "NOT AVAILABLE", "TELEPHONE": "(309) 662-3311", "TYPE": "GENERAL ACUTE CARE", "STATUS": "OPEN", "POPULATION": -999, "COUNTY": "MCLEAN", "COUNTYFIPS": "17113", "COUNTRY": "USA", "LATITUDE": 40.482676588000103, "LONGITUDE": -88.955562196000002, "NAICS_CODE": "622110", "NAICS_DESC": "GENERAL MEDICAL AND SURGICAL HOSPITALS", "SOURCE": "https://data.illinois.gov/", "SOURCEDATE": "2018-08-09T00:00:00.000Z", "VAL_METHOD": "IMAGERY", "VAL_DATE": "2014-03-12T00:00:00.000Z", "WEBSITE": "http://www.osfstjoseph.org/", "STATE_ID": "140162", "ALT_NAME": "NOT AVAILABLE", "ST_FIPS": "17", "OWNER": "NON-PROFIT", "TTL_STAFF": -999, "BEDS": -999, "TRAUMA": "LEVEL II", "HELIPAD": "Y" }, "geometry": { "type": "Polygon", "coordinates": [ [ [ -88.989955281265907, 40.400673489445992 ], [ -88.990207279453841, 40.400689489040474 ], [ -89.051884262686841, 40.412335502861609 ], [ -89.060375443264405, 40.458782649201609 ], [ -89.059567234256619, 40.494996365133652 ], [ -89.018674404627674, 40.539319237903555 ], [ -88.944752696590967, 40.576567806917481 ], [ -88.903235997583536, 40.576281132333108 ], [ -88.902710001362124, 40.576269132639609 ], [ -88.896101048053495, 40.575935136136472 ], [ -88.859635041267254, 40.497594032580487 ], [ -88.863599767602253, 40.458186102352045 ], [ -88.887681970453983, 40.410421708442193 ], [ -88.88918996083828, 40.409874703955616 ], [ -88.989955281265907, 40.400673489445992 ] ] ] } },
{ "type": "Feature", "properties": { "OBJECTID": 571, "ID": "0006762526", "NAME": "DECATUR MEMORIAL HOSPITAL", "ADDRESS": "2300 NORTH EDWARD STREET", "CITY": "DECATUR", "STATE": "IL", "ZIP": "62526", "ZIP4": "NOT AVAILABLE", "TELEPHONE": "(217) 877-8121", "TYPE": "GENERAL ACUTE CARE", "STATUS": "OPEN", "POPULATION": 188, "COUNTY": "MACON", "COUNTYFIPS": "17115", "COUNTRY": "USA", "LATITUDE": 39.867253398000102, "LONGITUDE": -88.960982947000005, "NAICS_CODE": "622110", "NAICS_DESC": "GENERAL MEDICAL AND SURGICAL HOSPITALS", "SOURCE": "https://data.illinois.gov/", "SOURCEDATE": "2018-08-09T00:00:00.000Z", "VAL_METHOD": "IMAGERY/OTHER", "VAL_DATE": "2014-03-12T00:00:00.000Z", "WEBSITE": "http://www.dmhcares.org", "STATE_ID": "140135", "ALT_NAME": "NOT AVAILABLE", "ST_FIPS": "17", "OWNER": "NON-PROFIT", "TTL_STAFF": -999, "BEDS": 188, "TRAUMA": "LEVEL II", "HELIPAD": "Y" }, "geometry": { "type": "Polygon", "coordinates": [ [ [ -88.984187855835955, 39.761933780889912 ], [ -88.999790347204708, 39.778338932891948 ], [ -89.055234537946717, 39.83721581076049 ], [ -89.047964481432857, 39.921757622453029 ], [ -88.956291600395275, 39.964227039513084 ], [ -88.956030400529514, 39.964221939958762 ], [ -88.874692770101078, 39.915391316965966 ], [ -88.864815293739156, 39.850025293976131 ], [ -88.86476709123923, 39.849595394472111 ], [ -88.868813813472826, 39.818791009675152 ], [ -88.878075681755433, 39.812814688085339 ], [ -88.984187855835955, 39.761933780889912 ] ] ] } },
{ "type": "Feature", "properties": { "OBJECTID": 573, "ID": "0006461761", "NAME": "BROMENN HEALTHCARE", "ADDRESS": "1304 FRANKLIN AVENUE", "CITY": "NORMAL", "STATE": "IL", "ZIP": "61761", "ZIP4": "NOT AVAILABLE", "TELEPHONE": "(309) 454-1400", "TYPE": "GENERAL ACUTE CARE", "STATUS": "OPEN", "POPULATION": 200, "COUNTY": "MCLEAN", "COUNTYFIPS": "17113", "COUNTRY": "USA", "LATITUDE": 40.496970978999997, "LONGITUDE": -88.990850001999902, "NAICS_CODE": "622110", "NAICS_DESC": "GENERAL MEDICAL AND SURGICAL HOSPITALS", "SOURCE": "https://data.illinois.gov/", "SOURCEDATE": "2018-08-09T00:00:00.000Z", "VAL_METHOD": "IMAGERY", "VAL_DATE": "2016-04-26T00:00:00.000Z", "WEBSITE": "www.advocatehealth.com/bromenn", "STATE_ID": "140127", "ALT_NAME": "NOT AVAILABLE", "ST_FIPS": "17", "OWNER": "NON-PROFIT", "TTL_STAFF": -999, "BEDS": 200, "TRAUMA": "LEVEL II", "HELIPAD": "Y" }, "geometry": { "type": "Polygon", "coordinates": [ [ [ -89.051884262686841, 40.412335502861609 ], [ -89.096911891019573, 40.487393815844747 ], [ -89.097203288856264, 40.488913820132289 ], [ -89.070824267098644, 40.540343900663267 ], [ -89.000600455722889, 40.600856149993575 ], [ -88.984435496910905, 40.59079212523789 ], [ -88.944599216750447, 40.561669668761006 ], [ -88.925092591689122, 40.547086750299925 ], [ -88.896508585822147, 40.517255718385414 ], [ -88.883424836293131, 40.502482008396861 ], [ -88.902104231375333, 40.469151174437378 ], [ -88.932450584657175, 40.43328170457454 ], [ -88.951547461603511, 40.426715649007512 ], [ -88.989839209404224, 40.418581553067376 ], [ -89.051884262686841, 40.412335502861609 ] ] ] } },
{ "type": "Feature", "properties": { "OBJECTID": 630, "ID": "0016562681", "NAME": "SARAH D CULBERTSON MEMORIAL HOSPITAL", "ADDRESS": "238 SOUTH CONGRESS STREET", "CITY": "RUSHVILLE", "STATE": "IL", "ZIP": "62681", "ZIP4": "NOT AVAILABLE", "TELEPHONE": "(217) 322-4321", "TYPE": "CRITICAL ACCESS", "STATUS": "OPEN", "POPULATION": 46, "COUNTY": "SCHUYLER", "COUNTYFIPS": "17169", "COUNTRY": "USA", "LATITUDE": 40.118162796999997, "LONGITUDE": -90.5643155, "NAICS_CODE": "622110", "NAICS_DESC": "GENERAL MEDICAL AND SURGICAL HOSPITALS", "SOURCE": "https://data.illinois.gov/", "SOURCEDATE": "2018-08-09T00:00:00.000Z", "VAL_METHOD": "IMAGERY", "VAL_DATE": "2014-01-21T00:00:00.000Z", "WEBSITE": "http://www.cmhospital.com", "STATE_ID": "141333", "ALT_NAME": "NOT AVAILABLE", "ST_FIPS": "17", "OWNER": "GOVERNMENT - DISTRICT/AUTHORITY", "TTL_STAFF": -999, "BEDS": 46, "TRAUMA": "NOT AVAILABLE", "HELIPAD": "N" }, "geometry": { "type": "Polygon", "coordinates": [ [ [ -90.572329, 40.040034 ], [ -90.615243, 40.044506 ], [ -90.6642195, 40.088324099999987 ], [ -90.6643126, 40.089033299999983 ], [ -90.6670596, 40.139392 ], [ -90.593715, 40.234379799999985 ], [ -90.593332, 40.234378 ], [ -90.497738400000017, 40.177669599999952 ], [ -90.481084, 40.153409 ], [ -90.471983, 40.110207 ], [ -90.47084, 40.053777 ], [ -90.491704, 40.043211 ], [ -90.572329, 40.040034 ] ] ] } },
{ "type": "Feature", "properties": { "OBJECTID": 631, "ID": "0015462812", "NAME": "ABRAHAM LINCOLN MEMORIAL HOSPITAL", "ADDRESS": "200 STAHLHUT DRIVE", "CITY": "LINCOLN", "STATE": "IL", "ZIP": "62656", "ZIP4": "NOT AVAILABLE", "TELEPHONE": "(217) 732-2161", "TYPE": "CRITICAL ACCESS", "STATUS": "OPEN", "POPULATION": 25, "COUNTY": "LOGAN", "COUNTYFIPS": "17107", "COUNTRY": "USA", "LATITUDE": 40.153786502000102, "LONGITUDE": -89.389893552999993, "NAICS_CODE": "622110", "NAICS_DESC": "GENERAL MEDICAL AND SURGICAL HOSPITALS", "SOURCE": "https://data.illinois.gov/", "SOURCEDATE": "2018-08-09T00:00:00.000Z", "VAL_METHOD": "IMAGERY", "VAL_DATE": "2014-03-12T00:00:00.000Z", "WEBSITE": "http://www.almh.org", "STATE_ID": "141322", "ALT_NAME": "NOT AVAILABLE", "ST_FIPS": "17", "OWNER": "NON-PROFIT", "TTL_STAFF": -999, "BEDS": 25, "TRAUMA": "NOT AVAILABLE", "HELIPAD": "Y" }, "geometry": { "type": "Polygon", "coordinates": [ [ [ -89.4380045, 40.06368269999998 ], [ -89.444810500000017, 40.0647543 ], [ -89.447682, 40.067109 ], [ -89.4712534, 40.1049682 ], [ -89.485571, 40.165155199999958 ], [ -89.4855798, 40.1653604 ], [ -89.485652, 40.1702 ], [ -89.485779, 40.179913 ], [ -89.4646117, 40.249417600000022 ], [ -89.46097, 40.251795 ], [ -89.393944, 40.235682 ], [ -89.361055, 40.22295 ], [ -89.3055053, 40.200977 ], [ -89.3029224, 40.199715399999981 ], [ -89.285243, 40.179026 ], [ -89.282254, 40.149898 ], [ -89.310644, 40.106582 ], [ -89.317643, 40.099371 ], [ -89.404681, 40.066854 ], [ -89.4380045, 40.06368269999998 ] ] ] } },
{ "type": "Feature", "properties": { "OBJECTID": 7148, "ID": "0002461832", "NAME": "VETERANS AFFAIRS ILLIANA HEALTH CARE SYSTEM", "ADDRESS": "1900 E. MAIN", "CITY": "DANVILLE", "STATE": "IL", "ZIP": "61832", "ZIP4": "NOT AVAILABLE", "TELEPHONE": "(217) 554-3000", "TYPE": "MILITARY", "STATUS": "OPEN", "POPULATION": 221, "COUNTY": "VERMILION", "COUNTYFIPS": "17183", "COUNTRY": "USA", "LATITUDE": 40.123271713000101, "LONGITUDE": -87.586953131000001, "NAICS_CODE": "622110", "NAICS_DESC": "GENERAL MEDICAL AND SURGICAL HOSPITALS", "SOURCE": "https://data.illinois.gov/", "SOURCEDATE": "2018-08-09T00:00:00.000Z", "VAL_METHOD": "IMAGERY/OTHER", "VAL_DATE": "2014-03-12T00:00:00.000Z", "WEBSITE": "http://www.danville.va.gov/", "STATE_ID": "14004F", "ALT_NAME": "NOT AVAILABLE", "ST_FIPS": "17", "OWNER": "GOVERNMENT - FEDERAL", "TTL_STAFF": -999, "BEDS": 221, "TRAUMA": "NOT AVAILABLE", "HELIPAD": "Y" }, "geometry": { "type": "Polygon", "coordinates": [ [ [ -87.6348878, 40.072478900000021 ], [ -87.672557, 40.094339 ], [ -87.7062006, 40.121391599999988 ], [ -87.709208, 40.124442700000039 ], [ -87.7092764, 40.12456879999997 ], [ -87.6300471, 40.1766723 ], [ -87.6033388, 40.175642300000014 ], [ -87.5598431, 40.162412400000029 ], [ -87.5006797, 40.1178004 ], [ -87.5543404, 40.096246 ], [ -87.6348878, 40.072478900000021 ] ] ] } },
{ "type": "Feature", "properties": { "OBJECTID": 7190, "ID": "0000961605", "NAME": "GREATER PEORIA SPECIALTY HOSPITAL LLC - DBA KINDRED HOSPITAL PEORIA", "ADDRESS": "500 WEST ROMEO B GARRETT AVENUE", "CITY": "PEORIA", "STATE": "IL", "ZIP": "61605", "ZIP4": "NOT AVAILABLE", "TELEPHONE": "(309) 680-1500", "TYPE": "LONG TERM CARE", "STATUS": "OPEN", "POPULATION": 50, "COUNTY": "PEORIA", "COUNTYFIPS": "17143", "COUNTRY": "USA", "LATITUDE": 40.692888623999998, "LONGITUDE": -89.600729650999895, "NAICS_CODE": "622110", "NAICS_DESC": "GENERAL MEDICAL AND SURGICAL HOSPITALS", "SOURCE": "https://data.illinois.gov/", "SOURCEDATE": "2018-08-09T00:00:00.000Z", "VAL_METHOD": "IMAGERY", "VAL_DATE": "2014-02-10T00:00:00.000Z", "WEBSITE": "http://www.khpeoria.com/", "STATE_ID": "0005777", "ALT_NAME": "NOT AVAILABLE", "ST_FIPS": "17", "OWNER": "PROPRIETARY", "TTL_STAFF": -999, "BEDS": 50, "TRAUMA": "NOT AVAILABLE", "HELIPAD": "N" }, "geometry": { "type": "Polygon", "coordinates": [ [ [ -89.6640483, 40.605237 ], [ -89.685636536316025, 40.637971330277999 ], [ -89.7181957, 40.691778200000016 ], [ -89.6694902, 40.7740683 ], [ -89.6682595, 40.774688099999985 ], [ -89.6568972, 40.77626410000002 ], [ -89.602496, 40.77956829999998 ], [ -89.5738555, 40.772616800000058 ], [ -89.5125149, 40.743957199999976 ], [ -89.5119763, 40.743643099999979 ], [ -89.4745324, 40.71602950000004 ], [ -89.4739352, 40.715262399999965 ], [ -89.49012430179306, 40.621957094918976 ], [ -89.6640483, 40.605237 ] ] ] } },
{ "type": "Feature", "properties": { "OBJECTID": 7191, "ID": "0000861614", "NAME": "PROCTOR HOSPITAL", "ADDRESS": "5409 N KNOXVILLE AVE", "CITY": "PEORIA", "STATE": "IL", "ZIP": "61614", "ZIP4": "NOT AVAILABLE", "TELEPHONE": "(309) 691-1000", "TYPE": "GENERAL ACUTE CARE", "STATUS": "OPEN", "POPULATION": 172, "COUNTY": "PEORIA", "COUNTYFIPS": "17143", "COUNTRY": "USA", "LATITUDE": 40.752968051000003, "LONGITUDE": -89.597865557999995, "NAICS_CODE": "622110", "NAICS_DESC": "GENERAL MEDICAL AND SURGICAL HOSPITALS", "SOURCE": "https://data.illinois.gov/", "SOURCEDATE": "2018-08-09T00:00:00.000Z", "VAL_METHOD": "IMAGERY", "VAL_DATE": "2014-03-12T00:00:00.000Z", "WEBSITE": "http://www.proctor.org", "STATE_ID": "140013", "ALT_NAME": "NOT AVAILABLE", "ST_FIPS": "17", "OWNER": "NON-PROFIT", "TTL_STAFF": -999, "BEDS": 172, "TRAUMA": "NOT AVAILABLE", "HELIPAD": "Y" }, "geometry": { "type": "Polygon", "coordinates": [ [ [ -89.5856774, 40.665402300000039 ], [ -89.6232971, 40.667865499999969 ], [ -89.6760188, 40.699248300000065 ], [ -89.7082913, 40.782986 ], [ -89.620044, 40.839084 ], [ -89.6193443, 40.839209100000048 ], [ -89.5571887, 40.83096050000001 ], [ -89.4790972, 40.715889900000022 ], [ -89.5856774, 40.665402300000039 ] ] ] } },
{ "type": "Feature", "properties": { "OBJECTID": 7220, "ID": "0006061554", "NAME": "PEKIN MEMORIAL HOSPITAL", "ADDRESS": "600 SOUTH 13TH STREET", "CITY": "PEKIN", "STATE": "IL", "ZIP": "61554", "ZIP4": "NOT AVAILABLE", "TELEPHONE": "(309) 347-1151", "TYPE": "GENERAL ACUTE CARE", "STATUS": "OPEN", "POPULATION": 125, "COUNTY": "TAZEWELL", "COUNTYFIPS": "17179", "COUNTRY": "USA", "LATITUDE": 40.563128601000102, "LONGITUDE": -89.632472848999996, "NAICS_CODE": "622110", "NAICS_DESC": "GENERAL MEDICAL AND SURGICAL HOSPITALS", "SOURCE": "https://data.illinois.gov/", "SOURCEDATE": "2018-08-09T00:00:00.000Z", "VAL_METHOD": "IMAGERY", "VAL_DATE": "2014-02-10T00:00:00.000Z", "WEBSITE": "http://www.pekinhospital.org", "STATE_ID": "140120", "ALT_NAME": "NOT AVAILABLE", "ST_FIPS": "17", "OWNER": "NON-PROFIT", "TTL_STAFF": -999, "BEDS": 125, "TRAUMA": "NOT AVAILABLE", "HELIPAD": "N" }, "geometry": { "type": "Polygon", "coordinates": [ [ [ -89.6397063, 40.48013329999997 ], [ -89.663787, 40.491185 ], [ -89.7125113, 40.5370571 ], [ -89.624252264275157, 40.631724346906331 ], [ -89.6050387, 40.645994299999984 ], [ -89.600003, 40.646793200000012 ], [ -89.5977772, 40.647009699999956 ], [ -89.5332897, 40.595857 ], [ -89.5321135, 40.594504 ], [ -89.494476, 40.527657599999962 ], [ -89.6064296, 40.480528 ], [ -89.6094379, 40.480477099999938 ], [ -89.6397063, 40.48013329999997 ] ] ] } },
{ "type": "Feature", "properties": { "OBJECTID": 7553, "ID": "0015946804", "NAME": "THE ORTHOPAEDIC HOSPITAL OF LUTHERAN HEALTH NETWOR", "ADDRESS": "7952 W JEFFERSON BLVD", "CITY": "FORT WAYNE", "STATE": "IN", "ZIP": "46804", "ZIP4": "NOT AVAILABLE", "TELEPHONE": "(260) 435-2999", "TYPE": "GENERAL ACUTE CARE", "STATUS": "OPEN", "POPULATION": 43, "COUNTY": "ALLEN", "COUNTYFIPS": "18003", "COUNTRY": "USA", "LATITUDE": 41.04028484, "LONGITUDE": -85.239125427999994, "NAICS_CODE": "622110", "NAICS_DESC": "GENERAL MEDICAL AND SURGICAL HOSPITALS", "SOURCE": "http://www.in.gov/isdh/reports/QAMIS/hosdir", "SOURCEDATE": "2018-08-16T00:00:00.000Z", "VAL_METHOD": "IMAGERY/OTHER", "VAL_DATE": "2014-01-22T00:00:00.000Z", "WEBSITE": "http://www.theorthohospital.com", "STATE_ID": "17-011479-1", "ALT_NAME": "NOT AVAILABLE", "ST_FIPS": "18", "OWNER": "PROPRIETARY", "TTL_STAFF": -999, "BEDS": 43, "TRAUMA": "NOT AVAILABLE", "HELIPAD": "N" }, "geometry": { "type": "Polygon", "coordinates": [ [ [ -85.2643943, 40.945851200000043 ], [ -85.345221, 40.960503 ], [ -85.346163, 40.997925 ], [ -85.3448804, 41.014161699999981 ], [ -85.3382305, 41.0487607 ], [ -85.33643720000002, 41.052940199999988 ], [ -85.3316984, 41.0597529 ], [ -85.2669682, 41.103721899999989 ], [ -85.1995712, 41.133147300000019 ], [ -85.1530416, 41.130253700000019 ], [ -85.1351033, 41.081152300000042 ], [ -85.133954, 41.076962800000068 ], [ -85.1373687, 41.050077800000018 ], [ -85.1482701, 41.024715600000029 ], [ -85.1832408, 40.999152099999975 ], [ -85.2621582, 40.94582680000002 ], [ -85.2643943, 40.945851200000043 ] ] ] } },
{ "type": "Feature", "properties": { "OBJECTID": 5022, "ID": "0013049093", "NAME": "THREE RIVERS HEALTH", "ADDRESS": "701 S HEALTH PARKWAY", "CITY": "THREE RIVERS", "STATE": "MI", "ZIP": "49093", "ZIP4": "NOT AVAILABLE", "TELEPHONE": "NOT AVAILABLE", "TYPE": "GENERAL ACUTE CARE", "STATUS": "OPEN", "POPULATION": 60, "COUNTY": "ST. JOSEPH", "COUNTYFIPS": "26149", "COUNTRY": "USA", "LATITUDE": 41.935407665000099, "LONGITUDE": -85.647925611999895, "NAICS_CODE": "622110", "NAICS_DESC": "GENERAL MEDICAL AND SURGICAL HOSPITALS", "SOURCE": "https://w2.lara.state.mi.us/VAL/License/Search", "SOURCEDATE": "2018-08-09T00:00:00.000Z", "VAL_METHOD": "IMAGERY", "VAL_DATE": "2014-01-30T00:00:00.000Z", "WEBSITE": "http://www.threerivershealth.org", "STATE_ID": "NOT AVAILABLE", "ALT_NAME": "NOT AVAILABLE", "ST_FIPS": "26", "OWNER": "GOVERNMENT - DISTRICT/AUTHORITY", "TTL_STAFF": -999, "BEDS": 60, "TRAUMA": "NOT AVAILABLE", "HELIPAD": "Y" }, "geometry": { "type": "Polygon", "coordinates": [ [ [ -85.6710544, 41.823179899999964 ], [ -85.6842258, 41.826283799999985 ], [ -85.7466986, 41.910520500000047 ], [ -85.746783500000021, 41.924231199999973 ], [ -85.730972, 41.954376 ], [ -85.717077, 41.968738 ], [ -85.6357981, 42.049413199999954 ], [ -85.6355757, 42.049414899999952 ], [ -85.582873, 41.998519 ], [ -85.567003, 41.980436 ], [ -85.555511, 41.96493 ], [ -85.5330561, 41.9224595 ], [ -85.6710544, 41.823179899999964 ] ] ] } },
{ "type": "Feature", "properties": { "OBJECTID": 5030, "ID": "0003249102", "NAME": "LAKELAND SPECIALTY HOSPITAL AT BERRIEN CENTER", "ADDRESS": "6418 DEANS HILL RD", "CITY": "BERRIEN CENTER", "STATE": "MI", "ZIP": "49102", "ZIP4": "NOT AVAILABLE", "TELEPHONE": "NOT AVAILABLE", "TYPE": "LONG TERM CARE", "STATUS": "OPEN", "POPULATION": 183, "COUNTY": "BERRIEN", "COUNTYFIPS": "26021", "COUNTRY": "USA", "LATITUDE": 41.955457562, "LONGITUDE": -86.3010967499999, "NAICS_CODE": "622310", "NAICS_DESC": "SPECIALTY (EXCEPT PSYCHIATRIC AND SUBSTANCE ABUSE) HOSPITALS", "SOURCE": "https://w2.lara.state.mi.us/VAL/License/Search", "SOURCEDATE": "2018-08-09T00:00:00.000Z", "VAL_METHOD": "IMAGERY", "VAL_DATE": "2014-02-10T00:00:00.000Z", "WEBSITE": "http://www.lakelandhealth.org", "STATE_ID": "NOT AVAILABLE", "ALT_NAME": "NOT AVAILABLE", "ST_FIPS": "26", "OWNER": "NON-PROFIT", "TTL_STAFF": -999, "BEDS": 183, "TRAUMA": "NOT AVAILABLE", "HELIPAD": "N" }, "geometry": { "type": "Polygon", "coordinates": [ [ [ -86.281035, 41.870828 ], [ -86.2921473, 41.872435300000056 ], [ -86.339899, 41.885929 ], [ -86.381672, 41.913947 ], [ -86.4235887, 41.94312630000001 ], [ -86.3961737, 41.992448100000018 ], [ -86.339332, 42.021858 ], [ -86.300471, 42.02874 ], [ -86.2614482, 42.013882899999963 ], [ -86.222818, 41.986389 ], [ -86.2185883, 41.98171109999997 ], [ -86.2092115, 41.970882 ], [ -86.214263, 41.927589 ], [ -86.281035, 41.870828 ] ] ] } },
{ "type": "Feature", "properties": { "OBJECTID": 5248, "ID": "0014960936", "NAME": "GIBSON COMMUNITY HOSPITAL", "ADDRESS": "1120 N MELVIN STREET", "CITY": "GIBSON CITY", "STATE": "IL", "ZIP": "60936", "ZIP4": "NOT AVAILABLE", "TELEPHONE": "(217) 784-4251", "TYPE": "CRITICAL ACCESS", "STATUS": "OPEN", "POPULATION": 67, "COUNTY": "FORD", "COUNTYFIPS": "17053", "COUNTRY": "USA", "LATITUDE": 40.478366976000103, "LONGITUDE": -88.370264992000003, "NAICS_CODE": "622110", "NAICS_DESC": "GENERAL MEDICAL AND SURGICAL HOSPITALS", "SOURCE": "https://data.illinois.gov/", "SOURCEDATE": "2018-08-09T00:00:00.000Z", "VAL_METHOD": "IMAGERY", "VAL_DATE": "2014-03-12T00:00:00.000Z", "WEBSITE": "http://www.gibsonhospital.org", "STATE_ID": "141317", "ALT_NAME": "NOT AVAILABLE", "ST_FIPS": "17", "OWNER": "NON-PROFIT", "TTL_STAFF": -999, "BEDS": 67, "TRAUMA": "NOT AVAILABLE", "HELIPAD": "Y" }, "geometry": { "type": "Polygon", "coordinates": [ [ [ -88.375585, 40.403885 ], [ -88.4421774, 40.410347900000033 ], [ -88.4593436, 40.465548299999959 ], [ -88.461174, 40.471734 ], [ -88.459227, 40.486243 ], [ -88.38505, 40.55892 ], [ -88.328963, 40.544568 ], [ -88.290967, 40.534567 ], [ -88.2710045, 40.472056300000013 ], [ -88.270439, 40.469883 ], [ -88.27046, 40.467327 ], [ -88.2720364, 40.4654947 ], [ -88.329137, 40.427726 ], [ -88.375585, 40.403885 ] ] ] } },
{ "type": "Feature", "properties": { "OBJECTID": 5249, "ID": "0000161520", "NAME": "GRAHAM HOSPITAL ASSOCIATION", "ADDRESS": "210 WEST WALNUT STREET", "CITY": "CANTON", "STATE": "IL", "ZIP": "61520", "ZIP4": "NOT AVAILABLE", "TELEPHONE": "(309) 647-5240", "TYPE": "GENERAL ACUTE CARE", "STATUS": "OPEN", "POPULATION": 93, "COUNTY": "FULTON", "COUNTYFIPS": "17057", "COUNTRY": "USA", "LATITUDE": 40.552669086999998, "LONGITUDE": -90.038829973999995, "NAICS_CODE": "622110", "NAICS_DESC": "GENERAL MEDICAL AND SURGICAL HOSPITALS", "SOURCE": "https://data.illinois.gov/", "SOURCEDATE": "2018-08-09T00:00:00.000Z", "VAL_METHOD": "IMAGERY", "VAL_DATE": "2014-03-12T00:00:00.000Z", "WEBSITE": "http://www.grahamhospital.org", "STATE_ID": "140001", "ALT_NAME": "NOT AVAILABLE", "ST_FIPS": "17", "OWNER": "NON-PROFIT", "TTL_STAFF": -999, "BEDS": 93, "TRAUMA": "NOT AVAILABLE", "HELIPAD": "Y" }, "geometry": { "type": "Polygon", "coordinates": [ [ [ -90.030068, 40.473397 ], [ -90.0582273, 40.486336599999959 ], [ -90.107029, 40.524138 ], [ -90.141875, 40.560343 ], [ -90.031390403756006, 40.640252050892741 ], [ -89.939331, 40.567974 ], [ -89.939201, 40.567398 ], [ -89.944729, 40.542897 ], [ -90.030068, 40.473397 ] ] ] } },
{ "type": "Feature", "properties": { "OBJECTID": 5269, "ID": "0013861727", "NAME": "DR JOHN WARNER HOSPITAL", "ADDRESS": "422 W WHITE ST", "CITY": "CLINTON", "STATE": "IL", "ZIP": "61727", "ZIP4": "NOT AVAILABLE", "TELEPHONE": "(217) 935-9571", "TYPE": "CRITICAL ACCESS", "STATUS": "OPEN", "POPULATION": 25, "COUNTY": "DE WITT", "COUNTYFIPS": "17039", "COUNTRY": "USA", "LATITUDE": 40.148417520000102, "LONGITUDE": -88.964608206999998, "NAICS_CODE": "622110", "NAICS_DESC": "GENERAL MEDICAL AND SURGICAL HOSPITALS", "SOURCE": "https://data.illinois.gov/", "SOURCEDATE": "2018-08-09T00:00:00.000Z", "VAL_METHOD": "IMAGERY", "VAL_DATE": "2014-02-10T00:00:00.000Z", "WEBSITE": "http://www.djwhospital.org", "STATE_ID": "141303", "ALT_NAME": "NOT AVAILABLE", "ST_FIPS": "17", "OWNER": "GOVERNMENT - LOCAL", "TTL_STAFF": -999, "BEDS": 25, "TRAUMA": "NOT AVAILABLE", "HELIPAD": "N" }, "geometry": { "type": "Polygon", "coordinates": [ [ [ -88.958773668601367, 40.028257954297672 ], [ -89.068682880269847, 40.10591589633929 ], [ -89.085865380213093, 40.152076689378411 ], [ -88.977096888088383, 40.264639036720801 ], [ -88.976289888501029, 40.265433041318559 ], [ -88.974390299540943, 40.264645142844749 ], [ -88.865790090382063, 40.17814990278584 ], [ -88.855462908971944, 40.127541683569362 ], [ -88.958520969366958, 40.028417255382756 ], [ -88.958773668601367, 40.028257954297672 ] ] ] } },
{ "type": "Feature", "properties": { "OBJECTID": 5279, "ID": "0002762703", "NAME": "ST JOHNS HOSPITAL", "ADDRESS": "800 E CARPENTER ST", "CITY": "SPRINGFIELD", "STATE": "IL", "ZIP": "62702", "ZIP4": "NOT AVAILABLE", "TELEPHONE": "(217) 544-6464", "TYPE": "GENERAL ACUTE CARE", "STATUS": "OPEN", "POPULATION": 434, "COUNTY": "SANGAMON", "COUNTYFIPS": "17167", "COUNTRY": "USA", "LATITUDE": 39.805439016000001, "LONGITUDE": -89.644008037999996, "NAICS_CODE": "622110", "NAICS_DESC": "GENERAL MEDICAL AND SURGICAL HOSPITALS", "SOURCE": "https://data.illinois.gov/", "SOURCEDATE": "2018-08-09T00:00:00.000Z", "VAL_METHOD": "IMAGERY", "VAL_DATE": "2014-03-12T00:00:00.000Z", "WEBSITE": "www.st-johns.org", "STATE_ID": "140053", "ALT_NAME": "NOT AVAILABLE", "ST_FIPS": "17", "OWNER": "NON-PROFIT", "TTL_STAFF": -999, "BEDS": 434, "TRAUMA": "LEVEL I, LEVEL II PEDIATRIC", "HELIPAD": "Y" }, "geometry": { "type": "Polygon", "coordinates": [ [ [ -89.6439033, 39.708909400000017 ], [ -89.7142955, 39.760781 ], [ -89.7390388, 39.7866431 ], [ -89.7481053, 39.8011124 ], [ -89.7585261, 39.8286807 ], [ -89.6719797, 39.870275 ], [ -89.608528, 39.8886756 ], [ -89.520221, 39.846149 ], [ -89.5153782, 39.837679900000012 ], [ -89.5044795, 39.802734299999976 ], [ -89.5384648, 39.750609800000014 ], [ -89.5385474, 39.750516200000021 ], [ -89.5388386, 39.750239899999983 ], [ -89.6439033, 39.708909400000017 ] ] ] } },
{ "type": "Feature", "properties": { "OBJECTID": 5292, "ID": "0007861764", "NAME": "SAINT JAMES HOSPITAL", "ADDRESS": "2500 WEST REYNOLDS STREET", "CITY": "PONTIAC", "STATE": "IL", "ZIP": "61764", "ZIP4": "NOT AVAILABLE", "TELEPHONE": "(815) 842-2828", "TYPE": "GENERAL ACUTE CARE", "STATUS": "OPEN", "POPULATION": 42, "COUNTY": "LIVINGSTON", "COUNTYFIPS": "17105", "COUNTRY": "USA", "LATITUDE": 40.870997483000103, "LONGITUDE": -88.679515093999996, "NAICS_CODE": "622110", "NAICS_DESC": "GENERAL MEDICAL AND SURGICAL HOSPITALS", "SOURCE": "https://data.illinois.gov/", "SOURCEDATE": "2018-08-09T00:00:00.000Z", "VAL_METHOD": "IMAGERY", "VAL_DATE": "2014-03-12T00:00:00.000Z", "WEBSITE": "http://www.osfsaintjames.org/", "STATE_ID": "140161", "ALT_NAME": "NOT AVAILABLE", "ST_FIPS": "17", "OWNER": "NON-PROFIT", "TTL_STAFF": -999, "BEDS": 42, "TRAUMA": "NOT AVAILABLE", "HELIPAD": "Y" }, "geometry": { "type": "Polygon", "coordinates": [ [ [ -88.719027, 40.814582 ], [ -88.7769641, 40.857466 ], [ -88.7960971, 40.871846 ], [ -88.7203859, 40.931343099999985 ], [ -88.6822101, 40.9461989 ], [ -88.643705, 40.961023499999982 ], [ -88.5857695, 40.917895899999984 ], [ -88.5851582, 40.8450672 ], [ -88.603941, 40.830111 ], [ -88.6229044, 40.8152352 ], [ -88.6781968, 40.814359699999969 ], [ -88.719027, 40.814582 ] ] ] } },
{ "type": "Feature", "properties": { "OBJECTID": 5307, "ID": "0008162521", "NAME": "ST MARYS HOSPITAL", "ADDRESS": "1800 E LAKE SHORE DR", "CITY": "DECATUR", "STATE": "IL", "ZIP": "62521", "ZIP4": "NOT AVAILABLE", "TELEPHONE": "(217) 464-7000", "TYPE": "GENERAL ACUTE CARE", "STATUS": "OPEN", "POPULATION": -999, "COUNTY": "MACON", "COUNTYFIPS": "17115", "COUNTRY": "USA", "LATITUDE": 39.827452951000097, "LONGITUDE": -88.931682630999902, "NAICS_CODE": "622110", "NAICS_DESC": "GENERAL MEDICAL AND SURGICAL HOSPITALS", "SOURCE": "https://data.illinois.gov/", "SOURCEDATE": "2018-08-09T00:00:00.000Z", "VAL_METHOD": "IMAGERY", "VAL_DATE": "2014-03-12T00:00:00.000Z", "WEBSITE": "https://www.stmarysdecatur.com/", "STATE_ID": "140166", "ALT_NAME": "NOT AVAILABLE", "ST_FIPS": "17", "OWNER": "NON-PROFIT", "TTL_STAFF": -999, "BEDS": -999, "TRAUMA": "NOT AVAILABLE", "HELIPAD": "Y" }, "geometry": { "type": "Polygon", "coordinates": [ [ [ -88.984187855835955, 39.761933780889912 ], [ -89.015092203695787, 39.79390867787145 ], [ -89.039185884183013, 39.842386863765491 ], [ -89.028872920463073, 39.853709935647409 ], [ -88.955166985003146, 39.904082251560631 ], [ -88.917845749699993, 39.914180427800339 ], [ -88.889642663342201, 39.915039186121241 ], [ -88.88533633833103, 39.910396398363844 ], [ -88.841106588836993, 39.849517755728556 ], [ -88.83193765001721, 39.809882023715943 ], [ -88.870631610541707, 39.783539133422394 ], [ -88.984187855835955, 39.761933780889912 ] ] ] } },
{ "type": "Feature", "properties": { "OBJECTID": 5445, "ID": "0013661856", "NAME": "JOHN & MARY KIRBY HOSPITAL", "ADDRESS": "1111 N STATE ST", "CITY": "MONTICELLO", "STATE": "IL", "ZIP": "61856", "ZIP4": "NOT AVAILABLE", "TELEPHONE": "(217) 762-2115", "TYPE": "CRITICAL ACCESS", "STATUS": "CLOSED", "POPULATION": -999, "COUNTY": "PIATT", "COUNTYFIPS": "17147", "COUNTRY": "USA", "LATITUDE": 40.034074085999997, "LONGITUDE": -88.568703408999994, "NAICS_CODE": "622110", "NAICS_DESC": "GENERAL MEDICAL AND SURGICAL HOSPITALS", "SOURCE": "https://data.illinois.gov/", "SOURCEDATE": "2012-07-27T00:00:00.000Z", "VAL_METHOD": "IMAGERY", "VAL_DATE": "2014-02-10T00:00:00.000Z", "WEBSITE": "http://www.kirbyhospital.org/", "STATE_ID": "141301", "ALT_NAME": "NOT AVAILABLE", "ST_FIPS": "17", "OWNER": "NON-PROFIT", "TTL_STAFF": -999, "BEDS": -999, "TRAUMA": "NOT AVAILABLE", "HELIPAD": "N" }, "geometry": { "type": "Polygon", "coordinates": [ [ [ -88.5748466, 39.9372576 ], [ -88.649923, 40.003960900000024 ], [ -88.6663812, 40.021860299999965 ], [ -88.6664863, 40.0222892 ], [ -88.6693703, 40.040087100000036 ], [ -88.6310249, 40.076260699999942 ], [ -88.5542499, 40.105286 ], [ -88.5209689, 40.1080128 ], [ -88.5013925, 40.106657199999972 ], [ -88.4886349, 40.105765800000029 ], [ -88.4693653, 40.025627199999953 ], [ -88.4692331, 40.020043799999961 ], [ -88.5748466, 39.9372576 ] ] ] } },
{ "type": "Feature", "properties": { "OBJECTID": 5466, "ID": "0019046805", "NAME": "PARK CENTER, INC", "ADDRESS": "1909 CAREW STREET", "CITY": "FORT WAYNE", "STATE": "IN", "ZIP": "46805", "ZIP4": "NOT AVAILABLE", "TELEPHONE": "(260) 489-3543", "TYPE": "PSYCHIATRIC", "STATUS": "OPEN", "POPULATION": 16, "COUNTY": "ALLEN", "COUNTYFIPS": "18003", "COUNTRY": "USA", "LATITUDE": 41.0936254390001, "LONGITUDE": -85.108482019999897, "NAICS_CODE": "622110", "NAICS_DESC": "GENERAL MEDICAL AND SURGICAL HOSPITALS", "SOURCE": "http://www.in.gov/isdh/reports/QAMIS/hosdir", "SOURCEDATE": "2018-08-16T00:00:00.000Z", "VAL_METHOD": "IMAGERY", "VAL_DATE": "2016-04-26T00:00:00.000Z", "WEBSITE": "http://www.parkcenter.org/", "STATE_ID": "41-9-10-P-IP", "ALT_NAME": "NOT AVAILABLE", "ST_FIPS": "18", "OWNER": "NON-PROFIT", "TTL_STAFF": -999, "BEDS": 16, "TRAUMA": "NOT AVAILABLE", "HELIPAD": "N" }, "geometry": { "type": "Polygon", "coordinates": [ [ [ -85.1120217, 41.010781899999976 ], [ -85.1710195, 41.04575410000006 ], [ -85.2028172, 41.0654015 ], [ -85.2152664, 41.088679700000029 ], [ -85.2265839, 41.113180300000032 ], [ -85.2264336, 41.125199700000017 ], [ -85.2264306, 41.1254018 ], [ -85.2096146, 41.140641199999962 ], [ -85.1658137, 41.166087200000035 ], [ -85.1033172, 41.1811864 ], [ -85.0585463, 41.169665300000034 ], [ -85.004442595725379, 41.135925303405891 ], [ -85.002157890996955, 41.130250913111574 ], [ -85.003257004522055, 41.107841152593728 ], [ -85.006973225481744, 41.088696685717558 ], [ -85.011116245323947, 41.076023806844503 ], [ -85.014723360331217, 41.070261915833505 ], [ -85.020768883296938, 41.065548122176224 ], [ -85.0782884, 41.0287129 ], [ -85.1120217, 41.010781899999976 ] ] ] } },
{ "type": "Feature", "properties": { "OBJECTID": 3040, "ID": "0010346580", "NAME": "OTIS R BOWEN CENTER FOR HUMAN SERVICES INC", "ADDRESS": "1535 PROVIDENT DR", "CITY": "WARSAW", "STATE": "IN", "ZIP": "46580", "ZIP4": "NOT AVAILABLE", "TELEPHONE": "(574) 267-7169", "TYPE": "PSYCHIATRIC", "STATUS": "OPEN", "POPULATION": 16, "COUNTY": "KOSCIUSKO", "COUNTYFIPS": "18085", "COUNTRY": "USA", "LATITUDE": 41.251827365000103, "LONGITUDE": -85.831092575999904, "NAICS_CODE": "622210", "NAICS_DESC": "PSYCHIATRIC AND SUBSTANCE ABUSE HOSPITALS", "SOURCE": "http://www.in.gov/isdh/reports/QAMIS/hosdir", "SOURCEDATE": "2018-08-16T00:00:00.000Z", "VAL_METHOD": "IMAGERY", "VAL_DATE": "2014-02-10T00:00:00.000Z", "WEBSITE": "http://www.bowencenter.org", "STATE_ID": "NOT AVAILABLE", "ALT_NAME": "NOT AVAILABLE", "ST_FIPS": "18", "OWNER": "NON-PROFIT", "TTL_STAFF": -999, "BEDS": 16, "TRAUMA": "NOT AVAILABLE", "HELIPAD": "N" }, "geometry": { "type": "Polygon", "coordinates": [ [ [ -85.8036588, 41.176865 ], [ -85.877224, 41.182774 ], [ -85.989641, 41.263784 ], [ -85.9924159, 41.265920400000041 ], [ -85.991486, 41.267569 ], [ -85.903305, 41.31299 ], [ -85.863503, 41.330507 ], [ -85.853942, 41.332926 ], [ -85.848244, 41.333023 ], [ -85.844299, 41.331979 ], [ -85.795546, 41.30531 ], [ -85.787658, 41.300076 ], [ -85.733288, 41.257396 ], [ -85.718784, 41.235908 ], [ -85.705273299999988, 41.2070074 ], [ -85.703413, 41.202096 ], [ -85.703419, 41.201431 ], [ -85.704011, 41.199914 ], [ -85.78726, 41.177168 ], [ -85.789216, 41.177117 ], [ -85.8036588, 41.176865 ] ] ] } },
{ "type": "Feature", "properties": { "OBJECTID": 3047, "ID": "0006646350", "NAME": "INDIANA UNIVERSITY HEALTH LA PORTE HOSPITAL", "ADDRESS": "1007 LINCOLNWAY", "CITY": "LA PORTE", "STATE": "IN", "ZIP": "46350", "ZIP4": "NOT AVAILABLE", "TELEPHONE": "(219) 326-1234", "TYPE": "GENERAL ACUTE CARE", "STATUS": "OPEN", "POPULATION": 227, "COUNTY": "LAPORTE", "COUNTYFIPS": "18091", "COUNTRY": "USA", "LATITUDE": 41.610652170999998, "LONGITUDE": -86.725290267999995, "NAICS_CODE": "622110", "NAICS_DESC": "GENERAL MEDICAL AND SURGICAL HOSPITALS", "SOURCE": "http://www.in.gov/isdh/reports/QAMIS/hosdir", "SOURCEDATE": "2018-08-16T00:00:00.000Z", "VAL_METHOD": "IMAGERY/OTHER", "VAL_DATE": "2014-03-12T00:00:00.000Z", "WEBSITE": "http://www.iuhealth.org", "STATE_ID": "17-005006-1", "ALT_NAME": "NOT AVAILABLE", "ST_FIPS": "18", "OWNER": "NON-PROFIT", "TTL_STAFF": -999, "BEDS": 227, "TRAUMA": "NOT AVAILABLE", "HELIPAD": "Y" }, "geometry": { "type": "Polygon", "coordinates": [ [ [ -86.690519144404504, 41.511869483003991 ], [ -86.700031332373158, 41.515250890715826 ], [ -86.740727771698687, 41.532079032726749 ], [ -86.759950006846921, 41.541736960995145 ], [ -86.798275095913809, 41.566887328821245 ], [ -86.81296784831639, 41.590820167840455 ], [ -86.814847102602116, 41.59961847794883 ], [ -86.817462857239505, 41.65070432652405 ], [ -86.797983934262433, 41.686901133204671 ], [ -86.7314501, 41.7010731 ], [ -86.665760218778971, 41.677112565014596 ], [ -86.621533163183543, 41.66042956887464 ], [ -86.62013470923587, 41.591687397549585 ], [ -86.620399801728254, 41.57340990632909 ], [ -86.690519144404504, 41.511869483003991 ] ] ] } },
{ "type": "Feature", "properties": { "OBJECTID": 3142, "ID": "0015447993", "NAME": "ST VINCENT WILLIAMSPORT HOSPITAL INC", "ADDRESS": "412 N MONROE ST", "CITY": "WILLIAMSPORT", "STATE": "IN", "ZIP": "47993", "ZIP4": "NOT AVAILABLE", "TELEPHONE": "(765) 762-4000", "TYPE": "CRITICAL ACCESS", "STATUS": "OPEN", "POPULATION": 16, "COUNTY": "WARREN", "COUNTYFIPS": "18171", "COUNTRY": "USA", "LATITUDE": 40.290432114000097, "LONGITUDE": -87.296701466999906, "NAICS_CODE": "622110", "NAICS_DESC": "GENERAL MEDICAL AND SURGICAL HOSPITALS", "SOURCE": "http://www.in.gov/isdh/reports/QAMIS/hosdir", "SOURCEDATE": "2018-08-16T00:00:00.000Z", "VAL_METHOD": "IMAGERY", "VAL_DATE": "2014-02-10T00:00:00.000Z", "WEBSITE": "http://www.stvincent.org", "STATE_ID": "17-005092-1", "ALT_NAME": "NOT AVAILABLE", "ST_FIPS": "18", "OWNER": "NON-PROFIT", "TTL_STAFF": -999, "BEDS": 16, "TRAUMA": "NOT AVAILABLE", "HELIPAD": "Y" }, "geometry": { "type": "Polygon", "coordinates": [ [ [ -87.337445, 40.240345 ], [ -87.390554, 40.266868 ], [ -87.4039883, 40.279903399999966 ], [ -87.3540462, 40.363286 ], [ -87.3537953, 40.363426900000015 ], [ -87.3481333, 40.364109 ], [ -87.2772457, 40.360328200000012 ], [ -87.262740399999984, 40.352956300000059 ], [ -87.2243449, 40.328854 ], [ -87.2243347, 40.3218294 ], [ -87.2541514, 40.29471 ], [ -87.2996641, 40.25346960000001 ], [ -87.337445, 40.240345 ] ] ] } },
{ "type": "Feature", "properties": { "OBJECTID": 3150, "ID": "0012346545", "NAME": "MEDICAL BEHAVIORAL HOSPITAL - MISHAWAKA", "ADDRESS": "1625 E JEFFERSON BLVD", "CITY": "MISHAWAKA", "STATE": "IN", "ZIP": "46545", "ZIP4": "NOT AVAILABLE", "TELEPHONE": "(574) 255-1400", "TYPE": "LONG TERM CARE", "STATUS": "OPEN", "POPULATION": 30, "COUNTY": "ST. JOSEPH", "COUNTYFIPS": "18141", "COUNTRY": "USA", "LATITUDE": 41.671248352000099, "LONGITUDE": -86.158872751999994, "NAICS_CODE": "622110", "NAICS_DESC": "GENERAL MEDICAL AND SURGICAL HOSPITALS", "SOURCE": "http://www.in.gov/isdh/reports/QAMIS/hosdir", "SOURCEDATE": "2018-08-16T00:00:00.000Z", "VAL_METHOD": "IMAGERY", "VAL_DATE": "2014-02-10T00:00:00.000Z", "WEBSITE": "http://physicianshospitalsystem.net/", "STATE_ID": "12-012130-1", "ALT_NAME": "RIVERCREST SPECIALTY HOSPITAL", "ST_FIPS": "18", "OWNER": "PROPRIETARY", "TTL_STAFF": -999, "BEDS": 30, "TRAUMA": "NOT AVAILABLE", "HELIPAD": "N" }, "geometry": { "type": "Polygon", "coordinates": [ [ [ -86.138146322116071, 41.596065824562032 ], [ -86.176676540525165, 41.600756481854901 ], [ -86.2154905349541, 41.617615355837216 ], [ -86.255877015113228, 41.650536693152247 ], [ -86.263146994362671, 41.657677646251599 ], [ -86.269181946187999, 41.677518517782744 ], [ -86.271169728468308, 41.684568273227562 ], [ -86.188182, 41.743753 ], [ -86.156584, 41.753302300000016 ], [ -86.1396311, 41.7507985 ], [ -86.130019, 41.748137 ], [ -86.0619172, 41.6999021 ], [ -86.046324196899874, 41.688692040647503 ], [ -86.051506990843762, 41.665109644100696 ], [ -86.05625131313802, 41.658499978109162 ], [ -86.089647296321147, 41.626395574255348 ], [ -86.118583616789451, 41.607993420215848 ], [ -86.138146322116071, 41.596065824562032 ] ] ] } },
{ "type": "Feature", "properties": { "OBJECTID": 3151, "ID": "0017146975", "NAME": "WOODLAWN HOSPITAL", "ADDRESS": "1400 E 9TH ST", "CITY": "ROCHESTER", "STATE": "IN", "ZIP": "46975", "ZIP4": "NOT AVAILABLE", "TELEPHONE": "(574) 223-3141", "TYPE": "CRITICAL ACCESS", "STATUS": "OPEN", "POPULATION": 25, "COUNTY": "FULTON", "COUNTYFIPS": "18049", "COUNTRY": "USA", "LATITUDE": 41.063964342000098, "LONGITUDE": -86.195692053000002, "NAICS_CODE": "622110", "NAICS_DESC": "GENERAL MEDICAL AND SURGICAL HOSPITALS", "SOURCE": "http://www.in.gov/isdh/reports/QAMIS/hosdir", "SOURCEDATE": "2018-08-16T00:00:00.000Z", "VAL_METHOD": "IMAGERY", "VAL_DATE": "2014-01-23T00:00:00.000Z", "WEBSITE": "http://www.woodlawnhospital.com", "STATE_ID": "17-005098-1", "ALT_NAME": "NOT AVAILABLE", "ST_FIPS": "18", "OWNER": "GOVERNMENT - LOCAL", "TTL_STAFF": -999, "BEDS": 25, "TRAUMA": "NOT AVAILABLE", "HELIPAD": "N" }, "geometry": { "type": "Polygon", "coordinates": [ [ [ -86.251458, 40.967689 ], [ -86.299736, 41.05467 ], [ -86.299545, 41.069173 ], [ -86.2710484, 41.100549499999985 ], [ -86.248449, 41.12055 ], [ -86.228031, 41.135434 ], [ -86.149772, 41.141873 ], [ -86.145443, 41.138287 ], [ -86.076291, 41.0389559 ], [ -86.149271, 40.989519 ], [ -86.1678891, 40.9822157 ], [ -86.251458, 40.967689 ] ] ] } },
{ "type": "Feature", "properties": { "OBJECTID": 3160, "ID": "0012946563", "NAME": "SAINT JOSEPH'S REGIONAL MEDICAL CENTER - PLYMOUTH", "ADDRESS": "1915 LAKE AVE", "CITY": "PLYMOUTH", "STATE": "IN", "ZIP": "46563", "ZIP4": "NOT AVAILABLE", "TELEPHONE": "(574) 936-3181", "TYPE": "GENERAL ACUTE CARE", "STATUS": "OPEN", "POPULATION": 48, "COUNTY": "MARSHALL", "COUNTYFIPS": "18099", "COUNTRY": "USA", "LATITUDE": 41.33350568, "LONGITUDE": -86.331861289999907, "NAICS_CODE": "622110", "NAICS_DESC": "GENERAL MEDICAL AND SURGICAL HOSPITALS", "SOURCE": "http://www.in.gov/isdh/reports/QAMIS/hosdir", "SOURCEDATE": "2018-08-16T00:00:00.000Z", "VAL_METHOD": "IMAGERY", "VAL_DATE": "2014-02-10T00:00:00.000Z", "WEBSITE": "http://www.sjmed.com", "STATE_ID": "17-005070-1", "ALT_NAME": "NOT AVAILABLE", "ST_FIPS": "18", "OWNER": "NON-PROFIT", "TTL_STAFF": -999, "BEDS": 48, "TRAUMA": "NOT AVAILABLE", "HELIPAD": "Y" }, "geometry": { "type": "Polygon", "coordinates": [ [ [ -86.349711, 41.26559 ], [ -86.362065, 41.266737 ], [ -86.41499, 41.301289 ], [ -86.429596, 41.32432 ], [ -86.435951, 41.33514 ], [ -86.4442565, 41.3644422 ], [ -86.4442556, 41.364647599999969 ], [ -86.4342049, 41.3687067 ], [ -86.377052, 41.390451 ], [ -86.3141383, 41.409442800000015 ], [ -86.313864, 41.409443 ], [ -86.2907483, 41.390697299999964 ], [ -86.2218341, 41.328381500000013 ], [ -86.2218364, 41.328166699999969 ], [ -86.221952, 41.320906 ], [ -86.267134, 41.26614559999998 ], [ -86.267447, 41.266142 ], [ -86.349711, 41.26559 ] ] ] } },
{ "type": "Feature", "properties": { "OBJECTID": 3330, "ID": "0001261364", "NAME": "ST MARYS HOSPITAL", "ADDRESS": "111  SPRING STREET", "CITY": "STREATOR", "STATE": "IL", "ZIP": "61364", "ZIP4": "NOT AVAILABLE", "TELEPHONE": "(815) 673-2311", "TYPE": "GENERAL ACUTE CARE", "STATUS": "OPEN", "POPULATION": 98, "COUNTY": "LA SALLE", "COUNTYFIPS": "17099", "COUNTRY": "USA", "LATITUDE": 41.11359098, "LONGITUDE": -88.834582237000006, "NAICS_CODE": "622110", "NAICS_DESC": "GENERAL MEDICAL AND SURGICAL HOSPITALS", "SOURCE": "https://data.illinois.gov/", "SOURCEDATE": "2018-08-09T00:00:00.000Z", "VAL_METHOD": "IMAGERY", "VAL_DATE": "2014-03-12T00:00:00.000Z", "WEBSITE": "http://www.stmaryshospital.org", "STATE_ID": "140026", "ALT_NAME": "NOT AVAILABLE", "ST_FIPS": "17", "OWNER": "NON-PROFIT", "TTL_STAFF": -999, "BEDS": 98, "TRAUMA": "NOT AVAILABLE", "HELIPAD": "Y" }, "geometry": { "type": "Polygon", "coordinates": [ [ [ -88.8432908, 41.0318961 ], [ -88.8718747, 41.045912500000021 ], [ -88.8908404, 41.060104399999979 ], [ -88.9314233, 41.120368399999983 ], [ -88.8766147, 41.163969 ], [ -88.8360831, 41.193515400000017 ], [ -88.816539, 41.179133 ], [ -88.739784, 41.121385699999948 ], [ -88.7418883, 41.106831599999978 ], [ -88.776134, 41.060186 ], [ -88.8143503, 41.032674299999975 ], [ -88.8337304, 41.03214859999995 ], [ -88.8432908, 41.0318961 ] ] ] } },
{ "type": "Feature", "properties": { "OBJECTID": 3357, "ID": "0008260970", "NAME": "IROQUOIS MEMORIAL HOSPITAL", "ADDRESS": "200 FAIRMAN STREET", "CITY": "WATSEKA", "STATE": "IL", "ZIP": "60970", "ZIP4": "NOT AVAILABLE", "TELEPHONE": "(815) 432-5201", "TYPE": "GENERAL ACUTE CARE", "STATUS": "OPEN", "POPULATION": 84, "COUNTY": "IROQUOIS", "COUNTYFIPS": "17075", "COUNTRY": "USA", "LATITUDE": 40.765601887000102, "LONGITUDE": -87.732517480999903, "NAICS_CODE": "622110", "NAICS_DESC": "GENERAL MEDICAL AND SURGICAL HOSPITALS", "SOURCE": "https://data.illinois.gov/", "SOURCEDATE": "2018-08-09T00:00:00.000Z", "VAL_METHOD": "IMAGERY/OTHER", "VAL_DATE": "2014-03-12T00:00:00.000Z", "WEBSITE": "http://www.iroquoismemorial.com", "STATE_ID": "140167", "ALT_NAME": "NOT AVAILABLE", "ST_FIPS": "17", "OWNER": "NON-PROFIT", "TTL_STAFF": -999, "BEDS": 84, "TRAUMA": "NOT AVAILABLE", "HELIPAD": "Y" }, "geometry": { "type": "Polygon", "coordinates": [ [ [ -87.749662, 40.699743 ], [ -87.780508, 40.713613 ], [ -87.824966, 40.770992 ], [ -87.763648, 40.830798 ], [ -87.745797, 40.847536 ], [ -87.652901, 40.789358 ], [ -87.635584, 40.775099 ], [ -87.632934, 40.760386 ], [ -87.669538, 40.716051 ], [ -87.683522, 40.704776 ], [ -87.749662, 40.699743 ] ] ] } },
{ "type": "Feature", "properties": { "OBJECTID": 3375, "ID": "0014261530", "NAME": "ADVOCATE EUREKA  HOSPITAL", "ADDRESS": "101 S MAJOR ST", "CITY": "EUREKA", "STATE": "IL", "ZIP": "61530", "ZIP4": "NOT AVAILABLE", "TELEPHONE": "(309) 467-2371", "TYPE": "CRITICAL ACCESS", "STATUS": "OPEN", "POPULATION": 18, "COUNTY": "WOODFORD", "COUNTYFIPS": "17203", "COUNTRY": "USA", "LATITUDE": 40.721389861, "LONGITUDE": -89.271586428999996, "NAICS_CODE": "622110", "NAICS_DESC": "GENERAL MEDICAL AND SURGICAL HOSPITALS", "SOURCE": "https://data.illinois.gov/", "SOURCEDATE": "2018-08-09T00:00:00.000Z", "VAL_METHOD": "IMAGERY", "VAL_DATE": "2014-02-10T00:00:00.000Z", "WEBSITE": "http://www.advocatehealth.com/eureka/", "STATE_ID": "141309", "ALT_NAME": "NOT AVAILABLE", "ST_FIPS": "17", "OWNER": "NON-PROFIT", "TTL_STAFF": -999, "BEDS": 18, "TRAUMA": "NOT AVAILABLE", "HELIPAD": "N" }, "geometry": { "type": "Polygon", "coordinates": [ [ [ -89.2749928, 40.62953879999997 ], [ -89.2764099, 40.6305406 ], [ -89.3103722, 40.660918899999984 ], [ -89.3328648, 40.6898958 ], [ -89.3499678, 40.748216599999985 ], [ -89.2738449, 40.807195 ], [ -89.2155538, 40.7788526 ], [ -89.1574307, 40.742980899999985 ], [ -89.1572825, 40.735273899999989 ], [ -89.1855503, 40.7059416 ], [ -89.2190895, 40.67611339999997 ], [ -89.2749928, 40.62953879999997 ] ] ] } },
{ "type": "Feature", "properties": { "OBJECTID": 3468, "ID": "0003261820", "NAME": "THE PAVILION FOUNDATION", "ADDRESS": "809 WEST CHURCH STREET", "CITY": "CHAMPAIGN", "STATE": "IL", "ZIP": "61820", "ZIP4": "NOT AVAILABLE", "TELEPHONE": "(217) 373-1700", "TYPE": "PSYCHIATRIC", "STATUS": "OPEN", "POPULATION": 46, "COUNTY": "CHAMPAIGN", "COUNTYFIPS": "17019", "COUNTRY": "USA", "LATITUDE": 40.117707705999997, "LONGITUDE": -88.257536742999903, "NAICS_CODE": "622210", "NAICS_DESC": "PSYCHIATRIC AND SUBSTANCE ABUSE HOSPITALS", "SOURCE": "https://data.illinois.gov/", "SOURCEDATE": "2018-08-09T00:00:00.000Z", "VAL_METHOD": "IMAGERY/OTHER", "VAL_DATE": "2014-02-10T00:00:00.000Z", "WEBSITE": "http://www.pavilionhospital.com", "STATE_ID": "0004689", "ALT_NAME": "NOT AVAILABLE", "ST_FIPS": "17", "OWNER": "PROPRIETARY", "TTL_STAFF": -999, "BEDS": 46, "TRAUMA": "NOT AVAILABLE", "HELIPAD": "N" }, "geometry": { "type": "Polygon", "coordinates": [ [ [ -88.303742, 40.029524 ], [ -88.40745, 40.113202 ], [ -88.407505, 40.127686 ], [ -88.393171, 40.196427 ], [ -88.365326, 40.201798 ], [ -88.277651, 40.20033 ], [ -88.220553, 40.1888 ], [ -88.181862, 40.171122 ], [ -88.162978, 40.149445 ], [ -88.1436455, 40.1133575 ], [ -88.1624012, 40.096599500000046 ], [ -88.185216, 40.077591 ], [ -88.238179, 40.039719 ], [ -88.2481634, 40.032626 ], [ -88.255182, 40.029697 ], [ -88.303742, 40.029524 ] ] ] } },
{ "type": "Feature", "properties": { "OBJECTID": 3469, "ID": "0005361801", "NAME": "PRESENCE COVENANT MEDICAL CENTER", "ADDRESS": "1400 WEST PARK AVENUE", "CITY": "URBANA", "STATE": "IL", "ZIP": "61801", "ZIP4": "NOT AVAILABLE", "TELEPHONE": "(217) 337-2000", "TYPE": "GENERAL ACUTE CARE", "STATUS": "OPEN", "POPULATION": 181, "COUNTY": "CHAMPAIGN", "COUNTYFIPS": "17019", "COUNTRY": "USA", "LATITUDE": 40.117971109000102, "LONGITUDE": -88.227107261, "NAICS_CODE": "622110", "NAICS_DESC": "GENERAL MEDICAL AND SURGICAL HOSPITALS", "SOURCE": "https://data.illinois.gov/", "SOURCEDATE": "2018-08-09T00:00:00.000Z", "VAL_METHOD": "IMAGERY", "VAL_DATE": "2014-02-10T00:00:00.000Z", "WEBSITE": "http://www.provena.org/covenant", "STATE_ID": "140113", "ALT_NAME": "NOT AVAILABLE", "ST_FIPS": "17", "OWNER": "NON-PROFIT", "TTL_STAFF": -999, "BEDS": 181, "TRAUMA": "NOT AVAILABLE", "HELIPAD": "N" }, "geometry": { "type": "Polygon", "coordinates": [ [ [ -88.254238, 40.035615 ], [ -88.254462, 40.035637 ], [ -88.3040635, 40.0752052 ], [ -88.3333018, 40.112205300000014 ], [ -88.333299, 40.113312 ], [ -88.324471, 40.164964 ], [ -88.269368, 40.185719 ], [ -88.220553, 40.1888 ], [ -88.20977, 40.189261 ], [ -88.190238, 40.189293 ], [ -88.182295, 40.189304 ], [ -88.182093, 40.189302 ], [ -88.048187, 40.120312 ], [ -88.161869, 40.06941 ], [ -88.238179, 40.039719 ], [ -88.254238, 40.035615 ] ] ] } },
{ "type": "Feature", "properties": { "OBJECTID": 3725, "ID": "0010746805", "NAME": "PARKVIEW REGIONAL MEDICAL CENTER", "ADDRESS": "11109 PARKVIEW PLAZA DRIVE", "CITY": "FORT WAYNE", "STATE": "IN", "ZIP": "46805", "ZIP4": "NOT AVAILABLE", "TELEPHONE": "(260) 373-4000", "TYPE": "GENERAL ACUTE CARE", "STATUS": "OPEN", "POPULATION": 650, "COUNTY": "ALLEN", "COUNTYFIPS": "18003", "COUNTRY": "USA", "LATITUDE": 41.1884519830001, "LONGITUDE": -85.101793443000005, "NAICS_CODE": "622110", "NAICS_DESC": "GENERAL MEDICAL AND SURGICAL HOSPITALS", "SOURCE": "http://www.in.gov/isdh/reports/QAMIS/hosdir", "SOURCEDATE": "2018-08-16T00:00:00.000Z", "VAL_METHOD": "IMAGERY", "VAL_DATE": "2014-02-10T00:00:00.000Z", "WEBSITE": "http://www.parkview.com", "STATE_ID": "17-005020-1", "ALT_NAME": "NOT AVAILABLE", "ST_FIPS": "18", "OWNER": "NON-PROFIT", "TTL_STAFF": -999, "BEDS": 650, "TRAUMA": "LEVEL II, LEVEL II PEDIATRIC", "HELIPAD": "Y" }, "geometry": { "type": "Polygon", "coordinates": [ [ [ -85.140263200000021, 41.0877353 ], [ -85.19226, 41.107988099999979 ], [ -85.2113774, 41.1175861 ], [ -85.2264336, 41.125199700000017 ], [ -85.2264306, 41.1254018 ], [ -85.2117917, 41.177616400000026 ], [ -85.179811, 41.220706699999965 ], [ -85.1721356, 41.2275053 ], [ -85.1346775, 41.252863399999988 ], [ -85.0766337, 41.262771399999934 ], [ -85.00938, 41.2250118 ], [ -84.993653057420289, 41.144320188015016 ], [ -85.002157890996955, 41.130250913111574 ], [ -85.019253051326629, 41.118751033957743 ], [ -85.0606252, 41.107775500000038 ], [ -85.140263200000021, 41.0877353 ] ] ] } },
{ "type": "Feature", "properties": { "OBJECTID": 3761, "ID": "0007046534", "NAME": "INDIANA UNIVERSITY HEALTH STARKE HOSPITAL", "ADDRESS": "102 E CULVER RD", "CITY": "KNOX", "STATE": "IN", "ZIP": "46534", "ZIP4": "NOT AVAILABLE", "TELEPHONE": "(574) 772-1100", "TYPE": "GENERAL ACUTE CARE", "STATUS": "OPEN", "POPULATION": 53, "COUNTY": "STARKE", "COUNTYFIPS": "18149", "COUNTRY": "USA", "LATITUDE": 41.287568804000003, "LONGITUDE": -86.621997285000006, "NAICS_CODE": "622110", "NAICS_DESC": "GENERAL MEDICAL AND SURGICAL HOSPITALS", "SOURCE": "http://www.in.gov/isdh/reports/QAMIS/hosdir", "SOURCEDATE": "2018-08-16T00:00:00.000Z", "VAL_METHOD": "IMAGERY", "VAL_DATE": "2014-03-12T00:00:00.000Z", "WEBSITE": "http://iuhealth.org/starke/", "STATE_ID": "17-005091-1", "ALT_NAME": "NOT AVAILABLE", "ST_FIPS": "18", "OWNER": "PROPRIETARY", "TTL_STAFF": -999, "BEDS": 53, "TRAUMA": "NOT AVAILABLE", "HELIPAD": "Y" }, "geometry": { "type": "Polygon", "coordinates": [ [ [ -86.61167699900993, 41.207419209129363 ], [ -86.630847697837225, 41.215467195400187 ], [ -86.669446507418201, 41.244043066357762 ], [ -86.698384291415223, 41.280908311530652 ], [ -86.698508687285937, 41.288068401271929 ], [ -86.69853178310764, 41.295334490896629 ], [ -86.698565670550224, 41.317177259718093 ], [ -86.620810755046847, 41.384635408589325 ], [ -86.500315514060489, 41.287826673991646 ], [ -86.524389715838709, 41.269804083939533 ], [ -86.61167699900993, 41.207419209129363 ] ] ] } },
{ "type": "Feature", "properties": { "OBJECTID": 3767, "ID": "0010846725", "NAME": "PARKVIEW WHITLEY HOSPITAL", "ADDRESS": "1260 E SR 205", "CITY": "COLUMBIA CITY", "STATE": "IN", "ZIP": "46725", "ZIP4": "NOT AVAILABLE", "TELEPHONE": "(260) 248-9301", "TYPE": "GENERAL ACUTE CARE", "STATUS": "OPEN", "POPULATION": 30, "COUNTY": "WHITLEY", "COUNTYFIPS": "18183", "COUNTRY": "USA", "LATITUDE": 41.158646371000003, "LONGITUDE": -85.464901590999901, "NAICS_CODE": "622110", "NAICS_DESC": "GENERAL MEDICAL AND SURGICAL HOSPITALS", "SOURCE": "http://www.in.gov/isdh/reports/QAMIS/hosdir", "SOURCEDATE": "2018-08-16T00:00:00.000Z", "VAL_METHOD": "IMAGERY", "VAL_DATE": "2014-02-10T00:00:00.000Z", "WEBSITE": "http://www.parkview.com", "STATE_ID": "17-005090-1", "ALT_NAME": "NOT AVAILABLE", "ST_FIPS": "18", "OWNER": "NON-PROFIT", "TTL_STAFF": -999, "BEDS": 30, "TRAUMA": "NOT AVAILABLE", "HELIPAD": "Y" }, "geometry": { "type": "Polygon", "coordinates": [ [ [ -85.4678198, 41.089235400000014 ], [ -85.4709529, 41.089518899999966 ], [ -85.509805500000013, 41.102107699999962 ], [ -85.5340251, 41.1101928 ], [ -85.622198, 41.180836800000044 ], [ -85.6221891, 41.181031499999968 ], [ -85.5390573, 41.2209561 ], [ -85.5014299, 41.2359009 ], [ -85.4714872, 41.239646800000045 ], [ -85.4693407, 41.239467700000027 ], [ -85.4055491, 41.230389200000019 ], [ -85.3532416, 41.2127936 ], [ -85.337881, 41.145502400000048 ], [ -85.3374664, 41.133692199999984 ], [ -85.3369953, 41.118208900000035 ], [ -85.3566909, 41.104263900000042 ], [ -85.4609882, 41.089207 ], [ -85.4678198, 41.089235400000014 ] ] ] } },
{ "type": "Feature", "properties": { "OBJECTID": 3880, "ID": "0173946545", "NAME": "ST JOSEPH COUNTY VA HEALTH CARE CENTER", "ADDRESS": "1540 TRINITY PLACE", "CITY": "MISHAWAKA", "STATE": "IN", "ZIP": "46545", "ZIP4": "NOT AVAILABLE", "TELEPHONE": "(574) 272-9000", "TYPE": "MILITARY", "STATUS": "OPEN", "POPULATION": -999, "COUNTY": "ST JOSEPH", "COUNTYFIPS": "18141", "COUNTRY": "USA", "LATITUDE": 41.707343, "LONGITUDE": -86.16311, "NAICS_CODE": "622110", "NAICS_DESC": "GENERAL MEDICAL AND SURGICAL HOSPITALS", "SOURCE": "https://www.va.gov/directory/guide/allstate.asp", "SOURCEDATE": "2018-09-26T00:00:00.000Z", "VAL_METHOD": "IMAGERY", "VAL_DATE": "2019-05-09T00:00:00.000Z", "WEBSITE": "https://www.northernindiana.va.gov/", "STATE_ID": "NOT AVAILABLE", "ALT_NAME": "NOT AVAILABLE", "ST_FIPS": "18", "OWNER": "GOVERNMENT - FEDERAL", "TTL_STAFF": -999, "BEDS": -999, "TRAUMA": "NOT AVAILABLE", "HELIPAD": "N" }, "geometry": { "type": "Polygon", "coordinates": [ [ [ -86.177214172806615, 41.625418736410339 ], [ -86.186503548522296, 41.629568427917498 ], [ -86.222133044919133, 41.653970629569237 ], [ -86.228460027756157, 41.658700606919524 ], [ -86.230220022423779, 41.660339598309136 ], [ -86.24724307124778, 41.677765099972866 ], [ -86.24826526780609, 41.679119591666172 ], [ -86.257256, 41.692766 ], [ -86.257273, 41.693623 ], [ -86.251733, 41.715858 ], [ -86.246934, 41.723131 ], [ -86.2172965, 41.744073799999988 ], [ -86.199009, 41.7558 ], [ -86.1948214, 41.7581133 ], [ -86.178675, 41.760466 ], [ -86.1572005, 41.762452 ], [ -86.1540706, 41.7624574 ], [ -86.120249, 41.75345 ], [ -86.119999, 41.753233 ], [ -86.0658923, 41.695433 ], [ -86.095190153561489, 41.663371206781548 ], [ -86.138240728390599, 41.625736164577923 ], [ -86.176884173291455, 41.625416635829104 ], [ -86.177214172806615, 41.625418736410339 ] ] ] } }
]
}
