{
"type": "FeatureCollection",
"crs": { "type": "name", "properties": { "name": "urn:ogc:def:crs:OGC:1.3:CRS84" } },
"features": [
{ "type": "Feature", "properties": { "OBJECTID": 1048, "ID": "0083931909", "NAME": "NORTHSIDE MEDICAL CENTER", "ADDRESS": "100 FRIST COURT", "CITY": "COLUMBUS", "STATE": "GA", "ZIP": "31909", "ZIP4": "NOT AVAILABLE", "TELEPHONE": "NOT AVAILABLE", "TYPE": "GENERAL ACUTE CARE", "STATUS": "OPEN", "POPULATION": 100, "COUNTY": "MUSCOGEE", "COUNTYFIPS": "13215", "COUNTRY": "USA", "LATITUDE": 32.534524799000103, "LONGITUDE": -84.951212572000003, "NAICS_CODE": "622110", "NAICS_DESC": "GENERAL MEDICAL AND SURGICAL HOSPITALS", "SOURCE": "http://www.gamap2care.info/", "SOURCEDATE": "2018-08-09T00:00:00.000Z", "VAL_METHOD": "IMAGERY/OTHER", "VAL_DATE": "2015-03-02T00:00:00.000Z", "WEBSITE": "NOT AVAILABLE", "STATE_ID": "NOT AVAILABLE", "ALT_NAME": "NOT AVAILABLE", "ST_FIPS": "13", "OWNER": "NOT AVAILABLE", "TTL_STAFF": -999, "BEDS": 100, "TRAUMA": "NOT AVAILABLE", "HELIPAD": "N" }, "geometry": { "type": "Polygon", "coordinates": [ [ [ -84.925713, 32.431559 ], [ -84.9401673, 32.4355952 ], [ -84.979474, 32.44767270000002 ], [ -84.9934678, 32.453379399999982 ], [ -84.9940582, 32.454325899999986 ], [ -84.999047, 32.463381399999989 ], [ -85.017747, 32.548571 ], [ -85.015682, 32.575587 ], [ -84.981787, 32.607792 ], [ -84.937188100000014, 32.608661499999975 ], [ -84.9126493, 32.60771470000001 ], [ -84.8620962, 32.5602859 ], [ -84.8454323, 32.538307 ], [ -84.9032812, 32.436278800000025 ], [ -84.9037229, 32.43583569999997 ], [ -84.905199, 32.434694 ], [ -84.925713, 32.431559 ] ] ] } },
{ "type": "Feature", "properties": { "OBJECTID": 1049, "ID": "0084231217", "NAME": "REGENCY HOSPITAL COMPANY OF MACON, LLC", "ADDRESS": "535 COLISEUM DRIVE", "CITY": "MACON", "STATE": "GA", "ZIP": "31217", "ZIP4": "NOT AVAILABLE", "TELEPHONE": "NOT AVAILABLE", "TYPE": "GENERAL ACUTE CARE", "STATUS": "OPEN", "POPULATION": -999, "COUNTY": "BIBB", "COUNTYFIPS": "13021", "COUNTRY": "USA", "LATITUDE": 32.847705239, "LONGITUDE": -83.615277472999907, "NAICS_CODE": "622110", "NAICS_DESC": "GENERAL MEDICAL AND SURGICAL HOSPITALS", "SOURCE": "http://www.gamap2care.info/", "SOURCEDATE": "2018-08-09T00:00:00.000Z", "VAL_METHOD": "IMAGERY/OTHER", "VAL_DATE": "2015-03-03T00:00:00.000Z", "WEBSITE": "NOT AVAILABLE", "STATE_ID": "NOT AVAILABLE", "ALT_NAME": "NOT AVAILABLE", "ST_FIPS": "13", "OWNER": "NOT AVAILABLE", "TTL_STAFF": -999, "BEDS": 34, "TRAUMA": "NOT AVAILABLE", "HELIPAD": "N" }, "geometry": { "type": "Polygon", "coordinates": [ [ [ -83.7070408, 32.760564799999976 ], [ -83.720244, 32.827512 ], [ -83.738931, 32.925182 ], [ -83.7365089, 32.930961500000016 ], [ -83.722722, 32.944305 ], [ -83.611364, 32.931013 ], [ -83.60588150000001, 32.9293906 ], [ -83.5912195, 32.9238458 ], [ -83.4945085, 32.855566500000016 ], [ -83.503689, 32.804803 ], [ -83.5500722, 32.761987 ], [ -83.561039, 32.752173 ], [ -83.7070408, 32.760564799999976 ] ] ] } },
{ "type": "Feature", "properties": { "OBJECTID": 1055, "ID": "0088031830", "NAME": "ROOSEVELT WARM SPRINGS REHABILITATION HOSPITAL", "ADDRESS": "6135 ROOSEVELT HIGHWAY", "CITY": "WARM SPRINGS", "STATE": "GA", "ZIP": "31830", "ZIP4": "NOT AVAILABLE", "TELEPHONE": "(706) 655-5001", "TYPE": "REHABILITATION", "STATUS": "OPEN", "POPULATION": 52, "COUNTY": "MERIWETHER", "COUNTYFIPS": "13199", "COUNTRY": "USA", "LATITUDE": 32.887326389000101, "LONGITUDE": -84.694070009000001, "NAICS_CODE": "622310", "NAICS_DESC": "REHABILITATION HOSPITALS (EXCEPT ALCOHOLISM, DRUG ADDICTION)", "SOURCE": "http://www.gamap2care.info/", "SOURCEDATE": "2018-08-09T00:00:00.000Z", "VAL_METHOD": "IMAGERY/OTHER", "VAL_DATE": "2015-03-09T00:00:00.000Z", "WEBSITE": "NOT AVAILABLE", "STATE_ID": "NOT AVAILABLE", "ALT_NAME": "NOT AVAILABLE", "ST_FIPS": "13", "OWNER": "NOT AVAILABLE", "TTL_STAFF": -999, "BEDS": 52, "TRAUMA": "NOT AVAILABLE", "HELIPAD": "N" }, "geometry": { "type": "Polygon", "coordinates": [ [ [ -84.6650371, 32.840154100000035 ], [ -84.6945807, 32.844563599999979 ], [ -84.727197, 32.863321 ], [ -84.780306, 32.908793 ], [ -84.788639, 32.916159 ], [ -84.7798015, 32.932398400000054 ], [ -84.779158, 32.933421 ], [ -84.707556, 32.991466 ], [ -84.622408, 32.956367 ], [ -84.601399, 32.861579 ], [ -84.600432, 32.856698 ], [ -84.609406, 32.849922 ], [ -84.612063, 32.848255 ], [ -84.6192525, 32.8471074 ], [ -84.6650371, 32.840154100000035 ] ] ] } },
{ "type": "Feature", "properties": { "OBJECTID": 1084, "ID": "0080132535", "NAME": "CENTURY HOSPITAL MEDICAL CENTER", "ADDRESS": "501 CHURCH ST", "CITY": "CENTURY", "STATE": "FL", "ZIP": "32535", "ZIP4": "NOT AVAILABLE", "TELEPHONE": "NOT AVAILABLE", "TYPE": "GENERAL ACUTE CARE", "STATUS": "CLOSED", "POPULATION": -999, "COUNTY": "ESCAMBIA", "COUNTYFIPS": "12033", "COUNTRY": "USA", "LATITUDE": 30.970393835, "LONGITUDE": -87.257597990999997, "NAICS_CODE": "622110", "NAICS_DESC": "GENERAL MEDICAL AND SURGICAL HOSPITALS", "SOURCE": "http://www.fgdl.org/metadataexplorer/explorer.jsp", "SOURCEDATE": "2012-06-14T00:00:00.000Z", "VAL_METHOD": "IMAGERY/OTHER", "VAL_DATE": "2019-05-09T00:00:00.000Z", "WEBSITE": "NOT AVAILABLE", "STATE_ID": "NOT AVAILABLE", "ALT_NAME": "NOT AVAILABLE", "ST_FIPS": "12", "OWNER": "NOT AVAILABLE", "TTL_STAFF": -999, "BEDS": 34, "TRAUMA": "NOT AVAILABLE", "HELIPAD": "N" }, "geometry": { "type": "Polygon", "coordinates": [ [ [ -87.322254, 30.871649 ], [ -87.336352, 30.912396 ], [ -87.343525, 30.958675 ], [ -87.34708, 30.986069 ], [ -87.327006447672105, 31.015956575915325 ], [ -87.264244542713683, 31.04806654007816 ], [ -87.264045741790042, 31.048104537220265 ], [ -87.20252229578206, 31.022980587566195 ], [ -87.202046096066837, 31.022605588871976 ], [ -87.20463411948235, 31.010256595669382 ], [ -87.234124, 30.960924 ], [ -87.322254, 30.871649 ] ] ] } },
{ "type": "Feature", "properties": { "OBJECTID": 1279, "ID": "0003836427", "NAME": "D. W. MCMILLAN MEMORIAL HOSPITAL", "ADDRESS": "1301 BELLEVILLE AVENUE", "CITY": "BREWTON", "STATE": "AL", "ZIP": "36427", "ZIP4": "NOT AVAILABLE", "TELEPHONE": "(251) 867-8061", "TYPE": "GENERAL ACUTE CARE", "STATUS": "OPEN", "POPULATION": 91, "COUNTY": "ESCAMBIA", "COUNTYFIPS": "01053", "COUNTRY": "USA", "LATITUDE": 31.127033909000001, "LONGITUDE": -87.073499303999895, "NAICS_CODE": "622110", "NAICS_DESC": "GENERAL MEDICAL AND SURGICAL HOSPITALS", "SOURCE": "http://dph1.adph.state.al.us/FacilitiesDirectory", "SOURCEDATE": "2018-08-09T00:00:00.000Z", "VAL_METHOD": "IMAGERY/OTHER", "VAL_DATE": "2014-03-12T00:00:00.000Z", "WEBSITE": "http://www.dwmmh.org", "STATE_ID": "H2703", "ALT_NAME": "NOT AVAILABLE", "ST_FIPS": "01", "OWNER": "GOVERNMENT - DISTRICT/AUTHORITY", "TTL_STAFF": -999, "BEDS": 91, "TRAUMA": "LEVEL III", "HELIPAD": "Y" }, "geometry": { "type": "Polygon", "coordinates": [ [ [ -87.056960973462239, 31.036740715873169 ], [ -87.15669900757014, 31.059703685421237 ], [ -87.158071007842111, 31.060026681510706 ], [ -87.160263864138415, 31.158100680789527 ], [ -87.159823863403531, 31.158608683093842 ], [ -87.11679681122591, 31.202515952395963 ], [ -87.065094808805412, 31.221557315586274 ], [ -87.062297109934775, 31.221557234140683 ], [ -87.05872181161989, 31.221283357191414 ], [ -87.048561821694491, 31.214014405249266 ], [ -86.991019934555879, 31.085336249462237 ], [ -86.993439929158257, 31.082486233787776 ], [ -87.056960973462239, 31.036740715873169 ] ] ] } },
{ "type": "Feature", "properties": { "OBJECTID": 1281, "ID": "0012236518", "NAME": "WASHINGTON COUNTY HOSPITAL", "ADDRESS": "14600 ST. STEPHENS AVENUE", "CITY": "CHATOM", "STATE": "AL", "ZIP": "36518", "ZIP4": "NOT AVAILABLE", "TELEPHONE": "(251) 847-2223", "TYPE": "CRITICAL ACCESS", "STATUS": "OPEN", "POPULATION": 25, "COUNTY": "WASHINGTON", "COUNTYFIPS": "01129", "COUNTRY": "USA", "LATITUDE": 31.459538148, "LONGITUDE": -88.235079893000005, "NAICS_CODE": "622110", "NAICS_DESC": "GENERAL MEDICAL AND SURGICAL HOSPITALS", "SOURCE": "http://dph1.adph.state.al.us/FacilitiesDirectory", "SOURCEDATE": "2018-08-09T00:00:00.000Z", "VAL_METHOD": "IMAGERY/OTHER", "VAL_DATE": "2013-09-10T00:00:00.000Z", "WEBSITE": "http://www.wchnh.org", "STATE_ID": "H6501", "ALT_NAME": "NOT AVAILABLE", "ST_FIPS": "01", "OWNER": "GOVERNMENT - LOCAL", "TTL_STAFF": -999, "BEDS": 25, "TRAUMA": "NOT AVAILABLE", "HELIPAD": "Y" }, "geometry": { "type": "Polygon", "coordinates": [ [ [ -88.2559167, 31.390122099999953 ], [ -88.316041, 31.448178 ], [ -88.348999, 31.483265 ], [ -88.272145, 31.542874 ], [ -88.269553, 31.541842 ], [ -88.117915, 31.455272 ], [ -88.2559167, 31.390122099999953 ] ] ] } },
{ "type": "Feature", "properties": { "OBJECTID": 1283, "ID": "0004236301", "NAME": "LAUREL OAKS BEHAVIORAL HEALTH CENTER", "ADDRESS": "700 EAST COTTONWOOD ROAD", "CITY": "DOTHAN", "STATE": "AL", "ZIP": "36301", "ZIP4": "NOT AVAILABLE", "TELEPHONE": "(334) 794-7373", "TYPE": "PSYCHIATRIC", "STATUS": "OPEN", "POPULATION": 38, "COUNTY": "HOUSTON", "COUNTYFIPS": "01069", "COUNTRY": "USA", "LATITUDE": 31.203815637000002, "LONGITUDE": -85.384601115999899, "NAICS_CODE": "622210", "NAICS_DESC": "PSYCHIATRIC AND SUBSTANCE ABUSE HOSPITALS", "SOURCE": "http://dph1.adph.state.al.us/FacilitiesDirectory", "SOURCEDATE": "2018-08-09T00:00:00.000Z", "VAL_METHOD": "IMAGERY/OTHER", "VAL_DATE": "2014-02-10T00:00:00.000Z", "WEBSITE": "http://www.laureloaksbhc.com", "STATE_ID": "H3505", "ALT_NAME": "NOT AVAILABLE", "ST_FIPS": "01", "OWNER": "PROPRIETARY", "TTL_STAFF": -999, "BEDS": 38, "TRAUMA": "NOT AVAILABLE", "HELIPAD": "N" }, "geometry": { "type": "Polygon", "coordinates": [ [ [ -85.405581314707987, 31.094752440411806 ], [ -85.450227355228066, 31.124185643590469 ], [ -85.480871458908084, 31.168436076031618 ], [ -85.504289683914777, 31.23936287391615 ], [ -85.457182365830718, 31.278080499223265 ], [ -85.40843370577845, 31.295292336112823 ], [ -85.351441537622662, 31.311699486864978 ], [ -85.297619749966003, 31.251781706792706 ], [ -85.26318964660706, 31.189611284475134 ], [ -85.261165637830118, 31.184836256880228 ], [ -85.261209637353801, 31.18462025563883 ], [ -85.261467634914979, 31.183524249331395 ], [ -85.322096442972878, 31.116344767314789 ], [ -85.405342814957947, 31.094762440996188 ], [ -85.405581314707987, 31.094752440411806 ] ] ] } },
{ "type": "Feature", "properties": { "OBJECTID": 1284, "ID": "0005336330", "NAME": "MEDICAL CENTER ENTERPRISE", "ADDRESS": "400 NORTH EDWARDS STREET", "CITY": "ENTERPRISE", "STATE": "AL", "ZIP": "36330", "ZIP4": "NOT AVAILABLE", "TELEPHONE": "(334) 347-0584", "TYPE": "GENERAL ACUTE CARE", "STATUS": "OPEN", "POPULATION": 131, "COUNTY": "COFFEE", "COUNTYFIPS": "01031", "COUNTRY": "USA", "LATITUDE": 31.318772396, "LONGITUDE": -85.855369738999997, "NAICS_CODE": "622110", "NAICS_DESC": "GENERAL MEDICAL AND SURGICAL HOSPITALS", "SOURCE": "http://dph1.adph.state.al.us/FacilitiesDirectory", "SOURCEDATE": "2018-08-09T00:00:00.000Z", "VAL_METHOD": "IMAGERY/OTHER", "VAL_DATE": "2013-09-06T00:00:00.000Z", "WEBSITE": "http://www.mcehospital.com", "STATE_ID": "H1603", "ALT_NAME": "NOT AVAILABLE", "ST_FIPS": "01", "OWNER": "PROPRIETARY", "TTL_STAFF": -999, "BEDS": 131, "TRAUMA": "LEVEL III", "HELIPAD": "N" }, "geometry": { "type": "Polygon", "coordinates": [ [ [ -85.880824728806132, 31.234951374239579 ], [ -85.892523729469943, 31.240626415194917 ], [ -85.922684693687543, 31.258202507520796 ], [ -85.9236826906576, 31.258785509144683 ], [ -85.973695543112584, 31.312704734394394 ], [ -85.966061599254019, 31.39721172151642 ], [ -85.965874500013982, 31.397417822903179 ], [ -85.886709304229797, 31.421300947608188 ], [ -85.807207178356279, 31.391565383828034 ], [ -85.802731193110787, 31.389496378585722 ], [ -85.72685720715873, 31.301225941315618 ], [ -85.727222208263228, 31.300811940107913 ], [ -85.727423008876428, 31.300588939468458 ], [ -85.791310495646471, 31.234503500074712 ], [ -85.880824728806132, 31.234951374239579 ] ] ] } },
{ "type": "Feature", "properties": { "OBJECTID": 1285, "ID": "0004636401", "NAME": "EVERGREEN MEDICAL CENTER", "ADDRESS": "101 CRESTVIEW AVENUE", "CITY": "EVERGREEN", "STATE": "AL", "ZIP": "36401", "ZIP4": "NOT AVAILABLE", "TELEPHONE": "(251) 578-0166", "TYPE": "GENERAL ACUTE CARE", "STATUS": "OPEN", "POPULATION": 58, "COUNTY": "CONECUH", "COUNTYFIPS": "01035", "COUNTRY": "USA", "LATITUDE": 31.4307985720001, "LONGITUDE": -86.940483587000003, "NAICS_CODE": "622110", "NAICS_DESC": "GENERAL MEDICAL AND SURGICAL HOSPITALS", "SOURCE": "http://dph1.adph.state.al.us/FacilitiesDirectory", "SOURCEDATE": "2018-08-09T00:00:00.000Z", "VAL_METHOD": "IMAGERY/OTHER", "VAL_DATE": "2014-03-12T00:00:00.000Z", "WEBSITE": "http://www.evergreenmedical.org", "STATE_ID": "H1801", "ALT_NAME": "NOT AVAILABLE", "ST_FIPS": "01", "OWNER": "PROPRIETARY", "TTL_STAFF": -999, "BEDS": 58, "TRAUMA": "NOT AVAILABLE", "HELIPAD": "Y" }, "geometry": { "type": "Polygon", "coordinates": [ [ [ -87.026574182315372, 31.363850302051453 ], [ -87.053792477327946, 31.369729596224705 ], [ -87.067283331452415, 31.42159524365351 ], [ -87.009345667178536, 31.504252280897308 ], [ -86.917912564959778, 31.526004926961654 ], [ -86.825623387849262, 31.453396934804037 ], [ -86.811995962708465, 31.420239926205724 ], [ -86.906444312858852, 31.385628150314201 ], [ -87.026574182315372, 31.363850302051453 ] ] ] } },
{ "type": "Feature", "properties": { "OBJECTID": 1302, "ID": "0005636467", "NAME": "MIZELL MEMORIAL HOSPITAL", "ADDRESS": "702 MAIN STREET", "CITY": "OPP", "STATE": "AL", "ZIP": "36467", "ZIP4": "NOT AVAILABLE", "TELEPHONE": "(334) 493-3541", "TYPE": "GENERAL ACUTE CARE", "STATUS": "OPEN", "POPULATION": 99, "COUNTY": "COVINGTON", "COUNTYFIPS": "01039", "COUNTRY": "USA", "LATITUDE": 31.291958238000099, "LONGITUDE": -86.254526923, "NAICS_CODE": "622110", "NAICS_DESC": "GENERAL MEDICAL AND SURGICAL HOSPITALS", "SOURCE": "http://dph1.adph.state.al.us/FacilitiesDirectory", "SOURCEDATE": "2018-08-09T00:00:00.000Z", "VAL_METHOD": "IMAGERY/OTHER", "VAL_DATE": "2014-02-10T00:00:00.000Z", "WEBSITE": "http://www.mizellmh.com", "STATE_ID": "H2004", "ALT_NAME": "NOT AVAILABLE", "ST_FIPS": "01", "OWNER": "NON-PROFIT", "TTL_STAFF": -999, "BEDS": 99, "TRAUMA": "LEVEL III", "HELIPAD": "N" }, "geometry": { "type": "Polygon", "coordinates": [ [ [ -86.287445148192546, 31.196440628732368 ], [ -86.326824206251132, 31.231791260695054 ], [ -86.366660007867225, 31.278625889971948 ], [ -86.372289593419694, 31.285516339938855 ], [ -86.274472431510134, 31.388890318235788 ], [ -86.261762490654533, 31.398747360041622 ], [ -86.181891491743315, 31.376202165944392 ], [ -86.171129252632468, 31.217963958713412 ], [ -86.286767149019539, 31.196473628244746 ], [ -86.287445148192546, 31.196440628732368 ] ] ] } },
{ "type": "Feature", "properties": { "OBJECTID": 1303, "ID": "0000836360", "NAME": "DALE MEDICAL CENTER", "ADDRESS": "126 HOSPITAL AVENUE", "CITY": "OZARK", "STATE": "AL", "ZIP": "36360", "ZIP4": "NOT AVAILABLE", "TELEPHONE": "(334) 774-2601", "TYPE": "GENERAL ACUTE CARE", "STATUS": "OPEN", "POPULATION": 89, "COUNTY": "DALE", "COUNTYFIPS": "01045", "COUNTRY": "USA", "LATITUDE": 31.4515766550001, "LONGITUDE": -85.632088034999995, "NAICS_CODE": "622110", "NAICS_DESC": "GENERAL MEDICAL AND SURGICAL HOSPITALS", "SOURCE": "http://dph1.adph.state.al.us/FacilitiesDirectory", "SOURCEDATE": "2018-08-09T00:00:00.000Z", "VAL_METHOD": "IMAGERY/OTHER", "VAL_DATE": "2014-03-12T00:00:00.000Z", "WEBSITE": "http://www.dalemedical.org", "STATE_ID": "H2301", "ALT_NAME": "NOT AVAILABLE", "ST_FIPS": "01", "OWNER": "PROPRIETARY", "TTL_STAFF": -999, "BEDS": 89, "TRAUMA": "LEVEL III", "HELIPAD": "Y" }, "geometry": { "type": "Polygon", "coordinates": [ [ [ -85.557894634207955, 31.355611233559767 ], [ -85.636414942061606, 31.377950137739454 ], [ -85.687533170724834, 31.405233393642931 ], [ -85.708256290157934, 31.443448635420221 ], [ -85.711297310019575, 31.451751684332706 ], [ -85.711440312237983, 31.453297692630301 ], [ -85.71660255671938, 31.52407313813293 ], [ -85.716472955778315, 31.524168037874908 ], [ -85.585885946568368, 31.519066188916675 ], [ -85.56498290681624, 31.514527217762698 ], [ -85.558947865070408, 31.473435017373891 ], [ -85.55416063147841, 31.414204522606461 ], [ -85.557739833648483, 31.355664133822273 ], [ -85.557894634207955, 31.355611233559767 ] ] ] } },
{ "type": "Feature", "properties": { "OBJECTID": 1403, "ID": "0018032446", "NAME": "JACKSON HOSPITAL", "ADDRESS": "4250 HOSPITAL DR", "CITY": "MARIANNA", "STATE": "FL", "ZIP": "32446", "ZIP4": "NOT AVAILABLE", "TELEPHONE": "(850) 718-2628", "TYPE": "GENERAL ACUTE CARE", "STATUS": "OPEN", "POPULATION": 62, "COUNTY": "JACKSON", "COUNTYFIPS": "12063", "COUNTRY": "USA", "LATITUDE": 30.786844413000001, "LONGITUDE": -85.241314825000003, "NAICS_CODE": "622110", "NAICS_DESC": "GENERAL MEDICAL AND SURGICAL HOSPITALS", "SOURCE": "http://www.floridahealthfinder.gov/facilitylocator/facilitysearch.aspx", "SOURCEDATE": "2018-08-15T00:00:00.000Z", "VAL_METHOD": "IMAGERY", "VAL_DATE": "2014-02-10T00:00:00.000Z", "WEBSITE": "http://www.jacksonhosp.com", "STATE_ID": "9943", "ALT_NAME": "NOT AVAILABLE", "ST_FIPS": "12", "OWNER": "GOVERNMENT - DISTRICT/AUTHORITY", "TTL_STAFF": -999, "BEDS": 62, "TRAUMA": "NOT AVAILABLE", "HELIPAD": "Y" }, "geometry": { "type": "Polygon", "coordinates": [ [ [ -85.2334864, 30.696705200000018 ], [ -85.296613, 30.722148899999986 ], [ -85.2978422, 30.722696099999975 ], [ -85.3552057, 30.788213900000038 ], [ -85.3409857, 30.836194399999989 ], [ -85.212574500000017, 30.8526843 ], [ -85.1659517, 30.841009299999985 ], [ -85.1639311, 30.837927600000011 ], [ -85.152972, 30.742317 ], [ -85.1855625, 30.721849 ], [ -85.2318825, 30.696682200000023 ], [ -85.2334864, 30.696705200000018 ] ] ] } },
{ "type": "Feature", "properties": { "OBJECTID": 1459, "ID": "0027932539", "NAME": "NORTH OKALOOSA MEDICAL CENTER", "ADDRESS": "151 REDSTONE AVE SE", "CITY": "CRESTVIEW", "STATE": "FL", "ZIP": "32539", "ZIP4": "NOT AVAILABLE", "TELEPHONE": "(850) 689-8100", "TYPE": "GENERAL ACUTE CARE", "STATUS": "OPEN", "POPULATION": 110, "COUNTY": "OKALOOSA", "COUNTYFIPS": "12091", "COUNTRY": "USA", "LATITUDE": 30.735354627, "LONGITUDE": -86.562525285999996, "NAICS_CODE": "622110", "NAICS_DESC": "GENERAL MEDICAL AND SURGICAL HOSPITALS", "SOURCE": "http://www.floridahealthfinder.gov/facilitylocator/facilitysearch.aspx", "SOURCEDATE": "2018-08-15T00:00:00.000Z", "VAL_METHOD": "IMAGERY", "VAL_DATE": "2014-02-10T00:00:00.000Z", "WEBSITE": "http://www.northokaloosa.com", "STATE_ID": "9927", "ALT_NAME": "NOT AVAILABLE", "ST_FIPS": "12", "OWNER": "PROPRIETARY", "TTL_STAFF": -999, "BEDS": 110, "TRAUMA": "NOT AVAILABLE", "HELIPAD": "Y" }, "geometry": { "type": "Polygon", "coordinates": [ [ [ -86.5473443, 30.63621710000001 ], [ -86.551239, 30.638455799999971 ], [ -86.629514900000018, 30.722582 ], [ -86.641998, 30.746937 ], [ -86.642544, 30.753247 ], [ -86.600654, 30.799076 ], [ -86.554381, 30.816495 ], [ -86.5368116, 30.822625199999955 ], [ -86.5364221, 30.822554100000051 ], [ -86.463324, 30.750444 ], [ -86.5473443, 30.63621710000001 ] ] ] } },
{ "type": "Feature", "properties": { "OBJECTID": 1462, "ID": "0042132570", "NAME": "WEST FLORIDA COMMUNITY CARE CENTER", "ADDRESS": "5500 STEWART ST", "CITY": "MILTON", "STATE": "FL", "ZIP": "32570", "ZIP4": "NOT AVAILABLE", "TELEPHONE": "(850) 983-5500", "TYPE": "GENERAL ACUTE CARE", "STATUS": "OPEN", "POPULATION": 100, "COUNTY": "SANTA ROSA", "COUNTYFIPS": "12113", "COUNTRY": "USA", "LATITUDE": 30.634375371000001, "LONGITUDE": -87.042533281999994, "NAICS_CODE": "622110", "NAICS_DESC": "GENERAL MEDICAL AND SURGICAL HOSPITALS", "SOURCE": "http://www.floridahealthfinder.gov/facilitylocator/facilitysearch.aspx", "SOURCEDATE": "2018-08-15T00:00:00.000Z", "VAL_METHOD": "IMAGERY", "VAL_DATE": "2014-02-10T00:00:00.000Z", "WEBSITE": "http://www.bhcpns.org/BehavioralHealth/", "STATE_ID": "10070", "ALT_NAME": "NOT AVAILABLE", "ST_FIPS": "12", "OWNER": "NON-PROFIT", "TTL_STAFF": -999, "BEDS": 100, "TRAUMA": "NOT AVAILABLE", "HELIPAD": "N" }, "geometry": { "type": "Polygon", "coordinates": [ [ [ -87.088429, 30.552410200000029 ], [ -87.107915, 30.5587245 ], [ -87.1085721, 30.558985 ], [ -87.144995, 30.603754 ], [ -87.1449898, 30.603900300000031 ], [ -87.1279228, 30.6771918 ], [ -87.125652, 30.680455 ], [ -87.084576, 30.728405 ], [ -87.042585, 30.748472 ], [ -86.979018, 30.702866 ], [ -86.978289, 30.702036 ], [ -86.948213, 30.640352 ], [ -86.948361, 30.639016 ], [ -86.960045, 30.61719 ], [ -86.99028, 30.585415 ], [ -87.015973, 30.572154 ], [ -87.031713, 30.567357 ], [ -87.036797, 30.565964 ], [ -87.088429, 30.552410200000029 ] ] ] } },
{ "type": "Feature", "properties": { "OBJECTID": 1463, "ID": "0039632308", "NAME": "TALLAHASSEE MEMORIAL HOSPITAL", "ADDRESS": "1300 MICCOSUKEE RD", "CITY": "TALLAHASSEE", "STATE": "FL", "ZIP": "32308", "ZIP4": "NOT AVAILABLE", "TELEPHONE": "(850) 431-5380", "TYPE": "GENERAL ACUTE CARE", "STATUS": "OPEN", "POPULATION": 772, "COUNTY": "LEON", "COUNTYFIPS": "12073", "COUNTRY": "USA", "LATITUDE": 30.456880933000001, "LONGITUDE": -84.261407288000001, "NAICS_CODE": "622110", "NAICS_DESC": "GENERAL MEDICAL AND SURGICAL HOSPITALS", "SOURCE": "http://www.floridahealthfinder.gov/facilitylocator/facilitysearch.aspx", "SOURCEDATE": "2018-08-15T00:00:00.000Z", "VAL_METHOD": "IMAGERY", "VAL_DATE": "2014-02-10T00:00:00.000Z", "WEBSITE": "http://www.tmh.org", "STATE_ID": "9938", "ALT_NAME": "NOT AVAILABLE", "ST_FIPS": "12", "OWNER": "NON-PROFIT", "TTL_STAFF": -999, "BEDS": 772, "TRAUMA": "LEVEL II", "HELIPAD": "Y" }, "geometry": { "type": "Polygon", "coordinates": [ [ [ -84.2939579, 30.373335200000014 ], [ -84.3298826, 30.4097614 ], [ -84.363306, 30.478369799999978 ], [ -84.3632895, 30.480502 ], [ -84.3630861, 30.483179799999988 ], [ -84.3377545, 30.508568699999955 ], [ -84.2285276, 30.542485 ], [ -84.188577, 30.528249 ], [ -84.1585488, 30.4851247 ], [ -84.15175, 30.46346 ], [ -84.1639772, 30.421296899999987 ], [ -84.1640246, 30.4211408 ], [ -84.22914, 30.378673 ], [ -84.2700219, 30.3751032 ], [ -84.2939579, 30.373335200000014 ] ] ] } },
{ "type": "Feature", "properties": { "OBJECTID": 1464, "ID": "0001132501", "NAME": "BAPTIST HOSPITAL", "ADDRESS": "1000 W MORENO ST", "CITY": "PENSACOLA", "STATE": "FL", "ZIP": "32501", "ZIP4": "NOT AVAILABLE", "TELEPHONE": "(850) 434-4011", "TYPE": "GENERAL ACUTE CARE", "STATUS": "OPEN", "POPULATION": 492, "COUNTY": "ESCAMBIA", "COUNTYFIPS": "12033", "COUNTRY": "USA", "LATITUDE": 30.429417895, "LONGITUDE": -87.230420902999995, "NAICS_CODE": "622110", "NAICS_DESC": "GENERAL MEDICAL AND SURGICAL HOSPITALS", "SOURCE": "http://www.floridahealthfinder.gov/facilitylocator/facilitysearch.aspx", "SOURCEDATE": "2018-08-15T00:00:00.000Z", "VAL_METHOD": "IMAGERY", "VAL_DATE": "2014-02-10T00:00:00.000Z", "WEBSITE": "http://www.ebaptisthealthcare.org", "STATE_ID": "9907", "ALT_NAME": "NOT AVAILABLE", "ST_FIPS": "12", "OWNER": "NON-PROFIT", "TTL_STAFF": -999, "BEDS": 492, "TRAUMA": "LEVEL II", "HELIPAD": "Y" }, "geometry": { "type": "Polygon", "coordinates": [ [ [ -87.276932800000012, 30.369907100000024 ], [ -87.3049, 30.38196 ], [ -87.3111753, 30.399581300000015 ], [ -87.315727, 30.42761 ], [ -87.305336, 30.461205 ], [ -87.303225, 30.465514 ], [ -87.273123, 30.511522 ], [ -87.2711795, 30.5139542 ], [ -87.265012, 30.516369 ], [ -87.220741, 30.519532 ], [ -87.2205966, 30.519527 ], [ -87.214517, 30.518375 ], [ -87.184273, 30.499765 ], [ -87.181903, 30.498034 ], [ -87.169094, 30.455453 ], [ -87.175018, 30.429507 ], [ -87.1853758, 30.394030400000023 ], [ -87.276932800000012, 30.369907100000024 ] ] ] } },
{ "type": "Feature", "properties": { "OBJECTID": 1468, "ID": "0002632401", "NAME": "BAY MEDICAL CENTER SACRED HEART", "ADDRESS": "615 N BONITA AVE", "CITY": "PANAMA CITY", "STATE": "FL", "ZIP": "32401", "ZIP4": "NOT AVAILABLE", "TELEPHONE": "(850) 769-1511", "TYPE": "GENERAL ACUTE CARE", "STATUS": "OPEN", "POPULATION": 323, "COUNTY": "BAY", "COUNTYFIPS": "12005", "COUNTRY": "USA", "LATITUDE": 30.159731830000101, "LONGITUDE": -85.647532377999894, "NAICS_CODE": "622110", "NAICS_DESC": "GENERAL MEDICAL AND SURGICAL HOSPITALS", "SOURCE": "http://www.floridahealthfinder.gov/facilitylocator/facilitysearch.aspx", "SOURCEDATE": "2018-08-15T00:00:00.000Z", "VAL_METHOD": "IMAGERY", "VAL_DATE": "2014-03-12T00:00:00.000Z", "WEBSITE": "http://www.baymedical.org", "STATE_ID": "9849", "ALT_NAME": "NOT AVAILABLE", "ST_FIPS": "12", "OWNER": "GOVERNMENT - DISTRICT/AUTHORITY", "TTL_STAFF": -999, "BEDS": 323, "TRAUMA": "LEVEL II", "HELIPAD": "Y" }, "geometry": { "type": "Polygon", "coordinates": [ [ [ -85.598438, 30.115570900000019 ], [ -85.647361, 30.135854 ], [ -85.7310276, 30.17728480000002 ], [ -85.7322701, 30.1805756 ], [ -85.7342376, 30.186927900000022 ], [ -85.650786, 30.251670599999958 ], [ -85.6489419, 30.2529215 ], [ -85.6474942, 30.2531716 ], [ -85.5720648, 30.238347300000019 ], [ -85.5719413, 30.238206799999979 ], [ -85.545074, 30.152812 ], [ -85.5646312, 30.137809500000024 ], [ -85.590675, 30.118757 ], [ -85.598438, 30.115570900000019 ] ] ] } },
{ "type": "Feature", "properties": { "OBJECTID": 1469, "ID": "0015932405", "NAME": "HEALTHSOUTH EMERALD COAST REHABILITATION", "ADDRESS": "1847 FLORIDA AVE", "CITY": "PANAMA CITY", "STATE": "FL", "ZIP": "32405", "ZIP4": "NOT AVAILABLE", "TELEPHONE": "(850) 914-8600", "TYPE": "REHABILITATION", "STATUS": "OPEN", "POPULATION": 75, "COUNTY": "BAY", "COUNTYFIPS": "12005", "COUNTRY": "USA", "LATITUDE": 30.181889921000099, "LONGITUDE": -85.669174991999995, "NAICS_CODE": "622110", "NAICS_DESC": "GENERAL MEDICAL AND SURGICAL HOSPITALS", "SOURCE": "http://www.floridahealthfinder.gov/facilitylocator/facilitysearch.aspx", "SOURCEDATE": "2018-08-15T00:00:00.000Z", "VAL_METHOD": "IMAGERY", "VAL_DATE": "2013-11-08T00:00:00.000Z", "WEBSITE": "http://www.healthsouthpanamacity.com", "STATE_ID": "10160", "ALT_NAME": "NOT AVAILABLE", "ST_FIPS": "12", "OWNER": "PROPRIETARY", "TTL_STAFF": -999, "BEDS": 75, "TRAUMA": "NOT AVAILABLE", "HELIPAD": "N" }, "geometry": { "type": "Polygon", "coordinates": [ [ [ -85.609916, 30.130401 ], [ -85.647361, 30.135854 ], [ -85.7600592, 30.1747234 ], [ -85.776547300000018, 30.184790199999973 ], [ -85.780126200000012, 30.18904759999997 ], [ -85.7801119, 30.18922280000001 ], [ -85.761505, 30.20087 ], [ -85.6453872, 30.266041500000028 ], [ -85.5572478, 30.248836 ], [ -85.5571213, 30.2486932 ], [ -85.5567603, 30.2482779 ], [ -85.5742174, 30.152931500000022 ], [ -85.5912573, 30.138346 ], [ -85.609916, 30.130401 ] ] ] } },
{ "type": "Feature", "properties": { "OBJECTID": 1470, "ID": "0015632435", "NAME": "HEALTHMARK REGIONAL MEDICAL CENTER", "ADDRESS": "4413 US HWY 331 S", "CITY": "DEFUNIAK SPRINGS", "STATE": "FL", "ZIP": "32435", "ZIP4": "NOT AVAILABLE", "TELEPHONE": "(850) 951-4500", "TYPE": "GENERAL ACUTE CARE", "STATUS": "OPEN", "POPULATION": 50, "COUNTY": "WALTON", "COUNTYFIPS": "12131", "COUNTRY": "USA", "LATITUDE": 30.6597162210001, "LONGITUDE": -86.117950418999996, "NAICS_CODE": "622110", "NAICS_DESC": "GENERAL MEDICAL AND SURGICAL HOSPITALS", "SOURCE": "http://www.floridahealthfinder.gov/facilitylocator/facilitysearch.aspx", "SOURCEDATE": "2018-08-15T00:00:00.000Z", "VAL_METHOD": "IMAGERY", "VAL_DATE": "2013-11-08T00:00:00.000Z", "WEBSITE": "http://www.healthmarkregional.com", "STATE_ID": "9896", "ALT_NAME": "NOT AVAILABLE", "ST_FIPS": "12", "OWNER": "PROPRIETARY", "TTL_STAFF": -999, "BEDS": 50, "TRAUMA": "NOT AVAILABLE", "HELIPAD": "N" }, "geometry": { "type": "Polygon", "coordinates": [ [ [ -86.1091681, 30.5185648 ], [ -86.130073300000021, 30.521162400000016 ], [ -86.1312058, 30.523894099999978 ], [ -86.194484, 30.706767 ], [ -86.190844, 30.741653 ], [ -86.154935, 30.767529 ], [ -86.114491, 30.775205 ], [ -86.113553, 30.775197 ], [ -86.051684, 30.723097 ], [ -86.021723, 30.646003 ], [ -86.021432, 30.643423 ], [ -86.1091681, 30.5185648 ] ] ] } },
{ "type": "Feature", "properties": { "OBJECTID": 1589, "ID": "0082132501", "NAME": "LAKEVIEW CENTER - PSYCHIATRIC HOSPITAL", "ADDRESS": "1201 W HERNANDEZ ST", "CITY": "PENSACOLA", "STATE": "FL", "ZIP": "32501", "ZIP4": "NOT AVAILABLE", "TELEPHONE": "(850) 432-1222", "TYPE": "PSYCHIATRIC", "STATUS": "OPEN", "POPULATION": -999, "COUNTY": "ESCAMBIA", "COUNTYFIPS": "12033", "COUNTRY": "USA", "LATITUDE": 30.432356900000102, "LONGITUDE": -87.233155885000002, "NAICS_CODE": "622110", "NAICS_DESC": "GENERAL MEDICAL AND SURGICAL HOSPITALS", "SOURCE": "http://www.floridahealthfinder.gov/facilitylocator/facilitysearch.aspx", "SOURCEDATE": "2018-08-15T00:00:00.000Z", "VAL_METHOD": "IMAGERY/OTHER", "VAL_DATE": "2015-02-16T00:00:00.000Z", "WEBSITE": "HTTP://WWW.ELAKEVIEWCENTER.ORG/LAKEVIEWCENTER/", "STATE_ID": "NOT AVAILABLE", "ALT_NAME": "NOT AVAILABLE", "ST_FIPS": "12", "OWNER": "NOT AVAILABLE", "TTL_STAFF": -999, "BEDS": 16, "TRAUMA": "NOT AVAILABLE", "HELIPAD": "N" }, "geometry": { "type": "Polygon", "coordinates": [ [ [ -87.27671, 30.375307 ], [ -87.28459, 30.377253 ], [ -87.28885, 30.378413 ], [ -87.2998879, 30.383658899999986 ], [ -87.3100892, 30.399287799999975 ], [ -87.318844, 30.42567 ], [ -87.318559, 30.428705 ], [ -87.309938, 30.461306099999977 ], [ -87.273123, 30.511522 ], [ -87.2711795, 30.5139542 ], [ -87.265012, 30.516369 ], [ -87.220906, 30.515946499999973 ], [ -87.2165066, 30.51575430000004 ], [ -87.184613, 30.495803 ], [ -87.175058, 30.459736 ], [ -87.173246, 30.445922 ], [ -87.1737262, 30.435825700000017 ], [ -87.175018, 30.429507 ], [ -87.1853758, 30.394030400000023 ], [ -87.274359, 30.375215 ], [ -87.27671, 30.375307 ] ] ] } },
{ "type": "Feature", "properties": { "OBJECTID": 1868, "ID": "0001636302", "NAME": "FLOWERS HOSPITAL", "ADDRESS": "4370 WEST MAIN STREET", "CITY": "DOTHAN", "STATE": "AL", "ZIP": "36302", "ZIP4": "NOT AVAILABLE", "TELEPHONE": "(334) 793-5000", "TYPE": "GENERAL ACUTE CARE", "STATUS": "OPEN", "POPULATION": 235, "COUNTY": "HOUSTON", "COUNTYFIPS": "01069", "COUNTRY": "USA", "LATITUDE": 31.237429987, "LONGITUDE": -85.45704246, "NAICS_CODE": "622110", "NAICS_DESC": "GENERAL MEDICAL AND SURGICAL HOSPITALS", "SOURCE": "http://dph1.adph.state.al.us/FacilitiesDirectory", "SOURCEDATE": "2018-08-09T00:00:00.000Z", "VAL_METHOD": "IMAGERY/OTHER", "VAL_DATE": "2014-02-10T00:00:00.000Z", "WEBSITE": "http://www.flowershospital.com", "STATE_ID": "H3501", "ALT_NAME": "NOT AVAILABLE", "ST_FIPS": "01", "OWNER": "PROPRIETARY", "TTL_STAFF": -999, "BEDS": 235, "TRAUMA": "LEVEL III", "HELIPAD": "Y" }, "geometry": { "type": "Polygon", "coordinates": [ [ [ -85.403113428230597, 31.13718382627399 ], [ -85.466859422586424, 31.152520915653486 ], [ -85.608036219625703, 31.241950106989762 ], [ -85.608033321478828, 31.242290210857679 ], [ -85.527913174398407, 31.327186746774167 ], [ -85.359268598277851, 31.298499337335041 ], [ -85.334610702264882, 31.230681595214026 ], [ -85.32967962145257, 31.195297331810895 ], [ -85.403113428230597, 31.13718382627399 ] ] ] } },
{ "type": "Feature", "properties": { "OBJECTID": 2014, "ID": "0044332542", "NAME": "96TH MEDICAL GROUP-EGLIN HOSPITAL", "ADDRESS": "307 BOATNER RD", "CITY": "EGLIN AFB", "STATE": "FL", "ZIP": "32542", "ZIP4": "NOT AVAILABLE", "TELEPHONE": "(850) 883-8600", "TYPE": "MILITARY", "STATUS": "OPEN", "POPULATION": -999, "COUNTY": "OKALOOSA", "COUNTYFIPS": "12091", "COUNTRY": "USA", "LATITUDE": 30.460839855000099, "LONGITUDE": -86.555232652000001, "NAICS_CODE": "622110", "NAICS_DESC": "GENERAL MEDICAL AND SURGICAL HOSPITALS", "SOURCE": "http://www.floridahealthfinder.gov/facilitylocator/facilitysearch.aspx", "SOURCEDATE": "2018-08-15T00:00:00.000Z", "VAL_METHOD": "IMAGERY", "VAL_DATE": "2014-02-10T00:00:00.000Z", "WEBSITE": "http://www.eglin.af.mil/units/eglinhospital.asp", "STATE_ID": "NOT AVAILABLE", "ALT_NAME": "NOT AVAILABLE", "ST_FIPS": "12", "OWNER": "GOVERNMENT - FEDERAL", "TTL_STAFF": -999, "BEDS": -999, "TRAUMA": "NOT AVAILABLE", "HELIPAD": "Y" }, "geometry": { "type": "Polygon", "coordinates": [ [ [ -86.5552105, 30.4499082 ], [ -86.5588241, 30.4505022 ], [ -86.5661242, 30.453675099999952 ], [ -86.566711, 30.45482 ], [ -86.5667181, 30.4570381 ], [ -86.551178, 30.462913 ], [ -86.5455159, 30.4604862 ], [ -86.5471171, 30.456128799999984 ], [ -86.54817420000002, 30.454281400000031 ], [ -86.551619300000013, 30.452078 ], [ -86.5552105, 30.4499082 ] ] ] } },
{ "type": "Feature", "properties": { "OBJECTID": 2410, "ID": "0084731639", "NAME": "SGMC BERRIEN CAMPUS", "ADDRESS": "1221 E MCPHERSON AVENUE", "CITY": "NASHVILLE", "STATE": "GA", "ZIP": "31639", "ZIP4": "NOT AVAILABLE", "TELEPHONE": "NOT AVAILABLE", "TYPE": "GENERAL ACUTE CARE", "STATUS": "OPEN", "POPULATION": -999, "COUNTY": "BERRIEN", "COUNTYFIPS": "13019", "COUNTRY": "USA", "LATITUDE": 31.203071040000101, "LONGITUDE": -83.238707274999996, "NAICS_CODE": "622110", "NAICS_DESC": "GENERAL MEDICAL AND SURGICAL HOSPITALS", "SOURCE": "http://www.gamap2care.info/", "SOURCEDATE": "2018-08-09T00:00:00.000Z", "VAL_METHOD": "IMAGERY/OTHER", "VAL_DATE": "2015-03-03T00:00:00.000Z", "WEBSITE": "http://www.berrienhospital.com/", "STATE_ID": "NOT AVAILABLE", "ALT_NAME": "NOT AVAILABLE", "ST_FIPS": "13", "OWNER": "PROPRIETARY", "TTL_STAFF": -999, "BEDS": 63, "TRAUMA": "NOT AVAILABLE", "HELIPAD": "N" }, "geometry": { "type": "Polygon", "coordinates": [ [ [ -83.208566509731327, 31.103314217563643 ], [ -83.322564405740138, 31.177007028157085 ], [ -83.335632288116713, 31.221334110687188 ], [ -83.324173079731622, 31.272510371750261 ], [ -83.232943134863703, 31.303547573587036 ], [ -83.226409742991791, 31.299868714980938 ], [ -83.123797795751599, 31.237764886357898 ], [ -83.11102618786181, 31.17281354394563 ], [ -83.111213687792585, 31.172124142969675 ], [ -83.208566509731327, 31.103314217563643 ] ] ] } },
{ "type": "Feature", "properties": { "OBJECTID": 2414, "ID": "0018731901", "NAME": "MIDTOWN MEDICAL CENTER WEST", "ADDRESS": "616 19TH STREET", "CITY": "COLUMBUS", "STATE": "GA", "ZIP": "31901", "ZIP4": "NOT AVAILABLE", "TELEPHONE": "(706) 494-4262", "TYPE": "GENERAL ACUTE CARE", "STATUS": "OPEN", "POPULATION": 171, "COUNTY": "MUSCOGEE", "COUNTYFIPS": "13215", "COUNTRY": "USA", "LATITUDE": 32.480108873000098, "LONGITUDE": -84.985093768, "NAICS_CODE": "622110", "NAICS_DESC": "GENERAL MEDICAL AND SURGICAL HOSPITALS", "SOURCE": "http://www.gamap2care.info/", "SOURCEDATE": "2018-08-09T00:00:00.000Z", "VAL_METHOD": "IMAGERY", "VAL_DATE": "2014-02-10T00:00:00.000Z", "WEBSITE": "https://columbusregional.com/", "STATE_ID": "189", "ALT_NAME": "DOCTORS HOSPITAL", "ST_FIPS": "13", "OWNER": "PROPRIETARY", "TTL_STAFF": -999, "BEDS": 171, "TRAUMA": "NOT AVAILABLE", "HELIPAD": "Y" }, "geometry": { "type": "Polygon", "coordinates": [ [ [ -84.9578212, 32.40156970000001 ], [ -84.966742, 32.407441 ], [ -84.9940582, 32.454325899999986 ], [ -84.999047, 32.463381399999989 ], [ -85.017747, 32.548571 ], [ -85.014459, 32.57368 ], [ -84.971045, 32.574277 ], [ -84.9296555, 32.5696328 ], [ -84.869754, 32.542339 ], [ -84.8685684, 32.539591099999988 ], [ -84.868259900000012, 32.5382525 ], [ -84.876017, 32.487322 ], [ -84.8921991, 32.428868799999961 ], [ -84.892826, 32.42808 ], [ -84.9188635, 32.405041499999975 ], [ -84.926483, 32.401187 ], [ -84.9555627, 32.401473500000023 ], [ -84.9578212, 32.40156970000001 ] ] ] } },
{ "type": "Feature", "properties": { "OBJECTID": 2415, "ID": "0089531901", "NAME": "DOCTORS SPECIALTY HOSPITAL", "ADDRESS": "616 19TH STREET", "CITY": "COLUMBUS", "STATE": "GA", "ZIP": "31901", "ZIP4": "NOT AVAILABLE", "TELEPHONE": "(706) 494-4075", "TYPE": "LONG TERM CARE", "STATUS": "OPEN", "POPULATION": 169, "COUNTY": "MUSCOGEE", "COUNTYFIPS": "13215", "COUNTRY": "USA", "LATITUDE": 32.480210929000101, "LONGITUDE": -84.984618482000002, "NAICS_CODE": "622310", "NAICS_DESC": "SPECIALTY (EXCEPT PSYCHIATRIC AND SUBSTANCE ABUSE) HOSPITALS", "SOURCE": "http://www.gamap2care.info/", "SOURCEDATE": "2018-08-09T00:00:00.000Z", "VAL_METHOD": "IMAGERY/OTHER", "VAL_DATE": "2015-03-09T00:00:00.000Z", "WEBSITE": "http://www.columbusspecialtyhospital.net/", "STATE_ID": "NOT AVAILABLE", "ALT_NAME": "NOT AVAILABLE", "ST_FIPS": "13", "OWNER": "PROPRIETARY", "TTL_STAFF": -999, "BEDS": 169, "TRAUMA": "NOT AVAILABLE", "HELIPAD": "N" }, "geometry": { "type": "Polygon", "coordinates": [ [ [ -84.9578212, 32.40156970000001 ], [ -84.966742, 32.407441 ], [ -84.9940582, 32.454325899999986 ], [ -84.999047, 32.463381399999989 ], [ -85.017747, 32.548571 ], [ -85.014459, 32.57368 ], [ -84.971045, 32.574277 ], [ -84.9296555, 32.5696328 ], [ -84.869754, 32.542339 ], [ -84.8685684, 32.539591099999988 ], [ -84.868259900000012, 32.5382525 ], [ -84.876017, 32.487322 ], [ -84.8921991, 32.428868799999961 ], [ -84.892826, 32.42808 ], [ -84.9188635, 32.405041499999975 ], [ -84.926483, 32.401187 ], [ -84.9555627, 32.401473500000023 ], [ -84.9578212, 32.40156970000001 ] ] ] } },
{ "type": "Feature", "properties": { "OBJECTID": 2423, "ID": "0087739823", "NAME": "PIONEER COMMUNITY HOSPITAL OF EARLY", "ADDRESS": "11740 COLUMBIA STREET", "CITY": "BLAKELY", "STATE": "GA", "ZIP": "39823", "ZIP4": "NOT AVAILABLE", "TELEPHONE": "NOT AVAILABLE", "TYPE": "CRITICAL ACCESS", "STATUS": "OPEN", "POPULATION": -999, "COUNTY": "EARLY", "COUNTYFIPS": "13099", "COUNTRY": "USA", "LATITUDE": 31.373669862, "LONGITUDE": -84.946012487000004, "NAICS_CODE": "622110", "NAICS_DESC": "GENERAL MEDICAL AND SURGICAL HOSPITALS", "SOURCE": "http://www.gamap2care.info/", "SOURCEDATE": "2018-08-09T00:00:00.000Z", "VAL_METHOD": "IMAGERY/OTHER", "VAL_DATE": "2015-03-09T00:00:00.000Z", "WEBSITE": "NOT AVAILABLE", "STATE_ID": "NOT AVAILABLE", "ALT_NAME": "NOT AVAILABLE", "ST_FIPS": "13", "OWNER": "NOT AVAILABLE", "TTL_STAFF": -999, "BEDS": 25, "TRAUMA": "NOT AVAILABLE", "HELIPAD": "N" }, "geometry": { "type": "Polygon", "coordinates": [ [ [ -84.84704785936151, 31.288113698383285 ], [ -84.99107877627759, 31.303208726760275 ], [ -85.031869468695831, 31.319459280815316 ], [ -85.043672558381488, 31.35775555046235 ], [ -85.021302899338792, 31.396375159109798 ], [ -84.977417173514354, 31.436642825746283 ], [ -84.942140565204838, 31.457953391198423 ], [ -84.870088288014941, 31.474238674166912 ], [ -84.868179301297218, 31.474421582927775 ], [ -84.868048201917162, 31.474187182342618 ], [ -84.840225722743426, 31.400317854595635 ], [ -84.840820987802616, 31.368142202518932 ], [ -84.846963860997803, 31.289039803156708 ], [ -84.84704785936151, 31.288113698383285 ] ] ] } },
{ "type": "Feature", "properties": { "OBJECTID": 2552, "ID": "0021331076", "NAME": "THE GEORGIA CENTER FOR YOUTH", "ADDRESS": "GOOSE HOLLOW ROAD", "CITY": "REYNOLDS", "STATE": "GA", "ZIP": "31076", "ZIP4": "NOT AVAILABLE", "TELEPHONE": "(478) 847-2403", "TYPE": "PSYCHIATRIC", "STATUS": "OPEN", "POPULATION": -999, "COUNTY": "TAYLOR", "COUNTYFIPS": "13269", "COUNTRY": "USA", "LATITUDE": 32.549513575, "LONGITUDE": -84.153174645999997, "NAICS_CODE": "622210", "NAICS_DESC": "PSYCHIATRIC AND SUBSTANCE ABUSE HOSPITALS", "SOURCE": "http://www.gamap2care.info/", "SOURCEDATE": "2018-08-09T00:00:00.000Z", "VAL_METHOD": "IMAGERY", "VAL_DATE": "2013-10-15T00:00:00.000Z", "WEBSITE": "http://www.gaadoptionresources.org/community-resources-region-01/region-8/disability-specialists-and-organizations/georgia-center-for-youth", "STATE_ID": "216", "ALT_NAME": "NOT AVAILABLE", "ST_FIPS": "13", "OWNER": "NON-PROFIT", "TTL_STAFF": -999, "BEDS": -999, "TRAUMA": "NOT AVAILABLE", "HELIPAD": "N" }, "geometry": { "type": "Polygon", "coordinates": [ [ [ -84.16821, 32.506605 ], [ -84.2439252, 32.517448 ], [ -84.2671845, 32.552650100000022 ], [ -84.2651643, 32.556657 ], [ -84.2590213, 32.563929399999957 ], [ -84.2383449, 32.579037100000036 ], [ -84.0959745, 32.605827599999984 ], [ -84.07672, 32.582521 ], [ -84.060329, 32.562128 ], [ -84.0556334, 32.5524749 ], [ -84.101468, 32.521711 ], [ -84.1176114, 32.514538800000011 ], [ -84.127708, 32.510759 ], [ -84.16821, 32.506605 ] ] ] } },
{ "type": "Feature", "properties": { "OBJECTID": 2553, "ID": "0013731768", "NAME": "TURNING POINT HOSPITAL", "ADDRESS": "3015 VETERANS PKWY SOUTH", "CITY": "MOULTRIE", "STATE": "GA", "ZIP": "31768", "ZIP4": "NOT AVAILABLE", "TELEPHONE": "NOT AVAILABLE", "TYPE": "SPECIAL", "STATUS": "OPEN", "POPULATION": 59, "COUNTY": "COLQUITT", "COUNTYFIPS": "13071", "COUNTRY": "USA", "LATITUDE": 31.153159671000001, "LONGITUDE": -83.762750998999906, "NAICS_CODE": "622310", "NAICS_DESC": "SPECIALTY (EXCEPT PSYCHIATRIC AND SUBSTANCE ABUSE) HOSPITALS", "SOURCE": "http://www.gamap2care.info/", "SOURCEDATE": "2018-08-09T00:00:00.000Z", "VAL_METHOD": "IMAGERY", "VAL_DATE": "2013-10-14T00:00:00.000Z", "WEBSITE": "http://www.turningpointcare.com", "STATE_ID": "136", "ALT_NAME": "NOT AVAILABLE", "ST_FIPS": "13", "OWNER": "PROPRIETARY", "TTL_STAFF": -999, "BEDS": 59, "TRAUMA": "NOT AVAILABLE", "HELIPAD": "N" }, "geometry": { "type": "Polygon", "coordinates": [ [ [ -83.841788032202487, 31.046093762594154 ], [ -83.860720751796606, 31.114666100348206 ], [ -83.855847054536738, 31.195455248811765 ], [ -83.827865733511004, 31.240535129690716 ], [ -83.805091408466424, 31.258525380441338 ], [ -83.778898069538087, 31.254874514546543 ], [ -83.730556816542418, 31.241224992506162 ], [ -83.715590724005267, 31.235204904419206 ], [ -83.684178648653244, 31.220370889987777 ], [ -83.674188425288804, 31.17779524954409 ], [ -83.680240979712963, 31.107448387976888 ], [ -83.71296858402998, 31.060572991402339 ], [ -83.841788032202487, 31.046093762594154 ] ] ] } },
{ "type": "Feature", "properties": { "OBJECTID": 2554, "ID": "0011631794", "NAME": "TIFT REGIONAL MEDICAL CENTER", "ADDRESS": "901 EAST 18TH STREET", "CITY": "TIFTON", "STATE": "GA", "ZIP": "31794", "ZIP4": "NOT AVAILABLE", "TELEPHONE": "NOT AVAILABLE", "TYPE": "GENERAL ACUTE CARE", "STATUS": "OPEN", "POPULATION": 191, "COUNTY": "TIFT", "COUNTYFIPS": "13277", "COUNTRY": "USA", "LATITUDE": 31.471346177000001, "LONGITUDE": -83.491436956000001, "NAICS_CODE": "622110", "NAICS_DESC": "GENERAL MEDICAL AND SURGICAL HOSPITALS", "SOURCE": "http://www.gamap2care.info/", "SOURCEDATE": "2018-08-09T00:00:00.000Z", "VAL_METHOD": "IMAGERY", "VAL_DATE": "2013-10-15T00:00:00.000Z", "WEBSITE": "http://www.tiftregional.com", "STATE_ID": "115", "ALT_NAME": "NOT AVAILABLE", "ST_FIPS": "13", "OWNER": "GOVERNMENT - DISTRICT/AUTHORITY", "TTL_STAFF": -999, "BEDS": 191, "TRAUMA": "NOT AVAILABLE", "HELIPAD": "N" }, "geometry": { "type": "Polygon", "coordinates": [ [ [ -83.491798161875309, 31.364531893158823 ], [ -83.583052375950331, 31.416127408526336 ], [ -83.592287981776877, 31.450467629544342 ], [ -83.591307, 31.485364 ], [ -83.5480484, 31.5701393 ], [ -83.5377684, 31.570975 ], [ -83.4820483, 31.557817600000035 ], [ -83.41053, 31.520644 ], [ -83.397866, 31.4652546 ], [ -83.408580977295173, 31.424584120439299 ], [ -83.408646577466868, 31.424414818184204 ], [ -83.491798161875309, 31.364531893158823 ] ] ] } },
{ "type": "Feature", "properties": { "OBJECTID": 2658, "ID": "0088239840", "NAME": "SOUTHWEST GEORGIA REGIONAL MEDICAL CENTER", "ADDRESS": "361 RANDOLPH STREET", "CITY": "CUTHBERT", "STATE": "GA", "ZIP": "39840", "ZIP4": "NOT AVAILABLE", "TELEPHONE": "NOT AVAILABLE", "TYPE": "CRITICAL ACCESS", "STATUS": "OPEN", "POPULATION": 25, "COUNTY": "RANDOLPH", "COUNTYFIPS": "13243", "COUNTRY": "USA", "LATITUDE": 31.775365524000101, "LONGITUDE": -84.793491603000007, "NAICS_CODE": "622110", "NAICS_DESC": "GENERAL MEDICAL AND SURGICAL HOSPITALS", "SOURCE": "http://www.gamap2care.info/", "SOURCEDATE": "2018-08-09T00:00:00.000Z", "VAL_METHOD": "IMAGERY/OTHER", "VAL_DATE": "2015-03-09T00:00:00.000Z", "WEBSITE": "NOT AVAILABLE", "STATE_ID": "NOT AVAILABLE", "ALT_NAME": "NOT AVAILABLE", "ST_FIPS": "13", "OWNER": "NOT AVAILABLE", "TTL_STAFF": -999, "BEDS": 25, "TRAUMA": "NOT AVAILABLE", "HELIPAD": "N" }, "geometry": { "type": "Polygon", "coordinates": [ [ [ -84.8297251, 31.659513599999972 ], [ -84.886204, 31.743193 ], [ -84.8798063, 31.827942400000051 ], [ -84.793682, 31.905058699999984 ], [ -84.7934667, 31.905109 ], [ -84.711969, 31.825884 ], [ -84.680254, 31.772959 ], [ -84.68181, 31.745605 ], [ -84.731025, 31.711318 ], [ -84.8297251, 31.659513599999972 ] ] ] } },
{ "type": "Feature", "properties": { "OBJECTID": 2752, "ID": "0010131069", "NAME": "PERRY HOSPITAL", "ADDRESS": "1120 MORNINGSIDE DRIVE", "CITY": "PERRY", "STATE": "GA", "ZIP": "31069", "ZIP4": "NOT AVAILABLE", "TELEPHONE": "NOT AVAILABLE", "TYPE": "GENERAL ACUTE CARE", "STATUS": "OPEN", "POPULATION": 39, "COUNTY": "HOUSTON", "COUNTYFIPS": "13153", "COUNTRY": "USA", "LATITUDE": 32.459623235000002, "LONGITUDE": -83.710025517999995, "NAICS_CODE": "622110", "NAICS_DESC": "GENERAL MEDICAL AND SURGICAL HOSPITALS", "SOURCE": "http://www.gamap2care.info/", "SOURCEDATE": "2018-08-09T00:00:00.000Z", "VAL_METHOD": "IMAGERY", "VAL_DATE": "2014-02-10T00:00:00.000Z", "WEBSITE": "http://www.hhc.org", "STATE_ID": "99", "ALT_NAME": "NOT AVAILABLE", "ST_FIPS": "13", "OWNER": "NON-PROFIT", "TTL_STAFF": -999, "BEDS": 39, "TRAUMA": "NOT AVAILABLE", "HELIPAD": "N" }, "geometry": { "type": "Polygon", "coordinates": [ [ [ -83.623115, 32.390424 ], [ -83.7740955, 32.419711099999986 ], [ -83.8076717, 32.433322699999955 ], [ -83.8171807, 32.439868400000037 ], [ -83.8171799, 32.439965400000027 ], [ -83.8034051, 32.4828973 ], [ -83.8028371, 32.484284600000024 ], [ -83.7197173, 32.560167099999987 ], [ -83.6912631, 32.554416 ], [ -83.6596525, 32.543775600000025 ], [ -83.634334, 32.531809 ], [ -83.63281, 32.530624 ], [ -83.6070539, 32.495422399999967 ], [ -83.605757700000012, 32.457490599999979 ], [ -83.623115, 32.390424 ] ] ] } },
{ "type": "Feature", "properties": { "OBJECTID": 2753, "ID": "0016331701", "NAME": "PHOEBE PUTNEY MEMORIAL HOSPITAL - NORTH CAMPUS", "ADDRESS": "2000 PALMYRA ROAD", "CITY": "ALBANY", "STATE": "GA", "ZIP": "31701", "ZIP4": "NOT AVAILABLE", "TELEPHONE": "(229) 434-2000", "TYPE": "GENERAL ACUTE CARE", "STATUS": "OPEN", "POPULATION": 248, "COUNTY": "DOUGHERTY", "COUNTYFIPS": "13095", "COUNTRY": "USA", "LATITUDE": 31.606592558, "LONGITUDE": -84.169414536999994, "NAICS_CODE": "622110", "NAICS_DESC": "GENERAL MEDICAL AND SURGICAL HOSPITALS", "SOURCE": "http://www.gamap2care.info/", "SOURCEDATE": "2018-08-09T00:00:00.000Z", "VAL_METHOD": "IMAGERY", "VAL_DATE": "2014-03-12T00:00:00.000Z", "WEBSITE": "http://phoebeputney.com/PhoebeContentPage.aspx?nd=1643", "STATE_ID": "162", "ALT_NAME": "NOT AVAILABLE", "ST_FIPS": "13", "OWNER": "NON-PROFIT", "TTL_STAFF": -999, "BEDS": 248, "TRAUMA": "NOT AVAILABLE", "HELIPAD": "Y" }, "geometry": { "type": "Polygon", "coordinates": [ [ [ -84.196665292308055, 31.519610037621824 ], [ -84.262035, 31.585688 ], [ -84.27576, 31.607757 ], [ -84.2739959, 31.6589662 ], [ -84.1722526, 31.720014699999989 ], [ -84.1713363, 31.7198938 ], [ -84.087399, 31.659283799999987 ], [ -84.067374, 31.5937807 ], [ -84.0717441, 31.573644199999965 ], [ -84.07346, 31.571024 ], [ -84.098582, 31.53593 ], [ -84.111515049884559, 31.530349074858513 ], [ -84.117874053902028, 31.527616071033545 ], [ -84.196665292308055, 31.519610037621824 ] ] ] } },
{ "type": "Feature", "properties": { "OBJECTID": 6104, "ID": "0013932547", "NAME": "FORT WALTON BEACH MEDICAL CENTER", "ADDRESS": "1000 MAR-WALT DR", "CITY": "FORT WALTON BEACH", "STATE": "FL", "ZIP": "32547", "ZIP4": "NOT AVAILABLE", "TELEPHONE": "(850) 862-1111", "TYPE": "GENERAL ACUTE CARE", "STATUS": "OPEN", "POPULATION": 237, "COUNTY": "OKALOOSA", "COUNTYFIPS": "12091", "COUNTRY": "USA", "LATITUDE": 30.454438731, "LONGITUDE": -86.633210019000003, "NAICS_CODE": "622110", "NAICS_DESC": "GENERAL MEDICAL AND SURGICAL HOSPITALS", "SOURCE": "http://www.floridahealthfinder.gov/facilitylocator/facilitysearch.aspx", "SOURCEDATE": "2018-08-15T00:00:00.000Z", "VAL_METHOD": "IMAGERY", "VAL_DATE": "2014-02-10T00:00:00.000Z", "WEBSITE": "http://www.fwbmc.com", "STATE_ID": "10010", "ALT_NAME": "NOT AVAILABLE", "ST_FIPS": "12", "OWNER": "PROPRIETARY", "TTL_STAFF": -999, "BEDS": 237, "TRAUMA": "LEVEL II", "HELIPAD": "Y" }, "geometry": { "type": "Polygon", "coordinates": [ [ [ -86.704484799999989, 30.4090012 ], [ -86.7079465, 30.411220100000016 ], [ -86.7079273, 30.411365400000022 ], [ -86.7018534, 30.4189048 ], [ -86.654841, 30.467748 ], [ -86.651153, 30.469591 ], [ -86.5522417, 30.5137146 ], [ -86.5515865, 30.513406200000034 ], [ -86.5511075, 30.513146400000025 ], [ -86.5362631, 30.500517499999958 ], [ -86.5361634, 30.5003585 ], [ -86.556762, 30.437957 ], [ -86.560501, 30.432188 ], [ -86.59285, 30.40727 ], [ -86.6008865, 30.4019825 ], [ -86.704484799999989, 30.4090012 ] ] ] } },
{ "type": "Feature", "properties": { "OBJECTID": 6105, "ID": "0014932547", "NAME": "GULF COAST TREATMENT CENTER", "ADDRESS": "1015 MAR WALT DR", "CITY": "FORT WALTON BEACH", "STATE": "FL", "ZIP": "32547", "ZIP4": "NOT AVAILABLE", "TELEPHONE": "(850) 863-4160", "TYPE": "PSYCHIATRIC", "STATUS": "OPEN", "POPULATION": 24, "COUNTY": "OKALOOSA", "COUNTYFIPS": "12091", "COUNTRY": "USA", "LATITUDE": 30.455594141000098, "LONGITUDE": -86.635925293999904, "NAICS_CODE": "622110", "NAICS_DESC": "GENERAL MEDICAL AND SURGICAL HOSPITALS", "SOURCE": "http://www.floridahealthfinder.gov/facilitylocator/facilitysearch.aspx", "SOURCEDATE": "2018-08-15T00:00:00.000Z", "VAL_METHOD": "IMAGERY", "VAL_DATE": "2014-02-10T00:00:00.000Z", "WEBSITE": "http://www.gulfcoastyouthservices.com/gctc_index.html", "STATE_ID": "10130", "ALT_NAME": "NOT AVAILABLE", "ST_FIPS": "12", "OWNER": "PROPRIETARY", "TTL_STAFF": -999, "BEDS": 24, "TRAUMA": "NOT AVAILABLE", "HELIPAD": "Y" }, "geometry": { "type": "Polygon", "coordinates": [ [ [ -86.6003966, 30.396380699999956 ], [ -86.704484799999989, 30.4090012 ], [ -86.7173692, 30.411708100000027 ], [ -86.654841, 30.467748 ], [ -86.651153, 30.469591 ], [ -86.5522417, 30.5137146 ], [ -86.5515865, 30.513406200000034 ], [ -86.5511075, 30.513146400000025 ], [ -86.5362631, 30.500517499999958 ], [ -86.5361634, 30.5003585 ], [ -86.561386, 30.432699 ], [ -86.5959192, 30.396693100000036 ], [ -86.6003966, 30.396380699999956 ] ] ] } },
{ "type": "Feature", "properties": { "OBJECTID": 6107, "ID": "0033632570", "NAME": "SANTA ROSA MEDICAL CENTER", "ADDRESS": "6002 BERRYHILL RD", "CITY": "MILTON", "STATE": "FL", "ZIP": "32570", "ZIP4": "NOT AVAILABLE", "TELEPHONE": "(850) 626-7762", "TYPE": "GENERAL ACUTE CARE", "STATUS": "OPEN", "POPULATION": 129, "COUNTY": "SANTA ROSA", "COUNTYFIPS": "12113", "COUNTRY": "USA", "LATITUDE": 30.6342186910001, "LONGITUDE": -87.067095062999996, "NAICS_CODE": "622110", "NAICS_DESC": "GENERAL MEDICAL AND SURGICAL HOSPITALS", "SOURCE": "http://www.floridahealthfinder.gov/facilitylocator/facilitysearch.aspx", "SOURCEDATE": "2018-08-15T00:00:00.000Z", "VAL_METHOD": "IMAGERY", "VAL_DATE": "2014-02-10T00:00:00.000Z", "WEBSITE": "http://www.santarosamedicalcenter.org", "STATE_ID": "9928", "ALT_NAME": "NOT AVAILABLE", "ST_FIPS": "12", "OWNER": "PROPRIETARY", "TTL_STAFF": -999, "BEDS": 129, "TRAUMA": "NOT AVAILABLE", "HELIPAD": "Y" }, "geometry": { "type": "Polygon", "coordinates": [ [ [ -87.0871457, 30.56181 ], [ -87.1057625, 30.5643409 ], [ -87.1803077, 30.644524599999983 ], [ -87.1804364, 30.644976800000023 ], [ -87.121886, 30.692948 ], [ -87.078553, 30.704984 ], [ -87.0469575, 30.7099947 ], [ -86.999944, 30.670397 ], [ -86.979947, 30.633259699999986 ], [ -87.0371273, 30.5794984 ], [ -87.04046, 30.578022 ], [ -87.0869965, 30.561812499999984 ], [ -87.0871457, 30.56181 ] ] ] } },
{ "type": "Feature", "properties": { "OBJECTID": 6108, "ID": "0008732308", "NAME": "EASTSIDE PSYCHIATRIC HOSPITAL", "ADDRESS": "2634B CAPITAL CIRCLE NE", "CITY": "TALLAHASSEE", "STATE": "FL", "ZIP": "32308", "ZIP4": "NOT AVAILABLE", "TELEPHONE": "(850) 523-3333", "TYPE": "PSYCHIATRIC", "STATUS": "OPEN", "POPULATION": 46, "COUNTY": "LEON", "COUNTYFIPS": "12073", "COUNTRY": "USA", "LATITUDE": 30.487511046000101, "LONGITUDE": -84.2393447, "NAICS_CODE": "622110", "NAICS_DESC": "GENERAL MEDICAL AND SURGICAL HOSPITALS", "SOURCE": "http://www.floridahealthfinder.gov/facilitylocator/facilitysearch.aspx", "SOURCEDATE": "2018-08-15T00:00:00.000Z", "VAL_METHOD": "IMAGERY", "VAL_DATE": "2014-02-10T00:00:00.000Z", "WEBSITE": "http://www.apalacheecenter.org", "STATE_ID": "10110", "ALT_NAME": "NOT AVAILABLE", "ST_FIPS": "12", "OWNER": "PROPRIETARY", "TTL_STAFF": -999, "BEDS": 46, "TRAUMA": "NOT AVAILABLE", "HELIPAD": "N" }, "geometry": { "type": "Polygon", "coordinates": [ [ [ -84.2350608, 30.3870511 ], [ -84.2354605, 30.3871063 ], [ -84.2356625, 30.387136200000011 ], [ -84.2770249, 30.410292 ], [ -84.2828903, 30.4136033 ], [ -84.3610894, 30.458900800000016 ], [ -84.36744640000002, 30.47674240000001 ], [ -84.364009, 30.495497 ], [ -84.3616015, 30.49967160000006 ], [ -84.348659, 30.518565600000017 ], [ -84.3485391, 30.518685299999987 ], [ -84.2776153, 30.5631422 ], [ -84.237754, 30.579186 ], [ -84.2366582, 30.579527300000038 ], [ -84.2006969, 30.5785793 ], [ -84.2005341, 30.578488099999987 ], [ -84.160397, 30.553881 ], [ -84.1165532, 30.4927947 ], [ -84.1165698, 30.4922939 ], [ -84.1726559, 30.423388600000035 ], [ -84.2350608, 30.3870511 ] ] ] } },
{ "type": "Feature", "properties": { "OBJECTID": 6109, "ID": "0016432308", "NAME": "HEALTHSOUTH REHABILITATION HOSPITAL OF TALLAHASSEE", "ADDRESS": "1675 RIGGINS RD", "CITY": "TALLAHASSEE", "STATE": "FL", "ZIP": "32308", "ZIP4": "NOT AVAILABLE", "TELEPHONE": "(850) 656-4800", "TYPE": "REHABILITATION", "STATUS": "OPEN", "POPULATION": 76, "COUNTY": "LEON", "COUNTYFIPS": "12073", "COUNTRY": "USA", "LATITUDE": 30.459603964000099, "LONGITUDE": -84.237017834, "NAICS_CODE": "622110", "NAICS_DESC": "GENERAL MEDICAL AND SURGICAL HOSPITALS", "SOURCE": "http://www.floridahealthfinder.gov/facilitylocator/facilitysearch.aspx", "SOURCEDATE": "2018-08-15T00:00:00.000Z", "VAL_METHOD": "IMAGERY", "VAL_DATE": "2013-11-08T00:00:00.000Z", "WEBSITE": "http://www.healthsouthtallahassee.com", "STATE_ID": "10090", "ALT_NAME": "NOT AVAILABLE", "ST_FIPS": "12", "OWNER": "PROPRIETARY", "TTL_STAFF": -999, "BEDS": 76, "TRAUMA": "NOT AVAILABLE", "HELIPAD": "N" }, "geometry": { "type": "Polygon", "coordinates": [ [ [ -84.2518118, 30.375529300000011 ], [ -84.2881802, 30.3848067 ], [ -84.3140765, 30.412617 ], [ -84.3334265, 30.450581799999973 ], [ -84.327936800000018, 30.473746200000011 ], [ -84.3188336, 30.488101199999974 ], [ -84.2774322, 30.521934699999989 ], [ -84.2253852, 30.54755950000002 ], [ -84.182274, 30.533232799999972 ], [ -84.1131857, 30.493314100000017 ], [ -84.115737, 30.46348 ], [ -84.1435314, 30.418739499999976 ], [ -84.22914, 30.378673 ], [ -84.2466297, 30.3754902 ], [ -84.2518118, 30.375529300000011 ] ] ] } },
{ "type": "Feature", "properties": { "OBJECTID": 6111, "ID": "0034632504", "NAME": "SELECT SPECIALTY HOSPITAL PENSACOLA", "ADDRESS": "7000 COBBLE CREEK DR", "CITY": "PENSACOLA", "STATE": "FL", "ZIP": "32504", "ZIP4": "NOT AVAILABLE", "TELEPHONE": "(850) 473-4800", "TYPE": "LONG TERM CARE", "STATUS": "OPEN", "POPULATION": 75, "COUNTY": "ESCAMBIA", "COUNTYFIPS": "12033", "COUNTRY": "USA", "LATITUDE": 30.478659088000001, "LONGITUDE": -87.215686472000002, "NAICS_CODE": "622110", "NAICS_DESC": "GENERAL MEDICAL AND SURGICAL HOSPITALS", "SOURCE": "http://www.floridahealthfinder.gov/facilitylocator/facilitysearch.aspx", "SOURCEDATE": "2018-08-15T00:00:00.000Z", "VAL_METHOD": "IMAGERY", "VAL_DATE": "2014-02-10T00:00:00.000Z", "WEBSITE": "http://www.selectspecialtyhospitals.com/company/locations/pensacola.aspx", "STATE_ID": "219600", "ALT_NAME": "NOT AVAILABLE", "ST_FIPS": "12", "OWNER": "PROPRIETARY", "TTL_STAFF": -999, "BEDS": 75, "TRAUMA": "NOT AVAILABLE", "HELIPAD": "N" }, "geometry": { "type": "Polygon", "coordinates": [ [ [ -87.232263, 30.401747 ], [ -87.242212, 30.403553 ], [ -87.242752, 30.403703 ], [ -87.274915, 30.422384 ], [ -87.285172, 30.431687 ], [ -87.308965, 30.461284 ], [ -87.337513, 30.534717 ], [ -87.283783, 30.552955 ], [ -87.283581, 30.552988 ], [ -87.194765500000017, 30.5468864 ], [ -87.1888807, 30.5404608 ], [ -87.169683, 30.518798500000031 ], [ -87.168529, 30.517444 ], [ -87.164618, 30.511459 ], [ -87.1525202, 30.490783900000022 ], [ -87.175018, 30.429507 ], [ -87.175469, 30.428342 ], [ -87.179535, 30.423535 ], [ -87.180837, 30.422422 ], [ -87.1922181, 30.414799799999976 ], [ -87.2129891, 30.402703100000011 ], [ -87.2130991, 30.402683 ], [ -87.232263, 30.401747 ] ] ] } },
{ "type": "Feature", "properties": { "OBJECTID": 6117, "ID": "0013732324", "NAME": "FLORIDA STATE HOSPITAL", "ADDRESS": "100 N MAIN ST", "CITY": "CHATTAHOOCHEE", "STATE": "FL", "ZIP": "32324", "ZIP4": "NOT AVAILABLE", "TELEPHONE": "(850) 663-7001", "TYPE": "PSYCHIATRIC", "STATUS": "OPEN", "POPULATION": 987, "COUNTY": "GADSDEN", "COUNTYFIPS": "12039", "COUNTRY": "USA", "LATITUDE": 30.706501673000002, "LONGITUDE": -84.8413309, "NAICS_CODE": "622110", "NAICS_DESC": "GENERAL MEDICAL AND SURGICAL HOSPITALS", "SOURCE": "http://www.floridahealthfinder.gov/facilitylocator/facilitysearch.aspx", "SOURCEDATE": "2018-08-15T00:00:00.000Z", "VAL_METHOD": "IMAGERY", "VAL_DATE": "2014-03-12T00:00:00.000Z", "WEBSITE": "http://www.dcf.state.fl.us/institutions/fsh", "STATE_ID": "10050", "ALT_NAME": "NOT AVAILABLE", "ST_FIPS": "12", "OWNER": "GOVERNMENT - STATE", "TTL_STAFF": -999, "BEDS": 987, "TRAUMA": "NOT AVAILABLE", "HELIPAD": "Y" }, "geometry": { "type": "Polygon", "coordinates": [ [ [ -84.8204284, 30.613553199999977 ], [ -84.8337815, 30.6395146 ], [ -84.8607958, 30.700460699999983 ], [ -84.8472074, 30.7121608 ], [ -84.7564296, 30.745147300000031 ], [ -84.7520559, 30.744644700000038 ], [ -84.7328145, 30.736757799999985 ], [ -84.7251628, 30.705539599999959 ], [ -84.733036, 30.6916574 ], [ -84.8204284, 30.613553199999977 ] ] ] } },
{ "type": "Feature", "properties": { "OBJECTID": 6118, "ID": "0009132405", "NAME": "EMERALD COAST BEHAVIORAL HOSPITAL", "ADDRESS": "1940 HARRISON AVE", "CITY": "PANAMA CITY", "STATE": "FL", "ZIP": "32405", "ZIP4": "NOT AVAILABLE", "TELEPHONE": "(850) 763-0017", "TYPE": "PSYCHIATRIC", "STATUS": "OPEN", "POPULATION": 86, "COUNTY": "BAY", "COUNTYFIPS": "12005", "COUNTRY": "USA", "LATITUDE": 30.183781746000101, "LONGITUDE": -85.657782384000001, "NAICS_CODE": "622110", "NAICS_DESC": "GENERAL MEDICAL AND SURGICAL HOSPITALS", "SOURCE": "http://www.floridahealthfinder.gov/facilitylocator/facilitysearch.aspx", "SOURCEDATE": "2018-08-15T00:00:00.000Z", "VAL_METHOD": "IMAGERY", "VAL_DATE": "2014-02-10T00:00:00.000Z", "WEBSITE": "http://www.emeraldcoastbehavioral.com", "STATE_ID": "10100", "ALT_NAME": "NOT AVAILABLE", "ST_FIPS": "12", "OWNER": "PROPRIETARY", "TTL_STAFF": -999, "BEDS": 86, "TRAUMA": "NOT AVAILABLE", "HELIPAD": "N" }, "geometry": { "type": "Polygon", "coordinates": [ [ [ -85.609405, 30.127496 ], [ -85.647361, 30.135854 ], [ -85.7604512, 30.17862 ], [ -85.773005, 30.1857387 ], [ -85.7737892, 30.1887184 ], [ -85.76152, 30.198202 ], [ -85.646339, 30.268674 ], [ -85.6404228, 30.27182240000004 ], [ -85.5489454, 30.2547144 ], [ -85.5488138, 30.254574900000023 ], [ -85.5492433, 30.2482306 ], [ -85.5700446, 30.1529068 ], [ -85.5737331, 30.149076 ], [ -85.5911023, 30.1329206 ], [ -85.609405, 30.127496 ] ] ] } },
{ "type": "Feature", "properties": { "OBJECTID": 6119, "ID": "0014632405", "NAME": "GULF COAST MEDICAL CENTER", "ADDRESS": "449 W 23RD ST", "CITY": "PANAMA CITY", "STATE": "FL", "ZIP": "32405", "ZIP4": "NOT AVAILABLE", "TELEPHONE": "(850) 769-8341", "TYPE": "GENERAL ACUTE CARE", "STATUS": "OPEN", "POPULATION": 238, "COUNTY": "BAY", "COUNTYFIPS": "12005", "COUNTRY": "USA", "LATITUDE": 30.187915882, "LONGITUDE": -85.665176203000001, "NAICS_CODE": "622110", "NAICS_DESC": "GENERAL MEDICAL AND SURGICAL HOSPITALS", "SOURCE": "http://www.floridahealthfinder.gov/facilitylocator/facilitysearch.aspx", "SOURCEDATE": "2018-08-15T00:00:00.000Z", "VAL_METHOD": "IMAGERY", "VAL_DATE": "2014-02-10T00:00:00.000Z", "WEBSITE": "http://www.egulfcoastmedical.com", "STATE_ID": "10020", "ALT_NAME": "NOT AVAILABLE", "ST_FIPS": "12", "OWNER": "PROPRIETARY", "TTL_STAFF": -999, "BEDS": 238, "TRAUMA": "NOT AVAILABLE", "HELIPAD": "Y" }, "geometry": { "type": "Polygon", "coordinates": [ [ [ -85.647361, 30.135854 ], [ -85.7590538, 30.171070599999975 ], [ -85.7804854, 30.18373379999996 ], [ -85.78346160000001, 30.189222199999971 ], [ -85.7834469, 30.189402 ], [ -85.6403276, 30.272676 ], [ -85.6401778, 30.272666500000017 ], [ -85.5572478, 30.248836 ], [ -85.5571213, 30.2486932 ], [ -85.5567603, 30.2482779 ], [ -85.5567424, 30.2470426 ], [ -85.5567472, 30.245835799999959 ], [ -85.586988, 30.1523326 ], [ -85.591088, 30.147844700000011 ], [ -85.6122042, 30.138445 ], [ -85.639656, 30.135253 ], [ -85.641105, 30.13529 ], [ -85.647361, 30.135854 ] ] ] } },
{ "type": "Feature", "properties": { "OBJECTID": 6162, "ID": "0023939813", "NAME": "CALHOUN MEMORIAL HOSPITAL", "ADDRESS": "55 R E JENNINGS AVE SE", "CITY": "ARLINGTON", "STATE": "GA", "ZIP": "39813", "ZIP4": "NOT AVAILABLE", "TELEPHONE": "NOT AVAILABLE", "TYPE": "CRITICAL ACCESS", "STATUS": "CLOSED", "POPULATION": 25, "COUNTY": "CALHOUN", "COUNTYFIPS": "13037", "COUNTRY": "USA", "LATITUDE": 31.436003809000098, "LONGITUDE": -84.72154643, "NAICS_CODE": "622110", "NAICS_DESC": "GENERAL MEDICAL AND SURGICAL HOSPITALS", "SOURCE": "http://167.193.144.247/", "SOURCEDATE": "2016-10-06T00:00:00.000Z", "VAL_METHOD": "IMAGERY/OTHER", "VAL_DATE": "2016-09-27T00:00:00.000Z", "WEBSITE": "NOT AVAILABLE", "STATE_ID": "NOT AVAILABLE", "ALT_NAME": "NOT AVAILABLE", "ST_FIPS": "13", "OWNER": "PROPRIETARY", "TTL_STAFF": -999, "BEDS": 25, "TRAUMA": "NOT AVAILABLE", "HELIPAD": "N" }, "geometry": { "type": "Polygon", "coordinates": [ [ [ -84.713805173227612, 31.330774085734706 ], [ -84.796121158263063, 31.410174999342697 ], [ -84.796965593901504, 31.483735317662585 ], [ -84.763866243075398, 31.511405362361518 ], [ -84.728544919497082, 31.524184594258408 ], [ -84.606538725048011, 31.462169809145308 ], [ -84.638110083393727, 31.378519263500301 ], [ -84.713805173227612, 31.330774085734706 ] ] ] } },
{ "type": "Feature", "properties": { "OBJECTID": 6174, "ID": "0008931730", "NAME": "MITCHELL COUNTY HOSPITAL", "ADDRESS": "90 STEPHENS STREET", "CITY": "CAMILLA", "STATE": "GA", "ZIP": "31730", "ZIP4": "NOT AVAILABLE", "TELEPHONE": "NOT AVAILABLE", "TYPE": "CRITICAL ACCESS", "STATUS": "OPEN", "POPULATION": 23, "COUNTY": "MITCHELL", "COUNTYFIPS": "13205", "COUNTRY": "USA", "LATITUDE": 31.229719881000101, "LONGITUDE": -84.205543481000007, "NAICS_CODE": "622110", "NAICS_DESC": "GENERAL MEDICAL AND SURGICAL HOSPITALS", "SOURCE": "http://www.gamap2care.info/", "SOURCEDATE": "2018-08-09T00:00:00.000Z", "VAL_METHOD": "IMAGERY", "VAL_DATE": "2013-10-15T00:00:00.000Z", "WEBSITE": "http://www.archbold.org", "STATE_ID": "87", "ALT_NAME": "NOT AVAILABLE", "ST_FIPS": "13", "OWNER": "GOVERNMENT - DISTRICT/AUTHORITY", "TTL_STAFF": -999, "BEDS": 23, "TRAUMA": "NOT AVAILABLE", "HELIPAD": "N" }, "geometry": { "type": "Polygon", "coordinates": [ [ [ -84.139985424950609, 31.123882577700595 ], [ -84.242354270941277, 31.138805116004331 ], [ -84.307689887586037, 31.20740131769265 ], [ -84.30603091579016, 31.289578012992482 ], [ -84.160894254323921, 31.353249961232262 ], [ -84.160734254096383, 31.353166061072677 ], [ -84.11869470676038, 31.298280817470133 ], [ -84.095548961609012, 31.243765155601142 ], [ -84.137091944071273, 31.129374503246989 ], [ -84.139985424950609, 31.123882577700595 ] ] ] } },
{ "type": "Feature", "properties": { "OBJECTID": 6355, "ID": "0004731620", "NAME": "COOK MEDICAL CENTER", "ADDRESS": "706 NORTH PARRISH AVENUE", "CITY": "ADEL", "STATE": "GA", "ZIP": "31620", "ZIP4": "NOT AVAILABLE", "TELEPHONE": "(229) 896-8077", "TYPE": "GENERAL ACUTE CARE", "STATUS": "OPEN", "POPULATION": 60, "COUNTY": "COOK", "COUNTYFIPS": "13075", "COUNTRY": "USA", "LATITUDE": 31.144569487000101, "LONGITUDE": -83.424538551999902, "NAICS_CODE": "622110", "NAICS_DESC": "GENERAL MEDICAL AND SURGICAL HOSPITALS", "SOURCE": "http://www.gamap2care.info/", "SOURCEDATE": "2018-08-09T00:00:00.000Z", "VAL_METHOD": "IMAGERY", "VAL_DATE": "2013-10-16T00:00:00.000Z", "WEBSITE": "http://www.memorialofadel.com/body.cfm?id=364", "STATE_ID": "42", "ALT_NAME": "NOT AVAILABLE", "ST_FIPS": "13", "OWNER": "PROPRIETARY", "TTL_STAFF": -999, "BEDS": 60, "TRAUMA": "NOT AVAILABLE", "HELIPAD": "N" }, "geometry": { "type": "Polygon", "coordinates": [ [ [ -83.390723370008459, 31.040643471973763 ], [ -83.405497301204676, 31.043228530347989 ], [ -83.484075898134918, 31.067308526463055 ], [ -83.544514630757803, 31.155510387423877 ], [ -83.492629961270367, 31.23595757560923 ], [ -83.463286299125897, 31.248598938956082 ], [ -83.356857799462148, 31.219803332502376 ], [ -83.322308704910569, 31.177224632242869 ], [ -83.320594458873401, 31.11995495393376 ], [ -83.390723370008459, 31.040643471973763 ] ] ] } },
{ "type": "Feature", "properties": { "OBJECTID": 6357, "ID": "0016431213", "NAME": "COLISEUM MEDICAL CENTERS", "ADDRESS": "350 HOSPITAL DRIVE", "CITY": "MACON", "STATE": "GA", "ZIP": "31213", "ZIP4": "NOT AVAILABLE", "TELEPHONE": "(478) 765-7000", "TYPE": "GENERAL ACUTE CARE", "STATUS": "OPEN", "POPULATION": 250, "COUNTY": "BIBB", "COUNTYFIPS": "13021", "COUNTRY": "USA", "LATITUDE": 32.847408178000002, "LONGITUDE": -83.618685211, "NAICS_CODE": "622110", "NAICS_DESC": "GENERAL MEDICAL AND SURGICAL HOSPITALS", "SOURCE": "http://www.gamap2care.info/", "SOURCEDATE": "2018-08-09T00:00:00.000Z", "VAL_METHOD": "IMAGERY", "VAL_DATE": "2013-10-17T00:00:00.000Z", "WEBSITE": "http://www.coliseumhealthsystem.com", "STATE_ID": "163", "ALT_NAME": "NOT AVAILABLE", "ST_FIPS": "13", "OWNER": "PROPRIETARY", "TTL_STAFF": -999, "BEDS": 250, "TRAUMA": "NOT AVAILABLE", "HELIPAD": "N" }, "geometry": { "type": "Polygon", "coordinates": [ [ [ -83.7070408, 32.760564799999976 ], [ -83.738422, 32.924926 ], [ -83.7365089, 32.930961500000016 ], [ -83.719016, 32.9391471 ], [ -83.611364, 32.931013 ], [ -83.60588150000001, 32.9293906 ], [ -83.5912195, 32.9238458 ], [ -83.4945085, 32.855566500000016 ], [ -83.504553, 32.80514 ], [ -83.5500722, 32.761987 ], [ -83.561039, 32.752173 ], [ -83.7070408, 32.760564799999976 ] ] ] } },
{ "type": "Feature", "properties": { "OBJECTID": 6372, "ID": "0007831533", "NAME": "COFFEE REGIONAL MEDICAL CENTER", "ADDRESS": "1101 OCILLA ROAD", "CITY": "DOUGLAS", "STATE": "GA", "ZIP": "31533", "ZIP4": "NOT AVAILABLE", "TELEPHONE": "NOT AVAILABLE", "TYPE": "GENERAL ACUTE CARE", "STATUS": "OPEN", "POPULATION": 88, "COUNTY": "COFFEE", "COUNTYFIPS": "13069", "COUNTRY": "USA", "LATITUDE": 31.511188164, "LONGITUDE": -82.864582597999998, "NAICS_CODE": "622110", "NAICS_DESC": "GENERAL MEDICAL AND SURGICAL HOSPITALS", "SOURCE": "http://www.gamap2care.info/", "SOURCEDATE": "2018-08-09T00:00:00.000Z", "VAL_METHOD": "IMAGERY", "VAL_DATE": "2014-02-10T00:00:00.000Z", "WEBSITE": "http://www.coffeeregional.org", "STATE_ID": "76", "ALT_NAME": "NOT AVAILABLE", "ST_FIPS": "13", "OWNER": "NON-PROFIT", "TTL_STAFF": -999, "BEDS": 88, "TRAUMA": "NOT AVAILABLE", "HELIPAD": "Y" }, "geometry": { "type": "Polygon", "coordinates": [ [ [ -82.8524129, 31.4025475 ], [ -82.8900316, 31.4185747 ], [ -82.95913, 31.468699 ], [ -82.970487, 31.519139 ], [ -82.972932, 31.551836 ], [ -82.969957, 31.566602 ], [ -82.937461, 31.598585 ], [ -82.87076, 31.604639 ], [ -82.7769849, 31.573108699999981 ], [ -82.736247, 31.511907 ], [ -82.7882649, 31.441174100000044 ], [ -82.849536, 31.402902 ], [ -82.8524129, 31.4025475 ] ] ] } },
{ "type": "Feature", "properties": { "OBJECTID": 6373, "ID": "0019131210", "NAME": "REHABILITATION HOSPITAL NAVICENT HEALTH", "ADDRESS": "3351 NORTHSIDE DRIVE", "CITY": "MACON", "STATE": "GA", "ZIP": "31210", "ZIP4": "NOT AVAILABLE", "TELEPHONE": "(478) 201-6500", "TYPE": "REHABILITATION", "STATUS": "OPEN", "POPULATION": 58, "COUNTY": "BIBB", "COUNTYFIPS": "13021", "COUNTRY": "USA", "LATITUDE": 32.893272023000101, "LONGITUDE": -83.680469918, "NAICS_CODE": "622310", "NAICS_DESC": "REHABILITATION HOSPITALS (EXCEPT ALCOHOLISM, DRUG ADDICTION)", "SOURCE": "http://www.gamap2care.info/", "SOURCEDATE": "2018-08-09T00:00:00.000Z", "VAL_METHOD": "IMAGERY", "VAL_DATE": "2014-02-10T00:00:00.000Z", "WEBSITE": "https://www.navicenthealth.org/service-center/rehabilitation-hospital-navicent-health", "STATE_ID": "193", "ALT_NAME": "CENTRAL GEORGIA REHABILITATION HOSPITAL, LLC", "ST_FIPS": "13", "OWNER": "NON-PROFIT", "TTL_STAFF": -999, "BEDS": 58, "TRAUMA": "NOT AVAILABLE", "HELIPAD": "N" }, "geometry": { "type": "Polygon", "coordinates": [ [ [ -83.6641227, 32.780579800000034 ], [ -83.68053, 32.785296 ], [ -83.746603, 32.8489 ], [ -83.7674091, 32.880062799999962 ], [ -83.7928521, 32.923696899999982 ], [ -83.8138691, 32.96007 ], [ -83.7378156, 33.000866400000028 ], [ -83.608116, 32.880778 ], [ -83.590625, 32.862763 ], [ -83.582937, 32.851291 ], [ -83.5686321, 32.801261899999986 ], [ -83.570125, 32.795211 ], [ -83.662078, 32.780526 ], [ -83.6641227, 32.780579800000034 ] ] ] } },
{ "type": "Feature", "properties": { "OBJECTID": 6376, "ID": "0014931701", "NAME": "PHOEBE PUTNEY MEMORIAL HOSPITAL", "ADDRESS": "417 THIRD AVENUE", "CITY": "ALBANY", "STATE": "GA", "ZIP": "31701", "ZIP4": "NOT AVAILABLE", "TELEPHONE": "NOT AVAILABLE", "TYPE": "GENERAL ACUTE CARE", "STATUS": "OPEN", "POPULATION": 691, "COUNTY": "DOUGHERTY", "COUNTYFIPS": "13095", "COUNTRY": "USA", "LATITUDE": 31.590219754, "LONGITUDE": -84.158623465999895, "NAICS_CODE": "622110", "NAICS_DESC": "GENERAL MEDICAL AND SURGICAL HOSPITALS", "SOURCE": "http://www.gamap2care.info/", "SOURCEDATE": "2018-08-09T00:00:00.000Z", "VAL_METHOD": "IMAGERY", "VAL_DATE": "2014-02-10T00:00:00.000Z", "WEBSITE": "http://phoebeputney.com/PhoebeContentPage.aspx?nd=1523", "STATE_ID": "148", "ALT_NAME": "NOT AVAILABLE", "ST_FIPS": "13", "OWNER": "NON-PROFIT", "TTL_STAFF": -999, "BEDS": 691, "TRAUMA": "NOT AVAILABLE", "HELIPAD": "N" }, "geometry": { "type": "Polygon", "coordinates": [ [ [ -84.202053296774551, 31.512927027340812 ], [ -84.262035, 31.585688 ], [ -84.2514957, 31.6399698 ], [ -84.25136, 31.640088299999956 ], [ -84.1727681, 31.692835300000034 ], [ -84.1725867, 31.69283019999996 ], [ -84.0788048, 31.670841300000014 ], [ -84.0784797, 31.670658599999982 ], [ -84.051715, 31.581048 ], [ -84.051709, 31.580849 ], [ -84.091316, 31.531393 ], [ -84.115454957199617, 31.516772863880973 ], [ -84.128920064442752, 31.513511056312396 ], [ -84.202053296774551, 31.512927027340812 ] ] ] } },
{ "type": "Feature", "properties": { "OBJECTID": 6726, "ID": "0019831901", "NAME": "BRADLEY CENTER OF SAINT FRANCIS", "ADDRESS": "2000 SIXTEENTH AVENUE", "CITY": "COLUMBUS", "STATE": "GA", "ZIP": "31901", "ZIP4": "NOT AVAILABLE", "TELEPHONE": "(706) 320-3700", "TYPE": "PSYCHIATRIC", "STATUS": "CLOSED", "POPULATION": -999, "COUNTY": "MUSCOGEE", "COUNTYFIPS": "13215", "COUNTRY": "USA", "LATITUDE": 32.482696594000103, "LONGITUDE": -84.968111132999994, "NAICS_CODE": "622210", "NAICS_DESC": "HOSPITALS, PSYCHIATRIC (EXCEPT CONVALESCENT)", "SOURCE": "http://167.193.144.247/", "SOURCEDATE": "2012-11-24T00:00:00.000Z", "VAL_METHOD": "IMAGERY", "VAL_DATE": "2014-02-10T00:00:00.000Z", "WEBSITE": "http://www.wecareforlife.com/", "STATE_ID": "200", "ALT_NAME": "NOT AVAILABLE", "ST_FIPS": "13", "OWNER": "NON-PROFIT", "TTL_STAFF": -999, "BEDS": -999, "TRAUMA": "NOT AVAILABLE", "HELIPAD": "N" }, "geometry": { "type": "Polygon", "coordinates": [ [ [ -84.926483, 32.401187 ], [ -84.959954, 32.406461 ], [ -84.9611131, 32.4073801 ], [ -84.9934678, 32.453379399999982 ], [ -84.9940582, 32.454325899999986 ], [ -84.999047, 32.463381399999989 ], [ -85.009339, 32.546154 ], [ -85.005666, 32.55762 ], [ -85.0034392, 32.558996300000011 ], [ -84.9713696, 32.5777886 ], [ -84.9349416, 32.566207100000028 ], [ -84.8721351, 32.5448057 ], [ -84.8646138, 32.5385074 ], [ -84.8645818, 32.53805579999996 ], [ -84.8645786, 32.537942 ], [ -84.864585, 32.537222 ], [ -84.8678116, 32.485326799999982 ], [ -84.8921991, 32.428868799999961 ], [ -84.892826, 32.42808 ], [ -84.9188635, 32.405041499999975 ], [ -84.926483, 32.401187 ] ] ] } },
{ "type": "Feature", "properties": { "OBJECTID": 6735, "ID": "0083531901", "NAME": "MIDTOWN MEDICAL CENTER", "ADDRESS": "710 CENTER ST, BOX 951", "CITY": "COLUMBUS", "STATE": "GA", "ZIP": "31901", "ZIP4": "NOT AVAILABLE", "TELEPHONE": "(706) 571-1000", "TYPE": "GENERAL ACUTE CARE", "STATUS": "OPEN", "POPULATION": 413, "COUNTY": "MUSCOGEE", "COUNTYFIPS": "13215", "COUNTRY": "USA", "LATITUDE": 32.4808587160001, "LONGITUDE": -84.981177019, "NAICS_CODE": "622110", "NAICS_DESC": "GENERAL MEDICAL AND SURGICAL HOSPITALS", "SOURCE": "http://www.gamap2care.info/", "SOURCEDATE": "2018-08-09T00:00:00.000Z", "VAL_METHOD": "IMAGERY/OTHER", "VAL_DATE": "2015-03-02T00:00:00.000Z", "WEBSITE": "http://columbusregional.com/locations/midtown-medical-center/", "STATE_ID": "174", "ALT_NAME": "NOT AVAILABLE", "ST_FIPS": "13", "OWNER": "PROPRIETARY", "TTL_STAFF": -999, "BEDS": 413, "TRAUMA": "LEVEL II", "HELIPAD": "Y" }, "geometry": { "type": "Polygon", "coordinates": [ [ [ -84.944563, 32.400157 ], [ -84.9578212, 32.40156970000001 ], [ -84.966742, 32.407441 ], [ -84.9940582, 32.454325899999986 ], [ -84.999047, 32.463381399999989 ], [ -85.015451, 32.548454 ], [ -85.014459, 32.57368 ], [ -84.954266, 32.599383 ], [ -84.8609513, 32.538210299999974 ], [ -84.8608489, 32.5378974 ], [ -84.8608204, 32.537418099999989 ], [ -84.8921991, 32.428868799999961 ], [ -84.892826, 32.42808 ], [ -84.9188635, 32.405041499999975 ], [ -84.926483, 32.401187 ], [ -84.944563, 32.400157 ] ] ] } },
{ "type": "Feature", "properties": { "OBJECTID": 6750, "ID": "0089331635", "NAME": "LOUIS SMITH MEMORIAL HOSPITAL", "ADDRESS": "116 WEST THIGPEN AVENUE", "CITY": "LAKELAND", "STATE": "GA", "ZIP": "31635", "ZIP4": "NOT AVAILABLE", "TELEPHONE": "NOT AVAILABLE", "TYPE": "CRITICAL ACCESS", "STATUS": "CLOSED", "POPULATION": 25, "COUNTY": "LANIER", "COUNTYFIPS": "13173", "COUNTRY": "USA", "LATITUDE": 31.042235216000101, "LONGITUDE": -83.086052018999993, "NAICS_CODE": "622110", "NAICS_DESC": "GENERAL MEDICAL AND SURGICAL HOSPITALS", "SOURCE": "http://167.193.144.247/", "SOURCEDATE": "2016-10-06T00:00:00.000Z", "VAL_METHOD": "IMAGERY/OTHER", "VAL_DATE": "2015-03-09T00:00:00.000Z", "WEBSITE": "https://www.sgmc.org/locations/sgmc_lanier_campus.aspx", "STATE_ID": "NOT AVAILABLE", "ALT_NAME": "LOUIS SMITH MEMORIAL HOSPITAL", "ST_FIPS": "13", "OWNER": "NON-PROFIT", "TTL_STAFF": -999, "BEDS": 25, "TRAUMA": "NOT AVAILABLE", "HELIPAD": "N" }, "geometry": { "type": "Polygon", "coordinates": [ [ [ -83.124198, 30.956129 ], [ -83.180224635098256, 31.01736010625476 ], [ -83.181160931339107, 31.025408936294671 ], [ -83.171934880864839, 31.068075357546036 ], [ -83.144159116843369, 31.112917089161318 ], [ -83.140292911419962, 31.11556350355659 ], [ -83.085690752938817, 31.130832706674376 ], [ -83.081782749205871, 31.131212711199979 ], [ -83.005250623185177, 31.102797872682569 ], [ -82.983813551674288, 31.077454933915849 ], [ -82.960520457290286, 31.043364003121393 ], [ -83.008128, 30.981975 ], [ -83.0818865, 30.95238059999998 ], [ -83.124198, 30.956129 ] ] ] } },
{ "type": "Feature", "properties": { "OBJECTID": 6751, "ID": "0087031201", "NAME": "MEDICAL CENTER OF CENTRAL GEORGIA", "ADDRESS": "777 HEMLOCK STREET", "CITY": "MACON", "STATE": "GA", "ZIP": "31201", "ZIP4": "NOT AVAILABLE", "TELEPHONE": "NOT AVAILABLE", "TYPE": "GENERAL ACUTE CARE", "STATUS": "OPEN", "POPULATION": 637, "COUNTY": "BIBB", "COUNTYFIPS": "13021", "COUNTRY": "USA", "LATITUDE": 32.833253883000097, "LONGITUDE": -83.635505316999996, "NAICS_CODE": "622110", "NAICS_DESC": "GENERAL MEDICAL AND SURGICAL HOSPITALS", "SOURCE": "http://www.gamap2care.info/", "SOURCEDATE": "2018-08-09T00:00:00.000Z", "VAL_METHOD": "IMAGERY/OTHER", "VAL_DATE": "2015-03-05T00:00:00.000Z", "WEBSITE": "https://www.navicenthealth.org/", "STATE_ID": "NOT AVAILABLE", "ALT_NAME": "NOT AVAILABLE", "ST_FIPS": "13", "OWNER": "NON-PROFIT", "TTL_STAFF": -999, "BEDS": 637, "TRAUMA": "LEVEL I", "HELIPAD": "Y" }, "geometry": { "type": "Polygon", "coordinates": [ [ [ -83.7221349, 32.738768 ], [ -83.7361665, 32.813095300000022 ], [ -83.7388463, 32.833888 ], [ -83.727113599999981, 32.926404300000023 ], [ -83.7127917, 32.9276014 ], [ -83.607676200000014, 32.914706700000025 ], [ -83.5588085, 32.875754399999984 ], [ -83.538025, 32.846404 ], [ -83.5406166, 32.8117805 ], [ -83.563039, 32.773867 ], [ -83.6550771, 32.74358440000001 ], [ -83.7221349, 32.738768 ] ] ] } },
{ "type": "Feature", "properties": { "OBJECTID": 4082, "ID": "0003231210", "NAME": "COLISEUM NORTHSIDE HOSPITAL", "ADDRESS": "400 CHARTER BOULEVARD", "CITY": "MACON", "STATE": "GA", "ZIP": "31210", "ZIP4": "NOT AVAILABLE", "TELEPHONE": "(478) 757-8200", "TYPE": "GENERAL ACUTE CARE", "STATUS": "OPEN", "POPULATION": 103, "COUNTY": "BIBB", "COUNTYFIPS": "13021", "COUNTRY": "USA", "LATITUDE": 32.871591961999997, "LONGITUDE": -83.694710868000001, "NAICS_CODE": "622110", "NAICS_DESC": "GENERAL MEDICAL AND SURGICAL HOSPITALS", "SOURCE": "http://www.gamap2care.info/", "SOURCEDATE": "2018-08-09T00:00:00.000Z", "VAL_METHOD": "IMAGERY", "VAL_DATE": "2013-10-16T00:00:00.000Z", "WEBSITE": "http://www.coliseumhealthsystem.com", "STATE_ID": "27", "ALT_NAME": "NOT AVAILABLE", "ST_FIPS": "13", "OWNER": "PROPRIETARY", "TTL_STAFF": -999, "BEDS": 103, "TRAUMA": "NOT AVAILABLE", "HELIPAD": "N" }, "geometry": { "type": "Polygon", "coordinates": [ [ [ -83.668515, 32.788242400000037 ], [ -83.707473, 32.797365 ], [ -83.731389, 32.806434 ], [ -83.762811, 32.831519 ], [ -83.791502, 32.855102 ], [ -83.8011467, 32.88698950000002 ], [ -83.801425, 32.89643 ], [ -83.7750985, 32.940061499999977 ], [ -83.7259273, 32.963225 ], [ -83.6155404, 32.8586892 ], [ -83.607606, 32.849645 ], [ -83.6065518, 32.848016799999989 ], [ -83.608125, 32.8440061 ], [ -83.6185298, 32.830187400000035 ], [ -83.619627, 32.8288 ], [ -83.639284, 32.811272 ], [ -83.668515, 32.788242400000037 ] ] ] } },
{ "type": "Feature", "properties": { "OBJECTID": 4146, "ID": "0004531774", "NAME": "IRWIN COUNTY HOSPITAL", "ADDRESS": "710 NORTH IRWIN AVENUE", "CITY": "OCILLA", "STATE": "GA", "ZIP": "31774", "ZIP4": "NOT AVAILABLE", "TELEPHONE": "NOT AVAILABLE", "TYPE": "GENERAL ACUTE CARE", "STATUS": "OPEN", "POPULATION": 34, "COUNTY": "IRWIN", "COUNTYFIPS": "13155", "COUNTRY": "USA", "LATITUDE": 31.603380571000098, "LONGITUDE": -83.250998953000007, "NAICS_CODE": "622110", "NAICS_DESC": "GENERAL MEDICAL AND SURGICAL HOSPITALS", "SOURCE": "http://www.gamap2care.info/", "SOURCEDATE": "2018-08-09T00:00:00.000Z", "VAL_METHOD": "IMAGERY/OTHER", "VAL_DATE": "2013-10-17T00:00:00.000Z", "WEBSITE": "http://www.irwincntyhospital.com", "STATE_ID": "40", "ALT_NAME": "NOT AVAILABLE", "ST_FIPS": "13", "OWNER": "GOVERNMENT - LOCAL", "TTL_STAFF": -999, "BEDS": 34, "TRAUMA": "NOT AVAILABLE", "HELIPAD": "N" }, "geometry": { "type": "Polygon", "coordinates": [ [ [ -83.23824590000001, 31.486162 ], [ -83.2656102, 31.5018426 ], [ -83.3004972, 31.5231846 ], [ -83.351515, 31.56237 ], [ -83.3525711, 31.645719499999956 ], [ -83.254448, 31.711292500000052 ], [ -83.2515615, 31.712476 ], [ -83.236356, 31.713994 ], [ -83.23617, 31.713984 ], [ -83.235702, 31.713958 ], [ -83.161501, 31.65643 ], [ -83.132204, 31.595563 ], [ -83.1831246, 31.532580300000021 ], [ -83.23824590000001, 31.486162 ] ] ] } },
{ "type": "Feature", "properties": { "OBJECTID": 4237, "ID": "0091336302", "NAME": "NOLAND HOSPITAL DOTHAN, LLC", "ADDRESS": "1108 ROSS CLARK CIRCLE, 4TH FLOOR", "CITY": "DOTHAN", "STATE": "AL", "ZIP": "36302", "ZIP4": "NOT AVAILABLE", "TELEPHONE": "(334) 699-4300", "TYPE": "LONG TERM CARE", "STATUS": "OPEN", "POPULATION": 38, "COUNTY": "HOUSTON", "COUNTYFIPS": "01069", "COUNTRY": "USA", "LATITUDE": 31.216289171, "LONGITUDE": -85.36294421, "NAICS_CODE": "622310", "NAICS_DESC": "SPECIALTY (EXCEPT PSYCHIATRIC AND SUBSTANCE ABUSE) HOSPITALS", "SOURCE": "http://dph1.adph.state.al.us/FacilitiesDirectory", "SOURCEDATE": "2018-08-09T00:00:00.000Z", "VAL_METHOD": "IMAGERY/OTHER", "VAL_DATE": "2015-02-03T00:00:00.000Z", "WEBSITE": "NOT AVAILABLE", "STATE_ID": "H3506", "ALT_NAME": "NOT AVAILABLE", "ST_FIPS": "01", "OWNER": "PROPRIETARY", "TTL_STAFF": -999, "BEDS": 38, "TRAUMA": "NOT AVAILABLE", "HELIPAD": "Y" }, "geometry": { "type": "Polygon", "coordinates": [ [ [ -85.405048059753113, 31.111701194349138 ], [ -85.438820395518135, 31.135383769167714 ], [ -85.46889640452342, 31.181580918392836 ], [ -85.499761660025214, 31.239936867486236 ], [ -85.457333265719768, 31.277952798095505 ], [ -85.457182365830718, 31.278080499223265 ], [ -85.408602704907125, 31.298741373520382 ], [ -85.345834889154531, 31.320721390897681 ], [ -85.247548725267535, 31.255942698287299 ], [ -85.227840639276849, 31.17247624564277 ], [ -85.228025636746949, 31.170961237145907 ], [ -85.329904454072278, 31.123932810419117 ], [ -85.404803359921971, 31.111684094607657 ], [ -85.405048059753113, 31.111701194349138 ] ] ] } },
{ "type": "Feature", "properties": { "OBJECTID": 4389, "ID": "0076232505", "NAME": "CONSULATE HEALTH CARE OF PENSACOLA", "ADDRESS": "235 W AIRPORT BLVD", "CITY": "PENSACOLA", "STATE": "FL", "ZIP": "32505", "ZIP4": "NOT AVAILABLE", "TELEPHONE": "(850) 857-5200", "TYPE": "REHABILITATION", "STATUS": "OPEN", "POPULATION": -999, "COUNTY": "ESCAMBIA", "COUNTYFIPS": "12033", "COUNTRY": "USA", "LATITUDE": 30.471443271000101, "LONGITUDE": -87.252617223999906, "NAICS_CODE": "622110", "NAICS_DESC": "GENERAL MEDICAL AND SURGICAL HOSPITALS", "SOURCE": "http://www.floridahealthfinder.gov/facilitylocator/facilitysearch.aspx", "SOURCEDATE": "2018-08-15T00:00:00.000Z", "VAL_METHOD": "IMAGERY/OTHER", "VAL_DATE": "2015-02-16T00:00:00.000Z", "WEBSITE": "HTTP://WWW.CONSULATEHEALTHCARE.COM/FACILITYBYSTATE.ASPX?LOCID=110", "STATE_ID": "NOT AVAILABLE", "ALT_NAME": "NOT AVAILABLE", "ST_FIPS": "12", "OWNER": "NOT AVAILABLE", "TTL_STAFF": -999, "BEDS": 120, "TRAUMA": "NOT AVAILABLE", "HELIPAD": "N" }, "geometry": { "type": "Polygon", "coordinates": [ [ [ -87.278257, 30.38772 ], [ -87.317305200000021, 30.4212285 ], [ -87.318828, 30.42354 ], [ -87.337599, 30.453618 ], [ -87.340621, 30.460269 ], [ -87.3544477, 30.5349052 ], [ -87.354437, 30.535073 ], [ -87.33031, 30.548414 ], [ -87.290503, 30.570062 ], [ -87.197658, 30.53963 ], [ -87.164618, 30.511459 ], [ -87.1599418, 30.502661499999988 ], [ -87.159514, 30.495822 ], [ -87.1821238, 30.42522230000003 ], [ -87.19293, 30.414973 ], [ -87.2129891, 30.402703100000011 ], [ -87.252924, 30.391452 ], [ -87.278257, 30.38772 ] ] ] } },
{ "type": "Feature", "properties": { "OBJECTID": 4392, "ID": "0076432347", "NAME": "DOCTORS MEMORIAL HOSPITAL", "ADDRESS": "407 E ASH ST", "CITY": "PERRY", "STATE": "FL", "ZIP": "32347", "ZIP4": "NOT AVAILABLE", "TELEPHONE": "(850) 584-0800", "TYPE": "GENERAL ACUTE CARE", "STATUS": "CLOSED", "POPULATION": -999, "COUNTY": "TAYLOR", "COUNTYFIPS": "12123", "COUNTRY": "USA", "LATITUDE": 30.127912516, "LONGITUDE": -83.578048717999906, "NAICS_CODE": "622110", "NAICS_DESC": "GENERAL MEDICAL AND SURGICAL HOSPITALS", "SOURCE": "http://www.fgdl.org/metadataexplorer/explorer.jsp", "SOURCEDATE": "2014-02-16T00:00:00.000Z", "VAL_METHOD": "IMAGERY/OTHER", "VAL_DATE": "2015-02-16T00:00:00.000Z", "WEBSITE": "HTTP://WWW.DOCTORSMEMORIAL.COM/", "STATE_ID": "FL000086", "ALT_NAME": "NOT AVAILABLE", "ST_FIPS": "12", "OWNER": "NOT AVAILABLE", "TTL_STAFF": -999, "BEDS": 48, "TRAUMA": "NOT AVAILABLE", "HELIPAD": "Y" }, "geometry": { "type": "Polygon", "coordinates": [ [ [ -83.5468633, 30.038285 ], [ -83.5889436, 30.051933499999969 ], [ -83.6661401, 30.081438899999977 ], [ -83.679351, 30.2272322 ], [ -83.679217, 30.227324800000019 ], [ -83.6242137, 30.256838499999976 ], [ -83.5413077, 30.1756221 ], [ -83.5048035, 30.081212899999976 ], [ -83.5466903, 30.0383771 ], [ -83.5468633, 30.038285 ] ] ] } },
{ "type": "Feature", "properties": { "OBJECTID": 4591, "ID": "0006531728", "NAME": "GRADY GENERAL HOSPITAL", "ADDRESS": "1155 FIFTH STREET SE", "CITY": "CAIRO", "STATE": "GA", "ZIP": "31728", "ZIP4": "NOT AVAILABLE", "TELEPHONE": "NOT AVAILABLE", "TYPE": "GENERAL ACUTE CARE", "STATUS": "OPEN", "POPULATION": 60, "COUNTY": "GRADY", "COUNTYFIPS": "13131", "COUNTRY": "USA", "LATITUDE": 30.863723898, "LONGITUDE": -84.199086232999903, "NAICS_CODE": "622110", "NAICS_DESC": "GENERAL MEDICAL AND SURGICAL HOSPITALS", "SOURCE": "http://www.gamap2care.info/", "SOURCEDATE": "2018-08-09T00:00:00.000Z", "VAL_METHOD": "IMAGERY", "VAL_DATE": "2013-10-11T00:00:00.000Z", "WEBSITE": "http://www.archbold.org", "STATE_ID": "63", "ALT_NAME": "NOT AVAILABLE", "ST_FIPS": "13", "OWNER": "GOVERNMENT - DISTRICT/AUTHORITY", "TTL_STAFF": -999, "BEDS": 60, "TRAUMA": "NOT AVAILABLE", "HELIPAD": "N" }, "geometry": { "type": "Polygon", "coordinates": [ [ [ -84.2139623, 30.77664429999998 ], [ -84.2548287, 30.7990212 ], [ -84.2914609, 30.8606799 ], [ -84.3031636, 30.889491100000015 ], [ -84.249025, 30.951086399999987 ], [ -84.228985600000016, 30.96788739999997 ], [ -84.180506, 30.959564 ], [ -84.1409281, 30.930038200000023 ], [ -84.0819391, 30.873208299999977 ], [ -84.081843, 30.8730519 ], [ -84.152040400000018, 30.787249300000031 ], [ -84.2139623, 30.77664429999998 ] ] ] } },
{ "type": "Feature", "properties": { "OBJECTID": 4592, "ID": "0005331030", "NAME": "PEACH REGIONAL MEDICAL CENTER", "ADDRESS": "601 NORTH CAMELLIA BLVD", "CITY": "FORT VALLEY", "STATE": "GA", "ZIP": "31030", "ZIP4": "NOT AVAILABLE", "TELEPHONE": "NOT AVAILABLE", "TYPE": "GENERAL ACUTE CARE", "STATUS": "CLOSED", "POPULATION": 25, "COUNTY": "PEACH", "COUNTYFIPS": "13225", "COUNTRY": "USA", "LATITUDE": 32.566641609000001, "LONGITUDE": -83.878197381999897, "NAICS_CODE": "622110", "NAICS_DESC": "GENERAL MEDICAL AND SURGICAL HOSPITALS", "SOURCE": "http://167.193.144.247/", "SOURCEDATE": "2012-11-24T00:00:00.000Z", "VAL_METHOD": "IMAGERY", "VAL_DATE": "2013-10-11T00:00:00.000Z", "WEBSITE": "http://www.peachregional.org", "STATE_ID": "48", "ALT_NAME": "NOT AVAILABLE", "ST_FIPS": "13", "OWNER": "GOVERNMENT - DISTRICT/AUTHORITY", "TTL_STAFF": -999, "BEDS": 25, "TRAUMA": "NOT AVAILABLE", "HELIPAD": "N" }, "geometry": { "type": "Polygon", "coordinates": [ [ [ -83.8131491, 32.486527700000018 ], [ -83.902935, 32.49701 ], [ -83.947449, 32.5057077 ], [ -83.9747272, 32.5252084 ], [ -83.9684493, 32.572798099999964 ], [ -83.958229, 32.586284 ], [ -83.8704235, 32.657888900000025 ], [ -83.860813, 32.657846699999986 ], [ -83.7596856, 32.648666099999943 ], [ -83.7377239, 32.615108800000051 ], [ -83.767103, 32.549082 ], [ -83.8131491, 32.486527700000018 ] ] ] } },
{ "type": "Feature", "properties": { "OBJECTID": 4596, "ID": "0017731905", "NAME": "MARTIN ARMY COMMUNITY HOSPITAL", "ADDRESS": "7950 MARTIN LOOP", "CITY": "FORT BENNING", "STATE": "GA", "ZIP": "31905", "ZIP4": "NOT AVAILABLE", "TELEPHONE": "NOT AVAILABLE", "TYPE": "MILITARY", "STATUS": "OPEN", "POPULATION": 57, "COUNTY": "CHATTAHOOCHEE", "COUNTYFIPS": "13053", "COUNTRY": "USA", "LATITUDE": 32.371806141, "LONGITUDE": -84.928185088999996, "NAICS_CODE": "622110", "NAICS_DESC": "GENERAL MEDICAL AND SURGICAL HOSPITALS", "SOURCE": "http://www.gamap2care.info/", "SOURCEDATE": "2018-08-09T00:00:00.000Z", "VAL_METHOD": "IMAGERY", "VAL_DATE": "2013-10-14T00:00:00.000Z", "WEBSITE": "http://www.martin.amedd.army.mil", "STATE_ID": "177", "ALT_NAME": "NOT AVAILABLE", "ST_FIPS": "13", "OWNER": "GOVERNMENT - FEDERAL", "TTL_STAFF": -999, "BEDS": 57, "TRAUMA": "NOT AVAILABLE", "HELIPAD": "N" }, "geometry": { "type": "Polygon", "coordinates": [ [ [ -84.9739946, 32.3167432 ], [ -84.975068, 32.316864 ], [ -84.991123500000015, 32.3439889 ], [ -84.9909164, 32.3462055 ], [ -84.989535, 32.350209 ], [ -84.9834888, 32.366645299999973 ], [ -84.9726321, 32.373653 ], [ -84.8931728, 32.40191350000002 ], [ -84.881669, 32.397512 ], [ -84.8417315, 32.375601699999955 ], [ -84.839873, 32.355345 ], [ -84.841544, 32.35365 ], [ -84.854838, 32.342435 ], [ -84.9739946, 32.3167432 ] ] ] } },
{ "type": "Feature", "properties": { "OBJECTID": 4605, "ID": "0018931907", "NAME": "WEST CENTRAL GEORGIA REGIONAL HOSPITAL", "ADDRESS": "3000 SCHATULGA ROAD", "CITY": "COLUMBUS", "STATE": "GA", "ZIP": "31907", "ZIP4": "NOT AVAILABLE", "TELEPHONE": "NOT AVAILABLE", "TYPE": "PSYCHIATRIC", "STATUS": "OPEN", "POPULATION": 145, "COUNTY": "MUSCOGEE", "COUNTYFIPS": "13215", "COUNTRY": "USA", "LATITUDE": 32.490190805000097, "LONGITUDE": -84.868557597999896, "NAICS_CODE": "622210", "NAICS_DESC": "PSYCHIATRIC AND SUBSTANCE ABUSE HOSPITALS", "SOURCE": "http://www.gamap2care.info/", "SOURCEDATE": "2018-08-09T00:00:00.000Z", "VAL_METHOD": "IMAGERY", "VAL_DATE": "2014-02-10T00:00:00.000Z", "WEBSITE": "http://www.wcgrh.org", "STATE_ID": "191", "ALT_NAME": "NOT AVAILABLE", "ST_FIPS": "13", "OWNER": "GOVERNMENT - STATE", "TTL_STAFF": -999, "BEDS": 145, "TRAUMA": "NOT AVAILABLE", "HELIPAD": "N" }, "geometry": { "type": "Polygon", "coordinates": [ [ [ -84.929082, 32.436151 ], [ -84.9849206, 32.4628119 ], [ -84.9862317, 32.464764099999968 ], [ -84.9889823, 32.470485499999988 ], [ -84.9729921, 32.522332 ], [ -84.9604372, 32.544107299999972 ], [ -84.9121826, 32.5698358 ], [ -84.8905839, 32.579184499999968 ], [ -84.86851, 32.584071 ], [ -84.827855, 32.583641 ], [ -84.819903, 32.583393 ], [ -84.809885, 32.577213 ], [ -84.778558, 32.550573 ], [ -84.778169, 32.549549 ], [ -84.8699851, 32.4544642 ], [ -84.9065484, 32.436614799999973 ], [ -84.9243956, 32.4358407 ], [ -84.929082, 32.436151 ] ] ] } },
{ "type": "Feature", "properties": { "OBJECTID": 4607, "ID": "0020531210", "NAME": "LAKE BRIDGE BEHAVIORAL HEALTH SYSTEM", "ADDRESS": "3500 RIVERSIDE DRIVE", "CITY": "MACON", "STATE": "GA", "ZIP": "31210", "ZIP4": "NOT AVAILABLE", "TELEPHONE": "NOT AVAILABLE", "TYPE": "PSYCHIATRIC", "STATUS": "OPEN", "POPULATION": 40, "COUNTY": "BIBB", "COUNTYFIPS": "13021", "COUNTRY": "USA", "LATITUDE": 32.895571073, "LONGITUDE": -83.682598336999902, "NAICS_CODE": "622210", "NAICS_DESC": "PSYCHIATRIC AND SUBSTANCE ABUSE HOSPITALS", "SOURCE": "http://www.gamap2care.info/", "SOURCEDATE": "2018-08-09T00:00:00.000Z", "VAL_METHOD": "IMAGERY", "VAL_DATE": "2014-02-10T00:00:00.000Z", "WEBSITE": "http://lakebridgebhs.com/", "STATE_ID": "208", "ALT_NAME": "NOT AVAILABLE", "ST_FIPS": "13", "OWNER": "PROPRIETARY", "TTL_STAFF": -999, "BEDS": 40, "TRAUMA": "NOT AVAILABLE", "HELIPAD": "N" }, "geometry": { "type": "Polygon", "coordinates": [ [ [ -83.6641227, 32.780579800000034 ], [ -83.681788, 32.783983 ], [ -83.68345, 32.785368 ], [ -83.736519, 32.862445 ], [ -83.782251300000013, 32.9390255 ], [ -83.777937800000018, 32.94436630000002 ], [ -83.7273904, 32.96876959999998 ], [ -83.7269175, 32.9688621 ], [ -83.6055352, 32.881730299999965 ], [ -83.588076, 32.864086 ], [ -83.574769500000016, 32.841312499999965 ], [ -83.573556, 32.838009 ], [ -83.568568, 32.808453 ], [ -83.5686321, 32.801261899999986 ], [ -83.570125, 32.795211 ], [ -83.572647, 32.794576 ], [ -83.659044, 32.780451 ], [ -83.662078, 32.780526 ], [ -83.6641227, 32.780579800000034 ] ] ] } },
{ "type": "Feature", "properties": { "OBJECTID": 4608, "ID": "0005431063", "NAME": "FLINT RIVER COMMUNITY HOSPITAL", "ADDRESS": "509 SUMTER STREET", "CITY": "MONTEZUMA", "STATE": "GA", "ZIP": "31063", "ZIP4": "NOT AVAILABLE", "TELEPHONE": "NOT AVAILABLE", "TYPE": "GENERAL ACUTE CARE", "STATUS": "OPEN", "POPULATION": 49, "COUNTY": "MACON", "COUNTYFIPS": "13193", "COUNTRY": "USA", "LATITUDE": 32.29498489, "LONGITUDE": -84.030754193999897, "NAICS_CODE": "622110", "NAICS_DESC": "GENERAL MEDICAL AND SURGICAL HOSPITALS", "SOURCE": "http://www.gamap2care.info/", "SOURCEDATE": "2018-08-09T00:00:00.000Z", "VAL_METHOD": "IMAGERY", "VAL_DATE": "2013-10-17T00:00:00.000Z", "WEBSITE": "http://www.flintriverhospital.com/", "STATE_ID": "50", "ALT_NAME": "NOT AVAILABLE", "ST_FIPS": "13", "OWNER": "PROPRIETARY", "TTL_STAFF": -999, "BEDS": 49, "TRAUMA": "NOT AVAILABLE", "HELIPAD": "N" }, "geometry": { "type": "Polygon", "coordinates": [ [ [ -84.1150566, 32.2118418 ], [ -84.1467463, 32.281856300000022 ], [ -84.125309, 32.336862 ], [ -84.064983, 32.369947 ], [ -84.015242, 32.383124 ], [ -83.953869, 32.363242 ], [ -83.939521, 32.35812 ], [ -83.9053116, 32.307848 ], [ -83.9066611, 32.305925900000041 ], [ -83.9167376, 32.292309700000025 ], [ -83.991134, 32.2168599 ], [ -84.1150566, 32.2118418 ] ] ] } },
{ "type": "Feature", "properties": { "OBJECTID": 4609, "ID": "0003331602", "NAME": "GREENLEAF CENTER", "ADDRESS": "2209 PINEVIEW DRIVE", "CITY": "VALDOSTA", "STATE": "GA", "ZIP": "31602", "ZIP4": "NOT AVAILABLE", "TELEPHONE": "NOT AVAILABLE", "TYPE": "PSYCHIATRIC", "STATUS": "OPEN", "POPULATION": 50, "COUNTY": "LOWNDES", "COUNTYFIPS": "13185", "COUNTRY": "USA", "LATITUDE": 30.86015739, "LONGITUDE": -83.259133221999903, "NAICS_CODE": "622210", "NAICS_DESC": "PSYCHIATRIC AND SUBSTANCE ABUSE HOSPITALS", "SOURCE": "http://www.gamap2care.info/", "SOURCEDATE": "2018-08-09T00:00:00.000Z", "VAL_METHOD": "IMAGERY", "VAL_DATE": "2014-02-10T00:00:00.000Z", "WEBSITE": "http://www.greenleafcounseling.net/", "STATE_ID": "28", "ALT_NAME": "NOT AVAILABLE", "ST_FIPS": "13", "OWNER": "NOT AVAILABLE", "TTL_STAFF": -999, "BEDS": 50, "TRAUMA": "NOT AVAILABLE", "HELIPAD": "N" }, "geometry": { "type": "Polygon", "coordinates": [ [ [ -83.2676874, 30.764444700000013 ], [ -83.3034805, 30.77172529999995 ], [ -83.3533752, 30.7926947 ], [ -83.367757, 30.800288 ], [ -83.3678619, 30.800433899999955 ], [ -83.36421110000002, 30.894329299999985 ], [ -83.360697, 30.903471499999984 ], [ -83.349948, 30.924774 ], [ -83.2655205, 30.947459199999976 ], [ -83.242599, 30.949961 ], [ -83.160554, 30.927688 ], [ -83.1563281, 30.87778950000002 ], [ -83.228622900000019, 30.768658400000017 ], [ -83.2288198, 30.768594300000032 ], [ -83.2651263, 30.764156300000018 ], [ -83.2676874, 30.764444700000013 ] ] ] } },
{ "type": "Feature", "properties": { "OBJECTID": 4610, "ID": "0010431092", "NAME": "DOOLY MEDICAL CENTER", "ADDRESS": "1300 UNION STREET", "CITY": "VIENNA", "STATE": "GA", "ZIP": "31092", "ZIP4": "NOT AVAILABLE", "TELEPHONE": "(229) 268-8865", "TYPE": "GENERAL ACUTE CARE", "STATUS": "CLOSED", "POPULATION": 47, "COUNTY": "DOOLY", "COUNTYFIPS": "13093", "COUNTRY": "USA", "LATITUDE": 32.085929699000097, "LONGITUDE": -83.771920972999993, "NAICS_CODE": "622110", "NAICS_DESC": "GENERAL MEDICAL AND SURGICAL HOSPITALS", "SOURCE": "http://167.193.144.247/", "SOURCEDATE": "2012-11-24T00:00:00.000Z", "VAL_METHOD": "IMAGERY", "VAL_DATE": "2019-05-09T00:00:00.000Z", "WEBSITE": "http://www.gbhcs.org/gbhcs/DoolyMedicalCenterVienna.htm", "STATE_ID": "102", "ALT_NAME": "NOT AVAILABLE", "ST_FIPS": "13", "OWNER": "NOT AVAILABLE", "TTL_STAFF": -999, "BEDS": 47, "TRAUMA": "NOT AVAILABLE", "HELIPAD": "N" }, "geometry": { "type": "Polygon", "coordinates": [ [ [ -83.7324111, 32.015953600000024 ], [ -83.757437, 32.018748 ], [ -83.8105996, 32.029790599999949 ], [ -83.850798, 32.04717 ], [ -83.879766, 32.07202 ], [ -83.885378, 32.088529 ], [ -83.877848, 32.123258 ], [ -83.8735865, 32.13919 ], [ -83.7636473, 32.198911199999962 ], [ -83.7619637, 32.198892599999951 ], [ -83.720472, 32.196981 ], [ -83.663841, 32.146714 ], [ -83.6379168, 32.04992309999998 ], [ -83.6475511, 32.044436200000028 ], [ -83.7324111, 32.015953600000024 ] ] ] } },
{ "type": "Feature", "properties": { "OBJECTID": 4704, "ID": "0082731014", "NAME": "BLECKLEY MEMORIAL HOSPITAL", "ADDRESS": "145 EAST PEACOCK STREET", "CITY": "COCHRAN", "STATE": "GA", "ZIP": "31014", "ZIP4": "NOT AVAILABLE", "TELEPHONE": "(478) 934-6211", "TYPE": "CRITICAL ACCESS", "STATUS": "OPEN", "POPULATION": 25, "COUNTY": "BLECKLEY", "COUNTYFIPS": "13023", "COUNTRY": "USA", "LATITUDE": 32.384922341, "LONGITUDE": -83.346854871999895, "NAICS_CODE": "622110", "NAICS_DESC": "GENERAL MEDICAL AND SURGICAL HOSPITALS", "SOURCE": "http://www.gamap2care.info/", "SOURCEDATE": "2018-08-09T00:00:00.000Z", "VAL_METHOD": "IMAGERY/OTHER", "VAL_DATE": "2015-03-02T00:00:00.000Z", "WEBSITE": "http://bleckleymemorial.com/", "STATE_ID": "NOT AVAILABLE", "ALT_NAME": "NOT AVAILABLE", "ST_FIPS": "13", "OWNER": "NOT AVAILABLE", "TTL_STAFF": -999, "BEDS": 25, "TRAUMA": "NOT AVAILABLE", "HELIPAD": "N" }, "geometry": { "type": "Polygon", "coordinates": [ [ [ -83.42612, 32.304021 ], [ -83.438863, 32.396475 ], [ -83.395396, 32.467491 ], [ -83.391995, 32.47054 ], [ -83.3897976, 32.4711358 ], [ -83.353014, 32.474978 ], [ -83.258089, 32.457473 ], [ -83.235918, 32.410106 ], [ -83.2499716, 32.3528726 ], [ -83.284169, 32.318952 ], [ -83.3215938, 32.312908500000027 ], [ -83.377886, 32.305422 ], [ -83.42612, 32.304021 ] ] ] } },
{ "type": "Feature", "properties": { "OBJECTID": 4706, "ID": "0083331093", "NAME": "HOUSTON MEDICAL CENTER", "ADDRESS": "1601 WATSON BOULEVARD", "CITY": "WARNER ROBINS", "STATE": "GA", "ZIP": "31093", "ZIP4": "NOT AVAILABLE", "TELEPHONE": "NOT AVAILABLE", "TYPE": "GENERAL ACUTE CARE", "STATUS": "OPEN", "POPULATION": 237, "COUNTY": "HOUSTON", "COUNTYFIPS": "13153", "COUNTRY": "USA", "LATITUDE": 32.617593909000099, "LONGITUDE": -83.630934788000005, "NAICS_CODE": "622110", "NAICS_DESC": "GENERAL MEDICAL AND SURGICAL HOSPITALS", "SOURCE": "http://www.gamap2care.info/", "SOURCEDATE": "2018-08-09T00:00:00.000Z", "VAL_METHOD": "IMAGERY/OTHER", "VAL_DATE": "2015-03-02T00:00:00.000Z", "WEBSITE": "NOT AVAILABLE", "STATE_ID": "NOT AVAILABLE", "ALT_NAME": "NOT AVAILABLE", "ST_FIPS": "13", "OWNER": "NOT AVAILABLE", "TTL_STAFF": -999, "BEDS": 237, "TRAUMA": "NOT AVAILABLE", "HELIPAD": "N" }, "geometry": { "type": "Polygon", "coordinates": [ [ [ -83.63281, 32.530624 ], [ -83.719965, 32.5780297 ], [ -83.7232155, 32.581072100000036 ], [ -83.7230226, 32.633739399999982 ], [ -83.7222405, 32.635413600000057 ], [ -83.699015, 32.666102 ], [ -83.642698, 32.671131 ], [ -83.6093054, 32.6638034 ], [ -83.5882076, 32.649686199999948 ], [ -83.573588, 32.569445 ], [ -83.5852246, 32.551781500000018 ], [ -83.5903875, 32.5439968 ], [ -83.63281, 32.530624 ] ] ] } },
{ "type": "Feature", "properties": { "OBJECTID": 4710, "ID": "0085131603", "NAME": "SOUTH GEORGIA MEDICAL CENTER", "ADDRESS": "2501 NORTH PATTERSON STREET, PO BOX 1727", "CITY": "VALDOSTA", "STATE": "GA", "ZIP": "31603", "ZIP4": "NOT AVAILABLE", "TELEPHONE": "NOT AVAILABLE", "TYPE": "GENERAL ACUTE CARE", "STATUS": "OPEN", "POPULATION": 380, "COUNTY": "LOWNDES", "COUNTYFIPS": "13185", "COUNTRY": "USA", "LATITUDE": 30.86227044, "LONGITUDE": -83.2864703609999, "NAICS_CODE": "622110", "NAICS_DESC": "GENERAL MEDICAL AND SURGICAL HOSPITALS", "SOURCE": "http://www.gamap2care.info/", "SOURCEDATE": "2018-08-09T00:00:00.000Z", "VAL_METHOD": "IMAGERY/OTHER", "VAL_DATE": "2015-03-05T00:00:00.000Z", "WEBSITE": "NOT AVAILABLE", "STATE_ID": "NOT AVAILABLE", "ALT_NAME": "NOT AVAILABLE", "ST_FIPS": "13", "OWNER": "NOT AVAILABLE", "TTL_STAFF": -999, "BEDS": 380, "TRAUMA": "NOT AVAILABLE", "HELIPAD": "Y" }, "geometry": { "type": "Polygon", "coordinates": [ [ [ -83.2699334, 30.758740499999988 ], [ -83.3718912, 30.797923699999984 ], [ -83.3725411, 30.7989537 ], [ -83.3776665, 30.9010962 ], [ -83.3669603, 30.9420813 ], [ -83.355684, 30.957137 ], [ -83.2926499, 30.9551057 ], [ -83.2284923, 30.9519729 ], [ -83.2283583, 30.9519295 ], [ -83.187083, 30.906933 ], [ -83.188061, 30.866521 ], [ -83.199764, 30.801778 ], [ -83.2200362, 30.760301200000022 ], [ -83.2202368, 30.760242199999961 ], [ -83.2595973, 30.758457700000044 ], [ -83.2699334, 30.758740499999988 ] ] ] } },
{ "type": "Feature", "properties": { "OBJECTID": 4711, "ID": "0085231201", "NAME": "COLISEUM PSYCHIATRIC HOSPITAL", "ADDRESS": "340 HOSPITAL DRIVE, BOX 9366", "CITY": "MACON", "STATE": "GA", "ZIP": "31201", "ZIP4": "NOT AVAILABLE", "TELEPHONE": "(478) 765-7000", "TYPE": "PSYCHIATRIC", "STATUS": "OPEN", "POPULATION": 60, "COUNTY": "BIBB", "COUNTYFIPS": "13021", "COUNTRY": "USA", "LATITUDE": 32.846768414000103, "LONGITUDE": -83.618147688999997, "NAICS_CODE": "622210", "NAICS_DESC": "PSYCHIATRIC AND SUBSTANCE ABUSE HOSPITALS", "SOURCE": "http://www.gamap2care.info/", "SOURCEDATE": "2018-08-09T00:00:00.000Z", "VAL_METHOD": "IMAGERY/OTHER", "VAL_DATE": "2015-03-05T00:00:00.000Z", "WEBSITE": "http://www.coliseumhealthsystem.com", "STATE_ID": "NOT AVAILABLE", "ALT_NAME": "NOT AVAILABLE", "ST_FIPS": "13", "OWNER": "PROPRIETARY", "TTL_STAFF": -999, "BEDS": 60, "TRAUMA": "NOT AVAILABLE", "HELIPAD": "N" }, "geometry": { "type": "Polygon", "coordinates": [ [ [ -83.7070408, 32.760564799999976 ], [ -83.738422, 32.924926 ], [ -83.7365089, 32.930961500000016 ], [ -83.719016, 32.9391471 ], [ -83.611364, 32.931013 ], [ -83.60588150000001, 32.9293906 ], [ -83.5912195, 32.9238458 ], [ -83.4945085, 32.855566500000016 ], [ -83.504553, 32.80514 ], [ -83.5500722, 32.761987 ], [ -83.561039, 32.752173 ], [ -83.7070408, 32.760564799999976 ] ] ] } },
{ "type": "Feature", "properties": { "OBJECTID": 4712, "ID": "0085631023", "NAME": "DODGE COUNTY HOSPITAL", "ADDRESS": "901 GRIFFIN AVE", "CITY": "EASTMAN", "STATE": "GA", "ZIP": "31023", "ZIP4": "NOT AVAILABLE", "TELEPHONE": "(478) 448-4067", "TYPE": "GENERAL ACUTE CARE", "STATUS": "OPEN", "POPULATION": 94, "COUNTY": "DODGE", "COUNTYFIPS": "13091", "COUNTRY": "USA", "LATITUDE": 32.185562229, "LONGITUDE": -83.177876763, "NAICS_CODE": "622110", "NAICS_DESC": "GENERAL MEDICAL AND SURGICAL HOSPITALS", "SOURCE": "http://www.gamap2care.info/", "SOURCEDATE": "2018-08-09T00:00:00.000Z", "VAL_METHOD": "IMAGERY/OTHER", "VAL_DATE": "2015-03-05T00:00:00.000Z", "WEBSITE": "http://www.dodgecountyhospital.com", "STATE_ID": "37", "ALT_NAME": "NOT AVAILABLE", "ST_FIPS": "13", "OWNER": "GOVERNMENT - LOCAL", "TTL_STAFF": -999, "BEDS": 94, "TRAUMA": "NOT AVAILABLE", "HELIPAD": "N" }, "geometry": { "type": "Polygon", "coordinates": [ [ [ -83.1770599, 32.081455899999973 ], [ -83.2402134, 32.111943800000013 ], [ -83.318506, 32.204025400000042 ], [ -83.3184752, 32.2042266 ], [ -83.2476608, 32.268615 ], [ -83.1722416, 32.279650100000019 ], [ -83.126023, 32.283365 ], [ -83.108463, 32.280015 ], [ -83.0621481, 32.212289300000023 ], [ -83.074106, 32.106456 ], [ -83.074324, 32.106073500000022 ], [ -83.1770599, 32.081455899999973 ] ] ] } },
{ "type": "Feature", "properties": { "OBJECTID": 4714, "ID": "0084931634", "NAME": "CLINCH MEMORIAL HOSPITAL", "ADDRESS": "1050 VALDOSTA HIGHWAY", "CITY": "HOMERVILLE", "STATE": "GA", "ZIP": "31634", "ZIP4": "NOT AVAILABLE", "TELEPHONE": "NOT AVAILABLE", "TYPE": "CRITICAL ACCESS", "STATUS": "OPEN", "POPULATION": 25, "COUNTY": "CLINCH", "COUNTYFIPS": "13065", "COUNTRY": "USA", "LATITUDE": 31.03410008, "LONGITUDE": -82.764272243999997, "NAICS_CODE": "622110", "NAICS_DESC": "GENERAL MEDICAL AND SURGICAL HOSPITALS", "SOURCE": "http://www.gamap2care.info/", "SOURCEDATE": "2018-08-09T00:00:00.000Z", "VAL_METHOD": "IMAGERY/OTHER", "VAL_DATE": "2015-03-03T00:00:00.000Z", "WEBSITE": "NOT AVAILABLE", "STATE_ID": "NOT AVAILABLE", "ALT_NAME": "NOT AVAILABLE", "ST_FIPS": "13", "OWNER": "NOT AVAILABLE", "TTL_STAFF": -999, "BEDS": 25, "TRAUMA": "NOT AVAILABLE", "HELIPAD": "Y" }, "geometry": { "type": "Polygon", "coordinates": [ [ [ -82.77772, 30.950813 ], [ -82.870188500000012, 30.9854516 ], [ -82.8735827, 30.987976499999977 ], [ -82.874127, 30.990558 ], [ -82.874308, 30.991427 ], [ -82.874340023272438, 31.035085011555179 ], [ -82.819586417137288, 31.098895607937195 ], [ -82.707569964484151, 31.106290925956728 ], [ -82.65157729345384, 31.080908677234483 ], [ -82.64541217922941, 31.075647299501775 ], [ -82.650683109924415, 31.014381875024338 ], [ -82.6622545, 30.964819200000044 ], [ -82.77772, 30.950813 ] ] ] } },
{ "type": "Feature", "properties": { "OBJECTID": 4722, "ID": "0088631036", "NAME": "TAYLOR REGIONAL HOSPITAL", "ADDRESS": "222 PERRY HWY", "CITY": "HAWKINSVILLE", "STATE": "GA", "ZIP": "31036", "ZIP4": "NOT AVAILABLE", "TELEPHONE": "(478) 783-0200", "TYPE": "GENERAL ACUTE CARE", "STATUS": "OPEN", "POPULATION": 49, "COUNTY": "PULASKI", "COUNTYFIPS": "13235", "COUNTRY": "USA", "LATITUDE": 32.297849915, "LONGITUDE": -83.485116328999894, "NAICS_CODE": "622110", "NAICS_DESC": "GENERAL MEDICAL AND SURGICAL HOSPITALS", "SOURCE": "http://www.gamap2care.info/", "SOURCEDATE": "2018-08-09T00:00:00.000Z", "VAL_METHOD": "IMAGERY/OTHER", "VAL_DATE": "2015-03-09T00:00:00.000Z", "WEBSITE": "NOT AVAILABLE", "STATE_ID": "NOT AVAILABLE", "ALT_NAME": "NOT AVAILABLE", "ST_FIPS": "13", "OWNER": "NOT AVAILABLE", "TTL_STAFF": -999, "BEDS": 49, "TRAUMA": "LEVEL III", "HELIPAD": "N" }, "geometry": { "type": "Polygon", "coordinates": [ [ [ -83.5121051, 32.205326099999979 ], [ -83.602038, 32.306606 ], [ -83.570283, 32.347296 ], [ -83.546396, 32.376565 ], [ -83.4162843, 32.330741400000022 ], [ -83.413406, 32.328263 ], [ -83.4127762, 32.327426799999976 ], [ -83.396325, 32.30037750000001 ], [ -83.3883254, 32.250007199999978 ], [ -83.396736, 32.232174 ], [ -83.4635046, 32.213141399999969 ], [ -83.4758235, 32.2102788 ], [ -83.5121051, 32.205326099999979 ] ] ] } },
{ "type": "Feature", "properties": { "OBJECTID": 4724, "ID": "0089431792", "NAME": "JOHN D ARCHBOLD MEMORIAL HOSPITAL", "ADDRESS": "915 GORDON AVENUE & MIMOSA DRIVE", "CITY": "THOMASVILLE", "STATE": "GA", "ZIP": "31792", "ZIP4": "NOT AVAILABLE", "TELEPHONE": "NOT AVAILABLE", "TYPE": "GENERAL ACUTE CARE", "STATUS": "OPEN", "POPULATION": 264, "COUNTY": "THOMAS", "COUNTYFIPS": "13275", "COUNTRY": "USA", "LATITUDE": 30.825290313, "LONGITUDE": -83.972252372, "NAICS_CODE": "622110", "NAICS_DESC": "GENERAL MEDICAL AND SURGICAL HOSPITALS", "SOURCE": "http://www.gamap2care.info/", "SOURCEDATE": "2018-08-09T00:00:00.000Z", "VAL_METHOD": "IMAGERY/OTHER", "VAL_DATE": "2015-03-09T00:00:00.000Z", "WEBSITE": "NOT AVAILABLE", "STATE_ID": "NOT AVAILABLE", "ALT_NAME": "NOT AVAILABLE", "ST_FIPS": "13", "OWNER": "NOT AVAILABLE", "TTL_STAFF": -999, "BEDS": 264, "TRAUMA": "LEVEL II", "HELIPAD": "N" }, "geometry": { "type": "Polygon", "coordinates": [ [ [ -83.8998128, 30.7310293 ], [ -84.0786674, 30.7699782 ], [ -84.0788153, 30.77020519999996 ], [ -84.0686677, 30.877242299999985 ], [ -84.0610788, 30.895643500000013 ], [ -83.9941273, 30.926434499999981 ], [ -83.9687036, 30.9288056 ], [ -83.9208008, 30.911958099999985 ], [ -83.8494377, 30.811695900000032 ], [ -83.8497203, 30.81122749999998 ], [ -83.8996228, 30.731089099999956 ], [ -83.8998128, 30.7310293 ] ] ] } },
{ "type": "Feature", "properties": { "OBJECTID": 4887, "ID": "0015231904", "NAME": "ST FRANCIS HOSPITAL", "ADDRESS": "2122 MANCHESTER EXPRESSWAY", "CITY": "COLUMBUS", "STATE": "GA", "ZIP": "31904", "ZIP4": "NOT AVAILABLE", "TELEPHONE": "NOT AVAILABLE", "TYPE": "GENERAL ACUTE CARE", "STATUS": "OPEN", "POPULATION": 376, "COUNTY": "MUSCOGEE", "COUNTYFIPS": "13215", "COUNTRY": "USA", "LATITUDE": 32.5063854160001, "LONGITUDE": -84.960678994000006, "NAICS_CODE": "622110", "NAICS_DESC": "GENERAL MEDICAL AND SURGICAL HOSPITALS", "SOURCE": "http://www.gamap2care.info/", "SOURCEDATE": "2018-08-09T00:00:00.000Z", "VAL_METHOD": "IMAGERY", "VAL_DATE": "2014-02-10T00:00:00.000Z", "WEBSITE": "http://www.sfhga.com", "STATE_ID": "151", "ALT_NAME": "NOT AVAILABLE", "ST_FIPS": "13", "OWNER": "NON-PROFIT", "TTL_STAFF": -999, "BEDS": 376, "TRAUMA": "NOT AVAILABLE", "HELIPAD": "N" }, "geometry": { "type": "Polygon", "coordinates": [ [ [ -84.9365758, 32.3871383 ], [ -84.9934678, 32.453379399999982 ], [ -84.9940582, 32.454325899999986 ], [ -84.999047, 32.463381399999989 ], [ -85.017747, 32.548571 ], [ -85.015682, 32.575587 ], [ -84.981877, 32.606852 ], [ -84.967988, 32.607572 ], [ -84.954396, 32.607632 ], [ -84.8214013, 32.575117800000015 ], [ -84.8251955, 32.5403433 ], [ -84.8254573, 32.5384822 ], [ -84.893381, 32.42613 ], [ -84.895665, 32.422796 ], [ -84.9114843, 32.40244220000001 ], [ -84.929838, 32.391039 ], [ -84.931208, 32.39024 ], [ -84.935898, 32.387518 ], [ -84.9365758, 32.3871383 ] ] ] } },
{ "type": "Feature", "properties": { "OBJECTID": 4888, "ID": "0004339845", "NAME": "DONALSONVILLE HOSPITAL", "ADDRESS": "102 HOSPITAL CIRCLE", "CITY": "DONALSONVILLE", "STATE": "GA", "ZIP": "39845", "ZIP4": "NOT AVAILABLE", "TELEPHONE": "NOT AVAILABLE", "TYPE": "GENERAL ACUTE CARE", "STATUS": "OPEN", "POPULATION": 65, "COUNTY": "SEMINOLE", "COUNTYFIPS": "13253", "COUNTRY": "USA", "LATITUDE": 31.051237788000002, "LONGITUDE": -84.880633623999998, "NAICS_CODE": "622110", "NAICS_DESC": "GENERAL MEDICAL AND SURGICAL HOSPITALS", "SOURCE": "http://www.gamap2care.info/", "SOURCEDATE": "2018-08-09T00:00:00.000Z", "VAL_METHOD": "IMAGERY", "VAL_DATE": "2014-02-10T00:00:00.000Z", "WEBSITE": "http://donalsonvillehospital.org/", "STATE_ID": "38", "ALT_NAME": "NOT AVAILABLE", "ST_FIPS": "13", "OWNER": "NON-PROFIT", "TTL_STAFF": -999, "BEDS": 65, "TRAUMA": "NOT AVAILABLE", "HELIPAD": "Y" }, "geometry": { "type": "Polygon", "coordinates": [ [ [ -84.8828935, 30.943228799999975 ], [ -84.967859300000015, 30.971564199999968 ], [ -84.9749789, 30.9823549 ], [ -84.988535739525901, 31.046512652466507 ], [ -84.996292845025067, 31.091799272822055 ], [ -84.996290043935744, 31.092127173933921 ], [ -84.910964206433945, 31.123495471256987 ], [ -84.763015558677523, 31.060662438911425 ], [ -84.7650365, 30.99257189999998 ], [ -84.8152866, 30.966089799999985 ], [ -84.8828935, 30.943228799999975 ] ] ] } },
{ "type": "Feature", "properties": { "OBJECTID": 4889, "ID": "0005931791", "NAME": "PHOEBE WORTH MEDICAL CENTER", "ADDRESS": "807 SOUTH ISABELLA STREET", "CITY": "SYLVESTER", "STATE": "GA", "ZIP": "31791", "ZIP4": "NOT AVAILABLE", "TELEPHONE": "NOT AVAILABLE", "TYPE": "CRITICAL ACCESS", "STATUS": "OPEN", "POPULATION": 25, "COUNTY": "WORTH", "COUNTYFIPS": "13321", "COUNTRY": "USA", "LATITUDE": 31.511722603000099, "LONGITUDE": -83.840155785999997, "NAICS_CODE": "622110", "NAICS_DESC": "GENERAL MEDICAL AND SURGICAL HOSPITALS", "SOURCE": "http://www.gamap2care.info/", "SOURCEDATE": "2018-08-09T00:00:00.000Z", "VAL_METHOD": "IMAGERY", "VAL_DATE": "2014-02-10T00:00:00.000Z", "WEBSITE": "http://www.phoebeputney.com/PhoebeContentPage.aspx?nd=1483", "STATE_ID": "57", "ALT_NAME": "NOT AVAILABLE", "ST_FIPS": "13", "OWNER": "NON-PROFIT", "TTL_STAFF": -999, "BEDS": 25, "TRAUMA": "NOT AVAILABLE", "HELIPAD": "Y" }, "geometry": { "type": "Polygon", "coordinates": [ [ [ -83.877923112916932, 31.429826680772429 ], [ -83.934784053035642, 31.437037089457696 ], [ -83.967750361420613, 31.507783972456881 ], [ -83.9579143, 31.551326399999972 ], [ -83.872453, 31.596358 ], [ -83.866572, 31.598277 ], [ -83.864098, 31.598463 ], [ -83.7805817, 31.592873500000021 ], [ -83.7678495, 31.583445600000029 ], [ -83.7264604, 31.50509410000004 ], [ -83.7265347, 31.504922 ], [ -83.772135988068015, 31.453545416803809 ], [ -83.817697186358174, 31.435968284313276 ], [ -83.877923112916932, 31.429826680772429 ] ] ] } },
{ "type": "Feature", "properties": { "OBJECTID": 38, "ID": "0087130286", "NAME": "UPSON REGIONAL MEDICAL CENTER", "ADDRESS": "801 W GORDON STREET", "CITY": "THOMASTON", "STATE": "GA", "ZIP": "30286", "ZIP4": "NOT AVAILABLE", "TELEPHONE": "NOT AVAILABLE", "TYPE": "GENERAL ACUTE CARE", "STATUS": "OPEN", "POPULATION": 115, "COUNTY": "UPSON", "COUNTYFIPS": "13293", "COUNTRY": "USA", "LATITUDE": 32.886297700999997, "LONGITUDE": -84.336506987999897, "NAICS_CODE": "622110", "NAICS_DESC": "GENERAL MEDICAL AND SURGICAL HOSPITALS", "SOURCE": "http://www.gamap2care.info/", "SOURCEDATE": "2018-08-09T00:00:00.000Z", "VAL_METHOD": "IMAGERY/OTHER", "VAL_DATE": "2015-03-05T00:00:00.000Z", "WEBSITE": "NOT AVAILABLE", "STATE_ID": "NOT AVAILABLE", "ALT_NAME": "NOT AVAILABLE", "ST_FIPS": "13", "OWNER": "NOT AVAILABLE", "TTL_STAFF": -999, "BEDS": 115, "TRAUMA": "NOT AVAILABLE", "HELIPAD": "N" }, "geometry": { "type": "Polygon", "coordinates": [ [ [ -84.2620537, 32.793405899999982 ], [ -84.42453350000001, 32.83799770000001 ], [ -84.452971, 32.937148 ], [ -84.342373, 32.968468 ], [ -84.3201684, 32.974476499999966 ], [ -84.2469135, 32.96089419999997 ], [ -84.2198498, 32.929879399999976 ], [ -84.2620537, 32.793405899999982 ] ] ] } },
{ "type": "Feature", "properties": { "OBJECTID": 39, "ID": "0087531719", "NAME": "PHOEBE SUMTER MEDICAL CENTER", "ADDRESS": "126 HIGHWAY 280 W", "CITY": "AMERICUS", "STATE": "GA", "ZIP": "31719", "ZIP4": "NOT AVAILABLE", "TELEPHONE": "(229) 924-6011", "TYPE": "GENERAL ACUTE CARE", "STATUS": "OPEN", "POPULATION": 76, "COUNTY": "SUMTER", "COUNTYFIPS": "13261", "COUNTRY": "USA", "LATITUDE": 32.066962338000103, "LONGITUDE": -84.2560502, "NAICS_CODE": "622110", "NAICS_DESC": "GENERAL MEDICAL AND SURGICAL HOSPITALS", "SOURCE": "http://www.gamap2care.info/", "SOURCEDATE": "2018-08-09T00:00:00.000Z", "VAL_METHOD": "IMAGERY/OTHER", "VAL_DATE": "2015-03-09T00:00:00.000Z", "WEBSITE": "http://www.phoebeputney.com/PhoebeContentPage.aspx?nd=1479", "STATE_ID": "NOT AVAILABLE", "ALT_NAME": "NOT AVAILABLE", "ST_FIPS": "13", "OWNER": "NOT AVAILABLE", "TTL_STAFF": -999, "BEDS": 76, "TRAUMA": "NOT AVAILABLE", "HELIPAD": "Y" }, "geometry": { "type": "Polygon", "coordinates": [ [ [ -84.2655762, 31.924259600000013 ], [ -84.3926003, 32.03368649999998 ], [ -84.3927086, 32.034007199999969 ], [ -84.337462, 32.112566 ], [ -84.280994, 32.159322 ], [ -84.2737067, 32.159328899999934 ], [ -84.269769, 32.159324500000011 ], [ -84.237821, 32.1507 ], [ -84.213644, 32.142285 ], [ -84.1637379, 32.11881039999998 ], [ -84.1625932, 32.1157128 ], [ -84.1622654, 32.11402480000001 ], [ -84.151404, 32.057876 ], [ -84.152378, 32.054581 ], [ -84.159896, 32.030458 ], [ -84.2083382, 31.9640981 ], [ -84.2653714, 31.924289 ], [ -84.2655762, 31.924259600000013 ] ] ] } },
{ "type": "Feature", "properties": { "OBJECTID": 40, "ID": "0087931830", "NAME": "ROOSEVELT WARM SPRINGS LTAC HOSPITAL", "ADDRESS": "6135 ROOSEVELT HIGHWAY", "CITY": "WARM SPRINGS", "STATE": "GA", "ZIP": "31830", "ZIP4": "NOT AVAILABLE", "TELEPHONE": "(404) 655-5011", "TYPE": "LONG TERM CARE", "STATUS": "OPEN", "POPULATION": 32, "COUNTY": "MERIWETHER", "COUNTYFIPS": "13199", "COUNTRY": "USA", "LATITUDE": 32.887980741, "LONGITUDE": -84.6923449, "NAICS_CODE": "622310", "NAICS_DESC": "SPECIALTY (EXCEPT PSYCHIATRIC AND SUBSTANCE ABUSE) HOSPITALS", "SOURCE": "http://www.gamap2care.info/", "SOURCEDATE": "2018-08-09T00:00:00.000Z", "VAL_METHOD": "IMAGERY/OTHER", "VAL_DATE": "2015-03-09T00:00:00.000Z", "WEBSITE": "NOT AVAILABLE", "STATE_ID": "NOT AVAILABLE", "ALT_NAME": "NOT AVAILABLE", "ST_FIPS": "13", "OWNER": "NOT AVAILABLE", "TTL_STAFF": -999, "BEDS": 32, "TRAUMA": "NOT AVAILABLE", "HELIPAD": "N" }, "geometry": { "type": "Polygon", "coordinates": [ [ [ -84.6650371, 32.840154100000035 ], [ -84.6945807, 32.844563599999979 ], [ -84.727197, 32.863321 ], [ -84.780306, 32.908793 ], [ -84.788639, 32.916159 ], [ -84.7798015, 32.932398400000054 ], [ -84.779158, 32.933421 ], [ -84.707556, 32.991466 ], [ -84.622408, 32.956367 ], [ -84.601399, 32.861579 ], [ -84.600432, 32.856698 ], [ -84.609406, 32.849922 ], [ -84.612063, 32.848255 ], [ -84.6192525, 32.8471074 ], [ -84.6650371, 32.840154100000035 ] ] ] } },
{ "type": "Feature", "properties": { "OBJECTID": 63, "ID": "0023831825", "NAME": "STEWART WEBSTER HOSPITAL", "ADDRESS": "580 ALSTON STREET", "CITY": "RICHLAND", "STATE": "GA", "ZIP": "31825", "ZIP4": "NOT AVAILABLE", "TELEPHONE": "(229) 887-3366", "TYPE": "CRITICAL ACCESS", "STATUS": "CLOSED", "POPULATION": 25, "COUNTY": "STEWART", "COUNTYFIPS": "13259", "COUNTRY": "USA", "LATITUDE": 32.08616827, "LONGITUDE": -84.660699773999994, "NAICS_CODE": "622310", "NAICS_DESC": "HOSPITALS, SPECIALTY (EXCEPT PSYCHIATRIC, SUBSTANCE ABUSE)", "SOURCE": "http://www.gamap2care.info/Locator.html#", "SOURCEDATE": "2016-03-08T00:00:00.000Z", "VAL_METHOD": "IMAGERY/OTHER", "VAL_DATE": "2016-03-08T00:00:00.000Z", "WEBSITE": "http://www.stewartcountyga.gov/stewartwebsterhospital.htm", "STATE_ID": "NOT AVAILABLE", "ALT_NAME": "NOT AVAILABLE", "ST_FIPS": "13", "OWNER": "GOVERNMENT - DISTRICT/AUTHORITY", "TTL_STAFF": -999, "BEDS": 25, "TRAUMA": "NOT AVAILABLE", "HELIPAD": "N" }, "geometry": { "type": "Polygon", "coordinates": [ [ [ -84.6227528, 31.980439699999987 ], [ -84.6537741, 31.9888122 ], [ -84.7751735, 32.051536700000028 ], [ -84.7001255, 32.1965593 ], [ -84.6998713, 32.196656199999985 ], [ -84.605492, 32.152917 ], [ -84.5715177, 32.131508 ], [ -84.569573, 32.118933 ], [ -84.576085, 32.087083 ], [ -84.6206106, 31.9804156 ], [ -84.6227528, 31.980439699999987 ] ] ] } },
{ "type": "Feature", "properties": { "OBJECTID": 722, "ID": "0082032514", "NAME": "WEST FLORIDA REHABILITATION INSTITUTE", "ADDRESS": "8391 N DAVIS HWY", "CITY": "PENSACOLA", "STATE": "FL", "ZIP": "32514", "ZIP4": "NOT AVAILABLE", "TELEPHONE": "(850) 494-6100", "TYPE": "REHABILITATION", "STATUS": "OPEN", "POPULATION": -999, "COUNTY": "ESCAMBIA", "COUNTYFIPS": "12033", "COUNTRY": "USA", "LATITUDE": 30.516340123000099, "LONGITUDE": -87.216863021999998, "NAICS_CODE": "622310", "NAICS_DESC": "REHABILITATION HOSPITALS (EXCEPT ALCOHOLISM, DRUG ADDICTION)", "SOURCE": "http://www.floridahealthfinder.gov/facilitylocator/facilitysearch.aspx", "SOURCEDATE": "2018-08-15T00:00:00.000Z", "VAL_METHOD": "IMAGERY/OTHER", "VAL_DATE": "2015-02-16T00:00:00.000Z", "WEBSITE": "HTTP://WWW.WESTFLORIDAHOSPITAL.COM/", "STATE_ID": "NOT AVAILABLE", "ALT_NAME": "NOT AVAILABLE", "ST_FIPS": "12", "OWNER": "NOT AVAILABLE", "TTL_STAFF": -999, "BEDS": 58, "TRAUMA": "NOT AVAILABLE", "HELIPAD": "Y" }, "geometry": { "type": "Polygon", "coordinates": [ [ [ -87.2106311, 30.406307500000022 ], [ -87.213031, 30.406925199999986 ], [ -87.215787, 30.407957 ], [ -87.230319, 30.416225 ], [ -87.241138, 30.422659 ], [ -87.261938, 30.437821 ], [ -87.330846, 30.510118 ], [ -87.346541, 30.5349039 ], [ -87.329539, 30.546581 ], [ -87.2894275, 30.5667581 ], [ -87.260926, 30.580119 ], [ -87.182837, 30.544329 ], [ -87.1525202, 30.490783900000022 ], [ -87.162251, 30.465463 ], [ -87.198164, 30.417657 ], [ -87.2000733, 30.415444199999982 ], [ -87.204113, 30.410900199999983 ], [ -87.207126, 30.408485900000013 ], [ -87.2106311, 30.406307500000022 ] ] ] } },
{ "type": "Feature", "properties": { "OBJECTID": 915, "ID": "0011036301", "NAME": "SOUTHEAST ALABAMA MEDICAL CENTER", "ADDRESS": "1108 ROSS CLARK CIRCLE", "CITY": "DOTHAN", "STATE": "AL", "ZIP": "36301", "ZIP4": "NOT AVAILABLE", "TELEPHONE": "(334) 793-8701", "TYPE": "GENERAL ACUTE CARE", "STATUS": "OPEN", "POPULATION": 420, "COUNTY": "HOUSTON", "COUNTYFIPS": "01069", "COUNTRY": "USA", "LATITUDE": 31.2163036480001, "LONGITUDE": -85.363631123999895, "NAICS_CODE": "622110", "NAICS_DESC": "GENERAL MEDICAL AND SURGICAL HOSPITALS", "SOURCE": "http://dph1.adph.state.al.us/FacilitiesDirectory", "SOURCEDATE": "2018-08-09T00:00:00.000Z", "VAL_METHOD": "IMAGERY/OTHER", "VAL_DATE": "2014-02-10T00:00:00.000Z", "WEBSITE": "http://www.samc.org", "STATE_ID": "H3502", "ALT_NAME": "NOT AVAILABLE", "ST_FIPS": "01", "OWNER": "GOVERNMENT - DISTRICT/AUTHORITY", "TTL_STAFF": -999, "BEDS": 420, "TRAUMA": "LEVEL II", "HELIPAD": "Y" }, "geometry": { "type": "Polygon", "coordinates": [ [ [ -85.404952363206704, 31.112983606071623 ], [ -85.437646401551191, 31.137241788647376 ], [ -85.468456905552088, 31.181846221209973 ], [ -85.49491866111515, 31.239670858571174 ], [ -85.495040662872839, 31.240278865449056 ], [ -85.495034664635781, 31.240871872003694 ], [ -85.45453975860427, 31.275959075193715 ], [ -85.408602704907125, 31.298741373520382 ], [ -85.347983306829903, 31.317698655960598 ], [ -85.347778806533285, 31.317598954709229 ], [ -85.251141729964885, 31.255539690327385 ], [ -85.234069636003525, 31.173866237238173 ], [ -85.233719632396074, 31.171543225702717 ], [ -85.329904454072278, 31.123932810419117 ], [ -85.404952363206704, 31.112983606071623 ] ] ] } },
{ "type": "Feature", "properties": { "OBJECTID": 916, "ID": "0005136027", "NAME": "MEDICAL CENTER BARBOUR", "ADDRESS": "820 WEST WASHINGTON STREET", "CITY": "EUFAULA", "STATE": "AL", "ZIP": "36027", "ZIP4": "NOT AVAILABLE", "TELEPHONE": "(334) 688-7271", "TYPE": "GENERAL ACUTE CARE", "STATUS": "OPEN", "POPULATION": 74, "COUNTY": "BARBOUR", "COUNTYFIPS": "01005", "COUNTRY": "USA", "LATITUDE": 31.888645080000099, "LONGITUDE": -85.156405418999995, "NAICS_CODE": "622110", "NAICS_DESC": "GENERAL MEDICAL AND SURGICAL HOSPITALS", "SOURCE": "http://dph1.adph.state.al.us/FacilitiesDirectory", "SOURCEDATE": "2018-08-09T00:00:00.000Z", "VAL_METHOD": "IMAGERY/OTHER", "VAL_DATE": "2013-09-10T00:00:00.000Z", "WEBSITE": "http://www.medctrbarbour.org", "STATE_ID": "H0301", "ALT_NAME": "NOT AVAILABLE", "ST_FIPS": "01", "OWNER": "GOVERNMENT - DISTRICT/AUTHORITY", "TTL_STAFF": -999, "BEDS": 74, "TRAUMA": "LEVEL III", "HELIPAD": "Y" }, "geometry": { "type": "Polygon", "coordinates": [ [ [ -85.173224, 31.786469 ], [ -85.196744, 31.811375 ], [ -85.234748, 31.876864 ], [ -85.23473, 31.877069 ], [ -85.198866, 31.951874 ], [ -85.145318, 31.960419 ], [ -85.118454, 31.96213 ], [ -85.118208, 31.962078 ], [ -85.116772, 31.961737 ], [ -85.1257977, 31.916037599999946 ], [ -85.130097, 31.897816 ], [ -85.152682, 31.814528 ], [ -85.1541688, 31.809354299999985 ], [ -85.172518, 31.787297 ], [ -85.173224, 31.786469 ] ] ] } },
{ "type": "Feature", "properties": { "OBJECTID": 917, "ID": "0005536451", "NAME": "GROVE HILL MEMORIAL HOSPITAL", "ADDRESS": "295 JACKSON HIGHWAY S", "CITY": "GROVE HILL", "STATE": "AL", "ZIP": "36451", "ZIP4": "NOT AVAILABLE", "TELEPHONE": "(251) 275-3191", "TYPE": "GENERAL ACUTE CARE", "STATUS": "OPEN", "POPULATION": 50, "COUNTY": "CLARKE", "COUNTYFIPS": "01025", "COUNTRY": "USA", "LATITUDE": 31.694302296, "LONGITUDE": -87.776024626999998, "NAICS_CODE": "622110", "NAICS_DESC": "GENERAL MEDICAL AND SURGICAL HOSPITALS", "SOURCE": "http://dph1.adph.state.al.us/FacilitiesDirectory", "SOURCEDATE": "2018-08-09T00:00:00.000Z", "VAL_METHOD": "IMAGERY/OTHER", "VAL_DATE": "2014-02-10T00:00:00.000Z", "WEBSITE": "http://www.grovehillmemorial.org", "STATE_ID": "H1301", "ALT_NAME": "NOT AVAILABLE", "ST_FIPS": "01", "OWNER": "GOVERNMENT - DISTRICT/AUTHORITY", "TTL_STAFF": -999, "BEDS": 50, "TRAUMA": "LEVEL III", "HELIPAD": "Y" }, "geometry": { "type": "Polygon", "coordinates": [ [ [ -87.867834, 31.601746 ], [ -87.904525, 31.725109 ], [ -87.755295, 31.81109 ], [ -87.750903, 31.808134 ], [ -87.65588, 31.628975 ], [ -87.867834, 31.601746 ] ] ] } },
{ "type": "Feature", "properties": { "OBJECTID": 918, "ID": "0000136502", "NAME": "ATMORE COMMUNITY HOSPITAL", "ADDRESS": "401 MEDICAL PARK DR.", "CITY": "ATMORE", "STATE": "AL", "ZIP": "36502", "ZIP4": "NOT AVAILABLE", "TELEPHONE": "(251) 368-2500", "TYPE": "GENERAL ACUTE CARE", "STATUS": "OPEN", "POPULATION": 51, "COUNTY": "ESCAMBIA", "COUNTYFIPS": "01053", "COUNTRY": "USA", "LATITUDE": 31.017023865000098, "LONGITUDE": -87.478798513000001, "NAICS_CODE": "622110", "NAICS_DESC": "GENERAL MEDICAL AND SURGICAL HOSPITALS", "SOURCE": "http://dph1.adph.state.al.us/FacilitiesDirectory", "SOURCEDATE": "2018-08-09T00:00:00.000Z", "VAL_METHOD": "IMAGERY/OTHER", "VAL_DATE": "2014-02-10T00:00:00.000Z", "WEBSITE": "http://www.ebaptisthealthcare.org/AtmoreCommunityHospital/", "STATE_ID": "H2704", "ALT_NAME": "NOT AVAILABLE", "ST_FIPS": "01", "OWNER": "NON-PROFIT", "TTL_STAFF": -999, "BEDS": 51, "TRAUMA": "LEVEL III", "HELIPAD": "Y" }, "geometry": { "type": "Polygon", "coordinates": [ [ [ -87.570772, 30.997546 ], [ -87.5854098, 30.999285799999974 ], [ -87.595597, 31.001165 ], [ -87.530200270744871, 31.086647159957543 ], [ -87.471305671012544, 31.115041948490234 ], [ -87.368289600882633, 31.029827126621171 ], [ -87.367615599235151, 31.028071120142574 ], [ -87.373542626002688, 31.023249210655624 ], [ -87.407304, 30.998046 ], [ -87.432026, 30.997755 ], [ -87.514844, 30.997505 ], [ -87.564448, 30.99754 ], [ -87.568536, 30.997542 ], [ -87.570772, 30.997546 ] ] ] } },
{ "type": "Feature", "properties": { "OBJECTID": 962, "ID": "0011831768", "NAME": "COLQUITT REGIONAL MEDICAL CENTER", "ADDRESS": "3131 THOMASVILLE HWY, BOX 40", "CITY": "MOULTRIE", "STATE": "GA", "ZIP": "31768", "ZIP4": "NOT AVAILABLE", "TELEPHONE": "(229) 891-9338", "TYPE": "GENERAL ACUTE CARE", "STATUS": "OPEN", "POPULATION": 99, "COUNTY": "COLQUITT", "COUNTYFIPS": "13071", "COUNTRY": "USA", "LATITUDE": 31.125630097999998, "LONGITUDE": -83.780378853999906, "NAICS_CODE": "622110", "NAICS_DESC": "GENERAL MEDICAL AND SURGICAL HOSPITALS", "SOURCE": "http://www.gamap2care.info/", "SOURCEDATE": "2018-08-09T00:00:00.000Z", "VAL_METHOD": "IMAGERY", "VAL_DATE": "2014-02-10T00:00:00.000Z", "WEBSITE": "http://www.colquittregional.com", "STATE_ID": "117", "ALT_NAME": "NOT AVAILABLE", "ST_FIPS": "13", "OWNER": "GOVERNMENT - DISTRICT/AUTHORITY", "TTL_STAFF": -999, "BEDS": 99, "TRAUMA": "NOT AVAILABLE", "HELIPAD": "Y" }, "geometry": { "type": "Polygon", "coordinates": [ [ [ -83.849528061363685, 31.039526975367497 ], [ -83.861492734706772, 31.047080724049504 ], [ -83.860504079969658, 31.142072194528115 ], [ -83.843141124367818, 31.194514168590899 ], [ -83.802510626496812, 31.228207901386753 ], [ -83.723315892304342, 31.218798573534677 ], [ -83.711996658634718, 31.16510735016459 ], [ -83.704797188386323, 31.085660486057762 ], [ -83.71296858402998, 31.060572991402339 ], [ -83.756003135546067, 31.038053421263761 ], [ -83.76430648850291, 31.037197680010308 ], [ -83.849528061363685, 31.039526975367497 ] ] ] } },
{ "type": "Feature", "properties": { "OBJECTID": 964, "ID": "0013931709", "NAME": "SUMTER REGIONAL HOSPITAL", "ADDRESS": "100 WHEATLEY DR", "CITY": "AMERICUS", "STATE": "GA", "ZIP": "31709", "ZIP4": "NOT AVAILABLE", "TELEPHONE": "(229) 924-6011", "TYPE": "GENERAL ACUTE CARE", "STATUS": "CLOSED", "POPULATION": 143, "COUNTY": "SUMTER", "COUNTYFIPS": "13261", "COUNTRY": "USA", "LATITUDE": 32.057204028999998, "LONGITUDE": -84.219945672999998, "NAICS_CODE": "622110", "NAICS_DESC": "GENERAL MEDICAL AND SURGICAL HOSPITALS", "SOURCE": "http://167.193.144.247/", "SOURCEDATE": "2012-11-24T00:00:00.000Z", "VAL_METHOD": "IMAGERY", "VAL_DATE": "2013-10-15T00:00:00.000Z", "WEBSITE": "http://www.sumterregionalintranet.org/", "STATE_ID": "138", "ALT_NAME": "NOT AVAILABLE", "ST_FIPS": "13", "OWNER": "PROPRIETARY", "TTL_STAFF": -999, "BEDS": 143, "TRAUMA": "NOT AVAILABLE", "HELIPAD": "N" }, "geometry": { "type": "Polygon", "coordinates": [ [ [ -84.2083382, 31.9640981 ], [ -84.2488952, 31.985109500000029 ], [ -84.2939495, 32.018233 ], [ -84.3338998, 32.050316 ], [ -84.305418, 32.100658 ], [ -84.2627313, 32.127655900000022 ], [ -84.239136, 32.134587 ], [ -84.151979, 32.129389 ], [ -84.14918, 32.129196 ], [ -84.136418, 32.104239 ], [ -84.111731, 32.051357 ], [ -84.109214, 32.03085 ], [ -84.114645, 32.00627 ], [ -84.200508, 31.966738 ], [ -84.2083382, 31.9640981 ] ] ] } },
{ "type": "Feature", "properties": { "OBJECTID": 966, "ID": "0006331737", "NAME": "MILLER COUNTY HOSPITAL", "ADDRESS": "209 NORTH CUTHBERT STREET", "CITY": "COLQUITT", "STATE": "GA", "ZIP": "31737", "ZIP4": "NOT AVAILABLE", "TELEPHONE": "NOT AVAILABLE", "TYPE": "CRITICAL ACCESS", "STATUS": "OPEN", "POPULATION": 25, "COUNTY": "MILLER", "COUNTYFIPS": "13201", "COUNTRY": "USA", "LATITUDE": 31.175482309000099, "LONGITUDE": -84.735018315999994, "NAICS_CODE": "622110", "NAICS_DESC": "GENERAL MEDICAL AND SURGICAL HOSPITALS", "SOURCE": "http://www.gamap2care.info/", "SOURCEDATE": "2018-08-09T00:00:00.000Z", "VAL_METHOD": "IMAGERY", "VAL_DATE": "2013-10-15T00:00:00.000Z", "WEBSITE": "http://www.millercountyhospital.com", "STATE_ID": "61", "ALT_NAME": "NOT AVAILABLE", "ST_FIPS": "13", "OWNER": "GOVERNMENT - DISTRICT/AUTHORITY", "TTL_STAFF": -999, "BEDS": 25, "TRAUMA": "NOT AVAILABLE", "HELIPAD": "N" }, "geometry": { "type": "Polygon", "coordinates": [ [ [ -84.708968086481178, 31.065567282468429 ], [ -84.825691074564347, 31.123243262000283 ], [ -84.839187851053993, 31.168390400541956 ], [ -84.827131124601379, 31.197472591314654 ], [ -84.798081851084788, 31.250119088517657 ], [ -84.797949752325437, 31.250259689856925 ], [ -84.718499446439154, 31.276504560988048 ], [ -84.715202253634928, 31.27640807121465 ], [ -84.661508937640761, 31.232394666987542 ], [ -84.614930967628922, 31.185788613001904 ], [ -84.670746347281664, 31.077443092690071 ], [ -84.708968086481178, 31.065567282468429 ] ] ] } },
{ "type": "Feature", "properties": { "OBJECTID": 968, "ID": "0006431830", "NAME": "WARM SPRINGS MEDICAL CENTER", "ADDRESS": "5995 SPRING STREET", "CITY": "WARM SPRINGS", "STATE": "GA", "ZIP": "31830", "ZIP4": "NOT AVAILABLE", "TELEPHONE": "NOT AVAILABLE", "TYPE": "GENERAL ACUTE CARE", "STATUS": "OPEN", "POPULATION": 104, "COUNTY": "MERIWETHER", "COUNTYFIPS": "13199", "COUNTRY": "USA", "LATITUDE": 32.889631898000097, "LONGITUDE": -84.683742464000005, "NAICS_CODE": "622110", "NAICS_DESC": "GENERAL MEDICAL AND SURGICAL HOSPITALS", "SOURCE": "http://www.gamap2care.info/", "SOURCEDATE": "2018-08-09T00:00:00.000Z", "VAL_METHOD": "IMAGERY", "VAL_DATE": "2013-10-17T00:00:00.000Z", "WEBSITE": "http://www.warmspringsmc.org", "STATE_ID": "62", "ALT_NAME": "NOT AVAILABLE", "ST_FIPS": "13", "OWNER": "GOVERNMENT - DISTRICT/AUTHORITY", "TTL_STAFF": -999, "BEDS": 104, "TRAUMA": "NOT AVAILABLE", "HELIPAD": "N" }, "geometry": { "type": "Polygon", "coordinates": [ [ [ -84.6367543, 32.835856799999988 ], [ -84.6945807, 32.844563599999979 ], [ -84.7370652, 32.857748800000024 ], [ -84.767947, 32.875718 ], [ -84.806994, 32.90377 ], [ -84.803242, 32.908118 ], [ -84.779158, 32.933421 ], [ -84.709656, 33.002733 ], [ -84.6021031, 32.965253299999958 ], [ -84.582801, 32.858921 ], [ -84.621322, 32.836416 ], [ -84.6367543, 32.835856799999988 ] ] ] } },
{ "type": "Feature", "properties": { "OBJECTID": 7387, "ID": "0080332563", "NAME": "THE FRIARY OF LAKEVIEW CENTER", "ADDRESS": "4400 HICKORY SHORES BLVD", "CITY": "GULF BREEZE", "STATE": "FL", "ZIP": "32563", "ZIP4": "NOT AVAILABLE", "TELEPHONE": "(850) 932-9375", "TYPE": "PSYCHIATRIC", "STATUS": "OPEN", "POPULATION": -999, "COUNTY": "SANTA ROSA", "COUNTYFIPS": "12113", "COUNTRY": "USA", "LATITUDE": 30.397776323000102, "LONGITUDE": -87.039433093999904, "NAICS_CODE": "622110", "NAICS_DESC": "GENERAL MEDICAL AND SURGICAL HOSPITALS", "SOURCE": "http://www.floridahealthfinder.gov/facilitylocator/facilitysearch.aspx", "SOURCEDATE": "2018-08-15T00:00:00.000Z", "VAL_METHOD": "IMAGERY/OTHER", "VAL_DATE": "2014-04-15T00:00:00.000Z", "WEBSITE": "HTTP://THEFRIARY.BHCPNS.ORG/THEFRIARY/", "STATE_ID": "FL000187", "ALT_NAME": "NOT AVAILABLE", "ST_FIPS": "12", "OWNER": "NOT AVAILABLE", "TTL_STAFF": -999, "BEDS": 30, "TRAUMA": "NOT AVAILABLE", "HELIPAD": "N" }, "geometry": { "type": "Polygon", "coordinates": [ [ [ -87.13856, 30.363208 ], [ -87.138636, 30.363349 ], [ -87.1283393, 30.380521599999987 ], [ -87.12603, 30.383233 ], [ -87.123849, 30.384965 ], [ -87.1197104, 30.3867879 ], [ -87.115851, 30.388247 ], [ -87.090316, 30.397532 ], [ -86.943822, 30.447075 ], [ -86.941773, 30.446272 ], [ -86.899671, 30.401789 ], [ -86.900392, 30.401423 ], [ -86.906286, 30.398631 ], [ -86.913763, 30.397127 ], [ -87.13856, 30.363208 ] ] ] } },
{ "type": "Feature", "properties": { "OBJECTID": 7439, "ID": "0000000015", "NAME": "NAVAL HOSPITAL PENSACOLA", "ADDRESS": "6000 WEST HIGHWAY 98", "CITY": "PENSACOLA", "STATE": "FL", "ZIP": "32512", "ZIP4": "NOT AVAILABLE", "TELEPHONE": "(850) 505-6601", "TYPE": "MILITARY", "STATUS": "OPEN", "POPULATION": -999, "COUNTY": "ESCAMBIA", "COUNTYFIPS": "12033", "COUNTRY": "USA", "LATITUDE": 30.398569951000098, "LONGITUDE": -87.298615689000002, "NAICS_CODE": "622110", "NAICS_DESC": "GENERAL MEDICAL AND SURGICAL HOSPITALS", "SOURCE": "http://www.tricare.mil/mtf", "SOURCEDATE": "2019-04-02T00:00:00.000Z", "VAL_METHOD": "IMAGERY/OTHER", "VAL_DATE": "2015-07-24T00:00:00.000Z", "WEBSITE": "http://www.med.navy.mil/SITES/PCOLA/Pages/default.aspx", "STATE_ID": "NOT AVAILABLE", "ALT_NAME": "NOT AVAILABLE", "ST_FIPS": "12", "OWNER": "GOVERNMENT - FEDERAL", "TTL_STAFF": -999, "BEDS": -999, "TRAUMA": "NOT AVAILABLE", "HELIPAD": "Y" }, "geometry": { "type": "Polygon", "coordinates": [ [ [ -87.3451278, 30.3367825 ], [ -87.387544, 30.350307 ], [ -87.422882, 30.396128 ], [ -87.424979, 30.400624 ], [ -87.4244152, 30.401223099999971 ], [ -87.3242349, 30.478367900000023 ], [ -87.3235953, 30.478350400000014 ], [ -87.2506228, 30.45755470000001 ], [ -87.247434, 30.456329 ], [ -87.239689, 30.450426 ], [ -87.2332779, 30.445034399999983 ], [ -87.210343, 30.414352599999965 ], [ -87.210175, 30.413533 ], [ -87.2115823, 30.411479299999986 ], [ -87.213503, 30.408907 ], [ -87.2154896, 30.4065084 ], [ -87.2191449, 30.403676599999979 ], [ -87.276932800000012, 30.369907100000024 ], [ -87.3451278, 30.3367825 ] ] ] } },
{ "type": "Feature", "properties": { "OBJECTID": 7512, "ID": "0011536532", "NAME": "THOMAS HOSPITAL", "ADDRESS": "750 MORPHY AVENUE", "CITY": "FAIRHOPE", "STATE": "AL", "ZIP": "36532", "ZIP4": "NOT AVAILABLE", "TELEPHONE": "(251) 279-1501", "TYPE": "GENERAL ACUTE CARE", "STATUS": "OPEN", "POPULATION": 150, "COUNTY": "BALDWIN", "COUNTYFIPS": "01003", "COUNTRY": "USA", "LATITUDE": 30.5188790280001, "LONGITUDE": -87.889447436999902, "NAICS_CODE": "622110", "NAICS_DESC": "GENERAL MEDICAL AND SURGICAL HOSPITALS", "SOURCE": "http://dph1.adph.state.al.us/FacilitiesDirectory", "SOURCEDATE": "2018-08-09T00:00:00.000Z", "VAL_METHOD": "IMAGERY/OTHER", "VAL_DATE": "2013-09-10T00:00:00.000Z", "WEBSITE": "http://www.thomashospital.com", "STATE_ID": "H0203", "ALT_NAME": "NOT AVAILABLE", "ST_FIPS": "01", "OWNER": "NON-PROFIT", "TTL_STAFF": -999, "BEDS": 150, "TRAUMA": "LEVEL III", "HELIPAD": "N" }, "geometry": { "type": "Polygon", "coordinates": [ [ [ -87.8944845, 30.4157093 ], [ -87.9088166, 30.421087600000021 ], [ -87.9352852, 30.4839342 ], [ -87.910438, 30.621363 ], [ -87.9089126, 30.626677299999944 ], [ -87.9087354, 30.6267372 ], [ -87.8521428, 30.603790600000018 ], [ -87.796383, 30.545548 ], [ -87.787488, 30.523629 ], [ -87.857456, 30.42102 ], [ -87.869277, 30.417608 ], [ -87.8944845, 30.4157093 ] ] ] } },
{ "type": "Feature", "properties": { "OBJECTID": 7515, "ID": "0004336526", "NAME": "EASTPOINTE HOSPITAL", "ADDRESS": "7400 ROPER LANE", "CITY": "DAPHNE", "STATE": "AL", "ZIP": "36526", "ZIP4": "NOT AVAILABLE", "TELEPHONE": "(251) 450-5901", "TYPE": "PSYCHIATRIC", "STATUS": "OPEN", "POPULATION": 66, "COUNTY": "BALDWIN", "COUNTYFIPS": "01003", "COUNTRY": "USA", "LATITUDE": 30.635289146000002, "LONGITUDE": -87.895139096999998, "NAICS_CODE": "622210", "NAICS_DESC": "PSYCHIATRIC AND SUBSTANCE ABUSE HOSPITALS", "SOURCE": "http://dph1.adph.state.al.us/FacilitiesDirectory", "SOURCEDATE": "2018-08-09T00:00:00.000Z", "VAL_METHOD": "IMAGERY", "VAL_DATE": "2014-02-10T00:00:00.000Z", "WEBSITE": "http://www.altapointe.org/eastpointe.php", "STATE_ID": "H4912", "ALT_NAME": "NOT AVAILABLE", "ST_FIPS": "01", "OWNER": "PROPRIETARY", "TTL_STAFF": -999, "BEDS": 66, "TRAUMA": "NOT AVAILABLE", "HELIPAD": "N" }, "geometry": { "type": "Polygon", "coordinates": [ [ [ -87.890264, 30.548356 ], [ -87.896067, 30.554161 ], [ -88.0027427, 30.680757899999971 ], [ -87.901523, 30.717119 ], [ -87.899814, 30.716604 ], [ -87.834925, 30.676782 ], [ -87.828581, 30.647838 ], [ -87.843627, 30.60379 ], [ -87.852105, 30.591526 ], [ -87.889407, 30.548533 ], [ -87.890264, 30.548356 ] ] ] } },
{ "type": "Feature", "properties": { "OBJECTID": 7516, "ID": "0008636535", "NAME": "SOUTH BALDWIN REGIONAL MEDICAL CENTER", "ADDRESS": "1613 NORTH MCKENZIE STREET", "CITY": "FOLEY", "STATE": "AL", "ZIP": "36535", "ZIP4": "NOT AVAILABLE", "TELEPHONE": "(251) 949-3400", "TYPE": "GENERAL ACUTE CARE", "STATUS": "OPEN", "POPULATION": 112, "COUNTY": "BALDWIN", "COUNTYFIPS": "01003", "COUNTRY": "USA", "LATITUDE": 30.425835684, "LONGITUDE": -87.684685646999995, "NAICS_CODE": "622110", "NAICS_DESC": "GENERAL MEDICAL AND SURGICAL HOSPITALS", "SOURCE": "http://dph1.adph.state.al.us/FacilitiesDirectory", "SOURCEDATE": "2018-08-09T00:00:00.000Z", "VAL_METHOD": "IMAGERY/OTHER", "VAL_DATE": "2014-02-10T00:00:00.000Z", "WEBSITE": "http://www.southbaldwinrmc.com", "STATE_ID": "H0202", "ALT_NAME": "NOT AVAILABLE", "ST_FIPS": "01", "OWNER": "PROPRIETARY", "TTL_STAFF": -999, "BEDS": 112, "TRAUMA": "LEVEL III", "HELIPAD": "Y" }, "geometry": { "type": "Polygon", "coordinates": [ [ [ -87.689128093197908, 30.325236957129924 ], [ -87.784829, 30.406537 ], [ -87.759459, 30.472527 ], [ -87.716892, 30.530986 ], [ -87.7097819, 30.538316199999979 ], [ -87.708366500000011, 30.538324 ], [ -87.665812015537753, 30.531055549562478 ], [ -87.6286374, 30.4772965 ], [ -87.593261, 30.414312 ], [ -87.595843, 30.407017 ], [ -87.678474764406133, 30.326552053970655 ], [ -87.689128093197908, 30.325236957129924 ] ] ] } },
{ "type": "Feature", "properties": { "OBJECTID": 7545, "ID": "0001531030", "NAME": "FORT VALLEY STATE UNIVERSITY HEALTH SYSTEM", "ADDRESS": "5001 STATE UNIVERSITY DRIVE", "CITY": "FORT VALLEY", "STATE": "GA", "ZIP": "31030", "ZIP4": "NOT AVAILABLE", "TELEPHONE": "(478) 827-3878", "TYPE": "GENERAL ACUTE CARE", "STATUS": "CLOSED", "POPULATION": -999, "COUNTY": "PEACH", "COUNTYFIPS": "13225", "COUNTRY": "USA", "LATITUDE": 32.532991728000098, "LONGITUDE": -83.897687989000005, "NAICS_CODE": "622110", "NAICS_DESC": "GENERAL MEDICAL AND SURGICAL HOSPITALS", "SOURCE": "http://167.193.144.247/", "SOURCEDATE": "2012-11-24T00:00:00.000Z", "VAL_METHOD": "IMAGERY", "VAL_DATE": "2013-10-11T00:00:00.000Z", "WEBSITE": "http://www.fvsu.edu/", "STATE_ID": "10", "ALT_NAME": "NOT AVAILABLE", "ST_FIPS": "13", "OWNER": "GOVERNMENT - STATE", "TTL_STAFF": -999, "BEDS": -999, "TRAUMA": "NOT AVAILABLE", "HELIPAD": "N" }, "geometry": { "type": "Polygon", "coordinates": [ [ [ -83.865584, 32.477631399999986 ], [ -83.908619, 32.48899 ], [ -83.947449, 32.5057077 ], [ -83.9892922, 32.5298677 ], [ -83.929516, 32.58729 ], [ -83.8952467, 32.60479969999998 ], [ -83.834019, 32.608767 ], [ -83.8135667, 32.595538199999972 ], [ -83.796951, 32.553848 ], [ -83.7880394, 32.486139 ], [ -83.7976841, 32.4804346 ], [ -83.829257, 32.478938 ], [ -83.865584, 32.477631399999986 ] ] ] } },
{ "type": "Feature", "properties": { "OBJECTID": 7548, "ID": "0018431792", "NAME": "SOUTHWESTERN STATE HOSPITAL", "ADDRESS": "400 SOUTH PINE TREE BLVD", "CITY": "THOMASVILLE", "STATE": "GA", "ZIP": "31792", "ZIP4": "NOT AVAILABLE", "TELEPHONE": "NOT AVAILABLE", "TYPE": "PSYCHIATRIC", "STATUS": "CLOSED", "POPULATION": 400, "COUNTY": "THOMAS", "COUNTYFIPS": "13275", "COUNTRY": "USA", "LATITUDE": 30.808286591000101, "LONGITUDE": -83.993893568000004, "NAICS_CODE": "622210", "NAICS_DESC": "HOSPITALS, PSYCHIATRIC (EXCEPT CONVALESCENT)", "SOURCE": "http://167.193.144.247/", "SOURCEDATE": "2012-11-24T00:00:00.000Z", "VAL_METHOD": "IMAGERY", "VAL_DATE": "2014-02-10T00:00:00.000Z", "WEBSITE": "http://www.swsh.org", "STATE_ID": "186", "ALT_NAME": "NOT AVAILABLE", "ST_FIPS": "13", "OWNER": "GOVERNMENT - STATE", "TTL_STAFF": -999, "BEDS": 400, "TRAUMA": "NOT AVAILABLE", "HELIPAD": "N" }, "geometry": { "type": "Polygon", "coordinates": [ [ [ -83.9890956, 30.698362 ], [ -83.9923588, 30.700611299999984 ], [ -84.0786674, 30.7699782 ], [ -84.0788153, 30.77020519999996 ], [ -84.040073100000015, 30.8715584 ], [ -84.0381842, 30.873241299999965 ], [ -84.034187, 30.874187 ], [ -83.9929059, 30.882310700000062 ], [ -83.9768055, 30.875089600000035 ], [ -83.9532844, 30.8561466 ], [ -83.9327902, 30.837267200000017 ], [ -83.9309533, 30.832005099999986 ], [ -83.9357623, 30.8009865 ], [ -83.985176, 30.700653 ], [ -83.9890956, 30.698362 ] ] ] } },
{ "type": "Feature", "properties": { "OBJECTID": 7554, "ID": "0019731602", "NAME": "SMITH NORTHVIEW HOSPITAL", "ADDRESS": "4280 NORTH VALDOSTA ROAD", "CITY": "VALDOSTA", "STATE": "GA", "ZIP": "31602", "ZIP4": "NOT AVAILABLE", "TELEPHONE": "(229) 671-2000", "TYPE": "GENERAL ACUTE CARE", "STATUS": "CLOSED", "POPULATION": 45, "COUNTY": "LOWNDES", "COUNTYFIPS": "13185", "COUNTRY": "USA", "LATITUDE": 30.898636929000102, "LONGITUDE": -83.335558524000007, "NAICS_CODE": "622110", "NAICS_DESC": "GENERAL MEDICAL AND SURGICAL HOSPITALS", "SOURCE": "http://167.193.144.247/", "SOURCEDATE": "2012-11-24T00:00:00.000Z", "VAL_METHOD": "IMAGERY", "VAL_DATE": "2013-10-17T00:00:00.000Z", "WEBSITE": "http://www.smithhospital.com/", "STATE_ID": "199", "ALT_NAME": "NOT AVAILABLE", "ST_FIPS": "13", "OWNER": "PROPRIETARY", "TTL_STAFF": -999, "BEDS": 45, "TRAUMA": "NOT AVAILABLE", "HELIPAD": "N" }, "geometry": { "type": "Polygon", "coordinates": [ [ [ -83.298731600000011, 30.7836714 ], [ -83.344667, 30.803644 ], [ -83.3488096, 30.806042 ], [ -83.4241926, 30.9079382 ], [ -83.4017621, 30.994792200000031 ], [ -83.3874419, 31.0048475 ], [ -83.3752467, 31.005899100000015 ], [ -83.358018500000014, 30.996975200000026 ], [ -83.243063, 30.922668 ], [ -83.2192252, 30.882893600000028 ], [ -83.2297798, 30.854190500000012 ], [ -83.263558, 30.813076 ], [ -83.298731600000011, 30.7836714 ] ] ] } },
{ "type": "Feature", "properties": { "OBJECTID": 5120, "ID": "0014332561", "NAME": "GULF BREEZE HOSPITAL", "ADDRESS": "1110 GULF BREEZE PKWY", "CITY": "GULF BREEZE", "STATE": "FL", "ZIP": "32561", "ZIP4": "NOT AVAILABLE", "TELEPHONE": "(850) 934-2000", "TYPE": "GENERAL ACUTE CARE", "STATUS": "OPEN", "POPULATION": 77, "COUNTY": "SANTA ROSA", "COUNTYFIPS": "12113", "COUNTRY": "USA", "LATITUDE": 30.3604819450001, "LONGITUDE": -87.157054650999996, "NAICS_CODE": "622110", "NAICS_DESC": "GENERAL MEDICAL AND SURGICAL HOSPITALS", "SOURCE": "http://www.floridahealthfinder.gov/facilitylocator/facilitysearch.aspx", "SOURCEDATE": "2018-08-15T00:00:00.000Z", "VAL_METHOD": "IMAGERY", "VAL_DATE": "2014-02-10T00:00:00.000Z", "WEBSITE": "http://www.ebaptisthealthcare.org/GulfBreezeHospital/", "STATE_ID": "10070", "ALT_NAME": "NOT AVAILABLE", "ST_FIPS": "12", "OWNER": "NON-PROFIT", "TTL_STAFF": -999, "BEDS": 77, "TRAUMA": "NOT AVAILABLE", "HELIPAD": "Y" }, "geometry": { "type": "Polygon", "coordinates": [ [ [ -87.183567, 30.344429 ], [ -87.196964, 30.35704 ], [ -87.1876952, 30.400202499999985 ], [ -87.073314, 30.398791 ], [ -87.0613085, 30.3973784 ], [ -87.047476, 30.392761 ], [ -87.047446, 30.392615 ], [ -87.0592787, 30.384493500000026 ], [ -87.0760256, 30.377089299999977 ], [ -87.183567, 30.344429 ] ] ] } },
{ "type": "Feature", "properties": { "OBJECTID": 5121, "ID": "0005632308", "NAME": "CAPITAL REGIONAL MEDICAL CENTER", "ADDRESS": "2626 CAPITAL MEDICAL BLVD", "CITY": "TALLAHASSEE", "STATE": "FL", "ZIP": "32308", "ZIP4": "NOT AVAILABLE", "TELEPHONE": "(850) 325-5015", "TYPE": "GENERAL ACUTE CARE", "STATUS": "OPEN", "POPULATION": 266, "COUNTY": "LEON", "COUNTYFIPS": "12073", "COUNTRY": "USA", "LATITUDE": 30.475713462000002, "LONGITUDE": -84.231545335000007, "NAICS_CODE": "622110", "NAICS_DESC": "GENERAL MEDICAL AND SURGICAL HOSPITALS", "SOURCE": "http://www.floridahealthfinder.gov/facilitylocator/facilitysearch.aspx", "SOURCEDATE": "2018-08-15T00:00:00.000Z", "VAL_METHOD": "IMAGERY", "VAL_DATE": "2014-02-10T00:00:00.000Z", "WEBSITE": "http://www.capitalregionalmedicalcenter.com", "STATE_ID": "10030", "ALT_NAME": "NOT AVAILABLE", "ST_FIPS": "12", "OWNER": "PROPRIETARY", "TTL_STAFF": -999, "BEDS": 266, "TRAUMA": "NOT AVAILABLE", "HELIPAD": "Y" }, "geometry": { "type": "Polygon", "coordinates": [ [ [ -84.236407, 30.37942 ], [ -84.2836667, 30.407932699999979 ], [ -84.3632895, 30.480502 ], [ -84.3630596, 30.480852200000029 ], [ -84.3314631, 30.505517 ], [ -84.2775513, 30.536538700000019 ], [ -84.2195381, 30.563415399999979 ], [ -84.2185634, 30.5637523 ], [ -84.2146236, 30.564141099999961 ], [ -84.1767118, 30.557342199999976 ], [ -84.162663, 30.551179 ], [ -84.1298056, 30.5174736 ], [ -84.1255058, 30.4925838 ], [ -84.1254929, 30.4914778 ], [ -84.1255872, 30.463432 ], [ -84.1255877, 30.463365899999975 ], [ -84.154937, 30.419001500000018 ], [ -84.22914, 30.378673 ], [ -84.236407, 30.37942 ] ] ] } },
{ "type": "Feature", "properties": { "OBJECTID": 5122, "ID": "0034032308", "NAME": "SELECT SPECIALTY HOSPITAL - TALLAHASSEE", "ADDRESS": "1554 SURGEONS DR", "CITY": "TALLAHASSEE", "STATE": "FL", "ZIP": "32308", "ZIP4": "NOT AVAILABLE", "TELEPHONE": "(850) 219-6800", "TYPE": "GENERAL ACUTE CARE", "STATUS": "OPEN", "POPULATION": 48, "COUNTY": "LEON", "COUNTYFIPS": "12073", "COUNTRY": "USA", "LATITUDE": 30.461688561000098, "LONGITUDE": -84.252929144000007, "NAICS_CODE": "622110", "NAICS_DESC": "GENERAL MEDICAL AND SURGICAL HOSPITALS", "SOURCE": "http://www.floridahealthfinder.gov/facilitylocator/facilitysearch.aspx", "SOURCEDATE": "2018-08-15T00:00:00.000Z", "VAL_METHOD": "IMAGERY", "VAL_DATE": "2013-11-08T00:00:00.000Z", "WEBSITE": "http://www.selectspecialtyhospitals.com/company/locations/tallahassee.aspx", "STATE_ID": "181900", "ALT_NAME": "NOT AVAILABLE", "ST_FIPS": "12", "OWNER": "PROPRIETARY", "TTL_STAFF": -999, "BEDS": 48, "TRAUMA": "NOT AVAILABLE", "HELIPAD": "N" }, "geometry": { "type": "Polygon", "coordinates": [ [ [ -84.280976, 30.400515 ], [ -84.289855, 30.40739 ], [ -84.29515, 30.412546 ], [ -84.3208317, 30.446407200000031 ], [ -84.3297545, 30.465423499999964 ], [ -84.328398, 30.492624 ], [ -84.3275398, 30.4989545 ], [ -84.3274462, 30.499153 ], [ -84.2774322, 30.521934699999989 ], [ -84.2270368, 30.544313 ], [ -84.185325, 30.530824 ], [ -84.1661844, 30.482508799999987 ], [ -84.1661478, 30.482384499999956 ], [ -84.1610848, 30.4634796 ], [ -84.1958844, 30.4291057 ], [ -84.2344014, 30.40245210000003 ], [ -84.2373223, 30.401463 ], [ -84.2641282, 30.3987478 ], [ -84.280976, 30.400515 ] ] ] } },
{ "type": "Feature", "properties": { "OBJECTID": 5125, "ID": "0042232514", "NAME": "WEST FLORIDA HOSPITAL", "ADDRESS": "8383 N DAVIS HWY", "CITY": "PENSACOLA", "STATE": "FL", "ZIP": "32514", "ZIP4": "NOT AVAILABLE", "TELEPHONE": "(850) 494-4000", "TYPE": "GENERAL ACUTE CARE", "STATUS": "OPEN", "POPULATION": 515, "COUNTY": "ESCAMBIA", "COUNTYFIPS": "12033", "COUNTRY": "USA", "LATITUDE": 30.515680642000099, "LONGITUDE": -87.217895142000003, "NAICS_CODE": "622110", "NAICS_DESC": "GENERAL MEDICAL AND SURGICAL HOSPITALS", "SOURCE": "http://www.floridahealthfinder.gov/facilitylocator/facilitysearch.aspx", "SOURCEDATE": "2018-08-15T00:00:00.000Z", "VAL_METHOD": "IMAGERY", "VAL_DATE": "2014-02-10T00:00:00.000Z", "WEBSITE": "http://www.westfloridahospital.com", "STATE_ID": "10010", "ALT_NAME": "NOT AVAILABLE", "ST_FIPS": "12", "OWNER": "PROPRIETARY", "TTL_STAFF": -999, "BEDS": 515, "TRAUMA": "NOT AVAILABLE", "HELIPAD": "Y" }, "geometry": { "type": "Polygon", "coordinates": [ [ [ -87.2116695, 30.405258700000036 ], [ -87.2156895, 30.4073737 ], [ -87.23038, 30.415211 ], [ -87.241201, 30.42167 ], [ -87.261547, 30.436991 ], [ -87.2843793, 30.460749100000022 ], [ -87.3543336, 30.534635399999974 ], [ -87.3544477, 30.5349052 ], [ -87.354437, 30.535073 ], [ -87.2894275, 30.5667581 ], [ -87.260982, 30.577731 ], [ -87.260383, 30.57772 ], [ -87.185735, 30.545632 ], [ -87.182837, 30.544329 ], [ -87.1525202, 30.490783900000022 ], [ -87.162251, 30.465463 ], [ -87.198164, 30.417657 ], [ -87.2000733, 30.415444199999982 ], [ -87.204113, 30.410900199999983 ], [ -87.207126, 30.408485900000013 ], [ -87.2116695, 30.405258700000036 ] ] ] } },
{ "type": "Feature", "properties": { "OBJECTID": 5130, "ID": "0033132550", "NAME": "SACRED HEART HOSPITAL ON EMERALD COAST", "ADDRESS": "7800 US HWY 98 W", "CITY": "MIRAMAR BEACH", "STATE": "FL", "ZIP": "32550", "ZIP4": "NOT AVAILABLE", "TELEPHONE": "(850) 278-3000", "TYPE": "GENERAL ACUTE CARE", "STATUS": "OPEN", "POPULATION": 58, "COUNTY": "WALTON", "COUNTYFIPS": "12131", "COUNTRY": "USA", "LATITUDE": 30.378574671, "LONGITUDE": -86.306856311999994, "NAICS_CODE": "622110", "NAICS_DESC": "GENERAL MEDICAL AND SURGICAL HOSPITALS", "SOURCE": "http://www.floridahealthfinder.gov/facilitylocator/facilitysearch.aspx", "SOURCEDATE": "2018-08-15T00:00:00.000Z", "VAL_METHOD": "IMAGERY", "VAL_DATE": "2014-02-10T00:00:00.000Z", "WEBSITE": "http://www.sacredheartemerald.org", "STATE_ID": "143600", "ALT_NAME": "NOT AVAILABLE", "ST_FIPS": "12", "OWNER": "NON-PROFIT", "TTL_STAFF": -999, "BEDS": 58, "TRAUMA": "NOT AVAILABLE", "HELIPAD": "Y" }, "geometry": { "type": "Polygon", "coordinates": [ [ [ -86.223802, 30.345212 ], [ -86.418307, 30.381919 ], [ -86.4327009, 30.387901200000041 ], [ -86.427403, 30.393708100000023 ], [ -86.3132914, 30.422397200000031 ], [ -86.2258706, 30.411092099999976 ], [ -86.1795524, 30.3752193 ], [ -86.1708732, 30.363290499999984 ], [ -86.1709352, 30.363062399999983 ], [ -86.2229783, 30.345404799999972 ], [ -86.223802, 30.345212 ] ] ] } },
{ "type": "Feature", "properties": { "OBJECTID": 5131, "ID": "0005032424", "NAME": "CALHOUN-LIBERTY HOSPITAL", "ADDRESS": "20370 NE BURNS AVE", "CITY": "BLOUNTSTOWN", "STATE": "FL", "ZIP": "32424", "ZIP4": "NOT AVAILABLE", "TELEPHONE": "(850) 674-5411", "TYPE": "GENERAL ACUTE CARE", "STATUS": "OPEN", "POPULATION": 25, "COUNTY": "CALHOUN", "COUNTYFIPS": "12013", "COUNTRY": "USA", "LATITUDE": 30.458622832000099, "LONGITUDE": -85.05010386, "NAICS_CODE": "622110", "NAICS_DESC": "GENERAL MEDICAL AND SURGICAL HOSPITALS", "SOURCE": "http://www.floridahealthfinder.gov/facilitylocator/facilitysearch.aspx", "SOURCEDATE": "2018-08-15T00:00:00.000Z", "VAL_METHOD": "IMAGERY", "VAL_DATE": "2014-02-10T00:00:00.000Z", "WEBSITE": "http://www.calhoun-libertyhospital.com", "STATE_ID": "9919", "ALT_NAME": "NOT AVAILABLE", "ST_FIPS": "12", "OWNER": "NON-PROFIT", "TTL_STAFF": -999, "BEDS": 25, "TRAUMA": "NOT AVAILABLE", "HELIPAD": "Y" }, "geometry": { "type": "Polygon", "coordinates": [ [ [ -85.0913638, 30.37475 ], [ -85.1625315, 30.426167700000061 ], [ -85.1356653, 30.5260947 ], [ -85.133034, 30.532971 ], [ -85.0218344, 30.576021599999972 ], [ -85.0187838, 30.504078199999981 ], [ -85.0233605, 30.443149 ], [ -85.0285189, 30.431536499999979 ], [ -85.0324651, 30.423583700000027 ], [ -85.064374, 30.378804 ], [ -85.068752, 30.377786900000011 ], [ -85.0913638, 30.37475 ] ] ] } },
{ "type": "Feature", "properties": { "OBJECTID": 5395, "ID": "0010831750", "NAME": "DORMINY MEDICAL CENTER", "ADDRESS": "200 PERRY HOUSE ROAD, BOX 1447", "CITY": "FITZGERALD", "STATE": "GA", "ZIP": "31750", "ZIP4": "NOT AVAILABLE", "TELEPHONE": "(229) 424-7100", "TYPE": "GENERAL ACUTE CARE", "STATUS": "OPEN", "POPULATION": 75, "COUNTY": "BEN HILL", "COUNTYFIPS": "13017", "COUNTRY": "USA", "LATITUDE": 31.6975645200001, "LONGITUDE": -83.260145976000004, "NAICS_CODE": "622110", "NAICS_DESC": "GENERAL MEDICAL AND SURGICAL HOSPITALS", "SOURCE": "http://www.gamap2care.info/", "SOURCEDATE": "2018-08-09T00:00:00.000Z", "VAL_METHOD": "IMAGERY", "VAL_DATE": "2014-02-10T00:00:00.000Z", "WEBSITE": "http://www.dorminymedical.org", "STATE_ID": "106", "ALT_NAME": "NOT AVAILABLE", "ST_FIPS": "13", "OWNER": "GOVERNMENT - DISTRICT/AUTHORITY", "TTL_STAFF": -999, "BEDS": 75, "TRAUMA": "NOT AVAILABLE", "HELIPAD": "Y" }, "geometry": { "type": "Polygon", "coordinates": [ [ [ -83.2516006, 31.601419200000016 ], [ -83.332107, 31.672681 ], [ -83.34035, 31.681285 ], [ -83.3286325, 31.7479802 ], [ -83.240545, 31.80626 ], [ -83.15696, 31.739711099999973 ], [ -83.153048, 31.703489 ], [ -83.174765, 31.65628 ], [ -83.2410993, 31.606091 ], [ -83.2503353, 31.60138230000004 ], [ -83.2516006, 31.601419200000016 ] ] ] } },
{ "type": "Feature", "properties": { "OBJECTID": 5422, "ID": "0001336420", "NAME": "ANDALUSIA REGIONAL HOSPITAL", "ADDRESS": "849 SOUTH THREE NOTCH STREET", "CITY": "ANDALUSIA", "STATE": "AL", "ZIP": "36420", "ZIP4": "NOT AVAILABLE", "TELEPHONE": "(334) 222-8466", "TYPE": "GENERAL ACUTE CARE", "STATUS": "OPEN", "POPULATION": 88, "COUNTY": "COVINGTON", "COUNTYFIPS": "01039", "COUNTRY": "USA", "LATITUDE": 31.295795325, "LONGITUDE": -86.494549112000001, "NAICS_CODE": "622110", "NAICS_DESC": "GENERAL MEDICAL AND SURGICAL HOSPITALS", "SOURCE": "http://dph1.adph.state.al.us/FacilitiesDirectory", "SOURCEDATE": "2018-08-09T00:00:00.000Z", "VAL_METHOD": "IMAGERY/OTHER", "VAL_DATE": "2014-02-10T00:00:00.000Z", "WEBSITE": "http://www.andalusiaregionalhospital.com", "STATE_ID": "H2001", "ALT_NAME": "NOT AVAILABLE", "ST_FIPS": "01", "OWNER": "PROPRIETARY", "TTL_STAFF": -999, "BEDS": 88, "TRAUMA": "LEVEL III", "HELIPAD": "Y" }, "geometry": { "type": "Polygon", "coordinates": [ [ [ -86.558487819623494, 31.197226149914577 ], [ -86.589452847331813, 31.270425101305726 ], [ -86.575001651966019, 31.350306526841756 ], [ -86.565322190411123, 31.375266854025526 ], [ -86.470665731748255, 31.385220578863859 ], [ -86.416068993502222, 31.352822307504059 ], [ -86.383801166971708, 31.293506905422142 ], [ -86.452614058178128, 31.218458237609166 ], [ -86.558487819623494, 31.197226149914577 ] ] ] } },
{ "type": "Feature", "properties": { "OBJECTID": 5423, "ID": "0000436693", "NAME": "BAYPOINTE BEHAVIORAL HEALTH", "ADDRESS": "5800 SOUTHLAND DRIVE", "CITY": "MOBILE", "STATE": "AL", "ZIP": "36693", "ZIP4": "NOT AVAILABLE", "TELEPHONE": "(251) 450-5901", "TYPE": "PSYCHIATRIC", "STATUS": "OPEN", "POPULATION": 60, "COUNTY": "MOBILE", "COUNTYFIPS": "01097", "COUNTRY": "USA", "LATITUDE": 30.624808491000099, "LONGITUDE": -88.178008125000005, "NAICS_CODE": "622210", "NAICS_DESC": "PSYCHIATRIC AND SUBSTANCE ABUSE HOSPITALS", "SOURCE": "http://dph1.adph.state.al.us/FacilitiesDirectory", "SOURCEDATE": "2018-08-09T00:00:00.000Z", "VAL_METHOD": "IMAGERY/OTHER", "VAL_DATE": "2014-02-10T00:00:00.000Z", "WEBSITE": "http://www.altapointe.org", "STATE_ID": "H4912", "ALT_NAME": "NOT AVAILABLE", "ST_FIPS": "01", "OWNER": "PROPRIETARY", "TTL_STAFF": -999, "BEDS": 60, "TRAUMA": "NOT AVAILABLE", "HELIPAD": "N" }, "geometry": { "type": "Polygon", "coordinates": [ [ [ -88.186957, 30.535678 ], [ -88.224025, 30.55994 ], [ -88.248289, 30.63998 ], [ -88.217023, 30.686543 ], [ -88.2076162, 30.694671 ], [ -88.174241, 30.699101 ], [ -88.174059, 30.699117 ], [ -88.122039, 30.691392 ], [ -88.116669, 30.689748 ], [ -88.092695, 30.674385899999987 ], [ -88.087850982182317, 30.664186215194047 ], [ -88.089006648491562, 30.638023716520781 ], [ -88.08919394671392, 30.636602016509293 ], [ -88.110443, 30.549466 ], [ -88.123487, 30.538357 ], [ -88.170614, 30.535019 ], [ -88.186957, 30.535678 ] ] ] } },
{ "type": "Feature", "properties": { "OBJECTID": 5468, "ID": "0012531717", "NAME": "MEMORIAL HOSPITAL AND MANOR", "ADDRESS": "1500 EAST SHOTWELL STREET", "CITY": "BAINBRIDGE", "STATE": "GA", "ZIP": "31717", "ZIP4": "NOT AVAILABLE", "TELEPHONE": "NOT AVAILABLE", "TYPE": "GENERAL ACUTE CARE", "STATUS": "OPEN", "POPULATION": 80, "COUNTY": "DECATUR", "COUNTYFIPS": "13087", "COUNTRY": "USA", "LATITUDE": 30.902773981000099, "LONGITUDE": -84.552447187, "NAICS_CODE": "622110", "NAICS_DESC": "GENERAL MEDICAL AND SURGICAL HOSPITALS", "SOURCE": "http://www.gamap2care.info/", "SOURCEDATE": "2018-08-09T00:00:00.000Z", "VAL_METHOD": "IMAGERY", "VAL_DATE": "2014-03-12T00:00:00.000Z", "WEBSITE": "http://www.mh-m.org", "STATE_ID": "124", "ALT_NAME": "NOT AVAILABLE", "ST_FIPS": "13", "OWNER": "GOVERNMENT - DISTRICT/AUTHORITY", "TTL_STAFF": -999, "BEDS": 80, "TRAUMA": "NOT AVAILABLE", "HELIPAD": "Y" }, "geometry": { "type": "Polygon", "coordinates": [ [ [ -84.5074241, 30.805132199999981 ], [ -84.566259400000021, 30.8132296 ], [ -84.63252, 30.850425 ], [ -84.6605103, 30.884207299999961 ], [ -84.6705589, 30.9392156 ], [ -84.670498, 30.939398500000028 ], [ -84.6219473, 30.992073199999975 ], [ -84.6217601, 30.992150599999963 ], [ -84.5034146, 30.979816 ], [ -84.471767, 30.961535500000011 ], [ -84.4212494, 30.902727 ], [ -84.42012, 30.871817 ], [ -84.5074241, 30.805132199999981 ] ] ] } },
{ "type": "Feature", "properties": { "OBJECTID": 5481, "ID": "0085431015", "NAME": "CRISP REGIONAL HOSPITAL", "ADDRESS": "902 7TH STREET NORTH", "CITY": "CORDELE", "STATE": "GA", "ZIP": "31015", "ZIP4": "NOT AVAILABLE", "TELEPHONE": "(229) 276-3100", "TYPE": "GENERAL ACUTE CARE", "STATUS": "OPEN", "POPULATION": 73, "COUNTY": "CRISP", "COUNTYFIPS": "13081", "COUNTRY": "USA", "LATITUDE": 31.977522847, "LONGITUDE": -83.781345033999997, "NAICS_CODE": "622110", "NAICS_DESC": "GENERAL MEDICAL AND SURGICAL HOSPITALS", "SOURCE": "http://www.gamap2care.info/", "SOURCEDATE": "2018-08-09T00:00:00.000Z", "VAL_METHOD": "IMAGERY/OTHER", "VAL_DATE": "2015-03-05T00:00:00.000Z", "WEBSITE": "http://www.crispregional.org", "STATE_ID": "75", "ALT_NAME": "NOT AVAILABLE", "ST_FIPS": "13", "OWNER": "NOT AVAILABLE", "TTL_STAFF": -999, "BEDS": 73, "TRAUMA": "LEVEL III", "HELIPAD": "N" }, "geometry": { "type": "Polygon", "coordinates": [ [ [ -83.7727684, 31.868017599999984 ], [ -83.8631418, 31.89907539999998 ], [ -83.885603, 31.948336599999983 ], [ -83.891848, 31.96712 ], [ -83.838787900000014, 32.030247300000013 ], [ -83.71433260000002, 32.044941599999973 ], [ -83.665997, 31.957296 ], [ -83.6991991, 31.9043117 ], [ -83.748886, 31.868057 ], [ -83.7727684, 31.868017599999984 ] ] ] } },
{ "type": "Feature", "properties": { "OBJECTID": 5792, "ID": "0033232456", "NAME": "SACRED HEART HOSPITAL ON THE GULF", "ADDRESS": "3801 E HWY 98", "CITY": "PORT SAINT JOE", "STATE": "FL", "ZIP": "32456", "ZIP4": "NOT AVAILABLE", "TELEPHONE": "(850) 229-5600", "TYPE": "GENERAL ACUTE CARE", "STATUS": "OPEN", "POPULATION": 19, "COUNTY": "GULF", "COUNTYFIPS": "12045", "COUNTRY": "USA", "LATITUDE": 29.7790236660001, "LONGITUDE": -85.287897019999903, "NAICS_CODE": "622110", "NAICS_DESC": "GENERAL MEDICAL AND SURGICAL HOSPITALS", "SOURCE": "http://www.floridahealthfinder.gov/facilitylocator/facilitysearch.aspx", "SOURCEDATE": "2018-08-15T00:00:00.000Z", "VAL_METHOD": "IMAGERY", "VAL_DATE": "2014-02-10T00:00:00.000Z", "WEBSITE": "http://www.sacred-heart.org/gulf/", "STATE_ID": "238500", "ALT_NAME": "NOT AVAILABLE", "ST_FIPS": "12", "OWNER": "NON-PROFIT", "TTL_STAFF": -999, "BEDS": 19, "TRAUMA": "NOT AVAILABLE", "HELIPAD": "Y" }, "geometry": { "type": "Polygon", "coordinates": [ [ [ -85.3174919, 29.6834032 ], [ -85.317882, 29.683445 ], [ -85.3214658, 29.6841453 ], [ -85.341931, 29.8613344 ], [ -85.3403271, 29.862378900000031 ], [ -85.3371291, 29.86258 ], [ -85.2511535, 29.855484100000034 ], [ -85.1683633, 29.736563399999984 ], [ -85.1749297, 29.7318545 ], [ -85.217845, 29.708268 ], [ -85.3013936, 29.685754500000023 ], [ -85.3161475, 29.68338719999997 ], [ -85.3174919, 29.6834032 ] ] ] } },
{ "type": "Feature", "properties": { "OBJECTID": 5813, "ID": "0014032329", "NAME": "GEORGE E WEEMS MEMORIAL HOSPITAL", "ADDRESS": "135 AVE G", "CITY": "APALACHICOLA", "STATE": "FL", "ZIP": "32329", "ZIP4": "NOT AVAILABLE", "TELEPHONE": "(850) 653-8853", "TYPE": "GENERAL ACUTE CARE", "STATUS": "OPEN", "POPULATION": 25, "COUNTY": "FRANKLIN", "COUNTYFIPS": "12037", "COUNTRY": "USA", "LATITUDE": 29.724534209000101, "LONGITUDE": -84.992594756999907, "NAICS_CODE": "622110", "NAICS_DESC": "GENERAL MEDICAL AND SURGICAL HOSPITALS", "SOURCE": "http://www.floridahealthfinder.gov/facilitylocator/facilitysearch.aspx", "SOURCEDATE": "2018-08-15T00:00:00.000Z", "VAL_METHOD": "IMAGERY", "VAL_DATE": "2014-02-10T00:00:00.000Z", "WEBSITE": "http://www.weemsmemorial.com", "STATE_ID": "9953", "ALT_NAME": "NOT AVAILABLE", "ST_FIPS": "12", "OWNER": "PROPRIETARY", "TTL_STAFF": -999, "BEDS": 25, "TRAUMA": "NOT AVAILABLE", "HELIPAD": "Y" }, "geometry": { "type": "Polygon", "coordinates": [ [ [ -85.1136321, 29.717342899999977 ], [ -85.1140005, 29.718460200000042 ], [ -85.0441301, 29.76712 ], [ -84.898213, 29.7391414 ], [ -84.8943997, 29.7359007 ], [ -84.993292, 29.715686 ], [ -85.0007024, 29.714399700000047 ], [ -85.0030614, 29.714019899999965 ], [ -85.0039182, 29.713987 ], [ -85.0130582, 29.713932499999988 ], [ -85.0146188, 29.713929100000026 ], [ -85.0200189, 29.7141143 ], [ -85.1136321, 29.717342899999977 ] ] ] } },
{ "type": "Feature", "properties": { "OBJECTID": 5848, "ID": "0009436507", "NAME": "NORTH BALDWIN INFIRMARY", "ADDRESS": "1815 HAND AVENUE", "CITY": "BAY MINETTE", "STATE": "AL", "ZIP": "36507", "ZIP4": "NOT AVAILABLE", "TELEPHONE": "(251) 937-5521", "TYPE": "GENERAL ACUTE CARE", "STATUS": "OPEN", "POPULATION": 70, "COUNTY": "BALDWIN", "COUNTYFIPS": "01003", "COUNTRY": "USA", "LATITUDE": 30.903934362000001, "LONGITUDE": -87.785022495999996, "NAICS_CODE": "622110", "NAICS_DESC": "GENERAL MEDICAL AND SURGICAL HOSPITALS", "SOURCE": "http://dph1.adph.state.al.us/FacilitiesDirectory", "SOURCEDATE": "2018-08-09T00:00:00.000Z", "VAL_METHOD": "IMAGERY/OTHER", "VAL_DATE": "2014-02-10T00:00:00.000Z", "WEBSITE": "http://www.mobileinfirmary.org", "STATE_ID": "H0201", "ALT_NAME": "NOT AVAILABLE", "ST_FIPS": "01", "OWNER": "NON-PROFIT", "TTL_STAFF": -999, "BEDS": 70, "TRAUMA": "LEVEL III", "HELIPAD": "Y" }, "geometry": { "type": "Polygon", "coordinates": [ [ [ -87.769785, 30.795435 ], [ -87.7700224, 30.7954934 ], [ -87.831409, 30.846535 ], [ -87.858251, 30.933269 ], [ -87.8628, 30.96584 ], [ -87.850777, 30.980347 ], [ -87.848676, 30.981698 ], [ -87.751621, 30.993783 ], [ -87.749082, 30.993143 ], [ -87.684471, 30.867095 ], [ -87.769785, 30.795435 ] ] ] } },
{ "type": "Feature", "properties": { "OBJECTID": 5882, "ID": "0002236301", "NAME": "HEALTHSOUTH REHABILITATION HOSPITAL", "ADDRESS": "1736 EAST MAIN STREET", "CITY": "DOTHAN", "STATE": "AL", "ZIP": "36301", "ZIP4": "NOT AVAILABLE", "TELEPHONE": "(334) 712-6333", "TYPE": "REHABILITATION", "STATUS": "OPEN", "POPULATION": 51, "COUNTY": "HOUSTON", "COUNTYFIPS": "01069", "COUNTRY": "USA", "LATITUDE": 31.217911910000101, "LONGITUDE": -85.365812633000004, "NAICS_CODE": "622310", "NAICS_DESC": "REHABILITATION HOSPITALS (EXCEPT ALCOHOLISM, DRUG ADDICTION)", "SOURCE": "http://dph1.adph.state.al.us/FacilitiesDirectory", "SOURCEDATE": "2018-08-09T00:00:00.000Z", "VAL_METHOD": "IMAGERY/OTHER", "VAL_DATE": "2014-03-12T00:00:00.000Z", "WEBSITE": "http://www.healthsouthdothan.com", "STATE_ID": "H3504", "ALT_NAME": "NOT AVAILABLE", "ST_FIPS": "01", "OWNER": "PROPRIETARY", "TTL_STAFF": -999, "BEDS": 51, "TRAUMA": "NOT AVAILABLE", "HELIPAD": "Y" }, "geometry": { "type": "Polygon", "coordinates": [ [ [ -85.404765369947626, 31.115487628944916 ], [ -85.437270403443989, 31.137823794737788 ], [ -85.46889640452342, 31.181580918392836 ], [ -85.499554657217985, 31.238969856430725 ], [ -85.499761660025214, 31.239936867486236 ], [ -85.457182365830718, 31.278080499223265 ], [ -85.40843370577845, 31.295292336112823 ], [ -85.351297530108027, 31.313839511908032 ], [ -85.35028952774347, 31.313656509321127 ], [ -85.282379605562369, 31.273306961429547 ], [ -85.257551729798209, 31.255510698743993 ], [ -85.234069636003525, 31.173866237238173 ], [ -85.234259634506174, 31.173081232556079 ], [ -85.329891457087584, 31.125214819804373 ], [ -85.404522370127552, 31.115476629234617 ], [ -85.404765369947626, 31.115487628944916 ] ] ] } },
{ "type": "Feature", "properties": { "OBJECTID": 5884, "ID": "0010836340", "NAME": "WIREGRASS MEDICAL CENTER", "ADDRESS": "1200 WEST MAPLE AVENUE", "CITY": "GENEVA", "STATE": "AL", "ZIP": "36340", "ZIP4": "NOT AVAILABLE", "TELEPHONE": "(334) 684-3655", "TYPE": "GENERAL ACUTE CARE", "STATUS": "OPEN", "POPULATION": 83, "COUNTY": "GENEVA", "COUNTYFIPS": "01061", "COUNTRY": "USA", "LATITUDE": 31.048793989, "LONGITUDE": -85.892536691999993, "NAICS_CODE": "622110", "NAICS_DESC": "GENERAL MEDICAL AND SURGICAL HOSPITALS", "SOURCE": "http://dph1.adph.state.al.us/FacilitiesDirectory", "SOURCEDATE": "2018-08-09T00:00:00.000Z", "VAL_METHOD": "IMAGERY/OTHER", "VAL_DATE": "2014-03-12T00:00:00.000Z", "WEBSITE": "http://www.alaweb.com/ tgarske", "STATE_ID": "H3101", "ALT_NAME": "NOT AVAILABLE", "ST_FIPS": "01", "OWNER": "GOVERNMENT - DISTRICT/AUTHORITY", "TTL_STAFF": -999, "BEDS": 83, "TRAUMA": "NOT AVAILABLE", "HELIPAD": "Y" }, "geometry": { "type": "Polygon", "coordinates": [ [ [ -85.873913, 30.973783 ], [ -85.905268, 30.976937 ], [ -85.94561, 30.988099 ], [ -85.976314376496717, 31.016807191739879 ], [ -85.993394470122112, 31.034262365665349 ], [ -85.997197757728273, 31.097609947556052 ], [ -85.947498821318064, 31.103765009136776 ], [ -85.841071989952127, 31.116445156893914 ], [ -85.789949741934066, 31.08007375833051 ], [ -85.795256400619721, 31.037885285015648 ], [ -85.802883238468098, 31.016988056236759 ], [ -85.873913, 30.973783 ] ] ] } },
{ "type": "Feature", "properties": { "OBJECTID": 5900, "ID": "0006736545", "NAME": "JACKSON MEDICAL CENTER", "ADDRESS": "220 HOSPITAL DRIVE", "CITY": "JACKSON", "STATE": "AL", "ZIP": "36545", "ZIP4": "NOT AVAILABLE", "TELEPHONE": "(251) 246-9021", "TYPE": "GENERAL ACUTE CARE", "STATUS": "OPEN", "POPULATION": 35, "COUNTY": "CLARKE", "COUNTYFIPS": "01025", "COUNTRY": "USA", "LATITUDE": 31.53106846, "LONGITUDE": -87.895134564000003, "NAICS_CODE": "622110", "NAICS_DESC": "GENERAL MEDICAL AND SURGICAL HOSPITALS", "SOURCE": "http://dph1.adph.state.al.us/FacilitiesDirectory", "SOURCEDATE": "2018-08-09T00:00:00.000Z", "VAL_METHOD": "IMAGERY/OTHER", "VAL_DATE": "2014-02-10T00:00:00.000Z", "WEBSITE": "http://www.jacksonmedicalcenter.org", "STATE_ID": "H1302", "ALT_NAME": "NOT AVAILABLE", "ST_FIPS": "01", "OWNER": "PROPRIETARY", "TTL_STAFF": -999, "BEDS": 35, "TRAUMA": "LEVEL III", "HELIPAD": "Y" }, "geometry": { "type": "Polygon", "coordinates": [ [ [ -87.872785, 31.463612 ], [ -87.89157, 31.469951 ], [ -87.9075699, 31.480697200000044 ], [ -87.971462013330452, 31.561137054448341 ], [ -87.974790010883225, 31.589945047480956 ], [ -87.853255, 31.6297 ], [ -87.847557, 31.622119 ], [ -87.824008, 31.561691 ], [ -87.823858, 31.558529 ], [ -87.823895, 31.553479 ], [ -87.84168, 31.48283 ], [ -87.872785, 31.463612 ] ] ] } },
{ "type": "Feature", "properties": { "OBJECTID": 5902, "ID": "0003136607", "NAME": "INFIRMARY LTAC HOSPITAL", "ADDRESS": "5 MOBILE INFIRMARY CIRCLE", "CITY": "MOBILE", "STATE": "AL", "ZIP": "36607", "ZIP4": "NOT AVAILABLE", "TELEPHONE": "(251) 435-5822", "TYPE": "LONG TERM CARE", "STATUS": "OPEN", "POPULATION": 22, "COUNTY": "MOBILE", "COUNTYFIPS": "01097", "COUNTRY": "USA", "LATITUDE": 30.696900692, "LONGITUDE": -88.080290574999907, "NAICS_CODE": "622310", "NAICS_DESC": "SPECIALTY (EXCEPT PSYCHIATRIC AND SUBSTANCE ABUSE) HOSPITALS", "SOURCE": "http://dph1.adph.state.al.us/FacilitiesDirectory", "SOURCEDATE": "2018-08-09T00:00:00.000Z", "VAL_METHOD": "IMAGERY", "VAL_DATE": "2014-02-10T00:00:00.000Z", "WEBSITE": "https://www.infirmaryhealth.org/affiliates/infirmary-ltac", "STATE_ID": "H4909", "ALT_NAME": "NOT AVAILABLE", "ST_FIPS": "01", "OWNER": "PROPRIETARY", "TTL_STAFF": -999, "BEDS": 22, "TRAUMA": "NOT AVAILABLE", "HELIPAD": "Y" }, "geometry": { "type": "Polygon", "coordinates": [ [ [ -88.073919908013082, 30.611466029355082 ], [ -88.124007, 30.625309 ], [ -88.1466061, 30.6316427 ], [ -88.174689, 30.6761 ], [ -88.166179, 30.722781 ], [ -88.103986, 30.806093 ], [ -88.071147074600262, 30.788522010546249 ], [ -88.035970020238054, 30.734358017243206 ], [ -88.0127478, 30.686133 ], [ -88.0128367, 30.686019100000053 ], [ -88.073919908013082, 30.611466029355082 ] ] ] } },
{ "type": "Feature", "properties": { "OBJECTID": 5903, "ID": "0010136685", "NAME": "PROVIDENCE HOSPITAL", "ADDRESS": "6801 AIRPORT BOULEVARD", "CITY": "MOBILE", "STATE": "AL", "ZIP": "36685", "ZIP4": "NOT AVAILABLE", "TELEPHONE": "(251) 633-1000", "TYPE": "GENERAL ACUTE CARE", "STATUS": "OPEN", "POPULATION": 349, "COUNTY": "MOBILE", "COUNTYFIPS": "01097", "COUNTRY": "USA", "LATITUDE": 30.679327657000002, "LONGITUDE": -88.199079373999993, "NAICS_CODE": "622110", "NAICS_DESC": "GENERAL MEDICAL AND SURGICAL HOSPITALS", "SOURCE": "http://dph1.adph.state.al.us/FacilitiesDirectory", "SOURCEDATE": "2018-08-09T00:00:00.000Z", "VAL_METHOD": "IMAGERY/OTHER", "VAL_DATE": "2014-02-10T00:00:00.000Z", "WEBSITE": "http://www.providencehospital.org", "STATE_ID": "01-0090", "ALT_NAME": "NOT AVAILABLE", "ST_FIPS": "01", "OWNER": "NON-PROFIT", "TTL_STAFF": -999, "BEDS": 349, "TRAUMA": "LEVEL III", "HELIPAD": "Y" }, "geometry": { "type": "Polygon", "coordinates": [ [ [ -88.225192, 30.602534 ], [ -88.253774, 30.620361 ], [ -88.3105274, 30.657053500000028 ], [ -88.309738, 30.659256 ], [ -88.290978, 30.710297 ], [ -88.261373, 30.739769 ], [ -88.2290545, 30.765117500000013 ], [ -88.225614, 30.76655 ], [ -88.161165, 30.747386 ], [ -88.119443, 30.723555 ], [ -88.116088, 30.719931 ], [ -88.085889009553867, 30.686236014220796 ], [ -88.082603995613482, 30.677345016346795 ], [ -88.100258, 30.644565 ], [ -88.11056, 30.629748 ], [ -88.163727, 30.605105 ], [ -88.18167, 30.599906 ], [ -88.225192, 30.602534 ] ] ] } },
{ "type": "Feature", "properties": { "OBJECTID": 5904, "ID": "0011136608", "NAME": "SPRINGHILL MEMORIAL HOSPITAL", "ADDRESS": "3719 DAUPHIN STREET", "CITY": "MOBILE", "STATE": "AL", "ZIP": "36608", "ZIP4": "NOT AVAILABLE", "TELEPHONE": "(251) 460-5220", "TYPE": "GENERAL ACUTE CARE", "STATUS": "OPEN", "POPULATION": 263, "COUNTY": "MOBILE", "COUNTYFIPS": "01097", "COUNTRY": "USA", "LATITUDE": 30.684517488000001, "LONGITUDE": -88.131336290999997, "NAICS_CODE": "622110", "NAICS_DESC": "GENERAL MEDICAL AND SURGICAL HOSPITALS", "SOURCE": "http://dph1.adph.state.al.us/FacilitiesDirectory", "SOURCEDATE": "2018-08-09T00:00:00.000Z", "VAL_METHOD": "IMAGERY/OTHER", "VAL_DATE": "2014-02-10T00:00:00.000Z", "WEBSITE": "http://www.springhillmemorial.com", "STATE_ID": "H4906", "ALT_NAME": "NOT AVAILABLE", "ST_FIPS": "01", "OWNER": "NON-PROFIT", "TTL_STAFF": -999, "BEDS": 263, "TRAUMA": "LEVEL III", "HELIPAD": "Y" }, "geometry": { "type": "Polygon", "coordinates": [ [ [ -88.171176, 30.574498 ], [ -88.174714, 30.578938 ], [ -88.234053, 30.679775 ], [ -88.234079, 30.679941 ], [ -88.195321, 30.751579 ], [ -88.1111445, 30.802390100000018 ], [ -88.096877, 30.809863 ], [ -88.096006, 30.809208 ], [ -88.073128077030901, 30.781111010302684 ], [ -88.0204452, 30.689187900000022 ], [ -88.020505, 30.689082600000038 ], [ -88.071535904468405, 30.609276031420073 ], [ -88.075887900487999, 30.60484302881477 ], [ -88.171027, 30.57449 ], [ -88.171176, 30.574498 ] ] ] } },
{ "type": "Feature", "properties": { "OBJECTID": 5905, "ID": "0007836461", "NAME": "MONROE COUNTY HOSPITAL", "ADDRESS": "2016 SOUTH ALABAMA AVENUE", "CITY": "MONROEVILLE", "STATE": "AL", "ZIP": "36461", "ZIP4": "NOT AVAILABLE", "TELEPHONE": "(251) 575-3111", "TYPE": "GENERAL ACUTE CARE", "STATUS": "OPEN", "POPULATION": 94, "COUNTY": "MONROE", "COUNTYFIPS": "01099", "COUNTRY": "USA", "LATITUDE": 31.4978172020001, "LONGITUDE": -87.320766627999902, "NAICS_CODE": "622110", "NAICS_DESC": "GENERAL MEDICAL AND SURGICAL HOSPITALS", "SOURCE": "http://dph1.adph.state.al.us/FacilitiesDirectory", "SOURCEDATE": "2018-08-09T00:00:00.000Z", "VAL_METHOD": "IMAGERY/OTHER", "VAL_DATE": "2014-02-10T00:00:00.000Z", "WEBSITE": "http://www.mchcare.com", "STATE_ID": "H5001", "ALT_NAME": "NOT AVAILABLE", "ST_FIPS": "01", "OWNER": "GOVERNMENT - DISTRICT/AUTHORITY", "TTL_STAFF": -999, "BEDS": 94, "TRAUMA": "LEVEL III", "HELIPAD": "Y" }, "geometry": { "type": "Polygon", "coordinates": [ [ [ -87.352501696414379, 31.410895940573656 ], [ -87.365471772613404, 31.412010126732721 ], [ -87.412224059555669, 31.423883815657476 ], [ -87.433077297231179, 31.50244830068776 ], [ -87.366308020844286, 31.585105180230478 ], [ -87.26437275623978, 31.58762523384048 ], [ -87.261433742103904, 31.585946180919862 ], [ -87.260308727277888, 31.582893124606386 ], [ -87.258868359263147, 31.485130827004316 ], [ -87.270716242790485, 31.41581079808164 ], [ -87.27132784509314, 31.415357905453924 ], [ -87.352501696414379, 31.410895940573656 ] ] ] } },
{ "type": "Feature", "properties": { "OBJECTID": 5910, "ID": "0008336867", "NAME": "REGIONAL REHABILITATION HOSPITAL", "ADDRESS": "3715 HIGHWAY 280", "CITY": "PHENIX CITY", "STATE": "AL", "ZIP": "36867", "ZIP4": "NOT AVAILABLE", "TELEPHONE": "(334) 732-2200", "TYPE": "REHABILITATION", "STATUS": "OPEN", "POPULATION": 48, "COUNTY": "RUSSELL", "COUNTYFIPS": "01113", "COUNTRY": "USA", "LATITUDE": 32.498848168000102, "LONGITUDE": -85.046407333999994, "NAICS_CODE": "622310", "NAICS_DESC": "REHABILITATION HOSPITALS (EXCEPT ALCOHOLISM, DRUG ADDICTION)", "SOURCE": "http://dph1.adph.state.al.us/FacilitiesDirectory", "SOURCEDATE": "2018-08-09T00:00:00.000Z", "VAL_METHOD": "IMAGERY", "VAL_DATE": "2013-09-03T00:00:00.000Z", "WEBSITE": "http://www.regionalrehabhospital.com", "STATE_ID": "H5702", "ALT_NAME": "NOT AVAILABLE", "ST_FIPS": "01", "OWNER": "PROPRIETARY", "TTL_STAFF": -999, "BEDS": 48, "TRAUMA": "NOT AVAILABLE", "HELIPAD": "N" }, "geometry": { "type": "Polygon", "coordinates": [ [ [ -85.057974, 32.402647 ], [ -85.13004, 32.462175 ], [ -85.136802, 32.500453 ], [ -85.144486, 32.573686 ], [ -85.143832, 32.574399 ], [ -85.140062, 32.574908 ], [ -85.134191, 32.574028 ], [ -85.118903, 32.570869 ], [ -85.041457, 32.551768 ], [ -85.035959, 32.550168 ], [ -85.02182, 32.542172 ], [ -85.007326, 32.522436 ], [ -84.999618, 32.501779 ], [ -84.996766, 32.490706 ], [ -84.988363, 32.433614 ], [ -84.994908, 32.420077 ], [ -85.035674, 32.405763 ], [ -85.057974, 32.402647 ] ] ] } },
{ "type": "Feature", "properties": { "OBJECTID": 5918, "ID": "0005036854", "NAME": "EAMC - LANIER", "ADDRESS": "4800 48TH STREET", "CITY": "VALLEY", "STATE": "AL", "ZIP": "36854", "ZIP4": "NOT AVAILABLE", "TELEPHONE": "(334) 756-1401", "TYPE": "GENERAL ACUTE CARE", "STATUS": "OPEN", "POPULATION": 115, "COUNTY": "CHAMBERS", "COUNTYFIPS": "01017", "COUNTRY": "USA", "LATITUDE": 32.824598111999997, "LONGITUDE": -85.168702674000002, "NAICS_CODE": "622110", "NAICS_DESC": "GENERAL MEDICAL AND SURGICAL HOSPITALS", "SOURCE": "http://dph1.adph.state.al.us/FacilitiesDirectory", "SOURCEDATE": "2018-08-09T00:00:00.000Z", "VAL_METHOD": "IMAGERY/OTHER", "VAL_DATE": "2014-02-10T00:00:00.000Z", "WEBSITE": "http://www.lanierhospital.com", "STATE_ID": "H0903", "ALT_NAME": "NOT AVAILABLE", "ST_FIPS": "01", "OWNER": "NON-PROFIT", "TTL_STAFF": -999, "BEDS": 115, "TRAUMA": "NOT AVAILABLE", "HELIPAD": "N" }, "geometry": { "type": "Polygon", "coordinates": [ [ [ -85.2322582, 32.7347683 ], [ -85.2334297, 32.734916200000015 ], [ -85.278824, 32.749074 ], [ -85.273609, 32.85308 ], [ -85.199088, 32.907598 ], [ -85.15983, 32.903554 ], [ -85.158904, 32.902726 ], [ -85.1466711, 32.881384200000014 ], [ -85.1445197, 32.87511759999996 ], [ -85.139172, 32.778647 ], [ -85.151613, 32.757917 ], [ -85.204338, 32.734814 ], [ -85.2322582, 32.7347683 ] ] ] } },
{ "type": "Feature", "properties": { "OBJECTID": 3033, "ID": "0008132425", "NAME": "DOCTORS MEMORIAL HOSPITAL", "ADDRESS": "2600 HOSPITAL DR", "CITY": "BONIFAY", "STATE": "FL", "ZIP": "32425", "ZIP4": "NOT AVAILABLE", "TELEPHONE": "(850) 547-8000", "TYPE": "GENERAL ACUTE CARE", "STATUS": "OPEN", "POPULATION": 20, "COUNTY": "HOLMES", "COUNTYFIPS": "12059", "COUNTRY": "USA", "LATITUDE": 30.761080812, "LONGITUDE": -85.68303237000001, "NAICS_CODE": "622110", "NAICS_DESC": "GENERAL MEDICAL AND SURGICAL HOSPITALS", "SOURCE": "http://www.floridahealthfinder.gov/facilitylocator/facilitysearch.aspx", "SOURCEDATE": "2018-08-15T00:00:00.000Z", "VAL_METHOD": "IMAGERY", "VAL_DATE": "2014-02-10T00:00:00.000Z", "WEBSITE": "http://www.doctorsmemorialhospital.com", "STATE_ID": "9893", "ALT_NAME": "NOT AVAILABLE", "ST_FIPS": "12", "OWNER": "GOVERNMENT - DISTRICT/AUTHORITY", "TTL_STAFF": -999, "BEDS": 20, "TRAUMA": "NOT AVAILABLE", "HELIPAD": "Y" }, "geometry": { "type": "Polygon", "coordinates": [ [ [ -85.709915, 30.712618 ], [ -85.728166, 30.718761 ], [ -85.777463, 30.781173 ], [ -85.7357531, 30.8222112 ], [ -85.6657335, 30.866651599999972 ], [ -85.6149459, 30.778493900000033 ], [ -85.685833, 30.715751 ], [ -85.709915, 30.712618 ] ] ] } },
{ "type": "Feature", "properties": { "OBJECTID": 3071, "ID": "0032832541", "NAME": "REHABILITATION INSTITUTE OF NORTHWEST FLORIDA", "ADDRESS": "996 AIRPORT RD", "CITY": "DESTIN", "STATE": "FL", "ZIP": "32541", "ZIP4": "NOT AVAILABLE", "TELEPHONE": "(850) 862-1111", "TYPE": "GENERAL ACUTE CARE", "STATUS": "OPEN", "POPULATION": 237, "COUNTY": "OKALOOSA", "COUNTYFIPS": "12091", "COUNTRY": "USA", "LATITUDE": 30.394121986000101, "LONGITUDE": -86.471911187000003, "NAICS_CODE": "622110", "NAICS_DESC": "GENERAL MEDICAL AND SURGICAL HOSPITALS", "SOURCE": "http://www.floridahealthfinder.gov/facilitylocator/facilitysearch.aspx", "SOURCEDATE": "2018-08-15T00:00:00.000Z", "VAL_METHOD": "IMAGERY/OTHER", "VAL_DATE": "2014-03-12T00:00:00.000Z", "WEBSITE": "http://fwbmc.com/", "STATE_ID": "316900", "ALT_NAME": "NOT AVAILABLE", "ST_FIPS": "12", "OWNER": "PROPRIETARY", "TTL_STAFF": -999, "BEDS": 237, "TRAUMA": "NOT AVAILABLE", "HELIPAD": "Y" }, "geometry": { "type": "Polygon", "coordinates": [ [ [ -86.503968, 30.383065 ], [ -86.569504, 30.392622 ], [ -86.578254, 30.3952294 ], [ -86.5782484, 30.395401200000041 ], [ -86.4878725, 30.416631100000014 ], [ -86.408368, 30.400834 ], [ -86.3677362, 30.387960299999968 ], [ -86.3585282, 30.382075399999984 ], [ -86.3584646, 30.381797399999964 ], [ -86.374319, 30.3765893 ], [ -86.503968, 30.383065 ] ] ] } },
{ "type": "Feature", "properties": { "OBJECTID": 3072, "ID": "0040632578", "NAME": "TWIN CITIES HOSPITAL", "ADDRESS": "2190 HWY 85 N", "CITY": "NICEVILLE", "STATE": "FL", "ZIP": "32578", "ZIP4": "NOT AVAILABLE", "TELEPHONE": "(850) 678-4131", "TYPE": "GENERAL ACUTE CARE", "STATUS": "OPEN", "POPULATION": 65, "COUNTY": "OKALOOSA", "COUNTYFIPS": "12091", "COUNTRY": "USA", "LATITUDE": 30.5335890980001, "LONGITUDE": -86.49547732000001, "NAICS_CODE": "622110", "NAICS_DESC": "GENERAL MEDICAL AND SURGICAL HOSPITALS", "SOURCE": "http://www.floridahealthfinder.gov/facilitylocator/facilitysearch.aspx", "SOURCEDATE": "2018-08-15T00:00:00.000Z", "VAL_METHOD": "IMAGERY", "VAL_DATE": "2014-03-12T00:00:00.000Z", "WEBSITE": "http://www.tchealthcare.com", "STATE_ID": "9872", "ALT_NAME": "NOT AVAILABLE", "ST_FIPS": "12", "OWNER": "PROPRIETARY", "TTL_STAFF": -999, "BEDS": 65, "TRAUMA": "NOT AVAILABLE", "HELIPAD": "Y" }, "geometry": { "type": "Polygon", "coordinates": [ [ [ -86.5662735, 30.4606164 ], [ -86.5858371, 30.480299799999976 ], [ -86.5858491, 30.480466199999974 ], [ -86.559686, 30.660119600000019 ], [ -86.5594241, 30.6602168 ], [ -86.5355079, 30.646638 ], [ -86.438949, 30.580771 ], [ -86.4186981, 30.530312099999982 ], [ -86.404188, 30.48952509999997 ], [ -86.4026126, 30.4843456 ], [ -86.4102894, 30.4789708 ], [ -86.5662735, 30.4606164 ] ] ] } },
{ "type": "Feature", "properties": { "OBJECTID": 3073, "ID": "0028732428", "NAME": "NORTHWEST FLORIDA COMMUNITY HOSPITAL", "ADDRESS": "1360 BRICKYARD RD", "CITY": "CHIPLEY", "STATE": "FL", "ZIP": "32428", "ZIP4": "NOT AVAILABLE", "TELEPHONE": "(850) 638-1610", "TYPE": "GENERAL ACUTE CARE", "STATUS": "OPEN", "POPULATION": 59, "COUNTY": "WASHINGTON", "COUNTYFIPS": "12133", "COUNTRY": "USA", "LATITUDE": 30.7654920690001, "LONGITUDE": -85.542861538999901, "NAICS_CODE": "622110", "NAICS_DESC": "GENERAL MEDICAL AND SURGICAL HOSPITALS", "SOURCE": "http://www.floridahealthfinder.gov/facilitylocator/facilitysearch.aspx", "SOURCEDATE": "2018-08-15T00:00:00.000Z", "VAL_METHOD": "IMAGERY", "VAL_DATE": "2014-03-12T00:00:00.000Z", "WEBSITE": "http://www.nfch.org", "STATE_ID": "9948", "ALT_NAME": "NOT AVAILABLE", "ST_FIPS": "12", "OWNER": "PROPRIETARY", "TTL_STAFF": -999, "BEDS": 59, "TRAUMA": "NOT AVAILABLE", "HELIPAD": "Y" }, "geometry": { "type": "Polygon", "coordinates": [ [ [ -85.582705, 30.655729 ], [ -85.62932, 30.690528 ], [ -85.647413, 30.729466 ], [ -85.616409200000021, 30.7786188 ], [ -85.563353100000015, 30.8303726 ], [ -85.503823, 30.829739 ], [ -85.4299434, 30.789839300000025 ], [ -85.4269625, 30.788224699999958 ], [ -85.470379, 30.726962 ], [ -85.479013, 30.716078 ], [ -85.491846, 30.701617 ], [ -85.5003123, 30.695426100000034 ], [ -85.576965, 30.656109 ], [ -85.579988, 30.655653 ], [ -85.582705, 30.655729 ] ] ] } },
{ "type": "Feature", "properties": { "OBJECTID": 3075, "ID": "0019032565", "NAME": "JAY HOSPITAL", "ADDRESS": "14114 ALABAMA ST", "CITY": "JAY", "STATE": "FL", "ZIP": "32565", "ZIP4": "NOT AVAILABLE", "TELEPHONE": "(850) 675-8000", "TYPE": "GENERAL ACUTE CARE", "STATUS": "OPEN", "POPULATION": 49, "COUNTY": "SANTA ROSA", "COUNTYFIPS": "12113", "COUNTRY": "USA", "LATITUDE": 30.949849543, "LONGITUDE": -87.151269224999993, "NAICS_CODE": "622110", "NAICS_DESC": "GENERAL MEDICAL AND SURGICAL HOSPITALS", "SOURCE": "http://www.floridahealthfinder.gov/facilitylocator/facilitysearch.aspx", "SOURCEDATE": "2018-08-15T00:00:00.000Z", "VAL_METHOD": "IMAGERY", "VAL_DATE": "2014-02-10T00:00:00.000Z", "WEBSITE": "http://www.bhcpns.org/jayhospital/", "STATE_ID": "9866", "ALT_NAME": "NOT AVAILABLE", "ST_FIPS": "12", "OWNER": "NON-PROFIT", "TTL_STAFF": -999, "BEDS": 49, "TRAUMA": "NOT AVAILABLE", "HELIPAD": "Y" }, "geometry": { "type": "Polygon", "coordinates": [ [ [ -87.139602, 30.831187 ], [ -87.225449, 30.893645 ], [ -87.2359679, 30.964156199999962 ], [ -87.093148993153918, 31.041182838266174 ], [ -87.04658, 30.972717 ], [ -87.033271, 30.907586 ], [ -87.034485, 30.906044 ], [ -87.139602, 30.831187 ] ] ] } },
{ "type": "Feature", "properties": { "OBJECTID": 3076, "ID": "0023032340", "NAME": "MADISON COUNTY MEMORIAL HOSPITAL", "ADDRESS": "309 NE MARION ST", "CITY": "MADISON", "STATE": "FL", "ZIP": "32340", "ZIP4": "NOT AVAILABLE", "TELEPHONE": "(850) 973-2271", "TYPE": "GENERAL ACUTE CARE", "STATUS": "OPEN", "POPULATION": 25, "COUNTY": "MADISON", "COUNTYFIPS": "12079", "COUNTRY": "USA", "LATITUDE": 30.470514089000101, "LONGITUDE": -83.411497057999995, "NAICS_CODE": "622110", "NAICS_DESC": "GENERAL MEDICAL AND SURGICAL HOSPITALS", "SOURCE": "http://www.floridahealthfinder.gov/facilitylocator/facilitysearch.aspx", "SOURCEDATE": "2018-08-15T00:00:00.000Z", "VAL_METHOD": "IMAGERY", "VAL_DATE": "2014-02-10T00:00:00.000Z", "WEBSITE": "http://www.mcmh.us/", "STATE_ID": "9829", "ALT_NAME": "NOT AVAILABLE", "ST_FIPS": "12", "OWNER": "NON-PROFIT", "TTL_STAFF": -999, "BEDS": 25, "TRAUMA": "NOT AVAILABLE", "HELIPAD": "Y" }, "geometry": { "type": "Polygon", "coordinates": [ [ [ -83.3445731, 30.375112500000018 ], [ -83.4810576, 30.392104599999978 ], [ -83.525091, 30.485373 ], [ -83.4277562, 30.582712599999965 ], [ -83.3549892, 30.582509699999964 ], [ -83.2663302, 30.472939899999947 ], [ -83.2963401, 30.4176506 ], [ -83.3002019, 30.4139063 ], [ -83.3445731, 30.375112500000018 ] ] ] } },
{ "type": "Feature", "properties": { "OBJECTID": 3079, "ID": "0005732353", "NAME": "CAPITAL REGIONAL MEDICAL CENTER - GADSDEN MEMORIAL CAMPUS", "ADDRESS": "23186 BLUE STAR HWY", "CITY": "QUINCY", "STATE": "FL", "ZIP": "32353", "ZIP4": "NOT AVAILABLE", "TELEPHONE": "(850) 325-5015", "TYPE": "GENERAL ACUTE CARE", "STATUS": "OPEN", "POPULATION": 266, "COUNTY": "GADSDEN", "COUNTYFIPS": "12039", "COUNTRY": "USA", "LATITUDE": 30.568883241000002, "LONGITUDE": -84.548669856999894, "NAICS_CODE": "622110", "NAICS_DESC": "GENERAL MEDICAL AND SURGICAL HOSPITALS", "SOURCE": "http://www.floridahealthfinder.gov/facilitylocator/facilitysearch.aspx", "SOURCEDATE": "2018-08-15T00:00:00.000Z", "VAL_METHOD": "IMAGERY", "VAL_DATE": "2014-02-10T00:00:00.000Z", "WEBSITE": "http://capitalregionalmedicalcenter.com/about/newsroom/detail.dot?id=dedbce62-4040-44a6-8373-3d5b5313550f", "STATE_ID": "9957", "ALT_NAME": "NOT AVAILABLE", "ST_FIPS": "12", "OWNER": "PROPRIETARY", "TTL_STAFF": -999, "BEDS": 266, "TRAUMA": "NOT AVAILABLE", "HELIPAD": "Y" }, "geometry": { "type": "Polygon", "coordinates": [ [ [ -84.4545493, 30.48886080000004 ], [ -84.4696014, 30.492118100000013 ], [ -84.5669222, 30.5176453 ], [ -84.5994398, 30.529989199999982 ], [ -84.6319352, 30.563585599999985 ], [ -84.6561488, 30.5921544 ], [ -84.6524779, 30.6019016 ], [ -84.601170700000011, 30.649633400000031 ], [ -84.5686821, 30.652364500000026 ], [ -84.513268, 30.634245 ], [ -84.4634822, 30.609924199999984 ], [ -84.4253888, 30.489205900000037 ], [ -84.4545493, 30.48886080000004 ] ] ] } },
{ "type": "Feature", "properties": { "OBJECTID": 3080, "ID": "0034532401", "NAME": "SELECT SPECIALTY HOSPITAL - PANAMA CITY", "ADDRESS": "615 N BONITA AVE", "CITY": "PANAMA CITY", "STATE": "FL", "ZIP": "32401", "ZIP4": "NOT AVAILABLE", "TELEPHONE": "(850) 767-3180", "TYPE": "LONG TERM CARE", "STATUS": "OPEN", "POPULATION": 30, "COUNTY": "BAY", "COUNTYFIPS": "12005", "COUNTRY": "USA", "LATITUDE": 30.1597127950001, "LONGITUDE": -85.64778936, "NAICS_CODE": "622110", "NAICS_DESC": "GENERAL MEDICAL AND SURGICAL HOSPITALS", "SOURCE": "http://www.floridahealthfinder.gov/facilitylocator/facilitysearch.aspx", "SOURCEDATE": "2018-08-15T00:00:00.000Z", "VAL_METHOD": "IMAGERY", "VAL_DATE": "2014-03-12T00:00:00.000Z", "WEBSITE": "http://www.selectspecialtyhospitals.com/company/locations/panamacity.aspx", "STATE_ID": "155600", "ALT_NAME": "NOT AVAILABLE", "ST_FIPS": "12", "OWNER": "PROPRIETARY", "TTL_STAFF": -999, "BEDS": 30, "TRAUMA": "NOT AVAILABLE", "HELIPAD": "Y" }, "geometry": { "type": "Polygon", "coordinates": [ [ [ -85.598438, 30.115570900000019 ], [ -85.647361, 30.135854 ], [ -85.7310276, 30.17728480000002 ], [ -85.7322701, 30.1805756 ], [ -85.7342376, 30.186927900000022 ], [ -85.650786, 30.251670599999958 ], [ -85.6489419, 30.2529215 ], [ -85.6474942, 30.2531716 ], [ -85.5720648, 30.238347300000019 ], [ -85.5719413, 30.238206799999979 ], [ -85.545074, 30.152812 ], [ -85.5646312, 30.137809500000024 ], [ -85.590675, 30.118757 ], [ -85.598438, 30.115570900000019 ] ] ] } },
{ "type": "Feature", "properties": { "OBJECTID": 3140, "ID": "0003931643", "NAME": "BROOKS COUNTY HOSPITAL", "ADDRESS": "903 NORTH COURT STREET", "CITY": "QUITMAN", "STATE": "GA", "ZIP": "31643", "ZIP4": "NOT AVAILABLE", "TELEPHONE": "NOT AVAILABLE", "TYPE": "CRITICAL ACCESS", "STATUS": "OPEN", "POPULATION": 25, "COUNTY": "BROOKS", "COUNTYFIPS": "13027", "COUNTRY": "USA", "LATITUDE": 30.795014998000099, "LONGITUDE": -83.559069569000002, "NAICS_CODE": "622110", "NAICS_DESC": "GENERAL MEDICAL AND SURGICAL HOSPITALS", "SOURCE": "http://www.gamap2care.info/", "SOURCEDATE": "2018-08-09T00:00:00.000Z", "VAL_METHOD": "IMAGERY", "VAL_DATE": "2014-02-10T00:00:00.000Z", "WEBSITE": "http://www.archbold.org/Content/Default/21/158/0/brooks-county/about-us.html", "STATE_ID": "34", "ALT_NAME": "NOT AVAILABLE", "ST_FIPS": "13", "OWNER": "NON-PROFIT", "TTL_STAFF": -999, "BEDS": 25, "TRAUMA": "NOT AVAILABLE", "HELIPAD": "N" }, "geometry": { "type": "Polygon", "coordinates": [ [ [ -83.609856, 30.7099368 ], [ -83.6561406, 30.732986400000019 ], [ -83.6861023, 30.7926574 ], [ -83.6861071, 30.79287 ], [ -83.6658244, 30.834528699999968 ], [ -83.5828509, 30.8979121 ], [ -83.5823007, 30.8980572 ], [ -83.5119441, 30.869984299999977 ], [ -83.4537922, 30.8373396 ], [ -83.499414, 30.698586199999987 ], [ -83.609856, 30.7099368 ] ] ] } },
{ "type": "Feature", "properties": { "OBJECTID": 3155, "ID": "0089831008", "NAME": "MEDICAL CENTER OF PEACH COUNTY, THE", "ADDRESS": "1960 HIGHWAY 247 CONNECTOR", "CITY": "BYRON", "STATE": "GA", "ZIP": "31008", "ZIP4": "NOT AVAILABLE", "TELEPHONE": "NOT AVAILABLE", "TYPE": "CRITICAL ACCESS", "STATUS": "OPEN", "POPULATION": 25, "COUNTY": "PEACH", "COUNTYFIPS": "13225", "COUNTRY": "USA", "LATITUDE": 32.604656839, "LONGITUDE": -83.758956847999997, "NAICS_CODE": "622110", "NAICS_DESC": "GENERAL MEDICAL AND SURGICAL HOSPITALS", "SOURCE": "http://www.gamap2care.info/", "SOURCEDATE": "2018-08-09T00:00:00.000Z", "VAL_METHOD": "IMAGERY/OTHER", "VAL_DATE": "2015-03-09T00:00:00.000Z", "WEBSITE": "https://www.navicenthealth.org/service-center/page/the-medical-center-of-peach-county", "STATE_ID": "NOT AVAILABLE", "ALT_NAME": "NOT AVAILABLE", "ST_FIPS": "13", "OWNER": "NON-PROFIT", "TTL_STAFF": -999, "BEDS": 25, "TRAUMA": "NOT AVAILABLE", "HELIPAD": "Y" }, "geometry": { "type": "Polygon", "coordinates": [ [ [ -83.7296817, 32.504234700000026 ], [ -83.884302, 32.557473 ], [ -83.8998422, 32.5777528 ], [ -83.899853400000012, 32.57794389999998 ], [ -83.854233, 32.63258060000004 ], [ -83.75351, 32.717053 ], [ -83.7198202, 32.744602 ], [ -83.719551600000017, 32.744616600000015 ], [ -83.7167973, 32.7441054 ], [ -83.7160956, 32.7438913 ], [ -83.7152032, 32.743497 ], [ -83.7138098, 32.742850300000015 ], [ -83.6877545, 32.68697049999998 ], [ -83.651001, 32.593992 ], [ -83.6620782, 32.571232599999988 ], [ -83.6874262, 32.538446 ], [ -83.7296817, 32.504234700000026 ] ] ] } },
{ "type": "Feature", "properties": { "OBJECTID": 3156, "ID": "0006031029", "NAME": "MONROE COUNTY HOSPITAL", "ADDRESS": "88 MARTIN LUTHER KING JR DRIVE", "CITY": "FORSYTH", "STATE": "GA", "ZIP": "31029", "ZIP4": "NOT AVAILABLE", "TELEPHONE": "NOT AVAILABLE", "TYPE": "CRITICAL ACCESS", "STATUS": "OPEN", "POPULATION": 25, "COUNTY": "MONROE", "COUNTYFIPS": "13207", "COUNTRY": "USA", "LATITUDE": 33.031256639, "LONGITUDE": -83.945959219000002, "NAICS_CODE": "622110", "NAICS_DESC": "GENERAL MEDICAL AND SURGICAL HOSPITALS", "SOURCE": "http://www.gamap2care.info/", "SOURCEDATE": "2018-08-09T00:00:00.000Z", "VAL_METHOD": "IMAGERY", "VAL_DATE": "2014-03-12T00:00:00.000Z", "WEBSITE": "http://www.monroehospital.org", "STATE_ID": "58", "ALT_NAME": "NOT AVAILABLE", "ST_FIPS": "13", "OWNER": "GOVERNMENT - DISTRICT/AUTHORITY", "TTL_STAFF": -999, "BEDS": 25, "TRAUMA": "NOT AVAILABLE", "HELIPAD": "Y" }, "geometry": { "type": "Polygon", "coordinates": [ [ [ -83.964191, 32.929102700000037 ], [ -84.0326505, 32.9608555 ], [ -84.0434857, 32.990150100000044 ], [ -84.0434396, 33.028815699999967 ], [ -84.0426164, 33.053726800000042 ], [ -84.0224985, 33.112496300000025 ], [ -83.998007300000012, 33.12055 ], [ -83.943849700000015, 33.1341906 ], [ -83.8719696, 33.107544600000026 ], [ -83.8502775, 33.080350799999955 ], [ -83.8443103, 33.0675017 ], [ -83.8217982, 33.005097700000015 ], [ -83.8149251, 32.9601095 ], [ -83.964191, 32.929102700000037 ] ] ] } },
{ "type": "Feature", "properties": { "OBJECTID": 3558, "ID": "0008232348", "NAME": "DOCTORS MEMORIAL HOSPITAL", "ADDRESS": "333 N BYRON BUTLER PKWY", "CITY": "PERRY", "STATE": "FL", "ZIP": "32348", "ZIP4": "NOT AVAILABLE", "TELEPHONE": "(850) 584-0800", "TYPE": "GENERAL ACUTE CARE", "STATUS": "OPEN", "POPULATION": 48, "COUNTY": "TAYLOR", "COUNTYFIPS": "12123", "COUNTRY": "USA", "LATITUDE": 30.1201216430001, "LONGITUDE": -83.593322138999994, "NAICS_CODE": "622110", "NAICS_DESC": "GENERAL MEDICAL AND SURGICAL HOSPITALS", "SOURCE": "http://www.floridahealthfinder.gov/facilitylocator/facilitysearch.aspx", "SOURCEDATE": "2018-08-15T00:00:00.000Z", "VAL_METHOD": "IMAGERY", "VAL_DATE": "2014-02-10T00:00:00.000Z", "WEBSITE": "http://www.doctorsmemorial.com/", "STATE_ID": "9914", "ALT_NAME": "NOT AVAILABLE", "ST_FIPS": "12", "OWNER": "PROPRIETARY", "TTL_STAFF": -999, "BEDS": 48, "TRAUMA": "NOT AVAILABLE", "HELIPAD": "Y" }, "geometry": { "type": "Polygon", "coordinates": [ [ [ -83.533196, 30.021097400000045 ], [ -83.6096917, 30.040485700000023 ], [ -83.6661401, 30.081438899999977 ], [ -83.6871866, 30.235886399999973 ], [ -83.6870542, 30.23597790000003 ], [ -83.5623022, 30.17746660000001 ], [ -83.559601, 30.174854 ], [ -83.5262105, 30.120938899999985 ], [ -83.5048035, 30.081212899999976 ], [ -83.5330671, 30.021234800000013 ], [ -83.533196, 30.021097400000045 ] ] ] } },
{ "type": "Feature", "properties": { "OBJECTID": 3603, "ID": "0001436442", "NAME": "FLORALA MEMORIAL HOSPITAL", "ADDRESS": "24273 FIFTH AVENUE", "CITY": "FLORALA", "STATE": "AL", "ZIP": "36442", "ZIP4": "NOT AVAILABLE", "TELEPHONE": "(334) 858-3287", "TYPE": "GENERAL ACUTE CARE", "STATUS": "CLOSED", "POPULATION": 23, "COUNTY": "COVINGTON", "COUNTYFIPS": "01039", "COUNTRY": "USA", "LATITUDE": 31.000485414, "LONGITUDE": -86.313137967000003, "NAICS_CODE": "622110", "NAICS_DESC": "GENERAL MEDICAL AND SURGICAL HOSPITALS", "SOURCE": "http://ph.state.al.us/facilitiesdirectory/%28S%28ydsic2jp55v0jj45incw4e33%29%29/Default.aspx", "SOURCEDATE": "2012-06-05T00:00:00.000Z", "VAL_METHOD": "IMAGERY/OTHER", "VAL_DATE": "2014-02-10T00:00:00.000Z", "WEBSITE": "http://www.floralahospital.org", "STATE_ID": "01-0066", "ALT_NAME": "NOT AVAILABLE", "ST_FIPS": "01", "OWNER": "PROPRIETARY", "TTL_STAFF": -999, "BEDS": 23, "TRAUMA": "NOT AVAILABLE", "HELIPAD": "Y" }, "geometry": { "type": "Polygon", "coordinates": [ [ [ -86.281289, 30.894898 ], [ -86.376359, 30.967071 ], [ -86.423741300342385, 31.016003888127575 ], [ -86.423836300567856, 31.01613489038705 ], [ -86.403678558266591, 31.070228746462003 ], [ -86.294417887013935, 31.096388022536182 ], [ -86.22245081492197, 31.035948142208042 ], [ -86.219616800689394, 31.031730093706098 ], [ -86.203019, 31.003628 ], [ -86.281289, 30.894898 ] ] ] } },
{ "type": "Feature", "properties": { "OBJECTID": 3614, "ID": "0013636652", "NAME": "MOBILE INFIRMARY MEDICAL CENTER", "ADDRESS": "5 MOBILE INFIRMARY CENTER", "CITY": "MOBILE", "STATE": "AL", "ZIP": "36652", "ZIP4": "NOT AVAILABLE", "TELEPHONE": "(251) 435-2400", "TYPE": "GENERAL ACUTE CARE", "STATUS": "OPEN", "POPULATION": 677, "COUNTY": "MOBILE", "COUNTYFIPS": "01097", "COUNTRY": "USA", "LATITUDE": 30.695724958, "LONGITUDE": -88.079776191999898, "NAICS_CODE": "622110", "NAICS_DESC": "GENERAL MEDICAL AND SURGICAL HOSPITALS", "SOURCE": "http://dph1.adph.state.al.us/FacilitiesDirectory", "SOURCEDATE": "2018-08-09T00:00:00.000Z", "VAL_METHOD": "IMAGERY/OTHER", "VAL_DATE": "2016-03-08T00:00:00.000Z", "WEBSITE": "https://www.infirmaryhealth.org/hospitals/mobile-infirmary", "STATE_ID": "H4904", "ALT_NAME": "NOT AVAILABLE", "ST_FIPS": "01", "OWNER": "NON-PROFIT", "TTL_STAFF": -999, "BEDS": 677, "TRAUMA": "LEVEL III", "HELIPAD": "Y" }, "geometry": { "type": "Polygon", "coordinates": [ [ [ -88.073919908013082, 30.611466029355082 ], [ -88.124007, 30.625309 ], [ -88.1466061, 30.6316427 ], [ -88.174689, 30.6761 ], [ -88.166179, 30.722781 ], [ -88.103986, 30.806093 ], [ -88.071147074600262, 30.788522010546249 ], [ -88.035970020238054, 30.734358017243206 ], [ -88.0127478, 30.686133 ], [ -88.0128367, 30.686019100000053 ], [ -88.073919908013082, 30.611466029355082 ] ] ] } },
{ "type": "Feature", "properties": { "OBJECTID": 3615, "ID": "0090736604", "NAME": "UNIVERSITY OF SOUTH ALABAMA CHILDREN'S AND WOMEN'S HOSPITAL", "ADDRESS": "1700 CENTER STREET", "CITY": "MOBILE", "STATE": "AL", "ZIP": "36604", "ZIP4": "3391", "TELEPHONE": "(251) 415-1000", "TYPE": "CHILDREN", "STATUS": "OPEN", "POPULATION": 152, "COUNTY": "MOBILE", "COUNTYFIPS": "01097", "COUNTRY": "USA", "LATITUDE": 30.697683817000001, "LONGITUDE": -88.077807639999904, "NAICS_CODE": "622110", "NAICS_DESC": "CHILDREN'S HOSPITALS, GENERAL", "SOURCE": "http://dph1.adph.state.al.us/FacilitiesDirectory", "SOURCEDATE": "2018-08-09T00:00:00.000Z", "VAL_METHOD": "IMAGERY/OTHER", "VAL_DATE": "2015-02-03T00:00:00.000Z", "WEBSITE": "NOT AVAILABLE", "STATE_ID": "H4901", "ALT_NAME": "NOT AVAILABLE", "ST_FIPS": "01", "OWNER": "GOVERNMENT - STATE", "TTL_STAFF": -999, "BEDS": 152, "TRAUMA": "LEVEL III", "HELIPAD": "Y" }, "geometry": { "type": "Polygon", "coordinates": [ [ [ -88.074488905858118, 30.609556029210847 ], [ -88.148088900000019, 30.629824 ], [ -88.177113, 30.676100400000021 ], [ -88.168065, 30.724907 ], [ -88.109629, 30.761886 ], [ -88.100887, 30.767266 ], [ -88.0949, 30.770668 ], [ -88.07427507845415, 30.776572010144921 ], [ -88.037036611800772, 30.725107520024387 ], [ -88.0127478, 30.686133 ], [ -88.0128367, 30.686019100000053 ], [ -88.074488905858118, 30.609556029210847 ] ] ] } },
{ "type": "Feature", "properties": { "OBJECTID": 3616, "ID": "0009836617", "NAME": "UNIVERSITY OF SOUTH ALABAMA MEDICAL CENTER", "ADDRESS": "2451 FILLINGIM STREET", "CITY": "MOBILE", "STATE": "AL", "ZIP": "36617", "ZIP4": "NOT AVAILABLE", "TELEPHONE": "(251) 471-7110", "TYPE": "GENERAL ACUTE CARE", "STATUS": "OPEN", "POPULATION": 406, "COUNTY": "MOBILE", "COUNTYFIPS": "01097", "COUNTRY": "USA", "LATITUDE": 30.70706198, "LONGITUDE": -88.098334856999898, "NAICS_CODE": "622110", "NAICS_DESC": "GENERAL MEDICAL AND SURGICAL HOSPITALS", "SOURCE": "http://dph1.adph.state.al.us/FacilitiesDirectory", "SOURCEDATE": "2018-08-09T00:00:00.000Z", "VAL_METHOD": "IMAGERY/OTHER", "VAL_DATE": "2014-02-10T00:00:00.000Z", "WEBSITE": "http://www.usahealthsystem.com/usamc", "STATE_ID": "01-0087", "ALT_NAME": "NOT AVAILABLE", "ST_FIPS": "01", "OWNER": "GOVERNMENT - STATE", "TTL_STAFF": -999, "BEDS": 406, "TRAUMA": "LEVEL I", "HELIPAD": "Y" }, "geometry": { "type": "Polygon", "coordinates": [ [ [ -88.124007, 30.625309 ], [ -88.149936, 30.627311 ], [ -88.15025, 30.627515 ], [ -88.1862159, 30.676502299999953 ], [ -88.18829, 30.708452 ], [ -88.18898, 30.726031 ], [ -88.181734, 30.737543 ], [ -88.146315, 30.781011 ], [ -88.1111445, 30.802390100000018 ], [ -88.103986, 30.806093 ], [ -88.096006, 30.809208 ], [ -88.07205107525273, 30.799099010739791 ], [ -88.0718260750117, 30.798921010742788 ], [ -88.035970020238054, 30.734358017243206 ], [ -88.0127478, 30.686133 ], [ -88.0128367, 30.686019100000053 ], [ -88.08843193244951, 30.626034017757419 ], [ -88.124007, 30.625309 ] ] ] } },
{ "type": "Feature", "properties": { "OBJECTID": 3620, "ID": "0006536867", "NAME": "JACK HUGHSTON MEMORIAL HOSPITAL", "ADDRESS": "4401 RIVER CHASE DRIVE", "CITY": "PHENIX CITY", "STATE": "AL", "ZIP": "36867", "ZIP4": "NOT AVAILABLE", "TELEPHONE": "(334) 732-3000", "TYPE": "GENERAL ACUTE CARE", "STATUS": "OPEN", "POPULATION": 70, "COUNTY": "RUSSELL", "COUNTYFIPS": "01113", "COUNTRY": "USA", "LATITUDE": 32.508014256000003, "LONGITUDE": -85.0088847439999, "NAICS_CODE": "622110", "NAICS_DESC": "GENERAL MEDICAL AND SURGICAL HOSPITALS", "SOURCE": "http://dph1.adph.state.al.us/FacilitiesDirectory", "SOURCEDATE": "2018-08-09T00:00:00.000Z", "VAL_METHOD": "IMAGERY/OTHER", "VAL_DATE": "2014-02-10T00:00:00.000Z", "WEBSITE": "http://www.jackhughstonmemorialhospital.com", "STATE_ID": "01-0168", "ALT_NAME": "NOT AVAILABLE", "ST_FIPS": "01", "OWNER": "PROPRIETARY", "TTL_STAFF": -999, "BEDS": 70, "TRAUMA": "NOT AVAILABLE", "HELIPAD": "N" }, "geometry": { "type": "Polygon", "coordinates": [ [ [ -85.028529, 32.431165 ], [ -85.0861203, 32.4697147 ], [ -85.1069849, 32.550828300000035 ], [ -85.1068205, 32.550988699999984 ], [ -85.0671613, 32.55997620000003 ], [ -85.039953, 32.554409 ], [ -85.036858, 32.553092 ], [ -85.02182, 32.542172 ], [ -85.007326, 32.522436 ], [ -84.999618, 32.501779 ], [ -84.996766, 32.490706 ], [ -84.995676, 32.481907 ], [ -84.9948128, 32.470554 ], [ -84.993148, 32.442211 ], [ -85.002968, 32.437201 ], [ -85.028529, 32.431165 ] ] ] } },
{ "type": "Feature", "properties": { "OBJECTID": 3723, "ID": "0005232440", "NAME": "CAMPBELLTON-GRACEVILLE HOSPITAL", "ADDRESS": "5429 COLLEGE DR", "CITY": "GRACEVILLE", "STATE": "FL", "ZIP": "32440", "ZIP4": "NOT AVAILABLE", "TELEPHONE": "(850) 263-4431", "TYPE": "GENERAL ACUTE CARE", "STATUS": "OPEN", "POPULATION": 25, "COUNTY": "JACKSON", "COUNTYFIPS": "12063", "COUNTRY": "USA", "LATITUDE": 30.963035163000001, "LONGITUDE": -85.506744552000001, "NAICS_CODE": "622110", "NAICS_DESC": "GENERAL MEDICAL AND SURGICAL HOSPITALS", "SOURCE": "http://www.floridahealthfinder.gov/facilitylocator/facilitysearch.aspx", "SOURCEDATE": "2018-08-15T00:00:00.000Z", "VAL_METHOD": "IMAGERY", "VAL_DATE": "2013-11-08T00:00:00.000Z", "WEBSITE": "http://www.c-ghospital.com/", "STATE_ID": "9940", "ALT_NAME": "NOT AVAILABLE", "ST_FIPS": "12", "OWNER": "PROPRIETARY", "TTL_STAFF": -999, "BEDS": 25, "TRAUMA": "NOT AVAILABLE", "HELIPAD": "N" }, "geometry": { "type": "Polygon", "coordinates": [ [ [ -85.5275567, 30.862053200000016 ], [ -85.5405408, 30.877468099999966 ], [ -85.5504586, 30.8992212 ], [ -85.555775, 30.92073 ], [ -85.538255, 30.996528 ], [ -85.467226147571211, 31.05657691441349 ], [ -85.445491112749949, 31.035598769853841 ], [ -85.3872733, 30.95046850000001 ], [ -85.3866073, 30.92885289999996 ], [ -85.4470338, 30.887494600000014 ], [ -85.5275567, 30.862053200000016 ] ] ] } },
{ "type": "Feature", "properties": { "OBJECTID": 3954, "ID": "0008731201", "NAME": "CHILDREN'S HOSPITAL NAVICENT HEALTH", "ADDRESS": "888 PINE STREET", "CITY": "MACON", "STATE": "GA", "ZIP": "31201", "ZIP4": "NOT AVAILABLE", "TELEPHONE": "(478) 633-5437", "TYPE": "CHILDREN", "STATUS": "CLOSED", "POPULATION": 112, "COUNTY": "BIBB", "COUNTYFIPS": "13021", "COUNTRY": "USA", "LATITUDE": 32.8347290520001, "LONGITUDE": -83.636669863999899, "NAICS_CODE": "622110", "NAICS_DESC": "CHILDREN'S HOSPITALS, GENERAL", "SOURCE": "http://167.193.144.247/", "SOURCEDATE": "2016-10-06T00:00:00.000Z", "VAL_METHOD": "IMAGERY", "VAL_DATE": "2014-03-12T00:00:00.000Z", "WEBSITE": "http://www.childrenshospitalmacon.org/", "STATE_ID": "85", "ALT_NAME": "NOT AVAILABLE", "ST_FIPS": "13", "OWNER": "GOVERNMENT - DISTRICT/AUTHORITY", "TTL_STAFF": -999, "BEDS": 112, "TRAUMA": "NOT AVAILABLE", "HELIPAD": "Y" }, "geometry": { "type": "Polygon", "coordinates": [ [ [ -83.7221349, 32.738768 ], [ -83.735935, 32.80399 ], [ -83.7369841, 32.8127048 ], [ -83.7388463, 32.833888 ], [ -83.7304971, 32.928946099999969 ], [ -83.715849, 32.933808 ], [ -83.607676200000014, 32.914706700000025 ], [ -83.558369400000018, 32.877640800000066 ], [ -83.5293636, 32.8500279 ], [ -83.528912, 32.849243300000019 ], [ -83.538382, 32.811203 ], [ -83.563039, 32.773867 ], [ -83.6555837, 32.7400942 ], [ -83.7221349, 32.738768 ] ] ] } }
]
}
