{
"type": "FeatureCollection",
"crs": { "type": "name", "properties": { "name": "urn:ogc:def:crs:OGC:1.3:CRS84" } },
"features": [
{ "type": "Feature", "properties": { "OBJECTID": 1059, "ID": "0151054961", "NAME": "THEDACARE MEDICAL CENTER NEW LONDON", "ADDRESS": "1405 MILL ST", "CITY": "NEW LONDON", "STATE": "WI", "ZIP": "54961", "ZIP4": "NOT AVAILABLE", "TELEPHONE": "(920) 531-2000", "TYPE": "CRITICAL ACCESS", "STATUS": "OPEN", "POPULATION": 25, "COUNTY": "OUTAGAMIE", "COUNTYFIPS": "55087", "COUNTRY": "USA", "LATITUDE": 44.381156267000101, "LONGITUDE": -88.733700853000002, "NAICS_CODE": "622110", "NAICS_DESC": "GENERAL MEDICAL AND SURGICAL HOSPITALS", "SOURCE": "https://www.dhs.wisconsin.gov/guide/hospital.htm", "SOURCEDATE": "2018-08-13T00:00:00.000Z", "VAL_METHOD": "IMAGERY/OTHER", "VAL_DATE": "2015-03-27T00:00:00.000Z", "WEBSITE": "https://www.thedacare.org/Hospitals-and-Clinics/ThedaCare-Medical-Center-New-London.aspx", "STATE_ID": "1029", "ALT_NAME": "NOT AVAILABLE", "ST_FIPS": "55", "OWNER": "NOT AVAILABLE", "TTL_STAFF": -999, "BEDS": 25, "TRAUMA": "LEVEL IV", "HELIPAD": "N" }, "geometry": { "type": "Polygon", "coordinates": [ [ [ -88.6795156, 44.283055699999977 ], [ -88.7791048, 44.3010809 ], [ -88.8076192, 44.329071100000014 ], [ -88.866685, 44.4117788 ], [ -88.7419797, 44.481772 ], [ -88.656504, 44.439965 ], [ -88.635986, 44.42948 ], [ -88.602426, 44.330467 ], [ -88.636452, 44.305253 ], [ -88.6795156, 44.283055699999977 ] ] ] } },
{ "type": "Feature", "properties": { "OBJECTID": 1078, "ID": "0015054956", "NAME": "THEDA CLARK MED CTR", "ADDRESS": "130 2ND ST WEST PAVILION", "CITY": "NEENAH", "STATE": "WI", "ZIP": "54956", "ZIP4": "NOT AVAILABLE", "TELEPHONE": "(920) 729-3100", "TYPE": "GENERAL ACUTE CARE", "STATUS": "OPEN", "POPULATION": 182, "COUNTY": "WINNEBAGO", "COUNTYFIPS": "55139", "COUNTRY": "USA", "LATITUDE": 44.187489556000102, "LONGITUDE": -88.453384928999995, "NAICS_CODE": "622110", "NAICS_DESC": "GENERAL MEDICAL AND SURGICAL HOSPITALS", "SOURCE": "https://www.dhs.wisconsin.gov/guide/hospital.htm", "SOURCEDATE": "2018-08-13T00:00:00.000Z", "VAL_METHOD": "IMAGERY", "VAL_DATE": "2014-03-12T00:00:00.000Z", "WEBSITE": "http://www.thedacare.org", "STATE_ID": "32", "ALT_NAME": "NOT AVAILABLE", "ST_FIPS": "55", "OWNER": "NON-PROFIT", "TTL_STAFF": -999, "BEDS": 182, "TRAUMA": "LEVEL II", "HELIPAD": "Y" }, "geometry": { "type": "Polygon", "coordinates": [ [ [ -88.5434277, 44.09359610000002 ], [ -88.5478958, 44.093910700000016 ], [ -88.549791, 44.097415 ], [ -88.572685, 44.18424 ], [ -88.572679, 44.184954 ], [ -88.564685, 44.199637 ], [ -88.544648, 44.228571 ], [ -88.5121913, 44.24409230000002 ], [ -88.4967299, 44.249661600000017 ], [ -88.3982798, 44.262934400000027 ], [ -88.3971267, 44.262919400000051 ], [ -88.3550133, 44.249767199999987 ], [ -88.3466542, 44.24378589999997 ], [ -88.3228445, 44.2131033 ], [ -88.3266577, 44.202021400000014 ], [ -88.4933689, 44.105430099999957 ], [ -88.5434277, 44.09359610000002 ] ] ] } },
{ "type": "Feature", "properties": { "OBJECTID": 1080, "ID": "0015454495", "NAME": "RIVERVIEW HSPTL ASSOC", "ADDRESS": "410 DEWEY STREET", "CITY": "WISCONSIN RAPIDS", "STATE": "WI", "ZIP": "54495", "ZIP4": "NOT AVAILABLE", "TELEPHONE": "(715) 423-6060", "TYPE": "GENERAL ACUTE CARE", "STATUS": "OPEN", "POPULATION": 99, "COUNTY": "WOOD", "COUNTYFIPS": "55141", "COUNTRY": "USA", "LATITUDE": 44.3817580300001, "LONGITUDE": -89.829889437999995, "NAICS_CODE": "622110", "NAICS_DESC": "GENERAL MEDICAL AND SURGICAL HOSPITALS", "SOURCE": "https://www.dhs.wisconsin.gov/guide/hospital.htm", "SOURCEDATE": "2018-08-13T00:00:00.000Z", "VAL_METHOD": "IMAGERY", "VAL_DATE": "2014-02-10T00:00:00.000Z", "WEBSITE": "http://www.riverviewhospital.org", "STATE_ID": "11", "ALT_NAME": "NOT AVAILABLE", "ST_FIPS": "55", "OWNER": "NON-PROFIT", "TTL_STAFF": -999, "BEDS": 99, "TRAUMA": "LEVEL III", "HELIPAD": "N" }, "geometry": { "type": "Polygon", "coordinates": [ [ [ -89.8100903, 44.302603400000052 ], [ -89.8891698, 44.323168299999978 ], [ -89.8909933, 44.324538600000018 ], [ -89.9114264, 44.3438567 ], [ -89.9259631, 44.434984199999988 ], [ -89.8954507, 44.45698880000004 ], [ -89.8072622, 44.477969099999953 ], [ -89.7283411, 44.421405200000031 ], [ -89.712072, 44.373365 ], [ -89.712062, 44.371703 ], [ -89.72242, 44.358812 ], [ -89.7553951, 44.337147899999984 ], [ -89.8033969, 44.306751300000016 ], [ -89.8100903, 44.302603400000052 ] ] ] } },
{ "type": "Feature", "properties": { "OBJECTID": 1101, "ID": "0008849913", "NAME": "ASPIRUS KEWEENAW HOSPITAL", "ADDRESS": "205 OSCEOLA", "CITY": "LAURIUM", "STATE": "MI", "ZIP": "49913", "ZIP4": "NOT AVAILABLE", "TELEPHONE": "NOT AVAILABLE", "TYPE": "GENERAL ACUTE CARE", "STATUS": "OPEN", "POPULATION": 25, "COUNTY": "HOUGHTON", "COUNTYFIPS": "26061", "COUNTRY": "USA", "LATITUDE": 47.238783173000101, "LONGITUDE": -88.443500848, "NAICS_CODE": "622110", "NAICS_DESC": "GENERAL MEDICAL AND SURGICAL HOSPITALS", "SOURCE": "https://w2.lara.state.mi.us/VAL/License/Search", "SOURCEDATE": "2018-08-09T00:00:00.000Z", "VAL_METHOD": "IMAGERY", "VAL_DATE": "2014-02-10T00:00:00.000Z", "WEBSITE": "http://www.aspiruskeweenaw.org", "STATE_ID": "NOT AVAILABLE", "ALT_NAME": "NOT AVAILABLE", "ST_FIPS": "26", "OWNER": "NON-PROFIT", "TTL_STAFF": -999, "BEDS": 25, "TRAUMA": "NOT AVAILABLE", "HELIPAD": "N" }, "geometry": { "type": "Polygon", "coordinates": [ [ [ -88.556266, 47.155772 ], [ -88.5739227, 47.24301420000004 ], [ -88.5059129, 47.289973699999955 ], [ -88.404938, 47.30777 ], [ -88.36055, 47.306784 ], [ -88.369338, 47.246256 ], [ -88.380569, 47.181719 ], [ -88.392965, 47.173365 ], [ -88.525294, 47.158121 ], [ -88.556266, 47.155772 ] ] ] } },
{ "type": "Feature", "properties": { "OBJECTID": 1102, "ID": "0004249801", "NAME": "DICKINSON COUNTY MEMORIAL HOSPITAL", "ADDRESS": "1721 S STEPHENSON AVE", "CITY": "IRON MOUNTAIN", "STATE": "MI", "ZIP": "49801", "ZIP4": "NOT AVAILABLE", "TELEPHONE": "NOT AVAILABLE", "TYPE": "GENERAL ACUTE CARE", "STATUS": "OPEN", "POPULATION": 96, "COUNTY": "DICKINSON", "COUNTYFIPS": "26043", "COUNTRY": "USA", "LATITUDE": 45.809878058000002, "LONGITUDE": -88.044451237000004, "NAICS_CODE": "622110", "NAICS_DESC": "GENERAL MEDICAL AND SURGICAL HOSPITALS", "SOURCE": "https://w2.lara.state.mi.us/VAL/License/Search", "SOURCEDATE": "2018-08-09T00:00:00.000Z", "VAL_METHOD": "IMAGERY", "VAL_DATE": "2014-02-10T00:00:00.000Z", "WEBSITE": "http://www.dchs.org/", "STATE_ID": "NOT AVAILABLE", "ALT_NAME": "NOT AVAILABLE", "ST_FIPS": "26", "OWNER": "NON-PROFIT", "TTL_STAFF": -999, "BEDS": 96, "TRAUMA": "NOT AVAILABLE", "HELIPAD": "N" }, "geometry": { "type": "Polygon", "coordinates": [ [ [ -87.9640869, 45.769073300000024 ], [ -88.0823973, 45.784993300000039 ], [ -88.0916965, 45.786955800000015 ], [ -88.0950933, 45.788541199999969 ], [ -88.128188100000017, 45.812089700000051 ], [ -88.131477, 45.820938 ], [ -88.0782815, 45.877607200000071 ], [ -88.043733, 45.906637599999989 ], [ -87.963324, 45.849667 ], [ -87.944327, 45.83271 ], [ -87.8984071, 45.787087499999956 ], [ -87.9094135, 45.779563 ], [ -87.9640869, 45.769073300000024 ] ] ] } },
{ "type": "Feature", "properties": { "OBJECTID": 1103, "ID": "0011449953", "NAME": "ASPIRUS ONTONAGON HOSPITAL, INC", "ADDRESS": "601 S SEVENTH ST", "CITY": "ONTONAGON", "STATE": "MI", "ZIP": "49953", "ZIP4": "NOT AVAILABLE", "TELEPHONE": "NOT AVAILABLE", "TYPE": "GENERAL ACUTE CARE", "STATUS": "OPEN", "POPULATION": 25, "COUNTY": "ONTONAGON", "COUNTYFIPS": "26131", "COUNTRY": "USA", "LATITUDE": 46.865595360999997, "LONGITUDE": -89.301658459999899, "NAICS_CODE": "622110", "NAICS_DESC": "GENERAL MEDICAL AND SURGICAL HOSPITALS", "SOURCE": "https://w2.lara.state.mi.us/VAL/License/Search", "SOURCEDATE": "2018-08-09T00:00:00.000Z", "VAL_METHOD": "IMAGERY", "VAL_DATE": "2014-01-27T00:00:00.000Z", "WEBSITE": "http://www.aspirus-ontonagon.org", "STATE_ID": "NOT AVAILABLE", "ALT_NAME": "NOT AVAILABLE", "ST_FIPS": "26", "OWNER": "NON-PROFIT", "TTL_STAFF": -999, "BEDS": 25, "TRAUMA": "NOT AVAILABLE", "HELIPAD": "N" }, "geometry": { "type": "Polygon", "coordinates": [ [ [ -89.2497185, 46.783371700000011 ], [ -89.3571327, 46.8080967 ], [ -89.4617813, 46.836671700000018 ], [ -89.258134, 46.900704 ], [ -89.250317, 46.901777 ], [ -89.181244, 46.866153 ], [ -89.1971491, 46.818038700000031 ], [ -89.2497185, 46.783371700000011 ] ] ] } },
{ "type": "Feature", "properties": { "OBJECTID": 1977, "ID": "0000953014", "NAME": "CALUMET MEDICAL CTR", "ADDRESS": "614 MEMORIAL DR", "CITY": "CHILTON", "STATE": "WI", "ZIP": "53014", "ZIP4": "NOT AVAILABLE", "TELEPHONE": "(920) 849-2386", "TYPE": "GENERAL ACUTE CARE", "STATUS": "OPEN", "POPULATION": 25, "COUNTY": "CALUMET", "COUNTYFIPS": "55015", "COUNTRY": "USA", "LATITUDE": 44.025375145000098, "LONGITUDE": -88.153190918999897, "NAICS_CODE": "622110", "NAICS_DESC": "GENERAL MEDICAL AND SURGICAL HOSPITALS", "SOURCE": "https://www.dhs.wisconsin.gov/guide/hospital.htm", "SOURCEDATE": "2018-08-13T00:00:00.000Z", "VAL_METHOD": "IMAGERY", "VAL_DATE": "2014-02-10T00:00:00.000Z", "WEBSITE": "http://www.affinityhealth.org", "STATE_ID": "1020", "ALT_NAME": "NOT AVAILABLE", "ST_FIPS": "55", "OWNER": "NON-PROFIT", "TTL_STAFF": -999, "BEDS": 25, "TRAUMA": "LEVEL IV", "HELIPAD": "Y" }, "geometry": { "type": "Polygon", "coordinates": [ [ [ -88.171189, 43.935124 ], [ -88.23567, 43.969884 ], [ -88.263013, 43.985348 ], [ -88.266432, 43.988062300000031 ], [ -88.266539, 44.000331 ], [ -88.26588, 44.03493 ], [ -88.25095, 44.062293 ], [ -88.1641661, 44.121890800000045 ], [ -88.1635388, 44.12165820000002 ], [ -88.103697, 44.0879639 ], [ -88.0411398, 44.023147499999972 ], [ -88.082482, 43.948182 ], [ -88.090049, 43.945493 ], [ -88.096616, 43.943314 ], [ -88.142773, 43.934996 ], [ -88.171189, 43.935124 ] ] ] } },
{ "type": "Feature", "properties": { "OBJECTID": 1985, "ID": "0006154241", "NAME": "AURORA MED CTR MANITOWOC CTY", "ADDRESS": "5000 MEMORIAL DR", "CITY": "TWO RIVERS", "STATE": "WI", "ZIP": "54241", "ZIP4": "NOT AVAILABLE", "TELEPHONE": "(920) 794-5000", "TYPE": "GENERAL ACUTE CARE", "STATUS": "OPEN", "POPULATION": 69, "COUNTY": "MANITOWOC", "COUNTYFIPS": "55071", "COUNTRY": "USA", "LATITUDE": 44.125367828999998, "LONGITUDE": -87.619456133, "NAICS_CODE": "622110", "NAICS_DESC": "GENERAL MEDICAL AND SURGICAL HOSPITALS", "SOURCE": "https://www.dhs.wisconsin.gov/guide/hospital.htm", "SOURCEDATE": "2018-08-13T00:00:00.000Z", "VAL_METHOD": "IMAGERY", "VAL_DATE": "2014-02-10T00:00:00.000Z", "WEBSITE": "http://www.aurorahealthcare.org", "STATE_ID": "85", "ALT_NAME": "NOT AVAILABLE", "ST_FIPS": "55", "OWNER": "NON-PROFIT", "TTL_STAFF": -999, "BEDS": 69, "TRAUMA": "LEVEL III", "HELIPAD": "N" }, "geometry": { "type": "Polygon", "coordinates": [ [ [ -87.6711923, 44.0393635 ], [ -87.728065, 44.066472 ], [ -87.761035, 44.109593 ], [ -87.730958, 44.158909 ], [ -87.680938, 44.197168 ], [ -87.6453497, 44.2026559 ], [ -87.6183942, 44.2041057 ], [ -87.5598505, 44.197224299999959 ], [ -87.5398971, 44.184103599999958 ], [ -87.534684, 44.180641 ], [ -87.5454573, 44.15754849999994 ], [ -87.66201, 44.047707 ], [ -87.6711923, 44.0393635 ] ] ] } },
{ "type": "Feature", "properties": { "OBJECTID": 1986, "ID": "0009154568", "NAME": "HOWARD YOUNG MED CTR", "ADDRESS": "240 MAPLE ST, PO BOX 470", "CITY": "WOODRUFF", "STATE": "WI", "ZIP": "54568", "ZIP4": "NOT AVAILABLE", "TELEPHONE": "(715) 356-8000", "TYPE": "GENERAL ACUTE CARE", "STATUS": "OPEN", "POPULATION": 99, "COUNTY": "ONEIDA", "COUNTYFIPS": "55085", "COUNTRY": "USA", "LATITUDE": 45.893504274000101, "LONGITUDE": -89.702538519000001, "NAICS_CODE": "622110", "NAICS_DESC": "GENERAL MEDICAL AND SURGICAL HOSPITALS", "SOURCE": "https://www.dhs.wisconsin.gov/guide/hospital.htm", "SOURCEDATE": "2018-08-13T00:00:00.000Z", "VAL_METHOD": "IMAGERY", "VAL_DATE": "2014-03-12T00:00:00.000Z", "WEBSITE": "http://www.ministryhealth.org", "STATE_ID": "201", "ALT_NAME": "NOT AVAILABLE", "ST_FIPS": "55", "OWNER": "NON-PROFIT", "TTL_STAFF": -999, "BEDS": 99, "TRAUMA": "NOT AVAILABLE", "HELIPAD": "Y" }, "geometry": { "type": "Polygon", "coordinates": [ [ [ -89.7255113, 45.819823700000036 ], [ -89.726221600000017, 45.8199553 ], [ -89.835527, 45.884754 ], [ -89.835548, 45.885015 ], [ -89.705391, 45.982566 ], [ -89.687364, 45.989899 ], [ -89.601354, 45.917512 ], [ -89.600332, 45.916547 ], [ -89.586233, 45.876175 ], [ -89.610984, 45.823605 ], [ -89.618761, 45.822602 ], [ -89.7255113, 45.819823700000036 ] ] ] } },
{ "type": "Feature", "properties": { "OBJECTID": 1991, "ID": "0010354481", "NAME": "MINISTRY ST MICHAELS HOSPITAL OF STEVENS POINT", "ADDRESS": "900 ILLINOIS AVE", "CITY": "STEVENS POINT", "STATE": "WI", "ZIP": "54481", "ZIP4": "NOT AVAILABLE", "TELEPHONE": "(715) 346-5000", "TYPE": "GENERAL ACUTE CARE", "STATUS": "OPEN", "POPULATION": 94, "COUNTY": "PORTAGE", "COUNTYFIPS": "55097", "COUNTRY": "USA", "LATITUDE": 44.526431840999997, "LONGITUDE": -89.567096214999907, "NAICS_CODE": "622110", "NAICS_DESC": "GENERAL MEDICAL AND SURGICAL HOSPITALS", "SOURCE": "https://www.dhs.wisconsin.gov/guide/hospital.htm", "SOURCEDATE": "2018-08-13T00:00:00.000Z", "VAL_METHOD": "IMAGERY", "VAL_DATE": "2014-02-10T00:00:00.000Z", "WEBSITE": "http://ministryhealth.org/SMH/home.nws", "STATE_ID": "146", "ALT_NAME": "NOT AVAILABLE", "ST_FIPS": "55", "OWNER": "NON-PROFIT", "TTL_STAFF": -999, "BEDS": 94, "TRAUMA": "LEVEL III", "HELIPAD": "N" }, "geometry": { "type": "Polygon", "coordinates": [ [ [ -89.518901, 44.426315 ], [ -89.655255, 44.462848 ], [ -89.656172, 44.463737199999983 ], [ -89.656965, 44.464628 ], [ -89.662614, 44.471323 ], [ -89.6876174, 44.518558 ], [ -89.687778, 44.540256799999902 ], [ -89.672616, 44.583627 ], [ -89.6077329, 44.609566 ], [ -89.4922682, 44.599183 ], [ -89.456689, 44.57595 ], [ -89.4261881, 44.514221 ], [ -89.4261504, 44.5121894 ], [ -89.5154622, 44.428483699999987 ], [ -89.518901, 44.426315 ] ] ] } },
{ "type": "Feature", "properties": { "OBJECTID": 1998, "ID": "0014854984", "NAME": "WILD ROSE COM MEM HOSPITAL INC", "ADDRESS": "601 GROVE AVE, PO BOX 243", "CITY": "WILD ROSE", "STATE": "WI", "ZIP": "54984", "ZIP4": "NOT AVAILABLE", "TELEPHONE": "(920) 622-3257", "TYPE": "GENERAL ACUTE CARE", "STATUS": "OPEN", "POPULATION": 25, "COUNTY": "WAUSHARA", "COUNTYFIPS": "55137", "COUNTRY": "USA", "LATITUDE": 44.183560532999998, "LONGITUDE": -89.246059501000005, "NAICS_CODE": "622110", "NAICS_DESC": "GENERAL MEDICAL AND SURGICAL HOSPITALS", "SOURCE": "https://www.dhs.wisconsin.gov/guide/hospital.htm", "SOURCEDATE": "2018-08-13T00:00:00.000Z", "VAL_METHOD": "IMAGERY", "VAL_DATE": "2014-02-10T00:00:00.000Z", "WEBSITE": "http://www.wildrosehospital.org", "STATE_ID": "1004", "ALT_NAME": "NOT AVAILABLE", "ST_FIPS": "55", "OWNER": "NON-PROFIT", "TTL_STAFF": -999, "BEDS": 25, "TRAUMA": "LEVEL IV", "HELIPAD": "N" }, "geometry": { "type": "Polygon", "coordinates": [ [ [ -89.2924076, 44.090227100000028 ], [ -89.350328, 44.154367100000023 ], [ -89.3649842, 44.184733899999983 ], [ -89.34815, 44.213865 ], [ -89.3202011, 44.230606499999972 ], [ -89.307755, 44.235656 ], [ -89.265048, 44.250973 ], [ -89.1940937, 44.2433417 ], [ -89.1585071, 44.230347499999972 ], [ -89.1539208, 44.228462 ], [ -89.0870201, 44.177424300000027 ], [ -89.0869589, 44.175737100000021 ], [ -89.179808, 44.113534 ], [ -89.2924076, 44.090227100000028 ] ] ] } },
{ "type": "Feature", "properties": { "OBJECTID": 1999, "ID": "0014954956", "NAME": "CHILDRENS HSPTL OF WISCONSIN FOX VALLEY", "ADDRESS": "130 SECOND ST", "CITY": "NEENAH", "STATE": "WI", "ZIP": "54956", "ZIP4": "NOT AVAILABLE", "TELEPHONE": "(920) 969-7902", "TYPE": "GENERAL ACUTE CARE", "STATUS": "OPEN", "POPULATION": 42, "COUNTY": "WINNEBAGO", "COUNTYFIPS": "55139", "COUNTRY": "USA", "LATITUDE": 44.187135058000102, "LONGITUDE": -88.454440227000006, "NAICS_CODE": "622110", "NAICS_DESC": "GENERAL MEDICAL AND SURGICAL HOSPITALS", "SOURCE": "https://www.dhs.wisconsin.gov/guide/hospital.htm", "SOURCEDATE": "2018-08-13T00:00:00.000Z", "VAL_METHOD": "IMAGERY", "VAL_DATE": "2014-03-12T00:00:00.000Z", "WEBSITE": "http://www.chw.org", "STATE_ID": "1005", "ALT_NAME": "NOT AVAILABLE", "ST_FIPS": "55", "OWNER": "NON-PROFIT", "TTL_STAFF": -999, "BEDS": 42, "TRAUMA": "NOT AVAILABLE", "HELIPAD": "Y" }, "geometry": { "type": "Polygon", "coordinates": [ [ [ -88.543397, 44.082933 ], [ -88.551052, 44.09675 ], [ -88.574927, 44.184214 ], [ -88.578615, 44.199464 ], [ -88.544733, 44.23309 ], [ -88.519767, 44.24419929999997 ], [ -88.506943, 44.2485346 ], [ -88.397136, 44.267988 ], [ -88.354998, 44.25767979999997 ], [ -88.339569, 44.24365769999995 ], [ -88.318142, 44.214153799999984 ], [ -88.320666, 44.19938939999998 ], [ -88.4859399, 44.104766500000018 ], [ -88.4952883, 44.100512 ], [ -88.543397, 44.082933 ] ] ] } },
{ "type": "Feature", "properties": { "OBJECTID": 2000, "ID": "0015254904", "NAME": "MERCY MED CTR OF OSHKOSH", "ADDRESS": "500 S OAKWOOD RD", "CITY": "OSHKOSH", "STATE": "WI", "ZIP": "54904", "ZIP4": "NOT AVAILABLE", "TELEPHONE": "(920) 223-2000", "TYPE": "GENERAL ACUTE CARE", "STATUS": "OPEN", "POPULATION": 157, "COUNTY": "WINNEBAGO", "COUNTYFIPS": "55139", "COUNTRY": "USA", "LATITUDE": 44.012420717000097, "LONGITUDE": -88.601045493000001, "NAICS_CODE": "622110", "NAICS_DESC": "GENERAL MEDICAL AND SURGICAL HOSPITALS", "SOURCE": "https://www.dhs.wisconsin.gov/guide/hospital.htm", "SOURCEDATE": "2018-08-13T00:00:00.000Z", "VAL_METHOD": "IMAGERY", "VAL_DATE": "2014-02-10T00:00:00.000Z", "WEBSITE": "http://www.affinityhealth.org", "STATE_ID": "186", "ALT_NAME": "NOT AVAILABLE", "ST_FIPS": "55", "OWNER": "NON-PROFIT", "TTL_STAFF": -999, "BEDS": 157, "TRAUMA": "NOT AVAILABLE", "HELIPAD": "Y" }, "geometry": { "type": "Polygon", "coordinates": [ [ [ -88.610941, 43.909 ], [ -88.672801, 43.952945 ], [ -88.734655, 44.018722 ], [ -88.719873, 44.04157 ], [ -88.613499, 44.089576 ], [ -88.592203, 44.098155 ], [ -88.5436393, 44.114166499999989 ], [ -88.5404007, 44.112075799999921 ], [ -88.510548, 44.039536 ], [ -88.510678200000015, 44.0372059 ], [ -88.520226, 43.966202 ], [ -88.521207600000011, 43.962569 ], [ -88.53381, 43.951717 ], [ -88.563532, 43.930538 ], [ -88.610941, 43.909 ] ] ] } },
{ "type": "Feature", "properties": { "OBJECTID": 2118, "ID": "0005549935", "NAME": "ASPIRUS IRON RIVER HOSPITAL & CLINICS", "ADDRESS": "1400 W ICE LAKE ROAD", "CITY": "IRON RIVER", "STATE": "MI", "ZIP": "49935", "ZIP4": "NOT AVAILABLE", "TELEPHONE": "NOT AVAILABLE", "TYPE": "GENERAL ACUTE CARE", "STATUS": "OPEN", "POPULATION": 25, "COUNTY": "IRON", "COUNTYFIPS": "26071", "COUNTRY": "USA", "LATITUDE": 46.0998840950001, "LONGITUDE": -88.619274484999906, "NAICS_CODE": "622110", "NAICS_DESC": "GENERAL MEDICAL AND SURGICAL HOSPITALS", "SOURCE": "https://w2.lara.state.mi.us/VAL/License/Search", "SOURCEDATE": "2018-08-09T00:00:00.000Z", "VAL_METHOD": "IMAGERY", "VAL_DATE": "2014-02-10T00:00:00.000Z", "WEBSITE": "http://www.aspirus.org/Iron-River-Hospital/Our-Locations/961.aspx", "STATE_ID": "NOT AVAILABLE", "ALT_NAME": "NOT AVAILABLE", "ST_FIPS": "26", "OWNER": "NON-PROFIT", "TTL_STAFF": -999, "BEDS": 25, "TRAUMA": "NOT AVAILABLE", "HELIPAD": "Y" }, "geometry": { "type": "Polygon", "coordinates": [ [ [ -88.6370924, 46.0004403 ], [ -88.720759, 46.065667 ], [ -88.7358843, 46.1288228 ], [ -88.6051085, 46.145315 ], [ -88.5691592, 46.1452811 ], [ -88.5338932, 46.1311369 ], [ -88.49461, 46.112297 ], [ -88.5039883, 46.1010124 ], [ -88.5114557, 46.094754699999967 ], [ -88.6370924, 46.0004403 ] ] ] } },
{ "type": "Feature", "properties": { "OBJECTID": 2119, "ID": "0007849849", "NAME": "BELL MEMORIAL HOSPITAL", "ADDRESS": "901 LAKESHORE DRIVE", "CITY": "ISHPEMING", "STATE": "MI", "ZIP": "49849", "ZIP4": "NOT AVAILABLE", "TELEPHONE": "NOT AVAILABLE", "TYPE": "GENERAL ACUTE CARE", "STATUS": "OPEN", "POPULATION": 25, "COUNTY": "MARQUETTE", "COUNTYFIPS": "26103", "COUNTRY": "USA", "LATITUDE": 46.504928599000003, "LONGITUDE": -87.684811475999894, "NAICS_CODE": "622110", "NAICS_DESC": "GENERAL MEDICAL AND SURGICAL HOSPITALS", "SOURCE": "https://w2.lara.state.mi.us/VAL/License/Search", "SOURCEDATE": "2018-08-09T00:00:00.000Z", "VAL_METHOD": "IMAGERY", "VAL_DATE": "2014-02-10T00:00:00.000Z", "WEBSITE": "http://www.bellhospital.org", "STATE_ID": "NOT AVAILABLE", "ALT_NAME": "NOT AVAILABLE", "ST_FIPS": "26", "OWNER": "NON-PROFIT", "TTL_STAFF": -999, "BEDS": 25, "TRAUMA": "NOT AVAILABLE", "HELIPAD": "N" }, "geometry": { "type": "Polygon", "coordinates": [ [ [ -87.7411825, 46.4386548 ], [ -87.8396, 46.491982800000045 ], [ -87.706404, 46.531407 ], [ -87.5427478, 46.5326719 ], [ -87.5420428, 46.5319932 ], [ -87.5419026, 46.531843100000032 ], [ -87.580317, 46.492564 ], [ -87.693963, 46.436729 ], [ -87.7411825, 46.4386548 ] ] ] } },
{ "type": "Feature", "properties": { "OBJECTID": 2599, "ID": "0002954935", "NAME": "FOND DU LAC CTY ACUTE PSYCH UNIT", "ADDRESS": "459 E FIRST ST", "CITY": "FOND DU LAC", "STATE": "WI", "ZIP": "54935", "ZIP4": "NOT AVAILABLE", "TELEPHONE": "(920) 929-3500", "TYPE": "PSYCHIATRIC", "STATUS": "OPEN", "POPULATION": 25, "COUNTY": "FOND DU LAC", "COUNTYFIPS": "55039", "COUNTRY": "USA", "LATITUDE": 43.776399545000103, "LONGITUDE": -88.429233906999997, "NAICS_CODE": "622210", "NAICS_DESC": "PSYCHIATRIC AND SUBSTANCE ABUSE HOSPITALS", "SOURCE": "https://www.dhs.wisconsin.gov/guide/hospital.htm", "SOURCEDATE": "2018-08-13T00:00:00.000Z", "VAL_METHOD": "IMAGERY", "VAL_DATE": "2014-02-10T00:00:00.000Z", "WEBSITE": "http://www.fdlco.wi.gov", "STATE_ID": "231", "ALT_NAME": "NOT AVAILABLE", "ST_FIPS": "55", "OWNER": "GOVERNMENT - LOCAL", "TTL_STAFF": -999, "BEDS": 25, "TRAUMA": "NOT AVAILABLE", "HELIPAD": "Y" }, "geometry": { "type": "Polygon", "coordinates": [ [ [ -88.448373, 43.686941 ], [ -88.451624, 43.687961 ], [ -88.5171301, 43.7155683 ], [ -88.5381261, 43.734958300000038 ], [ -88.558643, 43.784628 ], [ -88.5625201, 43.84522 ], [ -88.463591, 43.85376 ], [ -88.3687565, 43.8482085 ], [ -88.3491458, 43.833828800000028 ], [ -88.2944906, 43.783005400000022 ], [ -88.313683, 43.754023 ], [ -88.3557963, 43.703801799999987 ], [ -88.363134, 43.695521799999966 ], [ -88.401593, 43.689300799999977 ], [ -88.448373, 43.686941 ] ] ] } },
{ "type": "Feature", "properties": { "OBJECTID": 2763, "ID": "0000153934", "NAME": "MOUNDVIEW MEM HSPTL AND CLINICS", "ADDRESS": "402 W LAKE ST", "CITY": "FRIENDSHIP", "STATE": "WI", "ZIP": "53934", "ZIP4": "NOT AVAILABLE", "TELEPHONE": "(608) 339-3331", "TYPE": "GENERAL ACUTE CARE", "STATUS": "OPEN", "POPULATION": 25, "COUNTY": "ADAMS", "COUNTYFIPS": "55001", "COUNTRY": "USA", "LATITUDE": 43.974553700999998, "LONGITUDE": -89.821349601999898, "NAICS_CODE": "622110", "NAICS_DESC": "GENERAL MEDICAL AND SURGICAL HOSPITALS", "SOURCE": "https://www.dhs.wisconsin.gov/guide/hospital.htm", "SOURCEDATE": "2018-08-13T00:00:00.000Z", "VAL_METHOD": "IMAGERY", "VAL_DATE": "2014-02-10T00:00:00.000Z", "WEBSITE": "http://www.moundview.org", "STATE_ID": "1014", "ALT_NAME": "NOT AVAILABLE", "ST_FIPS": "55", "OWNER": "NON-PROFIT", "TTL_STAFF": -999, "BEDS": 25, "TRAUMA": "LEVEL IV", "HELIPAD": "Y" }, "geometry": { "type": "Polygon", "coordinates": [ [ [ -89.8172838, 43.887294 ], [ -89.867922, 43.923037 ], [ -89.9254696, 43.971186900000042 ], [ -89.9250923, 43.971801 ], [ -89.918865, 43.981428 ], [ -89.8878708, 44.027225500000014 ], [ -89.80694, 44.077627 ], [ -89.727849, 44.025378 ], [ -89.703379, 43.981962 ], [ -89.725224, 43.951686 ], [ -89.797217, 43.900417 ], [ -89.8172838, 43.887294 ] ] ] } },
{ "type": "Feature", "properties": { "OBJECTID": 2764, "ID": "0000554305", "NAME": "BELLIN MEMORIAL HSPTL", "ADDRESS": "744 S WEBSTER AVE", "CITY": "GREEN BAY", "STATE": "WI", "ZIP": "54305", "ZIP4": "NOT AVAILABLE", "TELEPHONE": "(920) 433-3500", "TYPE": "GENERAL ACUTE CARE", "STATUS": "OPEN", "POPULATION": 244, "COUNTY": "BROWN", "COUNTYFIPS": "55009", "COUNTRY": "USA", "LATITUDE": 44.50224209, "LONGITUDE": -88.011285591000004, "NAICS_CODE": "622110", "NAICS_DESC": "GENERAL MEDICAL AND SURGICAL HOSPITALS", "SOURCE": "https://www.dhs.wisconsin.gov/guide/hospital.htm", "SOURCEDATE": "2018-08-13T00:00:00.000Z", "VAL_METHOD": "IMAGERY", "VAL_DATE": "2014-03-12T00:00:00.000Z", "WEBSITE": "http://www.bellin.org", "STATE_ID": "147", "ALT_NAME": "NOT AVAILABLE", "ST_FIPS": "55", "OWNER": "NON-PROFIT", "TTL_STAFF": -999, "BEDS": 244, "TRAUMA": "NOT AVAILABLE", "HELIPAD": "Y" }, "geometry": { "type": "Polygon", "coordinates": [ [ [ -88.056884, 44.418436 ], [ -88.075541, 44.420303 ], [ -88.0827111, 44.425283599999979 ], [ -88.087177, 44.430590799999969 ], [ -88.1341019, 44.496123400000023 ], [ -88.1375814, 44.51876619999998 ], [ -88.1306303, 44.561258499999973 ], [ -88.1305791, 44.561483200000026 ], [ -88.049128, 44.595589199999985 ], [ -87.8810956, 44.552892600000021 ], [ -87.866503, 44.538351 ], [ -87.8767715, 44.487746599999959 ], [ -87.9095595, 44.433659099999986 ], [ -87.9175582, 44.4295143 ], [ -87.9276148, 44.428094600000023 ], [ -88.056884, 44.418436 ] ] ] } },
{ "type": "Feature", "properties": { "OBJECTID": 2773, "ID": "0006054221", "NAME": "HOLY FAMILY MEMORIAL INC", "ADDRESS": "2300 WESTERN AVE, PO BOX 1450", "CITY": "MANITOWOC", "STATE": "WI", "ZIP": "54221", "ZIP4": "NOT AVAILABLE", "TELEPHONE": "(920) 320-2011", "TYPE": "GENERAL ACUTE CARE", "STATUS": "OPEN", "POPULATION": 167, "COUNTY": "MANITOWOC", "COUNTYFIPS": "55071", "COUNTRY": "USA", "LATITUDE": 44.094654658000103, "LONGITUDE": -87.676495777, "NAICS_CODE": "622110", "NAICS_DESC": "GENERAL MEDICAL AND SURGICAL HOSPITALS", "SOURCE": "https://www.dhs.wisconsin.gov/guide/hospital.htm", "SOURCEDATE": "2018-08-13T00:00:00.000Z", "VAL_METHOD": "IMAGERY", "VAL_DATE": "2014-03-12T00:00:00.000Z", "WEBSITE": "http://www.hfmhealth.org", "STATE_ID": "7", "ALT_NAME": "NOT AVAILABLE", "ST_FIPS": "55", "OWNER": "NON-PROFIT", "TTL_STAFF": -999, "BEDS": 167, "TRAUMA": "LEVEL III", "HELIPAD": "Y" }, "geometry": { "type": "Polygon", "coordinates": [ [ [ -87.7213292, 43.996212600000028 ], [ -87.741546, 44.008293 ], [ -87.77033, 44.030052800000028 ], [ -87.8077311, 44.0749633 ], [ -87.7962665, 44.10664369999995 ], [ -87.7584736, 44.1446 ], [ -87.696081, 44.19702 ], [ -87.681029, 44.207145 ], [ -87.5653852, 44.153664899999974 ], [ -87.5630107, 44.1487153 ], [ -87.566637, 44.144448 ], [ -87.692217, 44.008799399999965 ], [ -87.7213292, 43.996212600000028 ] ] ] } },
{ "type": "Feature", "properties": { "OBJECTID": 2777, "ID": "0009054153", "NAME": "BELLIN HEALTH OCONTO HOSPITAL", "ADDRESS": "820 ARBUTUS AVE, PO BOX 357", "CITY": "OCONTO", "STATE": "WI", "ZIP": "54153", "ZIP4": "NOT AVAILABLE", "TELEPHONE": "(920) 835-1100", "TYPE": "GENERAL ACUTE CARE", "STATUS": "OPEN", "POPULATION": 10, "COUNTY": "OCONTO", "COUNTYFIPS": "55083", "COUNTRY": "USA", "LATITUDE": 44.896380334000099, "LONGITUDE": -87.865554183, "NAICS_CODE": "622110", "NAICS_DESC": "GENERAL MEDICAL AND SURGICAL HOSPITALS", "SOURCE": "https://www.dhs.wisconsin.gov/guide/hospital.htm", "SOURCEDATE": "2018-08-13T00:00:00.000Z", "VAL_METHOD": "IMAGERY", "VAL_DATE": "2014-02-10T00:00:00.000Z", "WEBSITE": "http://www.bellin.org/facilities_amenities/oconto_hospital_medical_c enter/", "STATE_ID": "1061", "ALT_NAME": "NOT AVAILABLE", "ST_FIPS": "55", "OWNER": "NON-PROFIT", "TTL_STAFF": -999, "BEDS": 10, "TRAUMA": "NOT AVAILABLE", "HELIPAD": "Y" }, "geometry": { "type": "Polygon", "coordinates": [ [ [ -87.9441999, 44.816386399999985 ], [ -87.9446493, 44.816515699999954 ], [ -87.9449183, 44.816648 ], [ -87.968544, 44.8928015 ], [ -87.9483327, 44.935575100000023 ], [ -87.8633592, 44.997706599999958 ], [ -87.842671, 45.012662399999982 ], [ -87.8411005, 45.012420200000022 ], [ -87.8215948, 44.8990362 ], [ -87.864781, 44.846320800000044 ], [ -87.8745403, 44.840403 ], [ -87.9129811, 44.8172223 ], [ -87.9441999, 44.816386399999985 ] ] ] } },
{ "type": "Feature", "properties": { "OBJECTID": 2778, "ID": "0009354911", "NAME": "APPLETON MED CTR", "ADDRESS": "1818 N MEADE ST", "CITY": "APPLETON", "STATE": "WI", "ZIP": "54911", "ZIP4": "NOT AVAILABLE", "TELEPHONE": "(920) 731-4101", "TYPE": "GENERAL ACUTE CARE", "STATUS": "OPEN", "POPULATION": 160, "COUNTY": "OUTAGAMIE", "COUNTYFIPS": "55087", "COUNTRY": "USA", "LATITUDE": 44.278460659000103, "LONGITUDE": -88.393816298000004, "NAICS_CODE": "622110", "NAICS_DESC": "GENERAL MEDICAL AND SURGICAL HOSPITALS", "SOURCE": "https://www.dhs.wisconsin.gov/guide/hospital.htm", "SOURCEDATE": "2018-08-13T00:00:00.000Z", "VAL_METHOD": "IMAGERY", "VAL_DATE": "2014-03-12T00:00:00.000Z", "WEBSITE": "http://www.thedacare.org", "STATE_ID": "169", "ALT_NAME": "NOT AVAILABLE", "ST_FIPS": "55", "OWNER": "NON-PROFIT", "TTL_STAFF": -999, "BEDS": 160, "TRAUMA": "LEVEL III", "HELIPAD": "Y" }, "geometry": { "type": "Polygon", "coordinates": [ [ [ -88.4870494, 44.1958211 ], [ -88.4908216, 44.199897700000029 ], [ -88.5371088, 44.2730519 ], [ -88.5370848, 44.3004937 ], [ -88.415243, 44.364599 ], [ -88.374875, 44.357843 ], [ -88.345093, 44.3502 ], [ -88.2463964, 44.311974500000041 ], [ -88.241374, 44.308123 ], [ -88.243439, 44.29898 ], [ -88.270637, 44.258324299999984 ], [ -88.323145, 44.22137 ], [ -88.3433963, 44.207434300000024 ], [ -88.3634585, 44.204341099999972 ], [ -88.4532284, 44.1977763 ], [ -88.4870494, 44.1958211 ] ] ] } },
{ "type": "Feature", "properties": { "OBJECTID": 2785, "ID": "0012154166", "NAME": "SHAWANO MED CTR", "ADDRESS": "309 N BARTLETTE ST", "CITY": "SHAWANO", "STATE": "WI", "ZIP": "54166", "ZIP4": "NOT AVAILABLE", "TELEPHONE": "(715) 526-2111", "TYPE": "GENERAL ACUTE CARE", "STATUS": "CLOSED", "POPULATION": 25, "COUNTY": "SHAWANO", "COUNTYFIPS": "55115", "COUNTRY": "USA", "LATITUDE": 44.784427184000002, "LONGITUDE": -88.616407636999995, "NAICS_CODE": "622110", "NAICS_DESC": "GENERAL MEDICAL AND SURGICAL HOSPITALS", "SOURCE": "https://www.dhs.wisconsin.gov/guide/hospital.htm", "SOURCEDATE": "2016-02-01T00:00:00.000Z", "VAL_METHOD": "IMAGERY", "VAL_DATE": "2014-03-12T00:00:00.000Z", "WEBSITE": "http://www.shawanomed.org", "STATE_ID": "1051", "ALT_NAME": "NOT AVAILABLE", "ST_FIPS": "55", "OWNER": "NON-PROFIT", "TTL_STAFF": -999, "BEDS": 25, "TRAUMA": "NOT AVAILABLE", "HELIPAD": "N" }, "geometry": { "type": "Polygon", "coordinates": [ [ [ -88.6160724, 44.7074194 ], [ -88.677031, 44.7150822 ], [ -88.6979464, 44.729689099999952 ], [ -88.7765571, 44.796557900000046 ], [ -88.7765493, 44.796793400000013 ], [ -88.756436, 44.81127890000004 ], [ -88.6685729, 44.8473579 ], [ -88.6465716, 44.855505700000023 ], [ -88.6272293, 44.856448299999968 ], [ -88.5391412, 44.8315479 ], [ -88.5287819, 44.828481800000041 ], [ -88.5209131, 44.824843299999934 ], [ -88.4766063, 44.800413 ], [ -88.4966156, 44.758851899999982 ], [ -88.55606130000001, 44.721323700000021 ], [ -88.6061165, 44.707423 ], [ -88.6160724, 44.7074194 ] ] ] } },
{ "type": "Feature", "properties": { "OBJECTID": 2787, "ID": "0013054521", "NAME": "MINISTRY EAGLE RIVER MEM HSPTL", "ADDRESS": "201 HOSPITAL RD", "CITY": "EAGLE RIVER", "STATE": "WI", "ZIP": "54521", "ZIP4": "NOT AVAILABLE", "TELEPHONE": "(715) 356-8000", "TYPE": "GENERAL ACUTE CARE", "STATUS": "OPEN", "POPULATION": 25, "COUNTY": "VILAS", "COUNTYFIPS": "55125", "COUNTRY": "USA", "LATITUDE": 45.928064632000002, "LONGITUDE": -89.251661188999904, "NAICS_CODE": "622110", "NAICS_DESC": "GENERAL MEDICAL AND SURGICAL HOSPITALS", "SOURCE": "https://www.dhs.wisconsin.gov/guide/hospital.htm", "SOURCEDATE": "2018-08-13T00:00:00.000Z", "VAL_METHOD": "IMAGERY", "VAL_DATE": "2014-02-10T00:00:00.000Z", "WEBSITE": "http://www.ministryhealth.org", "STATE_ID": "1000", "ALT_NAME": "NOT AVAILABLE", "ST_FIPS": "55", "OWNER": "NON-PROFIT", "TTL_STAFF": -999, "BEDS": 25, "TRAUMA": "NOT AVAILABLE", "HELIPAD": "N" }, "geometry": { "type": "Polygon", "coordinates": [ [ [ -89.2907598, 45.860101700000037 ], [ -89.355004, 45.9119 ], [ -89.3604755, 45.9518827 ], [ -89.2591017, 46.026177900000064 ], [ -89.19192390000002, 45.986740300000037 ], [ -89.178317, 45.977752 ], [ -89.145487, 45.932707 ], [ -89.180451, 45.863908 ], [ -89.1883465, 45.856121700000045 ], [ -89.2907598, 45.860101700000037 ] ] ] } },
{ "type": "Feature", "properties": { "OBJECTID": 2888, "ID": "0017749854", "NAME": "SCHOOLCRAFT MEMORIAL HOSPITAL", "ADDRESS": "7870W US HWY 2", "CITY": "MANISTIQUE", "STATE": "MI", "ZIP": "49854", "ZIP4": "NOT AVAILABLE", "TELEPHONE": "NOT AVAILABLE", "TYPE": "CRITICAL ACCESS", "STATUS": "OPEN", "POPULATION": 12, "COUNTY": "SCHOOLCRAFT", "COUNTYFIPS": "26153", "COUNTRY": "USA", "LATITUDE": 45.946684003000001, "LONGITUDE": -86.276153851999894, "NAICS_CODE": "622110", "NAICS_DESC": "GENERAL MEDICAL AND SURGICAL HOSPITALS", "SOURCE": "https://w2.lara.state.mi.us/VAL/License/Search", "SOURCEDATE": "2018-08-09T00:00:00.000Z", "VAL_METHOD": "IMAGERY/OTHER", "VAL_DATE": "2016-08-08T00:00:00.000Z", "WEBSITE": "http://www.scmh.org/", "STATE_ID": "NOT AVAILABLE", "ALT_NAME": "NOT AVAILABLE", "ST_FIPS": "26", "OWNER": "NON-PROFIT", "TTL_STAFF": -999, "BEDS": 12, "TRAUMA": "NOT AVAILABLE", "HELIPAD": "N" }, "geometry": { "type": "Polygon", "coordinates": [ [ [ -86.3522943, 45.872513 ], [ -86.406391, 45.906394 ], [ -86.2823176, 46.012140600000031 ], [ -86.271917, 46.0195668 ], [ -86.147743, 45.968879 ], [ -86.3522943, 45.872513 ] ] ] } },
{ "type": "Feature", "properties": { "OBJECTID": 2906, "ID": "0004749938", "NAME": "ASPIRUS IRONWOOD HOSPITAL", "ADDRESS": "N10561 GRAND VIEW LANE", "CITY": "IRONWOOD", "STATE": "MI", "ZIP": "49938", "ZIP4": "NOT AVAILABLE", "TELEPHONE": "NOT AVAILABLE", "TYPE": "GENERAL ACUTE CARE", "STATUS": "OPEN", "POPULATION": 25, "COUNTY": "GOGEBIC", "COUNTYFIPS": "26053", "COUNTRY": "USA", "LATITUDE": 46.480745860000098, "LONGITUDE": -90.106733302999899, "NAICS_CODE": "622110", "NAICS_DESC": "GENERAL MEDICAL AND SURGICAL HOSPITALS", "SOURCE": "https://w2.lara.state.mi.us/VAL/License/Search", "SOURCEDATE": "2018-08-09T00:00:00.000Z", "VAL_METHOD": "IMAGERY", "VAL_DATE": "2014-03-12T00:00:00.000Z", "WEBSITE": "http://www.gvh.org", "STATE_ID": "NOT AVAILABLE", "ALT_NAME": "ASPIRUS GRAND VIEW HOSPITAL", "ST_FIPS": "26", "OWNER": "NON-PROFIT", "TTL_STAFF": -999, "BEDS": 25, "TRAUMA": "NOT AVAILABLE", "HELIPAD": "Y" }, "geometry": { "type": "Polygon", "coordinates": [ [ [ -90.135661, 46.40549 ], [ -90.2072123, 46.44038350000001 ], [ -90.2354674, 46.457632 ], [ -90.2560363, 46.4889922 ], [ -90.1665357, 46.52086 ], [ -90.0844438, 46.545402799999955 ], [ -90.0524694, 46.540070800000031 ], [ -89.9411002, 46.476666299999941 ], [ -90.0524302, 46.434186499999981 ], [ -90.1146361, 46.412603600000025 ], [ -90.135661, 46.40549 ] ] ] } },
{ "type": "Feature", "properties": { "OBJECTID": 2908, "ID": "0013549854", "NAME": "SCHOOLCRAFT MEMORIAL HOSPITAL", "ADDRESS": "500 MAIN ST", "CITY": "MANISTIQUE", "STATE": "MI", "ZIP": "49854", "ZIP4": "NOT AVAILABLE", "TELEPHONE": "NOT AVAILABLE", "TYPE": "GENERAL ACUTE CARE", "STATUS": "CLOSED", "POPULATION": 25, "COUNTY": "SCHOOLCRAFT", "COUNTYFIPS": "26153", "COUNTRY": "USA", "LATITUDE": 45.958262461000103, "LONGITUDE": -86.239522049000001, "NAICS_CODE": "622110", "NAICS_DESC": "GENERAL MEDICAL AND SURGICAL HOSPITALS", "SOURCE": "http://www.michigan.gov/lara/0,4601,7-154-35299_63294_63302---,00.html", "SOURCEDATE": "2013-05-01T00:00:00.000Z", "VAL_METHOD": "IMAGERY", "VAL_DATE": "2014-02-10T00:00:00.000Z", "WEBSITE": "http://www.scmh.org/", "STATE_ID": "NOT AVAILABLE", "ALT_NAME": "NOT AVAILABLE", "ST_FIPS": "26", "OWNER": "NON-PROFIT", "TTL_STAFF": -999, "BEDS": 25, "TRAUMA": "NOT AVAILABLE", "HELIPAD": "N" }, "geometry": { "type": "Polygon", "coordinates": [ [ [ -86.3275994, 45.885415900000034 ], [ -86.406391, 45.906394 ], [ -86.3015192, 46.012123899999985 ], [ -86.2824634, 46.026701100000032 ], [ -86.2627082, 46.04112139999998 ], [ -86.0743173, 45.990557 ], [ -86.1478754, 45.956733 ], [ -86.3275994, 45.885415900000034 ] ] ] } },
{ "type": "Feature", "properties": { "OBJECTID": 4187, "ID": "0151954487", "NAME": "MINISTRY SACRED HEART HOSPITAL", "ADDRESS": "401 W MOHAWK DR, SUITE 100", "CITY": "TOMAHAWK", "STATE": "WI", "ZIP": "54487", "ZIP4": "NOT AVAILABLE", "TELEPHONE": "(715) 453-7700", "TYPE": "CRITICAL ACCESS", "STATUS": "OPEN", "POPULATION": 18, "COUNTY": "LINCOLN", "COUNTYFIPS": "55069", "COUNTRY": "USA", "LATITUDE": 45.486480333000003, "LONGITUDE": -89.733975414, "NAICS_CODE": "622110", "NAICS_DESC": "GENERAL MEDICAL AND SURGICAL HOSPITALS", "SOURCE": "https://www.dhs.wisconsin.gov/guide/hospital.htm", "SOURCEDATE": "2018-08-13T00:00:00.000Z", "VAL_METHOD": "IMAGERY/OTHER", "VAL_DATE": "2015-03-27T00:00:00.000Z", "WEBSITE": "http://ministryhealth.org/shh/home.nws", "STATE_ID": "1016", "ALT_NAME": "NOT AVAILABLE", "ST_FIPS": "55", "OWNER": "NOT AVAILABLE", "TTL_STAFF": -999, "BEDS": 18, "TRAUMA": "LEVEL IV", "HELIPAD": "Y" }, "geometry": { "type": "Polygon", "coordinates": [ [ [ -89.6933958, 45.410126100000014 ], [ -89.734056, 45.417402 ], [ -89.811255, 45.45413 ], [ -89.814582, 45.500468 ], [ -89.765219, 45.550904 ], [ -89.718217, 45.565214 ], [ -89.6525237, 45.555919 ], [ -89.620427, 45.496007 ], [ -89.61972, 45.472855 ], [ -89.661245, 45.416985 ], [ -89.6717295, 45.411565399999958 ], [ -89.6933958, 45.410126100000014 ] ] ] } },
{ "type": "Feature", "properties": { "OBJECTID": 4224, "ID": "0003954935", "NAME": "ST AGNES HSPTL", "ADDRESS": "430 E DIVISON ST", "CITY": "FOND DU LAC", "STATE": "WI", "ZIP": "54935", "ZIP4": "NOT AVAILABLE", "TELEPHONE": "(920) 929-2300", "TYPE": "GENERAL ACUTE CARE", "STATUS": "OPEN", "POPULATION": 146, "COUNTY": "FOND DU LAC", "COUNTYFIPS": "55039", "COUNTRY": "USA", "LATITUDE": 43.777576791999998, "LONGITUDE": -88.430963645000006, "NAICS_CODE": "622110", "NAICS_DESC": "GENERAL MEDICAL AND SURGICAL HOSPITALS", "SOURCE": "https://www.dhs.wisconsin.gov/guide/hospital.htm", "SOURCEDATE": "2018-08-13T00:00:00.000Z", "VAL_METHOD": "IMAGERY", "VAL_DATE": "2014-02-10T00:00:00.000Z", "WEBSITE": "http://www.agnesian.com", "STATE_ID": "120", "ALT_NAME": "NOT AVAILABLE", "ST_FIPS": "55", "OWNER": "NON-PROFIT", "TTL_STAFF": -999, "BEDS": 146, "TRAUMA": "LEVEL III", "HELIPAD": "Y" }, "geometry": { "type": "Polygon", "coordinates": [ [ [ -88.448637, 43.689667 ], [ -88.4922897, 43.711454100000054 ], [ -88.5381261, 43.734958300000038 ], [ -88.563616, 43.784596 ], [ -88.5664633, 43.850511799999985 ], [ -88.4616431, 43.854676800000028 ], [ -88.3687565, 43.8482085 ], [ -88.346426, 43.8338423 ], [ -88.283946599999979, 43.782409900000026 ], [ -88.361342, 43.705103 ], [ -88.3634227, 43.7038955 ], [ -88.4363591, 43.689516799999979 ], [ -88.4386386, 43.689495799999982 ], [ -88.4435139, 43.689555700000042 ], [ -88.448637, 43.689667 ] ] ] } },
{ "type": "Feature", "properties": { "OBJECTID": 4645, "ID": "0000454311", "NAME": "AURORA BAYCARE MED CTR", "ADDRESS": "2845 GREENBRIER RD, PO BOX 8900", "CITY": "GREEN BAY", "STATE": "WI", "ZIP": "54311", "ZIP4": "NOT AVAILABLE", "TELEPHONE": "(920) 288-8000", "TYPE": "GENERAL ACUTE CARE", "STATUS": "OPEN", "POPULATION": 167, "COUNTY": "BROWN", "COUNTYFIPS": "55009", "COUNTRY": "USA", "LATITUDE": 44.474955904000097, "LONGITUDE": -87.940880858, "NAICS_CODE": "622110", "NAICS_DESC": "GENERAL MEDICAL AND SURGICAL HOSPITALS", "SOURCE": "https://www.dhs.wisconsin.gov/guide/hospital.htm", "SOURCEDATE": "2018-08-13T00:00:00.000Z", "VAL_METHOD": "IMAGERY", "VAL_DATE": "2014-01-15T00:00:00.000Z", "WEBSITE": "http://www.aurorabaycare.com", "STATE_ID": "301", "ALT_NAME": "NOT AVAILABLE", "ST_FIPS": "55", "OWNER": "PROPRIETARY", "TTL_STAFF": -999, "BEDS": 167, "TRAUMA": "LEVEL II", "HELIPAD": "Y" }, "geometry": { "type": "Polygon", "coordinates": [ [ [ -87.927746, 44.400619 ], [ -88.0209946, 44.424536499999959 ], [ -88.027275, 44.427714 ], [ -88.0668916, 44.479659 ], [ -88.0489412, 44.564412299999972 ], [ -87.878744, 44.567432 ], [ -87.8783709, 44.567435 ], [ -87.815997, 44.487543 ], [ -87.82613, 44.458506 ], [ -87.877351, 44.407609 ], [ -87.927746, 44.400619 ] ] ] } },
{ "type": "Feature", "properties": { "OBJECTID": 4697, "ID": "0015654985", "NAME": "WINNEBAGO MENTAL HLTH INSTITUTE", "ADDRESS": "1300 SOUTH DRIVE, PO BOX 9", "CITY": "WINNEBAGO", "STATE": "WI", "ZIP": "54985", "ZIP4": "NOT AVAILABLE", "TELEPHONE": "(920) 235-4910", "TYPE": "PSYCHIATRIC", "STATUS": "OPEN", "POPULATION": 330, "COUNTY": "WINNEBAGO", "COUNTYFIPS": "55139", "COUNTRY": "USA", "LATITUDE": 44.074749151, "LONGITUDE": -88.51823742000001, "NAICS_CODE": "622210", "NAICS_DESC": "PSYCHIATRIC AND SUBSTANCE ABUSE HOSPITALS", "SOURCE": "https://www.dhs.wisconsin.gov/guide/hospital.htm", "SOURCEDATE": "2018-08-13T00:00:00.000Z", "VAL_METHOD": "IMAGERY/OTHER", "VAL_DATE": "2014-02-10T00:00:00.000Z", "WEBSITE": "http://www.dhfs.state.wi.us/mh_winnebago", "STATE_ID": "250", "ALT_NAME": "WINNEBAGO STATE HOSPITAL", "ST_FIPS": "55", "OWNER": "GOVERNMENT - STATE", "TTL_STAFF": -999, "BEDS": 330, "TRAUMA": "NOT AVAILABLE", "HELIPAD": "N" }, "geometry": { "type": "Polygon", "coordinates": [ [ [ -88.537431700000013, 43.996954199999976 ], [ -88.552479, 44.004464 ], [ -88.5550118, 44.005743200000033 ], [ -88.5704274, 44.017982499999981 ], [ -88.5874262, 44.031899 ], [ -88.5876898, 44.032199100000042 ], [ -88.613618, 44.074504 ], [ -88.613499, 44.089576 ], [ -88.583829, 44.118915 ], [ -88.5438894, 44.143223699999936 ], [ -88.4849746, 44.161613200000019 ], [ -88.4597781, 44.147571400000032 ], [ -88.465752, 44.123992 ], [ -88.5161104, 44.016667799999986 ], [ -88.517856, 44.013789 ], [ -88.537012, 43.997006 ], [ -88.537431700000013, 43.996954199999976 ] ] ] } },
{ "type": "Feature", "properties": { "OBJECTID": 4915, "ID": "0000654301", "NAME": "BELLIN PSYCHIATRIC CTR", "ADDRESS": "301 E ST JOSEPH ST", "CITY": "GREEN BAY", "STATE": "WI", "ZIP": "54301", "ZIP4": "NOT AVAILABLE", "TELEPHONE": "(920) 433-3630", "TYPE": "PSYCHIATRIC", "STATUS": "OPEN", "POPULATION": 80, "COUNTY": "BROWN", "COUNTYFIPS": "55009", "COUNTRY": "USA", "LATITUDE": 44.484314673, "LONGITUDE": -88.016255098000002, "NAICS_CODE": "622210", "NAICS_DESC": "PSYCHIATRIC AND SUBSTANCE ABUSE HOSPITALS", "SOURCE": "https://www.dhs.wisconsin.gov/guide/hospital.htm", "SOURCEDATE": "2018-08-13T00:00:00.000Z", "VAL_METHOD": "IMAGERY", "VAL_DATE": "2014-02-10T00:00:00.000Z", "WEBSITE": "http://www.bellin.org", "STATE_ID": "263", "ALT_NAME": "NOT AVAILABLE", "ST_FIPS": "55", "OWNER": "NON-PROFIT", "TTL_STAFF": -999, "BEDS": 80, "TRAUMA": "NOT AVAILABLE", "HELIPAD": "N" }, "geometry": { "type": "Polygon", "coordinates": [ [ [ -88.084604, 44.408437 ], [ -88.1170798, 44.427656100000057 ], [ -88.1196171, 44.4302138 ], [ -88.1196648, 44.430266800000012 ], [ -88.151491, 44.4994744 ], [ -88.149912, 44.502243 ], [ -88.0963365, 44.5465477 ], [ -88.0489412, 44.564412299999972 ], [ -87.927137, 44.533348 ], [ -87.9059311, 44.526641 ], [ -87.8999398, 44.5241423 ], [ -87.9095595, 44.433659099999986 ], [ -87.917556, 44.421111 ], [ -88.054715, 44.4071 ], [ -88.084604, 44.408437 ] ] ] } },
{ "type": "Feature", "properties": { "OBJECTID": 4916, "ID": "0000754301", "NAME": "ST VINCENT HSPTL", "ADDRESS": "835 S VAN BUREN ST", "CITY": "GREEN BAY", "STATE": "WI", "ZIP": "54301", "ZIP4": "NOT AVAILABLE", "TELEPHONE": "(920) 433-0111", "TYPE": "GENERAL ACUTE CARE", "STATUS": "OPEN", "POPULATION": 517, "COUNTY": "BROWN", "COUNTYFIPS": "55009", "COUNTRY": "USA", "LATITUDE": 44.501130034, "LONGITUDE": -88.012344873999993, "NAICS_CODE": "622110", "NAICS_DESC": "GENERAL MEDICAL AND SURGICAL HOSPITALS", "SOURCE": "https://www.dhs.wisconsin.gov/guide/hospital.htm", "SOURCEDATE": "2018-08-13T00:00:00.000Z", "VAL_METHOD": "IMAGERY", "VAL_DATE": "2014-03-12T00:00:00.000Z", "WEBSITE": "www.stvincenthospital.org/?", "STATE_ID": "19", "ALT_NAME": "NOT AVAILABLE", "ST_FIPS": "55", "OWNER": "NON-PROFIT", "TTL_STAFF": -999, "BEDS": 517, "TRAUMA": "LEVEL II", "HELIPAD": "Y" }, "geometry": { "type": "Polygon", "coordinates": [ [ [ -88.0590336, 44.4140497 ], [ -88.079066, 44.415849 ], [ -88.1066802, 44.434182200000031 ], [ -88.1341019, 44.496123400000023 ], [ -88.1306303, 44.561258499999973 ], [ -88.1305791, 44.561483200000026 ], [ -88.049128, 44.595589199999985 ], [ -87.8804232, 44.544469700000029 ], [ -87.8729771, 44.538369100000018 ], [ -87.887201, 44.487615 ], [ -87.913225, 44.432881 ], [ -88.056896, 44.41403360000001 ], [ -88.0590336, 44.4140497 ] ] ] } },
{ "type": "Feature", "properties": { "OBJECTID": 4919, "ID": "0001654806", "NAME": "MEMORIAL MEDICAL CENTER - ASHLAND", "ADDRESS": "1615 MAPLE LN", "CITY": "ASHLAND", "STATE": "WI", "ZIP": "54806", "ZIP4": "NOT AVAILABLE", "TELEPHONE": "(715) 685-5500", "TYPE": "GENERAL ACUTE CARE", "STATUS": "OPEN", "POPULATION": 35, "COUNTY": "ASHLAND", "COUNTYFIPS": "55003", "COUNTRY": "USA", "LATITUDE": 46.568638465, "LONGITUDE": -90.888417223999994, "NAICS_CODE": "622110", "NAICS_DESC": "GENERAL MEDICAL AND SURGICAL HOSPITALS", "SOURCE": "https://www.dhs.wisconsin.gov/guide/hospital.htm", "SOURCEDATE": "2018-08-13T00:00:00.000Z", "VAL_METHOD": "IMAGERY", "VAL_DATE": "2014-03-12T00:00:00.000Z", "WEBSITE": "http://www.ashlandmmc.com", "STATE_ID": "1065", "ALT_NAME": "NOT AVAILABLE", "ST_FIPS": "55", "OWNER": "NON-PROFIT", "TTL_STAFF": -999, "BEDS": 35, "TRAUMA": "NOT AVAILABLE", "HELIPAD": "Y" }, "geometry": { "type": "Polygon", "coordinates": [ [ [ -90.9068514, 46.47190010000002 ], [ -90.955802800000015, 46.502113200000075 ], [ -90.9483005, 46.5311218 ], [ -90.9273294, 46.577808 ], [ -90.9248769, 46.5789755 ], [ -90.9167436, 46.58256169999995 ], [ -90.8826013, 46.596771600000011 ], [ -90.8761857, 46.599327299999963 ], [ -90.8479469, 46.609872900000049 ], [ -90.840751, 46.611296899999971 ], [ -90.8360141, 46.609558700000029 ], [ -90.8109046, 46.5737315 ], [ -90.8028078, 46.544695500000024 ], [ -90.840537, 46.479005 ], [ -90.9068514, 46.47190010000002 ] ] ] } },
{ "type": "Feature", "properties": { "OBJECTID": 4921, "ID": "0002354303", "NAME": "ST MARYS HSPTL MED CTR", "ADDRESS": "1726 SHAWANO AVE", "CITY": "GREEN BAY", "STATE": "WI", "ZIP": "54303", "ZIP4": "NOT AVAILABLE", "TELEPHONE": "(920) 498-4200", "TYPE": "GENERAL ACUTE CARE", "STATUS": "OPEN", "POPULATION": 158, "COUNTY": "BROWN", "COUNTYFIPS": "55009", "COUNTRY": "USA", "LATITUDE": 44.532762981000097, "LONGITUDE": -88.066090371000001, "NAICS_CODE": "622110", "NAICS_DESC": "GENERAL MEDICAL AND SURGICAL HOSPITALS", "SOURCE": "https://www.dhs.wisconsin.gov/guide/hospital.htm", "SOURCEDATE": "2018-08-13T00:00:00.000Z", "VAL_METHOD": "IMAGERY", "VAL_DATE": "2014-03-12T00:00:00.000Z", "WEBSITE": "www.stmgb.org/?", "STATE_ID": "18", "ALT_NAME": "NOT AVAILABLE", "ST_FIPS": "55", "OWNER": "NON-PROFIT", "TTL_STAFF": -999, "BEDS": 158, "TRAUMA": "LEVEL III", "HELIPAD": "Y" }, "geometry": { "type": "Polygon", "coordinates": [ [ [ -88.1243831, 44.423398 ], [ -88.1361487, 44.429992 ], [ -88.1904109, 44.500463400000015 ], [ -88.170239, 44.595152 ], [ -88.0488068, 44.677448 ], [ -87.931045, 44.524667 ], [ -87.9396256, 44.491427800000054 ], [ -87.9429646, 44.487198299999982 ], [ -87.9609204, 44.470341599999976 ], [ -87.998619, 44.457755700000078 ], [ -88.1076833, 44.4241494 ], [ -88.1243831, 44.423398 ] ] ] } },
{ "type": "Feature", "properties": { "OBJECTID": 4933, "ID": "0005754401", "NAME": "ASPIRUS WAUSAU HOSPITAL", "ADDRESS": "333 PINE RIDGE BLVD", "CITY": "WAUSAU", "STATE": "WI", "ZIP": "54401", "ZIP4": "NOT AVAILABLE", "TELEPHONE": "(715) 847-2121", "TYPE": "GENERAL ACUTE CARE", "STATUS": "OPEN", "POPULATION": 325, "COUNTY": "MARATHON", "COUNTYFIPS": "55073", "COUNTRY": "USA", "LATITUDE": 44.9658418510001, "LONGITUDE": -89.667890213000007, "NAICS_CODE": "622110", "NAICS_DESC": "GENERAL MEDICAL AND SURGICAL HOSPITALS", "SOURCE": "https://www.dhs.wisconsin.gov/guide/hospital.htm", "SOURCEDATE": "2018-08-13T00:00:00.000Z", "VAL_METHOD": "IMAGERY", "VAL_DATE": "2014-03-12T00:00:00.000Z", "WEBSITE": "http://www.aspirus.org", "STATE_ID": "188", "ALT_NAME": "NOT AVAILABLE", "ST_FIPS": "55", "OWNER": "NON-PROFIT", "TTL_STAFF": -999, "BEDS": 325, "TRAUMA": "LEVEL II", "HELIPAD": "Y" }, "geometry": { "type": "Polygon", "coordinates": [ [ [ -89.6532065, 44.845235 ], [ -89.851496, 44.94448 ], [ -89.79901, 44.987767 ], [ -89.6926339, 45.0611989 ], [ -89.615481, 45.040402 ], [ -89.5698769, 44.963652299999985 ], [ -89.565803, 44.894776 ], [ -89.5727944, 44.883887599999973 ], [ -89.6532065, 44.845235 ] ] ] } },
{ "type": "Feature", "properties": { "OBJECTID": 4934, "ID": "0006354476", "NAME": "ST CLARES HOSPITAL OF WESTON INC", "ADDRESS": "3400 MINISTRY PARKWAY", "CITY": "WESTON", "STATE": "WI", "ZIP": "54476", "ZIP4": "NOT AVAILABLE", "TELEPHONE": "(715) 393-3000", "TYPE": "GENERAL ACUTE CARE", "STATUS": "OPEN", "POPULATION": 99, "COUNTY": "MARATHON", "COUNTYFIPS": "55073", "COUNTRY": "USA", "LATITUDE": 44.890182310999997, "LONGITUDE": -89.580145987999998, "NAICS_CODE": "622110", "NAICS_DESC": "GENERAL MEDICAL AND SURGICAL HOSPITALS", "SOURCE": "https://www.dhs.wisconsin.gov/guide/hospital.htm", "SOURCEDATE": "2018-08-13T00:00:00.000Z", "VAL_METHOD": "IMAGERY", "VAL_DATE": "2014-02-10T00:00:00.000Z", "WEBSITE": "http://www.ministryhealth.org", "STATE_ID": "310", "ALT_NAME": "NOT AVAILABLE", "ST_FIPS": "55", "OWNER": "NON-PROFIT", "TTL_STAFF": -999, "BEDS": 99, "TRAUMA": "LEVEL III", "HELIPAD": "Y" }, "geometry": { "type": "Polygon", "coordinates": [ [ [ -89.6190053, 44.8055421 ], [ -89.6615272, 44.832774500000035 ], [ -89.700493, 44.90182 ], [ -89.701727, 44.933721 ], [ -89.70166, 44.934075 ], [ -89.6803368, 44.954042300000062 ], [ -89.666196, 44.963846 ], [ -89.6553709, 44.970215299999964 ], [ -89.573757, 44.981614 ], [ -89.553282, 44.970797 ], [ -89.3896918, 44.882731 ], [ -89.3897214, 44.88252520000006 ], [ -89.470169, 44.830037 ], [ -89.6190053, 44.8055421 ] ] ] } },
{ "type": "Feature", "properties": { "OBJECTID": 4935, "ID": "0006454143", "NAME": "BAY AREA MED CTR", "ADDRESS": "3100 SHORE DR", "CITY": "MARINETTE", "STATE": "WI", "ZIP": "54143", "ZIP4": "NOT AVAILABLE", "TELEPHONE": "(715) 735-6621", "TYPE": "GENERAL ACUTE CARE", "STATUS": "OPEN", "POPULATION": 99, "COUNTY": "MARINETTE", "COUNTYFIPS": "55075", "COUNTRY": "USA", "LATITUDE": 45.071968680000097, "LONGITUDE": -87.617696527000007, "NAICS_CODE": "622110", "NAICS_DESC": "GENERAL MEDICAL AND SURGICAL HOSPITALS", "SOURCE": "https://www.dhs.wisconsin.gov/guide/hospital.htm", "SOURCEDATE": "2018-08-13T00:00:00.000Z", "VAL_METHOD": "IMAGERY", "VAL_DATE": "2014-03-12T00:00:00.000Z", "WEBSITE": "http://www.bamc.org", "STATE_ID": "155", "ALT_NAME": "NOT AVAILABLE", "ST_FIPS": "55", "OWNER": "NON-PROFIT", "TTL_STAFF": -999, "BEDS": 99, "TRAUMA": "LEVEL III", "HELIPAD": "Y" }, "geometry": { "type": "Polygon", "coordinates": [ [ [ -87.636017, 44.991309 ], [ -87.7029144, 45.028298499999977 ], [ -87.7386799, 45.052811 ], [ -87.740194, 45.054965 ], [ -87.7230625, 45.100039500000044 ], [ -87.6907091, 45.138444199999967 ], [ -87.6541368, 45.1450867 ], [ -87.6118749, 45.151549299999985 ], [ -87.6018587, 45.1438173 ], [ -87.5877225, 45.086725300000019 ], [ -87.6282372, 44.9912615 ], [ -87.636017, 44.991309 ] ] ] } },
{ "type": "Feature", "properties": { "OBJECTID": 4943, "ID": "0009254501", "NAME": "MINISTRY ST MARYS HOSPITAL", "ADDRESS": "2251 NORTH SHORE DR", "CITY": "RHINELANDER", "STATE": "WI", "ZIP": "54501", "ZIP4": "NOT AVAILABLE", "TELEPHONE": "(715) 361-2000", "TYPE": "GENERAL ACUTE CARE", "STATUS": "OPEN", "POPULATION": 73, "COUNTY": "ONEIDA", "COUNTYFIPS": "55085", "COUNTRY": "USA", "LATITUDE": 45.639470412999998, "LONGITUDE": -89.374826588999994, "NAICS_CODE": "622110", "NAICS_DESC": "GENERAL MEDICAL AND SURGICAL HOSPITALS", "SOURCE": "https://www.dhs.wisconsin.gov/guide/hospital.htm", "SOURCEDATE": "2018-08-13T00:00:00.000Z", "VAL_METHOD": "IMAGERY/OTHER", "VAL_DATE": "2014-02-10T00:00:00.000Z", "WEBSITE": "http://www.ministryhealth.org", "STATE_ID": "138", "ALT_NAME": "NOT AVAILABLE", "ST_FIPS": "55", "OWNER": "NON-PROFIT", "TTL_STAFF": -999, "BEDS": 73, "TRAUMA": "LEVEL III", "HELIPAD": "Y" }, "geometry": { "type": "Polygon", "coordinates": [ [ [ -89.401942, 45.577894 ], [ -89.511616, 45.612371 ], [ -89.518052, 45.617404 ], [ -89.502143, 45.645415 ], [ -89.466831, 45.680106 ], [ -89.33962, 45.731594 ], [ -89.261964, 45.662451 ], [ -89.275005, 45.587454 ], [ -89.354877, 45.577916 ], [ -89.397344, 45.577765 ], [ -89.401942, 45.577894 ] ] ] } },
{ "type": "Feature", "properties": { "OBJECTID": 4944, "ID": "0009454915", "NAME": "ST. ELIZABETH HOSPITAL", "ADDRESS": "1506 S ONEIDA ST", "CITY": "APPLETON", "STATE": "WI", "ZIP": "54915", "ZIP4": "NOT AVAILABLE", "TELEPHONE": "(920) 738-2000", "TYPE": "GENERAL ACUTE CARE", "STATUS": "OPEN", "POPULATION": 332, "COUNTY": "OUTAGAMIE", "COUNTYFIPS": "55087", "COUNTRY": "USA", "LATITUDE": 44.248251239000098, "LONGITUDE": -88.402509675000005, "NAICS_CODE": "622110", "NAICS_DESC": "GENERAL MEDICAL AND SURGICAL HOSPITALS", "SOURCE": "https://www.dhs.wisconsin.gov/guide/hospital.htm", "SOURCEDATE": "2018-08-13T00:00:00.000Z", "VAL_METHOD": "IMAGERY", "VAL_DATE": "2014-02-10T00:00:00.000Z", "WEBSITE": "http://www.affinityhealth.org", "STATE_ID": "88", "ALT_NAME": "NOT AVAILABLE", "ST_FIPS": "55", "OWNER": "NON-PROFIT", "TTL_STAFF": -999, "BEDS": 332, "TRAUMA": "LEVEL III", "HELIPAD": "Y" }, "geometry": { "type": "Polygon", "coordinates": [ [ [ -88.4872425, 44.14988630000002 ], [ -88.5110658, 44.168098200000017 ], [ -88.550728, 44.2178937 ], [ -88.544733, 44.23309 ], [ -88.526969, 44.274136 ], [ -88.5164942, 44.290401799999984 ], [ -88.4153, 44.343631 ], [ -88.395148, 44.336832 ], [ -88.312864, 44.308359 ], [ -88.302838, 44.301073 ], [ -88.2688819, 44.259178700000028 ], [ -88.320666, 44.19938939999998 ], [ -88.3237939, 44.1984091 ], [ -88.4872425, 44.14988630000002 ] ] ] } },
{ "type": "Feature", "properties": { "OBJECTID": 4949, "ID": "0014754981", "NAME": "RIVERSIDE MEDICAL CENTER", "ADDRESS": "800 RIVERSIDE DRIVE", "CITY": "WAUPACA", "STATE": "WI", "ZIP": "54981", "ZIP4": "NOT AVAILABLE", "TELEPHONE": "(715) 258-1000", "TYPE": "GENERAL ACUTE CARE", "STATUS": "OPEN", "POPULATION": 25, "COUNTY": "WAUPACA", "COUNTYFIPS": "55135", "COUNTRY": "USA", "LATITUDE": 44.345276755999997, "LONGITUDE": -89.076616239000003, "NAICS_CODE": "622110", "NAICS_DESC": "GENERAL MEDICAL AND SURGICAL HOSPITALS", "SOURCE": "https://www.dhs.wisconsin.gov/guide/hospital.htm", "SOURCEDATE": "2018-08-13T00:00:00.000Z", "VAL_METHOD": "IMAGERY", "VAL_DATE": "2014-02-10T00:00:00.000Z", "WEBSITE": "http://www.riversidemedical.org", "STATE_ID": "1038", "ALT_NAME": "NOT AVAILABLE", "ST_FIPS": "55", "OWNER": "NON-PROFIT", "TTL_STAFF": -999, "BEDS": 25, "TRAUMA": "NOT AVAILABLE", "HELIPAD": "Y" }, "geometry": { "type": "Polygon", "coordinates": [ [ [ -89.098259, 44.257562 ], [ -89.164397, 44.292008 ], [ -89.1862643, 44.314600699999986 ], [ -89.205968, 44.352401 ], [ -89.22377, 44.406565 ], [ -89.11751, 44.424641 ], [ -89.091507, 44.428279 ], [ -89.0201502, 44.409813200000031 ], [ -89.011728, 44.406324 ], [ -88.951849, 44.380395 ], [ -88.9177805, 44.320591 ], [ -88.9178361, 44.320087 ], [ -88.921517, 44.300521 ], [ -88.9265621, 44.289674799999972 ], [ -88.931570800000017, 44.282472199999972 ], [ -89.054699, 44.262868 ], [ -89.098259, 44.257562 ] ] ] } },
{ "type": "Feature", "properties": { "OBJECTID": 4951, "ID": "0150654154", "NAME": "HSHS ST CLARE MEMORIAL HOSPITAL", "ADDRESS": "855 S MAIN ST", "CITY": "OCONTO FALLS", "STATE": "WI", "ZIP": "54154", "ZIP4": "NOT AVAILABLE", "TELEPHONE": "(920) 846-3444", "TYPE": "CRITICAL ACCESS", "STATUS": "OPEN", "POPULATION": 25, "COUNTY": "OCONTO", "COUNTYFIPS": "55083", "COUNTRY": "USA", "LATITUDE": 44.865334546, "LONGITUDE": -88.127693442999899, "NAICS_CODE": "622110", "NAICS_DESC": "GENERAL MEDICAL AND SURGICAL HOSPITALS", "SOURCE": "https://www.dhs.wisconsin.gov/guide/hospital.htm", "SOURCEDATE": "2018-08-13T00:00:00.000Z", "VAL_METHOD": "IMAGERY/OTHER", "VAL_DATE": "2015-03-27T00:00:00.000Z", "WEBSITE": "http://www.stclarememorial.org/", "STATE_ID": "1012", "ALT_NAME": "COMMUNITY MEMORIAL HOSPITAL", "ST_FIPS": "55", "OWNER": "NON-PROFIT", "TTL_STAFF": -999, "BEDS": 25, "TRAUMA": "LEVEL III", "HELIPAD": "N" }, "geometry": { "type": "Polygon", "coordinates": [ [ [ -88.168704199999979, 44.822199700000048 ], [ -88.1885771, 44.829897 ], [ -88.2181435, 44.852030199999973 ], [ -88.2487095, 44.8961258 ], [ -88.1645808, 44.947453299999971 ], [ -88.1243108, 44.936673699999986 ], [ -88.0288982, 44.894189800000028 ], [ -88.01621040000002, 44.8568918 ], [ -88.049096899999981, 44.820849700000032 ], [ -88.049419, 44.8208508 ], [ -88.1621216, 44.82198630000002 ], [ -88.168704199999979, 44.822199700000048 ] ] ] } },
{ "type": "Feature", "properties": { "OBJECTID": 30, "ID": "0002054311", "NAME": "BROWN CTY COMMUNITY TREATMENT CENTER", "ADDRESS": "3150 GERSHWIN DRIVE", "CITY": "GREEN BAY", "STATE": "WI", "ZIP": "54311", "ZIP4": "NOT AVAILABLE", "TELEPHONE": "(920) 391-4700", "TYPE": "PSYCHIATRIC", "STATUS": "OPEN", "POPULATION": 16, "COUNTY": "BROWN", "COUNTYFIPS": "55009", "COUNTRY": "USA", "LATITUDE": 44.522712261000002, "LONGITUDE": -87.924827084, "NAICS_CODE": "622210", "NAICS_DESC": "PSYCHIATRIC AND SUBSTANCE ABUSE HOSPITALS", "SOURCE": "https://www.dhs.wisconsin.gov/guide/hospital.htm", "SOURCEDATE": "2018-08-13T00:00:00.000Z", "VAL_METHOD": "IMAGERY/OTHER", "VAL_DATE": "2014-02-10T00:00:00.000Z", "WEBSITE": "http://www.co.brown.wi.us/", "STATE_ID": "213", "ALT_NAME": "NOT AVAILABLE", "ST_FIPS": "55", "OWNER": "GOVERNMENT - LOCAL", "TTL_STAFF": -999, "BEDS": 16, "TRAUMA": "NOT AVAILABLE", "HELIPAD": "N" }, "geometry": { "type": "Polygon", "coordinates": [ [ [ -87.922662, 44.43612 ], [ -87.9965853, 44.450655300000015 ], [ -87.9968812, 44.450808 ], [ -88.03254, 44.480433 ], [ -88.0867609, 44.54259380000002 ], [ -88.049128, 44.595589199999985 ], [ -87.868435, 44.606538 ], [ -87.8451789, 44.5966333 ], [ -87.825281, 44.574793 ], [ -87.8056032, 44.552629 ], [ -87.805557, 44.545343 ], [ -87.805577, 44.538025 ], [ -87.815894, 44.501725 ], [ -87.866855, 44.4641 ], [ -87.922662, 44.43612 ] ] ] } },
{ "type": "Feature", "properties": { "OBJECTID": 114, "ID": "0002154235", "NAME": "MINISTRY DOOR COUNTY MEDICAL CENTER", "ADDRESS": "323 SOUTH 18TH AVENUE", "CITY": "STURGEON BAY", "STATE": "WI", "ZIP": "54235", "ZIP4": "NOT AVAILABLE", "TELEPHONE": "(920) 743-5566", "TYPE": "GENERAL ACUTE CARE", "STATUS": "OPEN", "POPULATION": 25, "COUNTY": "DOOR", "COUNTYFIPS": "55029", "COUNTRY": "USA", "LATITUDE": 44.832702698, "LONGITUDE": -87.353335533999896, "NAICS_CODE": "622110", "NAICS_DESC": "GENERAL MEDICAL AND SURGICAL HOSPITALS", "SOURCE": "https://www.dhs.wisconsin.gov/guide/hospital.htm", "SOURCEDATE": "2018-08-13T00:00:00.000Z", "VAL_METHOD": "IMAGERY", "VAL_DATE": "2014-03-12T00:00:00.000Z", "WEBSITE": "http://www.ministryhealth.org", "STATE_ID": "1064", "ALT_NAME": "NOT AVAILABLE", "ST_FIPS": "55", "OWNER": "NON-PROFIT", "TTL_STAFF": -999, "BEDS": 25, "TRAUMA": "LEVEL IV", "HELIPAD": "Y" }, "geometry": { "type": "Polygon", "coordinates": [ [ [ -87.3974386, 44.748109699999986 ], [ -87.4778032, 44.786573899999979 ], [ -87.457865, 44.835413 ], [ -87.393361, 44.898442 ], [ -87.3924527, 44.899125800000014 ], [ -87.33747, 44.937054 ], [ -87.266274, 44.887137 ], [ -87.255713, 44.852916 ], [ -87.2819818, 44.8181445 ], [ -87.289567, 44.812511 ], [ -87.356524, 44.765724 ], [ -87.3974386, 44.748109699999986 ] ] ] } },
{ "type": "Feature", "properties": { "OBJECTID": 115, "ID": "0002254303", "NAME": "ST JOSEPH HOSPITAL DBA LIBERTAS", "ADDRESS": "1701 DOUSMAN ST", "CITY": "GREEN BAY", "STATE": "WI", "ZIP": "54303", "ZIP4": "NOT AVAILABLE", "TELEPHONE": "(920) 498-8600", "TYPE": "GENERAL ACUTE CARE", "STATUS": "OPEN", "POPULATION": 24, "COUNTY": "BROWN", "COUNTYFIPS": "55009", "COUNTRY": "USA", "LATITUDE": 44.533820247999998, "LONGITUDE": -88.063583713, "NAICS_CODE": "622110", "NAICS_DESC": "GENERAL MEDICAL AND SURGICAL HOSPITALS", "SOURCE": "https://www.dhs.wisconsin.gov/guide/hospital.htm", "SOURCEDATE": "2018-08-13T00:00:00.000Z", "VAL_METHOD": "IMAGERY", "VAL_DATE": "2014-03-13T00:00:00.000Z", "WEBSITE": "www.libertascenter.org/?", "STATE_ID": "259", "ALT_NAME": "NOT AVAILABLE", "ST_FIPS": "55", "OWNER": "NON-PROFIT", "TTL_STAFF": -999, "BEDS": 24, "TRAUMA": "NOT AVAILABLE", "HELIPAD": "N" }, "geometry": { "type": "Polygon", "coordinates": [ [ [ -88.1170798, 44.427656100000057 ], [ -88.1193939, 44.427802599999971 ], [ -88.1247043, 44.4300975 ], [ -88.1820231, 44.497889600000022 ], [ -88.1821794, 44.498547499999979 ], [ -88.1702408, 44.5907567 ], [ -88.0700708, 44.63838530000001 ], [ -88.034412, 44.6447094 ], [ -87.931045, 44.524667 ], [ -87.936253, 44.511598 ], [ -87.947973, 44.486185 ], [ -87.961839, 44.4703597 ], [ -87.9628277, 44.4700218 ], [ -87.9631025, 44.469934500000065 ], [ -88.071289, 44.43877 ], [ -88.1067502, 44.428830500000025 ], [ -88.1170798, 44.427656100000057 ] ] ] } },
{ "type": "Feature", "properties": { "OBJECTID": 120, "ID": "0005854452", "NAME": "GOOD SAMARITAN HLTH CTR", "ADDRESS": "601 S CENTER AVE", "CITY": "MERRILL", "STATE": "WI", "ZIP": "54452", "ZIP4": "NOT AVAILABLE", "TELEPHONE": "(715) 536-5511", "TYPE": "GENERAL ACUTE CARE", "STATUS": "OPEN", "POPULATION": 25, "COUNTY": "LINCOLN", "COUNTYFIPS": "55069", "COUNTRY": "USA", "LATITUDE": 45.175632537000098, "LONGITUDE": -89.681831275999997, "NAICS_CODE": "622110", "NAICS_DESC": "GENERAL MEDICAL AND SURGICAL HOSPITALS", "SOURCE": "https://www.dhs.wisconsin.gov/guide/hospital.htm", "SOURCEDATE": "2018-08-13T00:00:00.000Z", "VAL_METHOD": "IMAGERY", "VAL_DATE": "2014-02-10T00:00:00.000Z", "WEBSITE": "http://www.ministryhealth.org", "STATE_ID": "1043", "ALT_NAME": "NOT AVAILABLE", "ST_FIPS": "55", "OWNER": "NON-PROFIT", "TTL_STAFF": -999, "BEDS": 25, "TRAUMA": "LEVEL IV", "HELIPAD": "Y" }, "geometry": { "type": "Polygon", "coordinates": [ [ [ -89.672201, 45.104567 ], [ -89.7268808, 45.112312400000029 ], [ -89.796754, 45.148882 ], [ -89.8173487, 45.17810120000005 ], [ -89.7917433, 45.225143199999962 ], [ -89.789789, 45.2275244 ], [ -89.704572, 45.26463 ], [ -89.683785, 45.264745 ], [ -89.662012, 45.264757 ], [ -89.598251, 45.221035 ], [ -89.5380358, 45.17759070000001 ], [ -89.590446, 45.134281 ], [ -89.6514961, 45.103611100000016 ], [ -89.672201, 45.104567 ] ] ] } },
{ "type": "Feature", "properties": { "OBJECTID": 128, "ID": "0010554552", "NAME": "FLAMBEAU HSPTL", "ADDRESS": "98 SHERRY AVE", "CITY": "PARK FALLS", "STATE": "WI", "ZIP": "54552", "ZIP4": "NOT AVAILABLE", "TELEPHONE": "(715) 762-7500", "TYPE": "GENERAL ACUTE CARE", "STATUS": "OPEN", "POPULATION": 25, "COUNTY": "PRICE", "COUNTYFIPS": "55099", "COUNTRY": "USA", "LATITUDE": 45.930315355000097, "LONGITUDE": -90.441466465000005, "NAICS_CODE": "622110", "NAICS_DESC": "GENERAL MEDICAL AND SURGICAL HOSPITALS", "SOURCE": "https://www.dhs.wisconsin.gov/guide/hospital.htm", "SOURCEDATE": "2018-08-13T00:00:00.000Z", "VAL_METHOD": "IMAGERY", "VAL_DATE": "2014-02-10T00:00:00.000Z", "WEBSITE": "http://www.flambeauhospital.org", "STATE_ID": "1028", "ALT_NAME": "NOT AVAILABLE", "ST_FIPS": "55", "OWNER": "NON-PROFIT", "TTL_STAFF": -999, "BEDS": 25, "TRAUMA": "LEVEL IV", "HELIPAD": "Y" }, "geometry": { "type": "Polygon", "coordinates": [ [ [ -90.421213721071922, 45.863879048632107 ], [ -90.438788972174223, 45.866217070637532 ], [ -90.485952286441147, 45.88013133136873 ], [ -90.532009564152531, 45.924700293557166 ], [ -90.531506118068918, 45.939163796023081 ], [ -90.514522501032602, 45.964704079237393 ], [ -90.500927317583901, 45.981700763657528 ], [ -90.498814408912324, 45.982367960664483 ], [ -90.447464812789221, 45.982643281746633 ], [ -90.393292, 45.974361 ], [ -90.3313335, 45.957918199999966 ], [ -90.3059168, 45.946082800000056 ], [ -90.3864883, 45.8793501 ], [ -90.421213721071922, 45.863879048632107 ] ] ] } },
{ "type": "Feature", "properties": { "OBJECTID": 132, "ID": "0012353083", "NAME": "AURORA SHEBOYGAN MEM MED CTR", "ADDRESS": "2629 N 7TH ST", "CITY": "SHEBOYGAN", "STATE": "WI", "ZIP": "53083", "ZIP4": "NOT AVAILABLE", "TELEPHONE": "(920) 451-5000", "TYPE": "GENERAL ACUTE CARE", "STATUS": "OPEN", "POPULATION": 185, "COUNTY": "SHEBOYGAN", "COUNTYFIPS": "55117", "COUNTRY": "USA", "LATITUDE": 43.773386846000101, "LONGITUDE": -87.709995071999998, "NAICS_CODE": "622110", "NAICS_DESC": "GENERAL MEDICAL AND SURGICAL HOSPITALS", "SOURCE": "https://www.dhs.wisconsin.gov/guide/hospital.htm", "SOURCEDATE": "2018-08-13T00:00:00.000Z", "VAL_METHOD": "IMAGERY", "VAL_DATE": "2014-03-12T00:00:00.000Z", "WEBSITE": "http://www.aurorahealthcare.org", "STATE_ID": "38", "ALT_NAME": "NOT AVAILABLE", "ST_FIPS": "55", "OWNER": "NON-PROFIT", "TTL_STAFF": -999, "BEDS": 185, "TRAUMA": "LEVEL IV", "HELIPAD": "Y" }, "geometry": { "type": "Polygon", "coordinates": [ [ [ -87.753443, 43.683411 ], [ -87.861231, 43.753504 ], [ -87.818055, 43.833816 ], [ -87.781032, 43.848519 ], [ -87.740994, 43.856399 ], [ -87.6989024, 43.764667900000035 ], [ -87.703281, 43.701669 ], [ -87.704563, 43.693083 ], [ -87.708345, 43.690751 ], [ -87.7208123, 43.6870288 ], [ -87.753443, 43.683411 ] ] ] } },
{ "type": "Feature", "properties": { "OBJECTID": 133, "ID": "0012453081", "NAME": "ST NICHOLAS HOSPITAL", "ADDRESS": "3100 SUPERIOR AVE", "CITY": "SHEBOYGAN", "STATE": "WI", "ZIP": "53081", "ZIP4": "NOT AVAILABLE", "TELEPHONE": "(920) 459-8300", "TYPE": "GENERAL ACUTE CARE", "STATUS": "OPEN", "POPULATION": 185, "COUNTY": "SHEBOYGAN", "COUNTYFIPS": "55117", "COUNTRY": "USA", "LATITUDE": 43.762347901000098, "LONGITUDE": -87.747537955, "NAICS_CODE": "622110", "NAICS_DESC": "GENERAL MEDICAL AND SURGICAL HOSPITALS", "SOURCE": "https://www.dhs.wisconsin.gov/guide/hospital.htm", "SOURCEDATE": "2018-08-13T00:00:00.000Z", "VAL_METHOD": "IMAGERY", "VAL_DATE": "2014-03-12T00:00:00.000Z", "WEBSITE": "http://www.stnicholashospital.org", "STATE_ID": "37", "ALT_NAME": "NOT AVAILABLE", "ST_FIPS": "55", "OWNER": "NON-PROFIT", "TTL_STAFF": -999, "BEDS": 185, "TRAUMA": "LEVEL IV", "HELIPAD": "Y" }, "geometry": { "type": "Polygon", "coordinates": [ [ [ -87.766243, 43.659244 ], [ -87.900989, 43.731915 ], [ -87.941491, 43.758031 ], [ -87.826767, 43.840875 ], [ -87.8219022, 43.843564100000016 ], [ -87.760841, 43.855899 ], [ -87.740799, 43.834609 ], [ -87.7286107, 43.8166954 ], [ -87.6989024, 43.764667900000035 ], [ -87.703281, 43.701669 ], [ -87.704604, 43.696217 ], [ -87.7292776, 43.67286 ], [ -87.766243, 43.659244 ] ] ] } },
{ "type": "Feature", "properties": { "OBJECTID": 137, "ID": "0015154904", "NAME": "AURORA MED CTR OSHKOSH", "ADDRESS": "855 N WESTHAVEN DRIVE", "CITY": "OSHKOSH", "STATE": "WI", "ZIP": "54904", "ZIP4": "NOT AVAILABLE", "TELEPHONE": "(920) 456-6000", "TYPE": "GENERAL ACUTE CARE", "STATUS": "OPEN", "POPULATION": 84, "COUNTY": "WINNEBAGO", "COUNTYFIPS": "55139", "COUNTRY": "USA", "LATITUDE": 44.027746777000097, "LONGITUDE": -88.595218368000005, "NAICS_CODE": "622110", "NAICS_DESC": "GENERAL MEDICAL AND SURGICAL HOSPITALS", "SOURCE": "https://www.dhs.wisconsin.gov/guide/hospital.htm", "SOURCEDATE": "2018-08-13T00:00:00.000Z", "VAL_METHOD": "IMAGERY", "VAL_DATE": "2014-02-10T00:00:00.000Z", "WEBSITE": "http://www.aurorahealthcare.com", "STATE_ID": "307", "ALT_NAME": "NOT AVAILABLE", "ST_FIPS": "55", "OWNER": "NON-PROFIT", "TTL_STAFF": -999, "BEDS": 84, "TRAUMA": "LEVEL III", "HELIPAD": "Y" }, "geometry": { "type": "Polygon", "coordinates": [ [ [ -88.606372, 43.919834 ], [ -88.648057, 43.955183 ], [ -88.711878, 44.01866 ], [ -88.733322, 44.040059 ], [ -88.667031, 44.112199 ], [ -88.6530444, 44.1158526 ], [ -88.5438363, 44.138934399999989 ], [ -88.5031745, 44.112537199999977 ], [ -88.510342, 44.039454 ], [ -88.510678200000015, 44.0372059 ], [ -88.5253892, 43.96615140000003 ], [ -88.543584, 43.951762 ], [ -88.563423, 43.93735 ], [ -88.582913, 43.923216 ], [ -88.603624, 43.919831 ], [ -88.606372, 43.919834 ] ] ] } },
{ "type": "Feature", "properties": { "OBJECTID": 242, "ID": "0007349868", "NAME": "HELEN NEWBERRY JOY HOSPITAL", "ADDRESS": "502 W HARRIE ST", "CITY": "NEWBERRY", "STATE": "MI", "ZIP": "49868", "ZIP4": "NOT AVAILABLE", "TELEPHONE": "NOT AVAILABLE", "TYPE": "CRITICAL ACCESS", "STATUS": "OPEN", "POPULATION": 25, "COUNTY": "LUCE", "COUNTYFIPS": "26095", "COUNTRY": "USA", "LATITUDE": 46.353180092000102, "LONGITUDE": -85.515653737999997, "NAICS_CODE": "622110", "NAICS_DESC": "GENERAL MEDICAL AND SURGICAL HOSPITALS", "SOURCE": "https://w2.lara.state.mi.us/VAL/License/Search", "SOURCEDATE": "2018-08-09T00:00:00.000Z", "VAL_METHOD": "IMAGERY", "VAL_DATE": "2014-01-27T00:00:00.000Z", "WEBSITE": "http://www.hnjh.org", "STATE_ID": "NOT AVAILABLE", "ALT_NAME": "NOT AVAILABLE", "ST_FIPS": "26", "OWNER": "GOVERNMENT - LOCAL", "TTL_STAFF": -999, "BEDS": 25, "TRAUMA": "NOT AVAILABLE", "HELIPAD": "N" }, "geometry": { "type": "Polygon", "coordinates": [ [ [ -85.5723579, 46.288864600000011 ], [ -85.593501, 46.310539 ], [ -85.5820244, 46.350581499999976 ], [ -85.5582679, 46.418385499999985 ], [ -85.499829, 46.437746 ], [ -85.4840702, 46.439338700000029 ], [ -85.4802433, 46.439103200000027 ], [ -85.420661, 46.372071 ], [ -85.431736, 46.296448 ], [ -85.4368242, 46.292749900000011 ], [ -85.5700489, 46.2888569 ], [ -85.5723579, 46.288864600000011 ] ] ] } },
{ "type": "Feature", "properties": { "OBJECTID": 243, "ID": "0001549862", "NAME": "MUNISING MEMORIAL HOSPITAL", "ADDRESS": "1500 SAND POINT RD", "CITY": "MUNISING", "STATE": "MI", "ZIP": "49862", "ZIP4": "NOT AVAILABLE", "TELEPHONE": "NOT AVAILABLE", "TYPE": "CRITICAL ACCESS", "STATUS": "OPEN", "POPULATION": 11, "COUNTY": "ALGER", "COUNTYFIPS": "26003", "COUNTRY": "USA", "LATITUDE": 46.4252710700001, "LONGITUDE": -86.625185297000002, "NAICS_CODE": "622110", "NAICS_DESC": "GENERAL MEDICAL AND SURGICAL HOSPITALS", "SOURCE": "https://w2.lara.state.mi.us/VAL/License/Search", "SOURCEDATE": "2018-08-09T00:00:00.000Z", "VAL_METHOD": "IMAGERY", "VAL_DATE": "2014-02-10T00:00:00.000Z", "WEBSITE": "http://www.munisingmemorial.org", "STATE_ID": "NOT AVAILABLE", "ALT_NAME": "NOT AVAILABLE", "ST_FIPS": "26", "OWNER": "NON-PROFIT", "TTL_STAFF": -999, "BEDS": 11, "TRAUMA": "NOT AVAILABLE", "HELIPAD": "N" }, "geometry": { "type": "Polygon", "coordinates": [ [ [ -86.61665, 46.333309 ], [ -86.698585, 46.378162 ], [ -86.6831661, 46.438709 ], [ -86.6649781, 46.4450559 ], [ -86.606387899999987, 46.452904399999944 ], [ -86.568554, 46.452709 ], [ -86.5530302, 46.448722799999963 ], [ -86.5319251, 46.4325873 ], [ -86.5319372, 46.41961 ], [ -86.533076100000017, 46.374897300000057 ], [ -86.5351374, 46.367265400000036 ], [ -86.536843, 46.363192 ], [ -86.6154393, 46.333288500000016 ], [ -86.61665, 46.333309 ] ] ] } },
{ "type": "Feature", "properties": { "OBJECTID": 7571, "ID": "0006254403", "NAME": "NORTH CENTRAL HEALTH CARE", "ADDRESS": "1100 LAKEVIEW DR", "CITY": "WAUSAU", "STATE": "WI", "ZIP": "54403", "ZIP4": "NOT AVAILABLE", "TELEPHONE": "(715) 848-4600", "TYPE": "PSYCHIATRIC", "STATUS": "OPEN", "POPULATION": 16, "COUNTY": "MARATHON", "COUNTYFIPS": "55073", "COUNTRY": "USA", "LATITUDE": 44.931130472000099, "LONGITUDE": -89.634244722999895, "NAICS_CODE": "622210", "NAICS_DESC": "PSYCHIATRIC AND SUBSTANCE ABUSE HOSPITALS", "SOURCE": "https://www.dhs.wisconsin.gov/guide/hospital.htm", "SOURCEDATE": "2018-08-13T00:00:00.000Z", "VAL_METHOD": "IMAGERY", "VAL_DATE": "2014-02-10T00:00:00.000Z", "WEBSITE": "http://www.norcen.org", "STATE_ID": "206", "ALT_NAME": "NOT AVAILABLE", "ST_FIPS": "55", "OWNER": "GOVERNMENT - LOCAL", "TTL_STAFF": -999, "BEDS": 16, "TRAUMA": "NOT AVAILABLE", "HELIPAD": "N" }, "geometry": { "type": "Polygon", "coordinates": [ [ [ -89.6372749, 44.856396700000012 ], [ -89.6429614, 44.861147799999962 ], [ -89.6594555, 44.901761500000013 ], [ -89.6709139, 44.951843099999948 ], [ -89.6687707, 44.96026 ], [ -89.618969, 45.00007 ], [ -89.559879, 44.970757 ], [ -89.542595, 44.945449 ], [ -89.542509, 44.902148 ], [ -89.5425194, 44.901610900000016 ], [ -89.559645, 44.887468 ], [ -89.592367, 44.87031 ], [ -89.6372749, 44.856396700000012 ] ] ] } },
{ "type": "Feature", "properties": { "OBJECTID": 5009, "ID": "0007349801", "NAME": "OSCAR G. JOHNSON VA MEDICAL CENTER", "ADDRESS": "325 E H ST", "CITY": "IRON MOUNTAIN", "STATE": "MI", "ZIP": "49801", "ZIP4": "NOT AVAILABLE", "TELEPHONE": "(906) 774-3300", "TYPE": "MILITARY", "STATUS": "OPEN", "POPULATION": -999, "COUNTY": "DICKINSON", "COUNTYFIPS": "26043", "COUNTRY": "USA", "LATITUDE": 45.810296790000102, "LONGITUDE": -88.061545484999996, "NAICS_CODE": "622110", "NAICS_DESC": "GENERAL MEDICAL AND SURGICAL HOSPITALS", "SOURCE": "https://www.va.gov/directory/guide/allstate.asp", "SOURCEDATE": "2018-09-26T00:00:00.000Z", "VAL_METHOD": "IMAGERY/OTHER", "VAL_DATE": "2015-05-22T00:00:00.000Z", "WEBSITE": "http://www.ironmountain.va.gov/", "STATE_ID": "NOT AVAILABLE", "ALT_NAME": "NOT AVAILABLE", "ST_FIPS": "26", "OWNER": "GOVERNMENT - FEDERAL", "TTL_STAFF": -999, "BEDS": -999, "TRAUMA": "NOT AVAILABLE", "HELIPAD": "N" }, "geometry": { "type": "Polygon", "coordinates": [ [ [ -87.9670902, 45.771559500000016 ], [ -88.059651, 45.782184 ], [ -88.0823973, 45.784993300000039 ], [ -88.0916965, 45.786955800000015 ], [ -88.0950933, 45.788541199999969 ], [ -88.128188100000017, 45.812089700000051 ], [ -88.131477, 45.820938 ], [ -88.079308, 45.892619 ], [ -88.043757, 45.91731749999996 ], [ -87.962741, 45.851918 ], [ -87.916291, 45.794407 ], [ -87.9111593, 45.787279 ], [ -87.9670902, 45.771559500000016 ] ] ] } },
{ "type": "Feature", "properties": { "OBJECTID": 5028, "ID": "0001949946", "NAME": "BARAGA COUNTY MEMORIAL HOSPITAL", "ADDRESS": "18341 US HIGHWAY 41", "CITY": "L' ANSE", "STATE": "MI", "ZIP": "49946", "ZIP4": "NOT AVAILABLE", "TELEPHONE": "NOT AVAILABLE", "TYPE": "GENERAL ACUTE CARE", "STATUS": "OPEN", "POPULATION": 15, "COUNTY": "BARAGA", "COUNTYFIPS": "26013", "COUNTRY": "USA", "LATITUDE": 46.731789524000099, "LONGITUDE": -88.425004134999895, "NAICS_CODE": "622110", "NAICS_DESC": "GENERAL MEDICAL AND SURGICAL HOSPITALS", "SOURCE": "https://w2.lara.state.mi.us/VAL/License/Search", "SOURCEDATE": "2018-08-09T00:00:00.000Z", "VAL_METHOD": "IMAGERY", "VAL_DATE": "2014-01-27T00:00:00.000Z", "WEBSITE": "http://www.bcmh.org", "STATE_ID": "NOT AVAILABLE", "ALT_NAME": "NOT AVAILABLE", "ST_FIPS": "26", "OWNER": "GOVERNMENT - LOCAL", "TTL_STAFF": -999, "BEDS": 15, "TRAUMA": "NOT AVAILABLE", "HELIPAD": "Y" }, "geometry": { "type": "Polygon", "coordinates": [ [ [ -88.477652, 46.650689 ], [ -88.5247176, 46.779277300000025 ], [ -88.480446, 46.820689 ], [ -88.405496, 46.818323 ], [ -88.3637099, 46.778041500000015 ], [ -88.353241, 46.756276 ], [ -88.35245, 46.75327 ], [ -88.35223, 46.748227 ], [ -88.352594, 46.741978 ], [ -88.389436, 46.686634 ], [ -88.477652, 46.650689 ] ] ] } },
{ "type": "Feature", "properties": { "OBJECTID": 5499, "ID": "0005654409", "NAME": "ASPIRUS LANGLADE HOSPITAL", "ADDRESS": "112 E FIFTH ST", "CITY": "ANTIGO", "STATE": "WI", "ZIP": "54409", "ZIP4": "NOT AVAILABLE", "TELEPHONE": "(715) 623-2331", "TYPE": "GENERAL ACUTE CARE", "STATUS": "OPEN", "POPULATION": 25, "COUNTY": "LANGLADE", "COUNTYFIPS": "55067", "COUNTRY": "USA", "LATITUDE": 45.141652, "LONGITUDE": -89.139545, "NAICS_CODE": "622110", "NAICS_DESC": "GENERAL MEDICAL AND SURGICAL HOSPITALS", "SOURCE": "https://www.dhs.wisconsin.gov/guide/hospital.htm", "SOURCEDATE": "2018-08-13T00:00:00.000Z", "VAL_METHOD": "IMAGERY", "VAL_DATE": "2014-03-12T00:00:00.000Z", "WEBSITE": "http://www.langladehospital.org", "STATE_ID": "1055", "ALT_NAME": "NOT AVAILABLE", "ST_FIPS": "55", "OWNER": "NON-PROFIT", "TTL_STAFF": -999, "BEDS": 25, "TRAUMA": "LEVEL IV", "HELIPAD": "Y" }, "geometry": { "type": "Polygon", "coordinates": [ [ [ -89.157715, 45.04398 ], [ -89.184017800000021, 45.058342600000017 ], [ -89.224268, 45.101754 ], [ -89.2596886, 45.140431 ], [ -89.26486060000002, 45.147336599999981 ], [ -89.2653557, 45.154329400000023 ], [ -89.1563256, 45.2197956 ], [ -89.1447395, 45.219681899999976 ], [ -89.0608879, 45.204939500000023 ], [ -89.040295, 45.190392 ], [ -89.010922899999983, 45.161387499999982 ], [ -89.0313111, 45.139749300000034 ], [ -89.0387018, 45.1326467 ], [ -89.0641083, 45.108747500000064 ], [ -89.1226134, 45.058412899999944 ], [ -89.157715, 45.04398 ] ] ] } },
{ "type": "Feature", "properties": { "OBJECTID": 5630, "ID": "0004949930", "NAME": "UP HEALTH SYSTEM PORTAGE", "ADDRESS": "500 CAMPUS DRIVE", "CITY": "HANCOCK", "STATE": "MI", "ZIP": "49930", "ZIP4": "NOT AVAILABLE", "TELEPHONE": "NOT AVAILABLE", "TYPE": "GENERAL ACUTE CARE", "STATUS": "OPEN", "POPULATION": 36, "COUNTY": "HOUGHTON", "COUNTYFIPS": "26061", "COUNTRY": "USA", "LATITUDE": 47.139819002000102, "LONGITUDE": -88.587042925999995, "NAICS_CODE": "622110", "NAICS_DESC": "GENERAL MEDICAL AND SURGICAL HOSPITALS", "SOURCE": "https://w2.lara.state.mi.us/VAL/License/Search", "SOURCEDATE": "2018-08-09T00:00:00.000Z", "VAL_METHOD": "IMAGERY", "VAL_DATE": "2014-02-10T00:00:00.000Z", "WEBSITE": "http://www.portagehealth.org", "STATE_ID": "NOT AVAILABLE", "ALT_NAME": "NOT AVAILABLE", "ST_FIPS": "26", "OWNER": "NON-PROFIT", "TTL_STAFF": -999, "BEDS": 36, "TRAUMA": "LEVEL III", "HELIPAD": "Y" }, "geometry": { "type": "Polygon", "coordinates": [ [ [ -88.626822, 47.089099599999962 ], [ -88.6278592, 47.091091399999989 ], [ -88.637377, 47.170818 ], [ -88.622055, 47.18464 ], [ -88.587778, 47.189017 ], [ -88.499654, 47.199518 ], [ -88.481444, 47.199431 ], [ -88.476672, 47.198963 ], [ -88.474665, 47.185064 ], [ -88.496793, 47.124078 ], [ -88.501651, 47.119119 ], [ -88.504583, 47.1167073 ], [ -88.525336, 47.107175 ], [ -88.588972, 47.089173 ], [ -88.626822, 47.089099599999962 ] ] ] } },
{ "type": "Feature", "properties": { "OBJECTID": 5631, "ID": "0004049829", "NAME": "ST FRANCIS HOSPITAL", "ADDRESS": "3401 LUDINGTON ST", "CITY": "ESCANABA", "STATE": "MI", "ZIP": "49829", "ZIP4": "NOT AVAILABLE", "TELEPHONE": "NOT AVAILABLE", "TYPE": "GENERAL ACUTE CARE", "STATUS": "OPEN", "POPULATION": 25, "COUNTY": "DELTA", "COUNTYFIPS": "26041", "COUNTRY": "USA", "LATITUDE": 45.7425663920001, "LONGITUDE": -87.096004009999902, "NAICS_CODE": "622110", "NAICS_DESC": "GENERAL MEDICAL AND SURGICAL HOSPITALS", "SOURCE": "https://w2.lara.state.mi.us/VAL/License/Search", "SOURCEDATE": "2018-08-09T00:00:00.000Z", "VAL_METHOD": "IMAGERY/OTHER", "VAL_DATE": "2014-02-10T00:00:00.000Z", "WEBSITE": "http://www.osfstfrancis.org/", "STATE_ID": "NOT AVAILABLE", "ALT_NAME": "NOT AVAILABLE", "ST_FIPS": "26", "OWNER": "NON-PROFIT", "TTL_STAFF": -999, "BEDS": 25, "TRAUMA": "NOT AVAILABLE", "HELIPAD": "N" }, "geometry": { "type": "Polygon", "coordinates": [ [ [ -87.1512061, 45.6724695 ], [ -87.2025437, 45.7193413 ], [ -87.2026974, 45.7460768 ], [ -87.1830401, 45.796737099999952 ], [ -87.1091915, 45.822341 ], [ -87.0410177, 45.833985800000022 ], [ -87.0424837, 45.741553400000015 ], [ -87.0800555, 45.706467300000021 ], [ -87.1009421, 45.695751500000028 ], [ -87.1250671, 45.684521200000027 ], [ -87.1512061, 45.6724695 ] ] ] } },
{ "type": "Feature", "properties": { "OBJECTID": 5632, "ID": "0007449855", "NAME": "UP HEALTH SYSTEM - MARQUETTE", "ADDRESS": "420 W MAGNETIC", "CITY": "MARQUETTE", "STATE": "MI", "ZIP": "49855", "ZIP4": "NOT AVAILABLE", "TELEPHONE": "NOT AVAILABLE", "TYPE": "GENERAL ACUTE CARE", "STATUS": "OPEN", "POPULATION": 264, "COUNTY": "MARQUETTE", "COUNTYFIPS": "26103", "COUNTRY": "USA", "LATITUDE": 46.554266422000097, "LONGITUDE": -87.400823655999901, "NAICS_CODE": "622110", "NAICS_DESC": "GENERAL MEDICAL AND SURGICAL HOSPITALS", "SOURCE": "https://w2.lara.state.mi.us/VAL/License/Search", "SOURCEDATE": "2018-08-09T00:00:00.000Z", "VAL_METHOD": "IMAGERY", "VAL_DATE": "2014-02-10T00:00:00.000Z", "WEBSITE": "http://www.mgh.org/", "STATE_ID": "NOT AVAILABLE", "ALT_NAME": "NOT AVAILABLE", "ST_FIPS": "26", "OWNER": "NON-PROFIT", "TTL_STAFF": -999, "BEDS": 264, "TRAUMA": "LEVEL II", "HELIPAD": "N" }, "geometry": { "type": "Polygon", "coordinates": [ [ [ -87.419509, 46.476056 ], [ -87.420511, 46.476137 ], [ -87.4975381, 46.5215254 ], [ -87.5128565, 46.539438200000014 ], [ -87.5133359, 46.5407208 ], [ -87.4772542, 46.5823636 ], [ -87.4488566, 46.590908499999976 ], [ -87.3853806, 46.587350100000023 ], [ -87.3272907, 46.489183300000057 ], [ -87.334267, 46.475916 ], [ -87.419509, 46.476056 ] ] ] } },
{ "type": "Feature", "properties": { "OBJECTID": 3858, "ID": "0172154166", "NAME": "THEDACARE MEDICAL CENTER SHAWANO INC", "ADDRESS": "100 COUNTRY ROAD B", "CITY": "SHAWANO", "STATE": "WI", "ZIP": "54166", "ZIP4": "NOT AVAILABLE", "TELEPHONE": "(715) 526-2111", "TYPE": "CRITICAL ACCESS", "STATUS": "OPEN", "POPULATION": 25, "COUNTY": "SHAWANO", "COUNTYFIPS": "55115", "COUNTRY": "USA", "LATITUDE": 44.760534, "LONGITUDE": -88.606696, "NAICS_CODE": "622110", "NAICS_DESC": "GENERAL MEDICAL AND SURGICAL HOSPITALS", "SOURCE": "https://www.dhs.wisconsin.gov/guide/hospital.htm", "SOURCEDATE": "2018-08-13T00:00:00.000Z", "VAL_METHOD": "IMAGERY", "VAL_DATE": "2019-05-09T00:00:00.000Z", "WEBSITE": "https://www.thedacare.org/", "STATE_ID": "1051", "ALT_NAME": "SHAWANO MED CTR", "ST_FIPS": "55", "OWNER": "NON-PROFIT", "TTL_STAFF": -999, "BEDS": 25, "TRAUMA": "LEVEL IV", "HELIPAD": "Y" }, "geometry": { "type": "Polygon", "coordinates": [ [ [ -88.675001, 44.688086899999966 ], [ -88.6966155, 44.690550500000029 ], [ -88.699033300000011, 44.6926554 ], [ -88.7364698, 44.727962800000014 ], [ -88.7765571, 44.796557900000046 ], [ -88.7765493, 44.796793400000013 ], [ -88.756436, 44.81127890000004 ], [ -88.6272293, 44.856448299999968 ], [ -88.5387519, 44.8286709 ], [ -88.4873779, 44.7972179 ], [ -88.4376892, 44.725962 ], [ -88.4451085, 44.7200631 ], [ -88.5705702, 44.6926797 ], [ -88.675001, 44.688086899999966 ] ] ] } },
{ "type": "Feature", "properties": { "OBJECTID": 3984, "ID": "0167854311", "NAME": "WILLOW CREEK BEHAVIORAL HEALTH", "ADDRESS": "1351 ONTARIO RD", "CITY": "GREEN BAY", "STATE": "WI", "ZIP": "54311", "ZIP4": "NOT AVAILABLE", "TELEPHONE": "(901) 969-3100", "TYPE": "PSYCHIATRIC", "STATUS": "OPEN", "POPULATION": 72, "COUNTY": "BROWN", "COUNTYFIPS": "55009", "COUNTRY": "USA", "LATITUDE": 44.476209143000098, "LONGITUDE": -87.92416131, "NAICS_CODE": "622210", "NAICS_DESC": "PSYCHIATRIC AND SUBSTANCE ABUSE HOSPITALS", "SOURCE": "https://www.dhs.wisconsin.gov/guide/hospital.htm", "SOURCEDATE": "2018-08-13T00:00:00.000Z", "VAL_METHOD": "IMAGERY/OTHER", "VAL_DATE": "2019-05-09T00:00:00.000Z", "WEBSITE": "http://willowcreekbh.com/", "STATE_ID": "322", "ALT_NAME": "NOT AVAILABLE", "ST_FIPS": "55", "OWNER": "PROPRIETARY", "TTL_STAFF": -999, "BEDS": 72, "TRAUMA": "NOT AVAILABLE", "HELIPAD": "N" }, "geometry": { "type": "Polygon", "coordinates": [ [ [ -87.927746, 44.400619 ], [ -88.0232458, 44.4263242 ], [ -88.024119299999981, 44.426816299999942 ], [ -88.0603783, 44.47838370000003 ], [ -88.0435541, 44.553474300000026 ], [ -87.871128, 44.581947 ], [ -87.870649, 44.581765 ], [ -87.8703915, 44.5816416 ], [ -87.80594, 44.487542 ], [ -87.815961, 44.458371 ], [ -87.826105, 44.443869 ], [ -87.872746, 44.400297 ], [ -87.927746, 44.400619 ] ] ] } }
]
}
