{
"type": "FeatureCollection",
"crs": { "type": "name", "properties": { "name": "urn:ogc:def:crs:OGC:1.3:CRS84" } },
"features": [
{ "type": "Feature", "properties": { "OBJECTID": 1012, "ID": "0026691342", "NAME": "LOS ANGELES COUNTY OLIVE VIEW-UCLA MEDICAL CENTER", "ADDRESS": "14445 OLIVE VIEW DRIVE", "CITY": "SYLMAR", "STATE": "CA", "ZIP": "91342", "ZIP4": "NOT AVAILABLE", "TELEPHONE": "NOT AVAILABLE", "TYPE": "GENERAL ACUTE CARE", "STATUS": "OPEN", "POPULATION": 355, "COUNTY": "LOS ANGELES", "COUNTYFIPS": "06037", "COUNTRY": "USA", "LATITUDE": 34.325871722000002, "LONGITUDE": -118.445764102, "NAICS_CODE": "622110", "NAICS_DESC": "GENERAL MEDICAL AND SURGICAL HOSPITALS", "SOURCE": "http://www.oshpd.ca.gov/HID/Facility-Listing.html", "SOURCEDATE": "2018-08-08T00:00:00.000Z", "VAL_METHOD": "IMAGERY/OTHER", "VAL_DATE": "2014-03-12T00:00:00.000Z", "WEBSITE": "http://www.ladhs.org", "STATE_ID": "NOT AVAILABLE", "ALT_NAME": "NOT AVAILABLE", "ST_FIPS": "06", "OWNER": "GOVERNMENT - LOCAL", "TTL_STAFF": -999, "BEDS": 355, "TRAUMA": "NOT AVAILABLE", "HELIPAD": "Y" }, "geometry": { "type": "Polygon", "coordinates": [ [ [ -118.4106274, 34.228039599999974 ], [ -118.476368500000035, 34.2319717 ], [ -118.4807047, 34.235617199999972 ], [ -118.537869499999985, 34.297313 ], [ -118.538202400000017, 34.297954299999951 ], [ -118.5670014, 34.3791396 ], [ -118.566432, 34.380646900000031 ], [ -118.4735265, 34.393065399999976 ], [ -118.47137, 34.392242799999963 ], [ -118.3514362, 34.2985062 ], [ -118.322331, 34.2597457 ], [ -118.326142499999989, 34.25567640000002 ], [ -118.4106274, 34.228039599999974 ] ] ] } },
{ "type": "Feature", "properties": { "OBJECTID": 1022, "ID": "0014093710", "NAME": "FRESNO SURGICAL HOSPITAL", "ADDRESS": "6125 NORTH FRESNO STREET", "CITY": "FRESNO", "STATE": "CA", "ZIP": "93710", "ZIP4": "NOT AVAILABLE", "TELEPHONE": "NOT AVAILABLE", "TYPE": "GENERAL ACUTE CARE", "STATUS": "OPEN", "POPULATION": 27, "COUNTY": "FRESNO", "COUNTYFIPS": "06019", "COUNTRY": "USA", "LATITUDE": 36.824914089000103, "LONGITUDE": -119.78216158, "NAICS_CODE": "622110", "NAICS_DESC": "GENERAL MEDICAL AND SURGICAL HOSPITALS", "SOURCE": "http://www.oshpd.ca.gov/HID/Facility-Listing.html", "SOURCEDATE": "2018-08-08T00:00:00.000Z", "VAL_METHOD": "IMAGERY/OTHER", "VAL_DATE": "2014-02-10T00:00:00.000Z", "WEBSITE": "http://www.fresnosurgicalhospital.com", "STATE_ID": "NOT AVAILABLE", "ALT_NAME": "NOT AVAILABLE", "ST_FIPS": "06", "OWNER": "PROPRIETARY", "TTL_STAFF": -999, "BEDS": 27, "TRAUMA": "NOT AVAILABLE", "HELIPAD": "N" }, "geometry": { "type": "Polygon", "coordinates": [ [ [ -119.75818120000001, 36.692393599999988 ], [ -119.78610110000001, 36.68752680000005 ], [ -119.862486899999965, 36.7354487 ], [ -119.890771500000014, 36.808041 ], [ -119.9016212, 36.836789600000031 ], [ -119.901627, 36.8369296 ], [ -119.897705700000017, 36.841121299999962 ], [ -119.896828700000015, 36.841867900000054 ], [ -119.8849124, 36.848004599999975 ], [ -119.7332306, 36.922613199999958 ], [ -119.665947099999983, 36.854496500000039 ], [ -119.6598428, 36.845019100000016 ], [ -119.65753220000002, 36.837399699999956 ], [ -119.6613588, 36.822891900000016 ], [ -119.6878856, 36.7533441 ], [ -119.75818120000001, 36.692393599999988 ] ] ] } },
{ "type": "Feature", "properties": { "OBJECTID": 1028, "ID": "0022293277", "NAME": "KAWEAH DELTA REHABILITATION HOSPITAL", "ADDRESS": "840 SOUTH AKERS", "CITY": "VISALIA", "STATE": "CA", "ZIP": "93277", "ZIP4": "NOT AVAILABLE", "TELEPHONE": "NOT AVAILABLE", "TYPE": "GENERAL ACUTE CARE", "STATUS": "OPEN", "POPULATION": 61, "COUNTY": "TULARE", "COUNTYFIPS": "06107", "COUNTRY": "USA", "LATITUDE": 36.322606833000101, "LONGITUDE": -119.34793469, "NAICS_CODE": "622110", "NAICS_DESC": "GENERAL MEDICAL AND SURGICAL HOSPITALS", "SOURCE": "http://www.oshpd.ca.gov/HID/Facility-Listing.html", "SOURCEDATE": "2018-08-08T00:00:00.000Z", "VAL_METHOD": "IMAGERY/OTHER", "VAL_DATE": "2014-02-10T00:00:00.000Z", "WEBSITE": "http://www.kaweahdelta.org", "STATE_ID": "NOT AVAILABLE", "ALT_NAME": "NOT AVAILABLE", "ST_FIPS": "06", "OWNER": "GOVERNMENT - DISTRICT/AUTHORITY", "TTL_STAFF": -999, "BEDS": 61, "TRAUMA": "NOT AVAILABLE", "HELIPAD": "N" }, "geometry": { "type": "Polygon", "coordinates": [ [ [ -119.330881806091512, 36.225711909548977 ], [ -119.475253411619434, 36.313368526743417 ], [ -119.49310192893509, 36.328257305699523 ], [ -119.493099728275666, 36.328552406423015 ], [ -119.475449446013471, 36.341886991628272 ], [ -119.394743382718033, 36.385350606883442 ], [ -119.332160132877974, 36.39987789179812 ], [ -119.323169502504257, 36.399983914945764 ], [ -119.296740963439007, 36.385515668617721 ], [ -119.233341946461849, 36.345933739945735 ], [ -119.20551558775955, 36.326437044795455 ], [ -119.206969019492561, 36.316524431584178 ], [ -119.330881806091512, 36.225711909548977 ] ] ] } },
{ "type": "Feature", "properties": { "OBJECTID": 1041, "ID": "0073693210", "NAME": "DEPARTMENT OF STATE HOSPITAL - COALINGA", "ADDRESS": "24511 WEST JAYNE AVENUE", "CITY": "COALINGA", "STATE": "CA", "ZIP": "93210", "ZIP4": "NOT AVAILABLE", "TELEPHONE": "(559) 935-4300", "TYPE": "PSYCHIATRIC", "STATUS": "OPEN", "POPULATION": 1500, "COUNTY": "FRESNO", "COUNTYFIPS": "06019", "COUNTRY": "USA", "LATITUDE": 36.1335482900001, "LONGITUDE": -120.240445956, "NAICS_CODE": "622210", "NAICS_DESC": "PSYCHIATRIC AND SUBSTANCE ABUSE HOSPITALS", "SOURCE": "http://www.oshpd.ca.gov/HID/Facility-Listing.html", "SOURCEDATE": "2018-08-08T00:00:00.000Z", "VAL_METHOD": "IMAGERY/OTHER", "VAL_DATE": "2015-01-14T00:00:00.000Z", "WEBSITE": "http://www.dsh.ca.gov/Coalinga/default.asp", "STATE_ID": "NOT AVAILABLE", "ALT_NAME": "NOT AVAILABLE", "ST_FIPS": "06", "OWNER": "GOVERNMENT - STATE", "TTL_STAFF": -999, "BEDS": 1500, "TRAUMA": "NOT AVAILABLE", "HELIPAD": "N" }, "geometry": { "type": "Polygon", "coordinates": [ [ [ -120.200118321207384, 36.108602254952167 ], [ -120.231363366439027, 36.108484287099316 ], [ -120.27179930542367, 36.135760042596026 ], [ -120.273445201548427, 36.137009240005277 ], [ -120.220900216350643, 36.162867170186566 ], [ -120.214014213393341, 36.161564168333307 ], [ -120.16083201013133, 36.137759970532024 ], [ -120.157110209922166, 36.135558170801104 ], [ -120.200118321207384, 36.108602254952167 ] ] ] } },
{ "type": "Feature", "properties": { "OBJECTID": 1047, "ID": "0074693060", "NAME": "VENTURA COUNTY MEDICAL CENTER - SANTA PAULA  HOSPITAL", "ADDRESS": "825 NORTH 10TH STREET", "CITY": "SANTA PAULA", "STATE": "CA", "ZIP": "93060", "ZIP4": "NOT AVAILABLE", "TELEPHONE": "NOT AVAILABLE", "TYPE": "GENERAL ACUTE CARE", "STATUS": "OPEN", "POPULATION": 49, "COUNTY": "VENTURA", "COUNTYFIPS": "06111", "COUNTRY": "USA", "LATITUDE": 34.366446695, "LONGITUDE": -119.064914805, "NAICS_CODE": "622110", "NAICS_DESC": "GENERAL MEDICAL AND SURGICAL HOSPITALS", "SOURCE": "http://www.oshpd.ca.gov/HID/Facility-Listing.html", "SOURCEDATE": "2018-08-08T00:00:00.000Z", "VAL_METHOD": "IMAGERY/OTHER", "VAL_DATE": "2015-01-16T00:00:00.000Z", "WEBSITE": "http://www.vchca.org/hospitals/santa-paula-hospital", "STATE_ID": "NOT AVAILABLE", "ALT_NAME": "NOT AVAILABLE", "ST_FIPS": "06", "OWNER": "GOVERNMENT - LOCAL", "TTL_STAFF": -999, "BEDS": 49, "TRAUMA": "NOT AVAILABLE", "HELIPAD": "Y" }, "geometry": { "type": "Polygon", "coordinates": [ [ [ -119.150198100000011, 34.282933100000029 ], [ -119.1620969, 34.286578300000031 ], [ -119.1666381, 34.29185949999998 ], [ -119.1648431, 34.298249799999958 ], [ -119.0960777, 34.4269851 ], [ -118.955639, 34.393167 ], [ -118.9552633, 34.392665199999968 ], [ -118.966117, 34.381211 ], [ -118.998123, 34.351958 ], [ -119.013156, 34.341478 ], [ -119.031444, 34.332241 ], [ -119.150198100000011, 34.282933100000029 ] ] ] } },
{ "type": "Feature", "properties": { "OBJECTID": 1082, "ID": "0074193102", "NAME": "SANTA BARBARA COTTAGE HOSPITAL", "ADDRESS": "400 W. PUEBLO STREET", "CITY": "SANTA BARBARA", "STATE": "CA", "ZIP": "93102", "ZIP4": "NOT AVAILABLE", "TELEPHONE": "(805) 682-7111", "TYPE": "GENERAL ACUTE CARE", "STATUS": "OPEN", "POPULATION": 412, "COUNTY": "SANTA BARBARA", "COUNTYFIPS": "06083", "COUNTRY": "USA", "LATITUDE": 34.429466689000002, "LONGITUDE": -119.723809039, "NAICS_CODE": "622110", "NAICS_DESC": "GENERAL MEDICAL AND SURGICAL HOSPITALS", "SOURCE": "http://www.oshpd.ca.gov/HID/Facility-Listing.html", "SOURCEDATE": "2018-08-08T00:00:00.000Z", "VAL_METHOD": "IMAGERY/OTHER", "VAL_DATE": "2015-01-16T00:00:00.000Z", "WEBSITE": "http://www.cottagehealth.org/", "STATE_ID": "NOT AVAILABLE", "ALT_NAME": "NOT AVAILABLE", "ST_FIPS": "06", "OWNER": "NON-PROFIT", "TTL_STAFF": -999, "BEDS": 412, "TRAUMA": "LEVEL I, LEVEL II PEDIATRIC", "HELIPAD": "Y" }, "geometry": { "type": "Polygon", "coordinates": [ [ [ -119.5732135, 34.416447400000017 ], [ -119.5779714, 34.415550699999983 ], [ -119.709844, 34.396249 ], [ -119.713868, 34.396027 ], [ -119.726118, 34.396685 ], [ -119.728251, 34.396864 ], [ -119.8425227, 34.409255300000041 ], [ -119.8427293, 34.4092943 ], [ -119.8805411, 34.432789100000022 ], [ -119.8744834, 34.440835800000016 ], [ -119.7953792, 34.491297700000068 ], [ -119.630130100000017, 34.4464939 ], [ -119.624218, 34.443561299999978 ], [ -119.5732135, 34.416447400000017 ] ] ] } },
{ "type": "Feature", "properties": { "OBJECTID": 1895, "ID": "0071893436", "NAME": "LOMPOC VALLEY MEDICAL CENTER COMPREHENSIVE CARE CENTER D/P S", "ADDRESS": "216 NORTH THIRD STREET", "CITY": "LOMPOC", "STATE": "CA", "ZIP": "93436", "ZIP4": "NOT AVAILABLE", "TELEPHONE": "NOT AVAILABLE", "TYPE": "GENERAL ACUTE CARE", "STATUS": "OPEN", "POPULATION": 110, "COUNTY": "SANTA BARBARA", "COUNTYFIPS": "06083", "COUNTRY": "USA", "LATITUDE": 34.641330845, "LONGITUDE": -120.444777122, "NAICS_CODE": "622110", "NAICS_DESC": "GENERAL MEDICAL AND SURGICAL HOSPITALS", "SOURCE": "http://www.oshpd.ca.gov/HID/Facility-Listing.html", "SOURCEDATE": "2018-08-08T00:00:00.000Z", "VAL_METHOD": "IMAGERY/OTHER", "VAL_DATE": "2015-01-14T00:00:00.000Z", "WEBSITE": "NOT AVAILABLE", "STATE_ID": "NOT AVAILABLE", "ALT_NAME": "NOT AVAILABLE", "ST_FIPS": "06", "OWNER": "NOT AVAILABLE", "TTL_STAFF": -999, "BEDS": 110, "TRAUMA": "NOT AVAILABLE", "HELIPAD": "N" }, "geometry": { "type": "Polygon", "coordinates": [ [ [ -120.4083793, 34.589420299999979 ], [ -120.481376, 34.58862 ], [ -120.48179, 34.588895 ], [ -120.529703, 34.634045 ], [ -120.542758, 34.649856 ], [ -120.548183, 34.661736 ], [ -120.4905189, 34.712485200000017 ], [ -120.4892134, 34.7131464 ], [ -120.489075500000013, 34.71317470000001 ], [ -120.473098, 34.714399 ], [ -120.469707, 34.714359 ], [ -120.461022, 34.712874 ], [ -120.385769, 34.681258 ], [ -120.356511, 34.668526 ], [ -120.357225, 34.664113 ], [ -120.4083793, 34.589420299999979 ] ] ] } },
{ "type": "Feature", "properties": { "OBJECTID": 1903, "ID": "0000000033", "NAME": "NAVAL HOSPITAL LEMOORE", "ADDRESS": "937 FRANKLIN AVE", "CITY": "LEMOORE", "STATE": "CA", "ZIP": "93246", "ZIP4": "NOT AVAILABLE", "TELEPHONE": "NOT AVAILABLE", "TYPE": "MILITARY", "STATUS": "OPEN", "POPULATION": -999, "COUNTY": "KINGS", "COUNTYFIPS": "06031", "COUNTRY": "USA", "LATITUDE": 36.264205801000102, "LONGITUDE": -119.893134112, "NAICS_CODE": "622110", "NAICS_DESC": "GENERAL MEDICAL AND SURGICAL HOSPITALS", "SOURCE": "http://www.tricare.mil/mtf", "SOURCEDATE": "2019-04-02T00:00:00.000Z", "VAL_METHOD": "IMAGERY/OTHER", "VAL_DATE": "2015-07-24T00:00:00.000Z", "WEBSITE": "http://www.med.navy.mil/sites/nhlem/Pages/index.aspx", "STATE_ID": "NOT AVAILABLE", "ALT_NAME": "NOT AVAILABLE", "ST_FIPS": "06", "OWNER": "GOVERNMENT - FEDERAL", "TTL_STAFF": -999, "BEDS": -999, "TRAUMA": "NOT AVAILABLE", "HELIPAD": "N" }, "geometry": { "type": "Polygon", "coordinates": [ [ [ -119.941207166466981, 36.181311138563728 ], [ -119.959049147331768, 36.178656087549193 ], [ -119.976864562028851, 36.255472994250994 ], [ -119.934216133619103, 36.299179273374719 ], [ -119.807900988076199, 36.349736732580425 ], [ -119.74473010115338, 36.300151020915941 ], [ -119.744702207509178, 36.29883981902092 ], [ -119.780834395464723, 36.254601021317235 ], [ -119.816190942505756, 36.226023402141017 ], [ -119.941207166466981, 36.181311138563728 ] ] ] } },
{ "type": "Feature", "properties": { "OBJECTID": 1915, "ID": "0000193230", "NAME": "ADVENTIST MEDICAL CENTER", "ADDRESS": "115 MALL DRIVE", "CITY": "HANFORD", "STATE": "CA", "ZIP": "93230", "ZIP4": "NOT AVAILABLE", "TELEPHONE": "NOT AVAILABLE", "TYPE": "GENERAL ACUTE CARE", "STATUS": "OPEN", "POPULATION": 142, "COUNTY": "KINGS", "COUNTYFIPS": "06031", "COUNTRY": "USA", "LATITUDE": 36.323633972000003, "LONGITUDE": -119.667223471, "NAICS_CODE": "622110", "NAICS_DESC": "GENERAL MEDICAL AND SURGICAL HOSPITALS", "SOURCE": "http://www.oshpd.ca.gov/HID/Facility-Listing.html", "SOURCEDATE": "2018-08-08T00:00:00.000Z", "VAL_METHOD": "IMAGERY", "VAL_DATE": "2014-02-10T00:00:00.000Z", "WEBSITE": "http://www.adventisthealthcv.com/hospital_newhanfordhospital.aspx", "STATE_ID": "NOT AVAILABLE", "ALT_NAME": "NOT AVAILABLE", "ST_FIPS": "06", "OWNER": "NON-PROFIT", "TTL_STAFF": -999, "BEDS": 142, "TRAUMA": "NOT AVAILABLE", "HELIPAD": "Y" }, "geometry": { "type": "Polygon", "coordinates": [ [ [ -119.654865070185394, 36.254814746476676 ], [ -119.672769600798759, 36.254728547382484 ], [ -119.808105368254886, 36.278670583851039 ], [ -119.812535958308629, 36.280354074177687 ], [ -119.809315509728918, 36.293358711037087 ], [ -119.780777128234263, 36.315256732646425 ], [ -119.673005534810585, 36.393512400621383 ], [ -119.654969702514066, 36.40109352403703 ], [ -119.526563070970425, 36.328814631621732 ], [ -119.600662483026326, 36.283923607236844 ], [ -119.654865070185394, 36.254814746476676 ] ] ] } },
{ "type": "Feature", "properties": { "OBJECTID": 1916, "ID": "0013893401", "NAME": "FRENCH HOSPITAL MEDICAL CENTER", "ADDRESS": "1911 JOHNSON AVENUE", "CITY": "SAN LUIS OBISPO", "STATE": "CA", "ZIP": "93401", "ZIP4": "NOT AVAILABLE", "TELEPHONE": "NOT AVAILABLE", "TYPE": "GENERAL ACUTE CARE", "STATUS": "OPEN", "POPULATION": 103, "COUNTY": "SAN LUIS OBISPO", "COUNTYFIPS": "06079", "COUNTRY": "USA", "LATITUDE": 35.277931506000101, "LONGITUDE": -120.650641412, "NAICS_CODE": "622110", "NAICS_DESC": "GENERAL MEDICAL AND SURGICAL HOSPITALS", "SOURCE": "http://www.oshpd.ca.gov/HID/Facility-Listing.html", "SOURCEDATE": "2018-08-08T00:00:00.000Z", "VAL_METHOD": "IMAGERY/OTHER", "VAL_DATE": "2014-02-10T00:00:00.000Z", "WEBSITE": "http://www.frenchmedicalcenter.org", "STATE_ID": "NOT AVAILABLE", "ALT_NAME": "NOT AVAILABLE", "ST_FIPS": "06", "OWNER": "NON-PROFIT", "TTL_STAFF": -999, "BEDS": 103, "TRAUMA": "NOT AVAILABLE", "HELIPAD": "N" }, "geometry": { "type": "Polygon", "coordinates": [ [ [ -120.6974971, 35.17552260000005 ], [ -120.699628, 35.175572 ], [ -120.7187422, 35.1890051 ], [ -120.7454612, 35.2891311 ], [ -120.7521853, 35.333055799999968 ], [ -120.6292008, 35.384418100000019 ], [ -120.6275985, 35.383445099999989 ], [ -120.5990022, 35.2367741 ], [ -120.60293369999998, 35.196832699999987 ], [ -120.6974971, 35.17552260000005 ] ] ] } },
{ "type": "Feature", "properties": { "OBJECTID": 1917, "ID": "0008593003", "NAME": "COMMUNITY MEMORIAL HOSPITAL-SAN BUENAVENTURA", "ADDRESS": "147 N. BRENT STREET", "CITY": "VENTURA", "STATE": "CA", "ZIP": "93003", "ZIP4": "NOT AVAILABLE", "TELEPHONE": "NOT AVAILABLE", "TYPE": "GENERAL ACUTE CARE", "STATUS": "OPEN", "POPULATION": 242, "COUNTY": "VENTURA", "COUNTYFIPS": "06111", "COUNTRY": "USA", "LATITUDE": 34.274645991000099, "LONGITUDE": -119.258302632, "NAICS_CODE": "622110", "NAICS_DESC": "GENERAL MEDICAL AND SURGICAL HOSPITALS", "SOURCE": "http://www.oshpd.ca.gov/HID/Facility-Listing.html", "SOURCEDATE": "2018-08-08T00:00:00.000Z", "VAL_METHOD": "IMAGERY", "VAL_DATE": "2014-02-10T00:00:00.000Z", "WEBSITE": "http://www.cmhshealth.org/", "STATE_ID": "NOT AVAILABLE", "ALT_NAME": "NOT AVAILABLE", "ST_FIPS": "06", "OWNER": "NON-PROFIT", "TTL_STAFF": -999, "BEDS": 242, "TRAUMA": "NOT AVAILABLE", "HELIPAD": "Y" }, "geometry": { "type": "Polygon", "coordinates": [ [ [ -119.2302884, 34.1760611 ], [ -119.234971, 34.179095299999979 ], [ -119.2388242, 34.183210200000012 ], [ -119.341153100000014, 34.295583200000046 ], [ -119.3085082, 34.355992799999981 ], [ -119.15326, 34.30806 ], [ -119.135310600000011, 34.274001 ], [ -119.1227289, 34.2219402 ], [ -119.1421039, 34.206106100000021 ], [ -119.2302884, 34.1760611 ] ] ] } },
{ "type": "Feature", "properties": { "OBJECTID": 1918, "ID": "0032993023", "NAME": "OJAI VALLEY COMMUNITY HOSPITAL", "ADDRESS": "1306 MARICOPA HIGHWAY", "CITY": "OJAI", "STATE": "CA", "ZIP": "93023", "ZIP4": "NOT AVAILABLE", "TELEPHONE": "NOT AVAILABLE", "TYPE": "GENERAL ACUTE CARE", "STATUS": "OPEN", "POPULATION": 25, "COUNTY": "VENTURA", "COUNTYFIPS": "06111", "COUNTRY": "USA", "LATITUDE": 34.4429151860001, "LONGITUDE": -119.264384312, "NAICS_CODE": "622110", "NAICS_DESC": "GENERAL MEDICAL AND SURGICAL HOSPITALS", "SOURCE": "http://www.oshpd.ca.gov/HID/Facility-Listing.html", "SOURCEDATE": "2018-08-08T00:00:00.000Z", "VAL_METHOD": "IMAGERY/OTHER", "VAL_DATE": "2014-02-10T00:00:00.000Z", "WEBSITE": "http://www.cmhhospital.org", "STATE_ID": "NOT AVAILABLE", "ALT_NAME": "NOT AVAILABLE", "ST_FIPS": "06", "OWNER": "NON-PROFIT", "TTL_STAFF": -999, "BEDS": 25, "TRAUMA": "NOT AVAILABLE", "HELIPAD": "N" }, "geometry": { "type": "Polygon", "coordinates": [ [ [ -119.305333, 34.373469 ], [ -119.3062532, 34.373392 ], [ -119.3398881, 34.419322899999969 ], [ -119.306285, 34.493267 ], [ -119.300278, 34.497361 ], [ -119.1993494, 34.473805399999989 ], [ -119.183563, 34.460528 ], [ -119.182242, 34.459093 ], [ -119.173508, 34.436256 ], [ -119.181553699999981, 34.431971200000021 ], [ -119.305333, 34.373469 ] ] ] } },
{ "type": "Feature", "properties": { "OBJECTID": 1921, "ID": "0040893463", "NAME": "SANTA YNEZ VALLEY COTTAGE HOSPITAL", "ADDRESS": "2050 VIBORG ROAD", "CITY": "SOLVANG", "STATE": "CA", "ZIP": "93463", "ZIP4": "NOT AVAILABLE", "TELEPHONE": "NOT AVAILABLE", "TYPE": "GENERAL ACUTE CARE", "STATUS": "OPEN", "POPULATION": 11, "COUNTY": "SANTA BARBARA", "COUNTYFIPS": "06083", "COUNTRY": "USA", "LATITUDE": 34.602082788000097, "LONGITUDE": -120.126303888, "NAICS_CODE": "622110", "NAICS_DESC": "GENERAL MEDICAL AND SURGICAL HOSPITALS", "SOURCE": "http://www.oshpd.ca.gov/HID/Facility-Listing.html", "SOURCEDATE": "2018-08-08T00:00:00.000Z", "VAL_METHOD": "IMAGERY/OTHER", "VAL_DATE": "2014-02-10T00:00:00.000Z", "WEBSITE": "http://www.cottagehealthsystem.org", "STATE_ID": "NOT AVAILABLE", "ALT_NAME": "NOT AVAILABLE", "ST_FIPS": "06", "OWNER": "NON-PROFIT", "TTL_STAFF": -999, "BEDS": 11, "TRAUMA": "NOT AVAILABLE", "HELIPAD": "N" }, "geometry": { "type": "Polygon", "coordinates": [ [ [ -120.140774, 34.554128 ], [ -120.18999, 34.562801 ], [ -120.2267987, 34.623523799999987 ], [ -120.226853, 34.623755500000051 ], [ -120.225331, 34.624898 ], [ -120.183401, 34.65292 ], [ -120.1153273, 34.674733399999987 ], [ -120.082991, 34.650105 ], [ -120.080261, 34.648 ], [ -120.031969300000014, 34.610414199999987 ], [ -120.032011, 34.589702700000011 ], [ -120.140774, 34.554128 ] ] ] } },
{ "type": "Feature", "properties": { "OBJECTID": 1935, "ID": "0027293637", "NAME": "MADERA COMMUNITY HOSPITAL", "ADDRESS": "1250 EAST ALMOND AVENUE", "CITY": "MADERA", "STATE": "CA", "ZIP": "93637", "ZIP4": "NOT AVAILABLE", "TELEPHONE": "NOT AVAILABLE", "TYPE": "GENERAL ACUTE CARE", "STATUS": "OPEN", "POPULATION": 106, "COUNTY": "MADERA", "COUNTYFIPS": "06039", "COUNTRY": "USA", "LATITUDE": 36.943812116000103, "LONGITUDE": -120.0446582, "NAICS_CODE": "622110", "NAICS_DESC": "GENERAL MEDICAL AND SURGICAL HOSPITALS", "SOURCE": "http://www.oshpd.ca.gov/HID/Facility-Listing.html", "SOURCEDATE": "2018-08-08T00:00:00.000Z", "VAL_METHOD": "IMAGERY", "VAL_DATE": "2014-02-10T00:00:00.000Z", "WEBSITE": "http://www.maderahospital.org", "STATE_ID": "NOT AVAILABLE", "ALT_NAME": "NOT AVAILABLE", "ST_FIPS": "06", "OWNER": "NON-PROFIT", "TTL_STAFF": -999, "BEDS": 106, "TRAUMA": "NOT AVAILABLE", "HELIPAD": "N" }, "geometry": { "type": "Polygon", "coordinates": [ [ [ -119.9468646, 36.838464 ], [ -120.0559817, 36.873104500000011 ], [ -120.124186300000019, 36.9237491 ], [ -120.1239288, 37.015223699999964 ], [ -120.019614, 36.986293500000023 ], [ -119.939627, 36.923005 ], [ -119.9291739, 36.8513529 ], [ -119.934942600000014, 36.84381310000002 ], [ -119.9468646, 36.838464 ] ] ] } },
{ "type": "Feature", "properties": { "OBJECTID": 1948, "ID": "0008693721", "NAME": "COMMUNITY REGIONAL MEDICAL CENTER-FRESNO", "ADDRESS": "2823 FRESNO AND R STREETS", "CITY": "FRESNO", "STATE": "CA", "ZIP": "93721", "ZIP4": "NOT AVAILABLE", "TELEPHONE": "NOT AVAILABLE", "TYPE": "GENERAL ACUTE CARE", "STATUS": "OPEN", "POPULATION": 685, "COUNTY": "FRESNO", "COUNTYFIPS": "06019", "COUNTRY": "USA", "LATITUDE": 36.743890379000099, "LONGITUDE": -119.785239804, "NAICS_CODE": "622110", "NAICS_DESC": "GENERAL MEDICAL AND SURGICAL HOSPITALS", "SOURCE": "http://www.oshpd.ca.gov/HID/Facility-Listing.html", "SOURCEDATE": "2018-08-08T00:00:00.000Z", "VAL_METHOD": "IMAGERY", "VAL_DATE": "2014-02-10T00:00:00.000Z", "WEBSITE": "http://www.communitymedical.org", "STATE_ID": "NOT AVAILABLE", "ALT_NAME": "NOT AVAILABLE", "ST_FIPS": "06", "OWNER": "NON-PROFIT", "TTL_STAFF": -999, "BEDS": 685, "TRAUMA": "NOT AVAILABLE", "HELIPAD": "Y" }, "geometry": { "type": "Polygon", "coordinates": [ [ [ -119.785806, 36.6052223 ], [ -119.7861328, 36.605222100000027 ], [ -119.934335399999981, 36.735214400000011 ], [ -119.8984733, 36.807981800000036 ], [ -119.8913981, 36.8116112 ], [ -119.78779710000002, 36.862858 ], [ -119.779583, 36.8664236 ], [ -119.7775166, 36.866917300000011 ], [ -119.6894133, 36.8407353 ], [ -119.636922, 36.7366891 ], [ -119.6369198, 36.73642 ], [ -119.6887951, 36.630442200000012 ], [ -119.785806, 36.6052223 ] ] ] } },
{ "type": "Feature", "properties": { "OBJECTID": 1949, "ID": "0044693720", "NAME": "ST. AGNES MEDICAL CENTER", "ADDRESS": "1303 EAST HERNDON AVENUE", "CITY": "FRESNO", "STATE": "CA", "ZIP": "93720", "ZIP4": "NOT AVAILABLE", "TELEPHONE": "NOT AVAILABLE", "TYPE": "GENERAL ACUTE CARE", "STATUS": "OPEN", "POPULATION": 436, "COUNTY": "FRESNO", "COUNTYFIPS": "06019", "COUNTRY": "USA", "LATITUDE": 36.835087483000102, "LONGITUDE": -119.765762853, "NAICS_CODE": "622110", "NAICS_DESC": "GENERAL MEDICAL AND SURGICAL HOSPITALS", "SOURCE": "http://www.oshpd.ca.gov/HID/Facility-Listing.html", "SOURCEDATE": "2018-08-08T00:00:00.000Z", "VAL_METHOD": "IMAGERY", "VAL_DATE": "2014-02-10T00:00:00.000Z", "WEBSITE": "http://www.samc.com", "STATE_ID": "NOT AVAILABLE", "ALT_NAME": "NOT AVAILABLE", "ST_FIPS": "06", "OWNER": "NON-PROFIT", "TTL_STAFF": -999, "BEDS": 436, "TRAUMA": "NOT AVAILABLE", "HELIPAD": "Y" }, "geometry": { "type": "Polygon", "coordinates": [ [ [ -119.778457, 36.731555400000026 ], [ -119.7796605, 36.731476399999984 ], [ -119.780250699999982, 36.7315533 ], [ -119.80319080000001, 36.747229 ], [ -119.8535345, 36.808194499999971 ], [ -119.874537500000017, 36.8385557 ], [ -119.7869975, 36.8927013 ], [ -119.759445400000018, 36.902157900000034 ], [ -119.756042800000017, 36.9021458 ], [ -119.7202636, 36.895875799999985 ], [ -119.6424069, 36.854819900000017 ], [ -119.6414335, 36.85406209999995 ], [ -119.650595700000011, 36.837407399999982 ], [ -119.7286956, 36.7535107 ], [ -119.778457, 36.731555400000026 ] ] ] } },
{ "type": "Feature", "properties": { "OBJECTID": 1953, "ID": "0002993301", "NAME": "BAKERSFIELD MEMORIAL HOSPITAL- 34TH STREET", "ADDRESS": "420 - 34TH STREET", "CITY": "BAKERSFIELD", "STATE": "CA", "ZIP": "93301", "ZIP4": "NOT AVAILABLE", "TELEPHONE": "NOT AVAILABLE", "TYPE": "GENERAL ACUTE CARE", "STATUS": "OPEN", "POPULATION": 426, "COUNTY": "KERN", "COUNTYFIPS": "06029", "COUNTRY": "USA", "LATITUDE": 35.3913423340001, "LONGITUDE": -119.006873306, "NAICS_CODE": "622110", "NAICS_DESC": "GENERAL MEDICAL AND SURGICAL HOSPITALS", "SOURCE": "http://www.oshpd.ca.gov/HID/Facility-Listing.html", "SOURCEDATE": "2018-08-08T00:00:00.000Z", "VAL_METHOD": "IMAGERY/OTHER", "VAL_DATE": "2014-02-10T00:00:00.000Z", "WEBSITE": "http://www.bakersfieldmemorial.org", "STATE_ID": "NOT AVAILABLE", "ALT_NAME": "NOT AVAILABLE", "ST_FIPS": "06", "OWNER": "NON-PROFIT", "TTL_STAFF": -999, "BEDS": 426, "TRAUMA": "NOT AVAILABLE", "HELIPAD": "Y" }, "geometry": { "type": "Polygon", "coordinates": [ [ [ -119.0031483, 35.292619500000036 ], [ -119.029679700000017, 35.292166 ], [ -119.034671, 35.295968 ], [ -119.1214548, 35.362054 ], [ -119.12218009999998, 35.418244 ], [ -119.1189449, 35.444412600000021 ], [ -119.074657, 35.473914 ], [ -119.0217, 35.473685 ], [ -118.918541, 35.447295 ], [ -118.840400200000019, 35.413770100000015 ], [ -118.896461, 35.354023 ], [ -118.914266, 35.342512 ], [ -119.0031483, 35.292619500000036 ] ] ] } },
{ "type": "Feature", "properties": { "OBJECTID": 2516, "ID": "0043493405", "NAME": "SIERRA VISTA REGIONAL MEDICAL CENTER", "ADDRESS": "1010 MURRAY STREET", "CITY": "SAN LUIS OBISPO", "STATE": "CA", "ZIP": "93405", "ZIP4": "NOT AVAILABLE", "TELEPHONE": "NOT AVAILABLE", "TYPE": "GENERAL ACUTE CARE", "STATUS": "OPEN", "POPULATION": 164, "COUNTY": "SAN LUIS OBISPO", "COUNTYFIPS": "06079", "COUNTRY": "USA", "LATITUDE": 35.291796785000003, "LONGITUDE": -120.66605068, "NAICS_CODE": "622110", "NAICS_DESC": "GENERAL MEDICAL AND SURGICAL HOSPITALS", "SOURCE": "http://www.oshpd.ca.gov/HID/Facility-Listing.html", "SOURCEDATE": "2018-08-08T00:00:00.000Z", "VAL_METHOD": "IMAGERY", "VAL_DATE": "2014-02-10T00:00:00.000Z", "WEBSITE": "http://www.sierravistaregional.com", "STATE_ID": "NOT AVAILABLE", "ALT_NAME": "NOT AVAILABLE", "ST_FIPS": "06", "OWNER": "PROPRIETARY", "TTL_STAFF": -999, "BEDS": 164, "TRAUMA": "LEVEL III", "HELIPAD": "Y" }, "geometry": { "type": "Polygon", "coordinates": [ [ [ -120.680161, 35.161509 ], [ -120.6845608, 35.161189100000051 ], [ -120.685112, 35.16126 ], [ -120.688155, 35.162872 ], [ -120.723451600000018, 35.1827453 ], [ -120.8074877, 35.361878 ], [ -120.807337, 35.36229 ], [ -120.6292008, 35.384418100000019 ], [ -120.6275985, 35.383445099999989 ], [ -120.6201791, 35.325513 ], [ -120.6121504, 35.202839300000022 ], [ -120.680161, 35.161509 ] ] ] } },
{ "type": "Feature", "properties": { "OBJECTID": 2517, "ID": "0049691361", "NAME": "THOUSAND OAKS SURGICAL HOSPITAL", "ADDRESS": "401 ROLLING OAKS DRIVE", "CITY": "THOUSAND OAKS", "STATE": "CA", "ZIP": "91361", "ZIP4": "NOT AVAILABLE", "TELEPHONE": "NOT AVAILABLE", "TYPE": "GENERAL ACUTE CARE", "STATUS": "OPEN", "POPULATION": 21, "COUNTY": "VENTURA", "COUNTYFIPS": "06111", "COUNTRY": "USA", "LATITUDE": 34.174860971000001, "LONGITUDE": -118.86938418699999, "NAICS_CODE": "622110", "NAICS_DESC": "GENERAL MEDICAL AND SURGICAL HOSPITALS", "SOURCE": "http://www.oshpd.ca.gov/HID/Facility-Listing.html", "SOURCEDATE": "2018-08-08T00:00:00.000Z", "VAL_METHOD": "IMAGERY", "VAL_DATE": "2014-02-10T00:00:00.000Z", "WEBSITE": "http://www.toshospital.com", "STATE_ID": "NOT AVAILABLE", "ALT_NAME": "NOT AVAILABLE", "ST_FIPS": "06", "OWNER": "PROPRIETARY", "TTL_STAFF": -999, "BEDS": 21, "TRAUMA": "NOT AVAILABLE", "HELIPAD": "N" }, "geometry": { "type": "Polygon", "coordinates": [ [ [ -118.7240159, 34.130862700000016 ], [ -118.75219580000001, 34.1262551 ], [ -118.854930100000018, 34.12177 ], [ -118.8636887, 34.122055300000014 ], [ -118.9775366, 34.156301500000041 ], [ -119.025758700000011, 34.215839100000018 ], [ -118.862583500000014, 34.29044590000003 ], [ -118.796157799999989, 34.2607431 ], [ -118.714775299999985, 34.139109399999981 ], [ -118.7240159, 34.130862700000016 ] ] ] } },
{ "type": "Feature", "properties": { "OBJECTID": 2536, "ID": "0044393545", "NAME": "SOUTHERN INYO HOSPITAL", "ADDRESS": "501 EAST LOCUST STREET", "CITY": "LONE PINE", "STATE": "CA", "ZIP": "93545", "ZIP4": "NOT AVAILABLE", "TELEPHONE": "NOT AVAILABLE", "TYPE": "GENERAL ACUTE CARE", "STATUS": "OPEN", "POPULATION": 37, "COUNTY": "INYO", "COUNTYFIPS": "06027", "COUNTRY": "USA", "LATITUDE": 36.609100200999997, "LONGITUDE": -118.05791185299999, "NAICS_CODE": "622110", "NAICS_DESC": "GENERAL MEDICAL AND SURGICAL HOSPITALS", "SOURCE": "http://www.oshpd.ca.gov/HID/Facility-Listing.html", "SOURCEDATE": "2018-08-08T00:00:00.000Z", "VAL_METHOD": "IMAGERY", "VAL_DATE": "2014-02-10T00:00:00.000Z", "WEBSITE": "http://www.sihd.org", "STATE_ID": "NOT AVAILABLE", "ALT_NAME": "NOT AVAILABLE", "ST_FIPS": "06", "OWNER": "GOVERNMENT - DISTRICT/AUTHORITY", "TTL_STAFF": -999, "BEDS": 37, "TRAUMA": "NOT AVAILABLE", "HELIPAD": "Y" }, "geometry": { "type": "Polygon", "coordinates": [ [ [ -118.034116885002931, 36.491151563611879 ], [ -118.160195900000019, 36.595248 ], [ -118.140216700000011, 36.7220838 ], [ -118.1398838, 36.722250899999977 ], [ -118.019712, 36.634327 ], [ -118.0153233, 36.627145499999962 ], [ -117.9969979, 36.573979699999988 ], [ -118.034116885002931, 36.491151563611879 ] ] ] } },
{ "type": "Feature", "properties": { "OBJECTID": 2539, "ID": "0002893308", "NAME": "BAKERSFIELD HEART HOSPITAL", "ADDRESS": "3001 SILLECT AVENUE", "CITY": "BAKERSFIELD", "STATE": "CA", "ZIP": "93308", "ZIP4": "NOT AVAILABLE", "TELEPHONE": "NOT AVAILABLE", "TYPE": "GENERAL ACUTE CARE", "STATUS": "OPEN", "POPULATION": 47, "COUNTY": "KERN", "COUNTYFIPS": "06029", "COUNTRY": "USA", "LATITUDE": 35.384829607, "LONGITUDE": -119.039996401, "NAICS_CODE": "622110", "NAICS_DESC": "GENERAL MEDICAL AND SURGICAL HOSPITALS", "SOURCE": "http://www.oshpd.ca.gov/HID/Facility-Listing.html", "SOURCEDATE": "2018-08-08T00:00:00.000Z", "VAL_METHOD": "IMAGERY", "VAL_DATE": "2014-02-10T00:00:00.000Z", "WEBSITE": "http://www.bakersfieldhearthospital.com", "STATE_ID": "NOT AVAILABLE", "ALT_NAME": "NOT AVAILABLE", "ST_FIPS": "06", "OWNER": "PROPRIETARY", "TTL_STAFF": -999, "BEDS": 47, "TRAUMA": "NOT AVAILABLE", "HELIPAD": "N" }, "geometry": { "type": "Polygon", "coordinates": [ [ [ -119.016372, 35.241199 ], [ -119.174935, 35.354803100000019 ], [ -119.175409799999983, 35.355222400000052 ], [ -119.175584, 35.355395700000017 ], [ -119.172061700000015, 35.441551900000015 ], [ -119.159477200000012, 35.49613549999998 ], [ -119.076953, 35.50368 ], [ -119.074883, 35.503202 ], [ -118.882520499999984, 35.398170699999973 ], [ -118.882449300000019, 35.398009899999977 ], [ -118.908529200000018, 35.351727300000022 ], [ -118.912778, 35.347113 ], [ -119.016372, 35.241199 ] ] ] } },
{ "type": "Feature", "properties": { "OBJECTID": 2604, "ID": "0008993212", "NAME": "CORCORAN DISTRICT HOSPITAL", "ADDRESS": "1310 HANNA AVENUE", "CITY": "CORCORAN", "STATE": "CA", "ZIP": "93212", "ZIP4": "NOT AVAILABLE", "TELEPHONE": "NOT AVAILABLE", "TYPE": "GENERAL ACUTE CARE", "STATUS": "CLOSED", "POPULATION": 32, "COUNTY": "KINGS", "COUNTYFIPS": "06031", "COUNTRY": "USA", "LATITUDE": 36.100079450000102, "LONGITUDE": -119.56395266600001, "NAICS_CODE": "622110", "NAICS_DESC": "GENERAL MEDICAL AND SURGICAL HOSPITALS", "SOURCE": "http://www.oshpd.ca.gov/HID/Products/Listings.html", "SOURCEDATE": "2012-08-13T00:00:00.000Z", "VAL_METHOD": "IMAGERY/OTHER", "VAL_DATE": "2014-02-10T00:00:00.000Z", "WEBSITE": "http://www.corcoranhospital.org", "STATE_ID": "NOT AVAILABLE", "ALT_NAME": "NOT AVAILABLE", "ST_FIPS": "06", "OWNER": "GOVERNMENT - DISTRICT/AUTHORITY", "TTL_STAFF": -999, "BEDS": 32, "TRAUMA": "NOT AVAILABLE", "HELIPAD": "N" }, "geometry": { "type": "Polygon", "coordinates": [ [ [ -119.57191889014338, 36.044454410299402 ], [ -119.589301923871218, 36.05075934841701 ], [ -119.625732616246779, 36.079915129348933 ], [ -119.644167068381776, 36.097960166039428 ], [ -119.644192069376416, 36.098680166545719 ], [ -119.644343983087097, 36.108828874554057 ], [ -119.608672392379432, 36.159598891019272 ], [ -119.600479079240003, 36.159763430960311 ], [ -119.50955338898406, 36.123396805478158 ], [ -119.500691158199658, 36.108785418404103 ], [ -119.509511259368551, 36.097869858848163 ], [ -119.536280666998437, 36.069416394323319 ], [ -119.553892871073131, 36.050781492241271 ], [ -119.57191889014338, 36.044454410299402 ] ] ] } },
{ "type": "Feature", "properties": { "OBJECTID": 2605, "ID": "0050493465", "NAME": "TWIN CITIES COMMUNITY HOSPITAL", "ADDRESS": "1100 LAS TABLAS ROAD", "CITY": "TEMPLETON", "STATE": "CA", "ZIP": "93465", "ZIP4": "NOT AVAILABLE", "TELEPHONE": "NOT AVAILABLE", "TYPE": "GENERAL ACUTE CARE", "STATUS": "OPEN", "POPULATION": 122, "COUNTY": "SAN LUIS OBISPO", "COUNTYFIPS": "06079", "COUNTRY": "USA", "LATITUDE": 35.555237886, "LONGITUDE": -120.719588434, "NAICS_CODE": "622110", "NAICS_DESC": "GENERAL MEDICAL AND SURGICAL HOSPITALS", "SOURCE": "http://www.oshpd.ca.gov/HID/Facility-Listing.html", "SOURCEDATE": "2018-08-08T00:00:00.000Z", "VAL_METHOD": "IMAGERY/OTHER", "VAL_DATE": "2014-02-10T00:00:00.000Z", "WEBSITE": "http://www.twincitieshospital.com", "STATE_ID": "NOT AVAILABLE", "ALT_NAME": "NOT AVAILABLE", "ST_FIPS": "06", "OWNER": "PROPRIETARY", "TTL_STAFF": -999, "BEDS": 122, "TRAUMA": "NOT AVAILABLE", "HELIPAD": "Y" }, "geometry": { "type": "Polygon", "coordinates": [ [ [ -120.6387523, 35.4432999 ], [ -120.681596400000018, 35.459151799999965 ], [ -120.804628600000015, 35.5399177 ], [ -120.790852, 35.5710645 ], [ -120.6967844, 35.66716380000004 ], [ -120.696231699999984, 35.667185100000012 ], [ -120.695995200000013, 35.667163200000019 ], [ -120.6581044, 35.651828399999971 ], [ -120.6493824, 35.6446337 ], [ -120.63893, 35.446877 ], [ -120.6387523, 35.4432999 ] ] ] } },
{ "type": "Feature", "properties": { "OBJECTID": 2625, "ID": "0000293654", "NAME": "ADVENTIST MEDICAL CENTER - REEDLEY", "ADDRESS": "372 WEST CYPRESS AVENUE", "CITY": "REEDLEY", "STATE": "CA", "ZIP": "93654", "ZIP4": "NOT AVAILABLE", "TELEPHONE": "NOT AVAILABLE", "TYPE": "GENERAL ACUTE CARE", "STATUS": "OPEN", "POPULATION": 44, "COUNTY": "FRESNO", "COUNTYFIPS": "06019", "COUNTRY": "USA", "LATITUDE": 36.608268330999998, "LONGITUDE": -119.45214935, "NAICS_CODE": "622110", "NAICS_DESC": "GENERAL MEDICAL AND SURGICAL HOSPITALS", "SOURCE": "http://www.oshpd.ca.gov/HID/Facility-Listing.html", "SOURCEDATE": "2018-08-08T00:00:00.000Z", "VAL_METHOD": "IMAGERY/OTHER", "VAL_DATE": "2014-02-10T00:00:00.000Z", "WEBSITE": "http://www.adventisthealthcv.com", "STATE_ID": "NOT AVAILABLE", "ALT_NAME": "NOT AVAILABLE", "ST_FIPS": "06", "OWNER": "GOVERNMENT - DISTRICT/AUTHORITY", "TTL_STAFF": -999, "BEDS": 44, "TRAUMA": "NOT AVAILABLE", "HELIPAD": "Y" }, "geometry": { "type": "Polygon", "coordinates": [ [ [ -119.448696900000016, 36.517365799999958 ], [ -119.583938099999983, 36.604993599999972 ], [ -119.583929600000019, 36.605122100000038 ], [ -119.5568337, 36.623125799999961 ], [ -119.457419099999967, 36.676822199999982 ], [ -119.385618800000017, 36.632806900000034 ], [ -119.340664, 36.603467499999987 ], [ -119.34067, 36.603094100000014 ], [ -119.4111928, 36.5460846 ], [ -119.448696900000016, 36.517365799999958 ] ] ] } },
{ "type": "Feature", "properties": { "OBJECTID": 2636, "ID": "0022393277", "NAME": "KAWEAH DELTA SKILLED NURSING FACILITY", "ADDRESS": "1633 SOUTH COURT STREET", "CITY": "VISALIA", "STATE": "CA", "ZIP": "93277", "ZIP4": "NOT AVAILABLE", "TELEPHONE": "NOT AVAILABLE", "TYPE": "GENERAL ACUTE CARE", "STATUS": "OPEN", "POPULATION": 54, "COUNTY": "TULARE", "COUNTYFIPS": "06107", "COUNTRY": "USA", "LATITUDE": 36.315776182, "LONGITUDE": -119.29248312, "NAICS_CODE": "622110", "NAICS_DESC": "GENERAL MEDICAL AND SURGICAL HOSPITALS", "SOURCE": "http://www.oshpd.ca.gov/HID/Facility-Listing.html", "SOURCEDATE": "2018-08-08T00:00:00.000Z", "VAL_METHOD": "IMAGERY/OTHER", "VAL_DATE": "2014-02-10T00:00:00.000Z", "WEBSITE": "http://www.kaweahdelta.org", "STATE_ID": "NOT AVAILABLE", "ALT_NAME": "NOT AVAILABLE", "ST_FIPS": "06", "OWNER": "GOVERNMENT - DISTRICT/AUTHORITY", "TTL_STAFF": -999, "BEDS": 54, "TRAUMA": "NOT AVAILABLE", "HELIPAD": "N" }, "geometry": { "type": "Polygon", "coordinates": [ [ [ -119.260505140159594, 36.240350477047933 ], [ -119.33109880711396, 36.234294909606682 ], [ -119.448422901287358, 36.327370642082087 ], [ -119.448425300486448, 36.327695942756506 ], [ -119.428169468500329, 36.355776960139018 ], [ -119.296196588407284, 36.40702689078072 ], [ -119.215594426245772, 36.380017339381709 ], [ -119.134878520287671, 36.327321144158113 ], [ -119.134901422433671, 36.326272043147945 ], [ -119.134929524773952, 36.325129842034848 ], [ -119.167542824694365, 36.297497082183185 ], [ -119.260505140159594, 36.240350477047933 ] ] ] } },
{ "type": "Feature", "properties": { "OBJECTID": 2651, "ID": "0071993420", "NAME": "MARIAN REGIONAL MEDICAL CENTER, ARROYO GRANDE", "ADDRESS": "345 SOUTH HALCYON ROAD", "CITY": "ARROYO GRANDE", "STATE": "CA", "ZIP": "93420", "ZIP4": "NOT AVAILABLE", "TELEPHONE": "NOT AVAILABLE", "TYPE": "GENERAL ACUTE CARE", "STATUS": "OPEN", "POPULATION": 67, "COUNTY": "SAN LUIS OBISPO", "COUNTYFIPS": "06079", "COUNTRY": "USA", "LATITUDE": 35.11310809, "LONGITUDE": -120.590936196, "NAICS_CODE": "622110", "NAICS_DESC": "GENERAL MEDICAL AND SURGICAL HOSPITALS", "SOURCE": "http://www.oshpd.ca.gov/HID/Facility-Listing.html", "SOURCEDATE": "2018-08-08T00:00:00.000Z", "VAL_METHOD": "IMAGERY/OTHER", "VAL_DATE": "2015-01-14T00:00:00.000Z", "WEBSITE": "https://www.dignityhealth.org/central-coast/locations/arroyo-grande", "STATE_ID": "NOT AVAILABLE", "ALT_NAME": "ARROYO GRANDE COMMUNITY HOSPITAL", "ST_FIPS": "06", "OWNER": "NOT AVAILABLE", "TTL_STAFF": -999, "BEDS": 67, "TRAUMA": "NOT AVAILABLE", "HELIPAD": "N" }, "geometry": { "type": "Polygon", "coordinates": [ [ [ -120.479338, 35.031038 ], [ -120.5573127, 35.023195400000027 ], [ -120.5626052, 35.022965699999972 ], [ -120.5908564, 35.0485994 ], [ -120.707259900000011, 35.174789900000022 ], [ -120.7189866, 35.187857 ], [ -120.707601, 35.195418 ], [ -120.700132, 35.198317 ], [ -120.698242, 35.198546 ], [ -120.6088943, 35.200688599999964 ], [ -120.5667099, 35.188898500000036 ], [ -120.5533064, 35.1847995 ], [ -120.52902880000002, 35.173434500000035 ], [ -120.5043091, 35.13495889999998 ], [ -120.4771457, 35.042071799999988 ], [ -120.4769136, 35.03251879999997 ], [ -120.479338, 35.031038 ] ] ] } },
{ "type": "Feature", "properties": { "OBJECTID": 2688, "ID": "0032893023", "NAME": "OJAI MANOR CONVALESCENT HOSPITAL", "ADDRESS": "1306 MARICOPA HIGHWAY", "CITY": "OJAI", "STATE": "CA", "ZIP": "93023", "ZIP4": "NOT AVAILABLE", "TELEPHONE": "NOT AVAILABLE", "TYPE": "GENERAL ACUTE CARE", "STATUS": "OPEN", "POPULATION": 66, "COUNTY": "VENTURA", "COUNTYFIPS": "06111", "COUNTRY": "USA", "LATITUDE": 34.442959801000001, "LONGITUDE": -119.26437241399999, "NAICS_CODE": "622110", "NAICS_DESC": "GENERAL MEDICAL AND SURGICAL HOSPITALS", "SOURCE": "http://www.oshpd.ca.gov/HID/Facility-Listing.html", "SOURCEDATE": "2018-08-08T00:00:00.000Z", "VAL_METHOD": "IMAGERY/OTHER", "VAL_DATE": "2014-02-10T00:00:00.000Z", "WEBSITE": "NOT AVAILABLE", "STATE_ID": "NOT AVAILABLE", "ALT_NAME": "NOT AVAILABLE", "ST_FIPS": "06", "OWNER": "NON-PROFIT", "TTL_STAFF": -999, "BEDS": 66, "TRAUMA": "NOT AVAILABLE", "HELIPAD": "N" }, "geometry": { "type": "Polygon", "coordinates": [ [ [ -119.305333, 34.373469 ], [ -119.3062532, 34.373392 ], [ -119.3398881, 34.419322899999969 ], [ -119.306285, 34.493267 ], [ -119.300278, 34.497361 ], [ -119.1993494, 34.473805399999989 ], [ -119.183563, 34.460528 ], [ -119.182242, 34.459093 ], [ -119.173508, 34.436256 ], [ -119.181553699999981, 34.431971200000021 ], [ -119.305333, 34.373469 ] ] ] } },
{ "type": "Feature", "properties": { "OBJECTID": 2689, "ID": "0045693030", "NAME": "ST. JOHN'S REGIONAL MEDICAL CENTER", "ADDRESS": "1600 NORTH ROSE AVENUE", "CITY": "OXNARD", "STATE": "CA", "ZIP": "93030", "ZIP4": "NOT AVAILABLE", "TELEPHONE": "NOT AVAILABLE", "TYPE": "GENERAL ACUTE CARE", "STATUS": "OPEN", "POPULATION": 265, "COUNTY": "VENTURA", "COUNTYFIPS": "06111", "COUNTRY": "USA", "LATITUDE": 34.21633831, "LONGITUDE": -119.155718263, "NAICS_CODE": "622110", "NAICS_DESC": "GENERAL MEDICAL AND SURGICAL HOSPITALS", "SOURCE": "http://www.oshpd.ca.gov/HID/Facility-Listing.html", "SOURCEDATE": "2018-08-08T00:00:00.000Z", "VAL_METHOD": "IMAGERY/OTHER", "VAL_DATE": "2014-02-10T00:00:00.000Z", "WEBSITE": "http://www.stjohnshealth.org", "STATE_ID": "NOT AVAILABLE", "ALT_NAME": "NOT AVAILABLE", "ST_FIPS": "06", "OWNER": "NON-PROFIT", "TTL_STAFF": -999, "BEDS": 265, "TRAUMA": "NOT AVAILABLE", "HELIPAD": "Y" }, "geometry": { "type": "Polygon", "coordinates": [ [ [ -119.083171400000012, 34.11392409999997 ], [ -119.166712, 34.14014 ], [ -119.18566460000001, 34.147577099999964 ], [ -119.2252832, 34.175231100000033 ], [ -119.2372542, 34.188089499999975 ], [ -119.2431508, 34.197813 ], [ -119.2893269, 34.276614 ], [ -119.215912, 34.293854199999984 ], [ -119.1613048, 34.294994100000025 ], [ -119.076724, 34.27282 ], [ -119.057479, 34.263702 ], [ -119.0132338, 34.2383064 ], [ -118.988102, 34.205253 ], [ -119.083171400000012, 34.11392409999997 ] ] ] } },
{ "type": "Feature", "properties": { "OBJECTID": 2727, "ID": "0008793703", "NAME": "COMMUNITY SUBACUTE AND TRANSITIONAL CARE CENTER", "ADDRESS": "3003 NORTH MARIPOSA STREET", "CITY": "FRESNO", "STATE": "CA", "ZIP": "93703", "ZIP4": "NOT AVAILABLE", "TELEPHONE": "NOT AVAILABLE", "TYPE": "GENERAL ACUTE CARE", "STATUS": "OPEN", "POPULATION": 106, "COUNTY": "FRESNO", "COUNTYFIPS": "06019", "COUNTRY": "USA", "LATITUDE": 36.777715354000101, "LONGITUDE": -119.779677103, "NAICS_CODE": "622110", "NAICS_DESC": "GENERAL MEDICAL AND SURGICAL HOSPITALS", "SOURCE": "http://www.oshpd.ca.gov/HID/Facility-Listing.html", "SOURCEDATE": "2018-08-08T00:00:00.000Z", "VAL_METHOD": "IMAGERY/OTHER", "VAL_DATE": "2014-02-10T00:00:00.000Z", "WEBSITE": "http://www.communitymedical.org/", "STATE_ID": "NOT AVAILABLE", "ALT_NAME": "NOT AVAILABLE", "ST_FIPS": "06", "OWNER": "NON-PROFIT", "TTL_STAFF": -999, "BEDS": 106, "TRAUMA": "NOT AVAILABLE", "HELIPAD": "N" }, "geometry": { "type": "Polygon", "coordinates": [ [ [ -119.724332, 36.663554200000057 ], [ -119.7268305, 36.663532399999973 ], [ -119.7907934, 36.663298200000014 ], [ -119.8987746, 36.735377800000023 ], [ -119.8913981, 36.8116112 ], [ -119.8535285, 36.838398 ], [ -119.8498256, 36.841009 ], [ -119.7784245, 36.888128499999979 ], [ -119.7653802, 36.896309700000046 ], [ -119.7652287, 36.89624539999997 ], [ -119.6646407, 36.8441501 ], [ -119.6642618, 36.843425099999983 ], [ -119.6639709, 36.842527399999973 ], [ -119.645994800000011, 36.7371646 ], [ -119.6459929, 36.7369207 ], [ -119.724332, 36.663554200000057 ] ] ] } },
{ "type": "Feature", "properties": { "OBJECTID": 2728, "ID": "0018793720", "NAME": "KAISER FND HOSP - FRESNO", "ADDRESS": "7300 NORTH FRESNO STREET", "CITY": "FRESNO", "STATE": "CA", "ZIP": "93720", "ZIP4": "NOT AVAILABLE", "TELEPHONE": "NOT AVAILABLE", "TYPE": "GENERAL ACUTE CARE", "STATUS": "OPEN", "POPULATION": 169, "COUNTY": "FRESNO", "COUNTYFIPS": "06019", "COUNTRY": "USA", "LATITUDE": 36.842529688000099, "LONGITUDE": -119.780305097, "NAICS_CODE": "622110", "NAICS_DESC": "GENERAL MEDICAL AND SURGICAL HOSPITALS", "SOURCE": "http://www.oshpd.ca.gov/HID/Facility-Listing.html", "SOURCEDATE": "2018-08-08T00:00:00.000Z", "VAL_METHOD": "IMAGERY", "VAL_DATE": "2014-02-10T00:00:00.000Z", "WEBSITE": "http://www.kaiserpermanente.org", "STATE_ID": "NOT AVAILABLE", "ALT_NAME": "NOT AVAILABLE", "ST_FIPS": "06", "OWNER": "NON-PROFIT", "TTL_STAFF": -999, "BEDS": 169, "TRAUMA": "NOT AVAILABLE", "HELIPAD": "N" }, "geometry": { "type": "Polygon", "coordinates": [ [ [ -119.7859554, 36.703781699999965 ], [ -119.790850899999981, 36.706808399999986 ], [ -119.838855699999982, 36.738532499999977 ], [ -119.910654100000016, 36.836661 ], [ -119.910659900000013, 36.836742699999967 ], [ -119.9106624, 36.836880199999989 ], [ -119.90507030000002, 36.842481800000023 ], [ -119.730304, 36.93767869999995 ], [ -119.7301471, 36.937676 ], [ -119.6414335, 36.85406209999995 ], [ -119.648078400000017, 36.837407 ], [ -119.7065006, 36.752829 ], [ -119.7740141, 36.7066564 ], [ -119.7859554, 36.703781699999965 ] ] ] } },
{ "type": "Feature", "properties": { "OBJECTID": 2729, "ID": "0041493662", "NAME": "ADVENTIST MEDICAL CENTER-SELMA", "ADDRESS": "1141 ROSE AVENUE", "CITY": "SELMA", "STATE": "CA", "ZIP": "93662", "ZIP4": "NOT AVAILABLE", "TELEPHONE": "NOT AVAILABLE", "TYPE": "GENERAL ACUTE CARE", "STATUS": "OPEN", "POPULATION": 57, "COUNTY": "FRESNO", "COUNTYFIPS": "06019", "COUNTRY": "USA", "LATITUDE": 36.567867037, "LONGITUDE": -119.59866736399999, "NAICS_CODE": "622110", "NAICS_DESC": "GENERAL MEDICAL AND SURGICAL HOSPITALS", "SOURCE": "http://www.oshpd.ca.gov/HID/Facility-Listing.html", "SOURCEDATE": "2018-08-08T00:00:00.000Z", "VAL_METHOD": "IMAGERY", "VAL_DATE": "2014-02-10T00:00:00.000Z", "WEBSITE": "http://www.adventisthealthcv.com", "STATE_ID": "NOT AVAILABLE", "ALT_NAME": "NOT AVAILABLE", "ST_FIPS": "06", "OWNER": "NON-PROFIT", "TTL_STAFF": -999, "BEDS": 57, "TRAUMA": "NOT AVAILABLE", "HELIPAD": "N" }, "geometry": { "type": "Polygon", "coordinates": [ [ [ -119.511892489799664, 36.488805006411873 ], [ -119.544102472379834, 36.484536390406397 ], [ -119.547776469331254, 36.484514366903156 ], [ -119.629112, 36.5036311 ], [ -119.6917151, 36.547172 ], [ -119.708979200000016, 36.6344162 ], [ -119.71229240000001, 36.656291699999976 ], [ -119.7104642, 36.656295899999989 ], [ -119.699754399999989, 36.6562931 ], [ -119.610637100000019, 36.6489817 ], [ -119.570164, 36.63415 ], [ -119.556610399999983, 36.626875699999935 ], [ -119.529868800000017, 36.610300799999948 ], [ -119.5209858, 36.604665599999962 ], [ -119.503017200000016, 36.568419099999979 ], [ -119.50335920000002, 36.546916499999973 ], [ -119.5033623, 36.5467771 ], [ -119.511892489799664, 36.488805006411873 ] ] ] } },
{ "type": "Feature", "properties": { "OBJECTID": 2731, "ID": "0009993215", "NAME": "DELANO REGIONAL MEDICAL CENTER", "ADDRESS": "1401 GARCES HIGHWAY", "CITY": "DELANO", "STATE": "CA", "ZIP": "93215", "ZIP4": "NOT AVAILABLE", "TELEPHONE": "NOT AVAILABLE", "TYPE": "GENERAL ACUTE CARE", "STATUS": "OPEN", "POPULATION": 100, "COUNTY": "KERN", "COUNTYFIPS": "06029", "COUNTRY": "USA", "LATITUDE": 35.762264175, "LONGITUDE": -119.23882200200001, "NAICS_CODE": "622110", "NAICS_DESC": "GENERAL MEDICAL AND SURGICAL HOSPITALS", "SOURCE": "http://www.oshpd.ca.gov/HID/Facility-Listing.html", "SOURCEDATE": "2018-08-08T00:00:00.000Z", "VAL_METHOD": "IMAGERY/OTHER", "VAL_DATE": "2014-02-10T00:00:00.000Z", "WEBSITE": "http://www.drmc.com", "STATE_ID": "NOT AVAILABLE", "ALT_NAME": "NOT AVAILABLE", "ST_FIPS": "06", "OWNER": "NON-PROFIT", "TTL_STAFF": -999, "BEDS": 100, "TRAUMA": "NOT AVAILABLE", "HELIPAD": "N" }, "geometry": { "type": "Polygon", "coordinates": [ [ [ -119.220369, 35.644987700000037 ], [ -119.232167, 35.645428 ], [ -119.344446, 35.761208 ], [ -119.2767727, 35.895561800000017 ], [ -119.2681488, 35.8943504 ], [ -119.2641636, 35.89187010000002 ], [ -119.1326953, 35.7615778 ], [ -119.134044, 35.759437 ], [ -119.219686199999984, 35.645677 ], [ -119.220369, 35.644987700000037 ] ] ] } },
{ "type": "Feature", "properties": { "OBJECTID": 2732, "ID": "0015393309", "NAME": "BAKERSFIELD BEHAVORIAL HEALTHCARE HOSPITAL, LLC", "ADDRESS": "5201 WHITE LANE", "CITY": "BAKERSFIELD", "STATE": "CA", "ZIP": "93309", "ZIP4": "NOT AVAILABLE", "TELEPHONE": "NOT AVAILABLE", "TYPE": "PSYCHIATRIC", "STATUS": "OPEN", "POPULATION": 90, "COUNTY": "KERN", "COUNTYFIPS": "06029", "COUNTRY": "USA", "LATITUDE": 35.316723574999997, "LONGITUDE": -119.060534578, "NAICS_CODE": "622110", "NAICS_DESC": "GENERAL MEDICAL AND SURGICAL HOSPITALS", "SOURCE": "http://www.oshpd.ca.gov/HID/Facility-Listing.html", "SOURCEDATE": "2018-08-08T00:00:00.000Z", "VAL_METHOD": "IMAGERY/OTHER", "VAL_DATE": "2014-02-10T00:00:00.000Z", "WEBSITE": "http://www.bakersfieldbehavioral.com/", "STATE_ID": "NOT AVAILABLE", "ALT_NAME": "GOOD SAMARITAN HOSPITAL-SOUTHWEST D/P APH", "ST_FIPS": "06", "OWNER": "PROPRIETARY", "TTL_STAFF": -999, "BEDS": 90, "TRAUMA": "NOT AVAILABLE", "HELIPAD": "N" }, "geometry": { "type": "Polygon", "coordinates": [ [ [ -119.0101811, 35.206671 ], [ -119.0215145, 35.2085942 ], [ -119.074452, 35.239151 ], [ -119.1097921, 35.264828499999958 ], [ -119.1458656, 35.296225 ], [ -119.1514085, 35.3396869 ], [ -119.1456433, 35.35438759999996 ], [ -119.1377496, 35.36212109999996 ], [ -119.0642054, 35.4257236 ], [ -119.039013, 35.419577500000067 ], [ -118.942888, 35.352107499999988 ], [ -118.975385800000012, 35.266882300000034 ], [ -119.0030947, 35.2085977 ], [ -119.0101811, 35.206671 ] ] ] } },
{ "type": "Feature", "properties": { "OBJECTID": 2736, "ID": "0014593930", "NAME": "GEORGE L MEE MEMORIAL HOSPITAL", "ADDRESS": "300 CANAL STREET", "CITY": "KING CITY", "STATE": "CA", "ZIP": "93930", "ZIP4": "NOT AVAILABLE", "TELEPHONE": "NOT AVAILABLE", "TYPE": "GENERAL ACUTE CARE", "STATUS": "OPEN", "POPULATION": 94, "COUNTY": "MONTEREY", "COUNTYFIPS": "06053", "COUNTRY": "USA", "LATITUDE": 36.205812433000098, "LONGITUDE": -121.13285734599999, "NAICS_CODE": "622110", "NAICS_DESC": "GENERAL MEDICAL AND SURGICAL HOSPITALS", "SOURCE": "http://www.oshpd.ca.gov/HID/Facility-Listing.html", "SOURCEDATE": "2018-08-08T00:00:00.000Z", "VAL_METHOD": "IMAGERY/OTHER", "VAL_DATE": "2014-02-10T00:00:00.000Z", "WEBSITE": "http://www.meememorial.com", "STATE_ID": "NOT AVAILABLE", "ALT_NAME": "NOT AVAILABLE", "ST_FIPS": "06", "OWNER": "NON-PROFIT", "TTL_STAFF": -999, "BEDS": 94, "TRAUMA": "NOT AVAILABLE", "HELIPAD": "Y" }, "geometry": { "type": "Polygon", "coordinates": [ [ [ -121.021759788099303, 36.119467095601635 ], [ -121.16033001103591, 36.159996061943353 ], [ -121.189182050054796, 36.181004050658196 ], [ -121.214141290575, 36.298112437278128 ], [ -121.214035090587686, 36.298293037352025 ], [ -121.209561095127981, 36.297275042165005 ], [ -121.14485917675897, 36.268722125031736 ], [ -121.046343073743998, 36.18859917897413 ], [ -121.014710815930997, 36.12773611148323 ], [ -121.015714811524759, 36.126483109056757 ], [ -121.021759788099303, 36.119467095601635 ] ] ] } },
{ "type": "Feature", "properties": { "OBJECTID": 6034, "ID": "0004689801", "NAME": "NORTHEASTERN NEVADA REGIONAL HOSPITAL", "ADDRESS": "2001 ERRECART BOULEVARD", "CITY": "ELKO", "STATE": "NV", "ZIP": "89801", "ZIP4": "NOT AVAILABLE", "TELEPHONE": "(775) 738-5151", "TYPE": "GENERAL ACUTE CARE", "STATUS": "OPEN", "POPULATION": 50, "COUNTY": "ELKO", "COUNTYFIPS": "32007", "COUNTRY": "USA", "LATITUDE": 40.823443768000097, "LONGITUDE": -115.730631041, "NAICS_CODE": "622110", "NAICS_DESC": "GENERAL MEDICAL AND SURGICAL HOSPITALS", "SOURCE": "http://dpbh.nv.gov/Reg/HealthFacilities/Community_Resources/", "SOURCEDATE": "2018-08-09T00:00:00.000Z", "VAL_METHOD": "IMAGERY/OTHER", "VAL_DATE": "2013-11-26T00:00:00.000Z", "WEBSITE": "http://www.nnrhospital.com", "STATE_ID": "642-RUH-32", "ALT_NAME": "NOT AVAILABLE", "ST_FIPS": "32", "OWNER": "PROPRIETARY", "TTL_STAFF": -999, "BEDS": 50, "TRAUMA": "NOT AVAILABLE", "HELIPAD": "Y" }, "geometry": { "type": "Polygon", "coordinates": [ [ [ -115.698728, 40.7425405 ], [ -115.8235594, 40.8088565 ], [ -115.8151856, 40.841809400000017 ], [ -115.7978011, 40.8525938 ], [ -115.79430570000001, 40.8541951 ], [ -115.711615, 40.88745 ], [ -115.6517978, 40.800864700000027 ], [ -115.64146, 40.78104 ], [ -115.639241, 40.770698 ], [ -115.698728, 40.7425405 ] ] ] } },
{ "type": "Feature", "properties": { "OBJECTID": 4143, "ID": "0009293306", "NAME": "CRESTWOOD PSYCHIATRIC HEALTH FACILITY 2", "ADDRESS": "6700 EUCALYPTUS DRIVE, STE C", "CITY": "BAKERSFIELD", "STATE": "CA", "ZIP": "93306", "ZIP4": "NOT AVAILABLE", "TELEPHONE": "(661) 363-5947", "TYPE": "PSYCHIATRIC", "STATUS": "OPEN", "POPULATION": 16, "COUNTY": "KERN", "COUNTYFIPS": "06029", "COUNTRY": "USA", "LATITUDE": 35.365678113000101, "LONGITUDE": -118.9297762, "NAICS_CODE": "622210", "NAICS_DESC": "PSYCHIATRIC AND SUBSTANCE ABUSE HOSPITALS", "SOURCE": "http://www.oshpd.ca.gov/HID/Facility-Listing.html", "SOURCEDATE": "2018-08-08T00:00:00.000Z", "VAL_METHOD": "IMAGERY", "VAL_DATE": "2014-02-10T00:00:00.000Z", "WEBSITE": "http://www.crestwoodbehavioralhealth.com/", "STATE_ID": "NOT AVAILABLE", "ALT_NAME": "NOT AVAILABLE", "ST_FIPS": "06", "OWNER": "PROPRIETARY", "TTL_STAFF": -999, "BEDS": 16, "TRAUMA": "NOT AVAILABLE", "HELIPAD": "N" }, "geometry": { "type": "Polygon", "coordinates": [ [ [ -118.91436, 35.281551 ], [ -118.9154654, 35.281537499999963 ], [ -119.0354427, 35.314368399999964 ], [ -119.0389772, 35.316069199999966 ], [ -119.0423742, 35.317781100000012 ], [ -119.0612569, 35.354164600000011 ], [ -119.061255500000016, 35.354319200000042 ], [ -119.0601113, 35.361177 ], [ -119.059679, 35.363344 ], [ -119.054356700000014, 35.3833452 ], [ -119.0445545, 35.394178200000013 ], [ -119.012424, 35.4109207 ], [ -118.934627, 35.441424 ], [ -118.840400200000019, 35.413770100000015 ], [ -118.8033149, 35.328199299999973 ], [ -118.807497, 35.325672399999988 ], [ -118.842964, 35.311032 ], [ -118.91436, 35.281551 ] ] ] } },
{ "type": "Feature", "properties": { "OBJECTID": 4539, "ID": "0002793001", "NAME": "AURORA VISTA DEL MAR HOSPITAL", "ADDRESS": "801 SENECA STREET", "CITY": "VENTURA", "STATE": "CA", "ZIP": "93001", "ZIP4": "NOT AVAILABLE", "TELEPHONE": "NOT AVAILABLE", "TYPE": "PSYCHIATRIC", "STATUS": "OPEN", "POPULATION": 87, "COUNTY": "VENTURA", "COUNTYFIPS": "06111", "COUNTRY": "USA", "LATITUDE": 34.307764351000102, "LONGITUDE": -119.283663533, "NAICS_CODE": "622210", "NAICS_DESC": "PSYCHIATRIC AND SUBSTANCE ABUSE HOSPITALS", "SOURCE": "http://www.oshpd.ca.gov/HID/Facility-Listing.html", "SOURCEDATE": "2018-08-08T00:00:00.000Z", "VAL_METHOD": "IMAGERY", "VAL_DATE": "2014-02-10T00:00:00.000Z", "WEBSITE": "http://www.vistadelmarhospital.com", "STATE_ID": "NOT AVAILABLE", "ALT_NAME": "NOT AVAILABLE", "ST_FIPS": "06", "OWNER": "PROPRIETARY", "TTL_STAFF": -999, "BEDS": 87, "TRAUMA": "NOT AVAILABLE", "HELIPAD": "N" }, "geometry": { "type": "Polygon", "coordinates": [ [ [ -119.2565988, 34.2379968 ], [ -119.2612114, 34.240010700000042 ], [ -119.2613137, 34.240063899999967 ], [ -119.3355546, 34.290271200000014 ], [ -119.341153100000014, 34.295583200000046 ], [ -119.3292981, 34.36756969999994 ], [ -119.304529400000021, 34.393140899999949 ], [ -119.2999259, 34.395826700000022 ], [ -119.294142, 34.392612 ], [ -119.249092, 34.360781200000027 ], [ -119.2133378, 34.270383399999979 ], [ -119.214998, 34.254734200000037 ], [ -119.2565988, 34.2379968 ] ] ] } },
{ "type": "Feature", "properties": { "OBJECTID": 4540, "ID": "0026991360", "NAME": "LOS ROBLES HOSPITAL & MEDICAL CENTER", "ADDRESS": "215 WEST JANSS ROAD", "CITY": "THOUSAND OAKS", "STATE": "CA", "ZIP": "91360", "ZIP4": "NOT AVAILABLE", "TELEPHONE": "NOT AVAILABLE", "TYPE": "GENERAL ACUTE CARE", "STATUS": "OPEN", "POPULATION": 321, "COUNTY": "VENTURA", "COUNTYFIPS": "06111", "COUNTRY": "USA", "LATITUDE": 34.207970514000102, "LONGITUDE": -118.882894893, "NAICS_CODE": "622110", "NAICS_DESC": "GENERAL MEDICAL AND SURGICAL HOSPITALS", "SOURCE": "http://www.oshpd.ca.gov/HID/Facility-Listing.html", "SOURCEDATE": "2018-08-08T00:00:00.000Z", "VAL_METHOD": "IMAGERY", "VAL_DATE": "2014-02-10T00:00:00.000Z", "WEBSITE": "http://www.losrobleshospital.com", "STATE_ID": "NOT AVAILABLE", "ALT_NAME": "NOT AVAILABLE", "ST_FIPS": "06", "OWNER": "PROPRIETARY", "TTL_STAFF": -999, "BEDS": 321, "TRAUMA": "LEVEL II", "HELIPAD": "Y" }, "geometry": { "type": "Polygon", "coordinates": [ [ [ -118.820989600000019, 34.1312314 ], [ -118.973380700000021, 34.157044599999985 ], [ -119.009458099999989, 34.212214099999976 ], [ -119.010923, 34.21483 ], [ -119.0050779, 34.218377800000042 ], [ -118.8572841, 34.295097299999959 ], [ -118.857172600000013, 34.295068200000017 ], [ -118.852392800000018, 34.292939199999964 ], [ -118.7934806, 34.2644188 ], [ -118.7613257, 34.145147800000018 ], [ -118.820989600000019, 34.1312314 ] ] ] } },
{ "type": "Feature", "properties": { "OBJECTID": 4564, "ID": "0032093514", "NAME": "NORTHERN INYO HOSPITAL", "ADDRESS": "150 PIONEER LANE", "CITY": "BISHOP", "STATE": "CA", "ZIP": "93514", "ZIP4": "NOT AVAILABLE", "TELEPHONE": "NOT AVAILABLE", "TYPE": "GENERAL ACUTE CARE", "STATUS": "OPEN", "POPULATION": 25, "COUNTY": "INYO", "COUNTYFIPS": "06027", "COUNTRY": "USA", "LATITUDE": 37.362061871999998, "LONGITUDE": -118.406239766, "NAICS_CODE": "622110", "NAICS_DESC": "GENERAL MEDICAL AND SURGICAL HOSPITALS", "SOURCE": "http://www.oshpd.ca.gov/HID/Facility-Listing.html", "SOURCEDATE": "2018-08-08T00:00:00.000Z", "VAL_METHOD": "IMAGERY", "VAL_DATE": "2014-02-10T00:00:00.000Z", "WEBSITE": "http://www.nih.org", "STATE_ID": "NOT AVAILABLE", "ALT_NAME": "NOT AVAILABLE", "ST_FIPS": "06", "OWNER": "GOVERNMENT - DISTRICT/AUTHORITY", "TTL_STAFF": -999, "BEDS": 25, "TRAUMA": "NOT AVAILABLE", "HELIPAD": "N" }, "geometry": { "type": "Polygon", "coordinates": [ [ [ -118.370845500000016, 37.2555532 ], [ -118.5218095, 37.332527100000057 ], [ -118.54310430000001, 37.405546399999977 ], [ -118.542738500000013, 37.406315199999987 ], [ -118.398839, 37.419443 ], [ -118.3434577, 37.401034200000055 ], [ -118.313109400000016, 37.361459 ], [ -118.3610878, 37.258756699999964 ], [ -118.361224, 37.25871 ], [ -118.370845500000016, 37.2555532 ] ] ] } },
{ "type": "Feature", "properties": { "OBJECTID": 4567, "ID": "0008093720", "NAME": "COMMUNITY BEHAVIORAL HEALTH CENTER", "ADDRESS": "7171 NORTH CEDAR AVENUE", "CITY": "FRESNO", "STATE": "CA", "ZIP": "93720", "ZIP4": "NOT AVAILABLE", "TELEPHONE": "NOT AVAILABLE", "TYPE": "GENERAL ACUTE CARE", "STATUS": "OPEN", "POPULATION": 61, "COUNTY": "FRESNO", "COUNTYFIPS": "06019", "COUNTRY": "USA", "LATITUDE": 36.840401228000097, "LONGITUDE": -119.75766231599999, "NAICS_CODE": "622110", "NAICS_DESC": "GENERAL MEDICAL AND SURGICAL HOSPITALS", "SOURCE": "http://www.oshpd.ca.gov/HID/Facility-Listing.html", "SOURCEDATE": "2018-08-08T00:00:00.000Z", "VAL_METHOD": "IMAGERY", "VAL_DATE": "2013-10-15T00:00:00.000Z", "WEBSITE": "http://www.communitymedical.org", "STATE_ID": "NOT AVAILABLE", "ALT_NAME": "NOT AVAILABLE", "ST_FIPS": "06", "OWNER": "PROPRIETARY", "TTL_STAFF": -999, "BEDS": 61, "TRAUMA": "LEVEL I", "HELIPAD": "N" }, "geometry": { "type": "Polygon", "coordinates": [ [ [ -119.783945700000018, 36.727381400000027 ], [ -119.808866600000016, 36.7441912 ], [ -119.8895644, 36.837046599999987 ], [ -119.8799489, 36.843008699999977 ], [ -119.7332306, 36.922613199999958 ], [ -119.618602899999985, 36.8664729 ], [ -119.625522, 36.837385 ], [ -119.718363700000012, 36.7492332 ], [ -119.783945700000018, 36.727381400000027 ] ] ] } },
{ "type": "Feature", "properties": { "OBJECTID": 4568, "ID": "0022793306", "NAME": "KERN MEDICAL CENTER", "ADDRESS": "1700 MOUNT VERNON AVENUE", "CITY": "BAKERSFIELD", "STATE": "CA", "ZIP": "93306", "ZIP4": "NOT AVAILABLE", "TELEPHONE": "NOT AVAILABLE", "TYPE": "GENERAL ACUTE CARE", "STATUS": "OPEN", "POPULATION": 222, "COUNTY": "KERN", "COUNTYFIPS": "06029", "COUNTRY": "USA", "LATITUDE": 35.382498845000001, "LONGITUDE": -118.969773674, "NAICS_CODE": "622110", "NAICS_DESC": "GENERAL MEDICAL AND SURGICAL HOSPITALS", "SOURCE": "http://www.oshpd.ca.gov/HID/Facility-Listing.html", "SOURCEDATE": "2018-08-08T00:00:00.000Z", "VAL_METHOD": "IMAGERY", "VAL_DATE": "2014-02-10T00:00:00.000Z", "WEBSITE": "http://www.kernmedicalcenter.com", "STATE_ID": "NOT AVAILABLE", "ALT_NAME": "NOT AVAILABLE", "ST_FIPS": "06", "OWNER": "GOVERNMENT - LOCAL", "TTL_STAFF": -999, "BEDS": 222, "TRAUMA": "LEVEL II", "HELIPAD": "Y" }, "geometry": { "type": "Polygon", "coordinates": [ [ [ -118.914309, 35.314336 ], [ -119.003005800000011, 35.305879 ], [ -119.0031421, 35.305879 ], [ -119.038958, 35.313584 ], [ -119.043876, 35.316776 ], [ -119.092278, 35.3670378 ], [ -119.092351800000017, 35.3688125 ], [ -119.092081, 35.383488600000035 ], [ -119.088242400000041, 35.443859799999984 ], [ -119.025257, 35.449861 ], [ -118.941961, 35.4533772 ], [ -118.9371874, 35.453027699999971 ], [ -118.913, 35.449808 ], [ -118.840400200000019, 35.413770100000015 ], [ -118.8431283, 35.3377199 ], [ -118.914309, 35.314336 ] ] ] } },
{ "type": "Feature", "properties": { "OBJECTID": 4570, "ID": "0039393301", "NAME": "SAN JOAQUIN COMMUNITY HOSPITAL", "ADDRESS": "2615 CHESTER AVENUE", "CITY": "BAKERSFIELD", "STATE": "CA", "ZIP": "93301", "ZIP4": "NOT AVAILABLE", "TELEPHONE": "NOT AVAILABLE", "TYPE": "GENERAL ACUTE CARE", "STATUS": "OPEN", "POPULATION": 254, "COUNTY": "KERN", "COUNTYFIPS": "06029", "COUNTRY": "USA", "LATITUDE": 35.383399642000001, "LONGITUDE": -119.02052375700001, "NAICS_CODE": "622110", "NAICS_DESC": "GENERAL MEDICAL AND SURGICAL HOSPITALS", "SOURCE": "http://www.oshpd.ca.gov/HID/Facility-Listing.html", "SOURCEDATE": "2018-08-08T00:00:00.000Z", "VAL_METHOD": "IMAGERY", "VAL_DATE": "2014-03-12T00:00:00.000Z", "WEBSITE": "http://www.sjvrehab.com", "STATE_ID": "NOT AVAILABLE", "ALT_NAME": "NOT AVAILABLE", "ST_FIPS": "06", "OWNER": "PROPRIETARY", "TTL_STAFF": -999, "BEDS": 254, "TRAUMA": "NOT AVAILABLE", "HELIPAD": "Y" }, "geometry": { "type": "Polygon", "coordinates": [ [ [ -119.024162200000021, 35.270926599999989 ], [ -119.145618, 35.3525861 ], [ -119.147758, 35.356587 ], [ -119.154352500000016, 35.441516399999983 ], [ -119.1543475, 35.441668100000015 ], [ -119.08270370000001, 35.475144399999969 ], [ -119.025225, 35.466749 ], [ -118.934627, 35.441424 ], [ -118.853672, 35.409461199999981 ], [ -118.914266, 35.342512 ], [ -119.024162200000021, 35.270926599999989 ] ] ] } },
{ "type": "Feature", "properties": { "OBJECTID": 4590, "ID": "0043293257", "NAME": "SIERRA VIEW DISTRICT HOSPITAL", "ADDRESS": "465 WEST PUTNAM AVENUE", "CITY": "PORTERVILLE", "STATE": "CA", "ZIP": "93257", "ZIP4": "NOT AVAILABLE", "TELEPHONE": "NOT AVAILABLE", "TYPE": "GENERAL ACUTE CARE", "STATUS": "OPEN", "POPULATION": 167, "COUNTY": "TULARE", "COUNTYFIPS": "06107", "COUNTRY": "USA", "LATITUDE": 36.068537173000003, "LONGITUDE": -119.027360415, "NAICS_CODE": "622110", "NAICS_DESC": "GENERAL MEDICAL AND SURGICAL HOSPITALS", "SOURCE": "http://www.oshpd.ca.gov/HID/Facility-Listing.html", "SOURCEDATE": "2018-08-08T00:00:00.000Z", "VAL_METHOD": "IMAGERY", "VAL_DATE": "2014-02-10T00:00:00.000Z", "WEBSITE": "http://www.sierra-view.com", "STATE_ID": "NOT AVAILABLE", "ALT_NAME": "NOT AVAILABLE", "ST_FIPS": "06", "OWNER": "GOVERNMENT - DISTRICT/AUTHORITY", "TTL_STAFF": -999, "BEDS": 167, "TRAUMA": "NOT AVAILABLE", "HELIPAD": "N" }, "geometry": { "type": "Polygon", "coordinates": [ [ [ -119.0443241, 35.9613808 ], [ -119.0627713, 35.9624334 ], [ -119.125325703212681, 36.051212196664238 ], [ -119.134199506921192, 36.065847045289431 ], [ -119.116419118036958, 36.145491648114138 ], [ -119.093596045023062, 36.185193506009703 ], [ -119.090903340406172, 36.184610817713114 ], [ -119.0269916566955, 36.145666822556315 ], [ -118.9371532, 36.052513700000034 ], [ -118.9293465, 36.043690100000013 ], [ -118.93433, 36.039086 ], [ -119.0420853, 35.962422900000028 ], [ -119.0443241, 35.9613808 ] ] ] } },
{ "type": "Feature", "properties": { "OBJECTID": 4657, "ID": "0039893401", "NAME": "SAN LUIS OBISPO CO PSYCHIATRIC HEALTH FACILITY", "ADDRESS": "2178 JOHNSON AVE", "CITY": "SAN LUIS OBISPO", "STATE": "CA", "ZIP": "93401", "ZIP4": "NOT AVAILABLE", "TELEPHONE": "NOT AVAILABLE", "TYPE": "PSYCHIATRIC", "STATUS": "OPEN", "POPULATION": 16, "COUNTY": "SAN LUIS OBISPO", "COUNTYFIPS": "06079", "COUNTRY": "USA", "LATITUDE": 35.2756603220001, "LONGITUDE": -120.646790709, "NAICS_CODE": "622210", "NAICS_DESC": "PSYCHIATRIC AND SUBSTANCE ABUSE HOSPITALS", "SOURCE": "http://www.oshpd.ca.gov/HID/Facility-Listing.html", "SOURCEDATE": "2018-08-08T00:00:00.000Z", "VAL_METHOD": "IMAGERY/OTHER", "VAL_DATE": "2014-02-10T00:00:00.000Z", "WEBSITE": "http://www.slocounty.ca.gov/health/mentalhealthservices.htm", "STATE_ID": "NOT AVAILABLE", "ALT_NAME": "NOT AVAILABLE", "ST_FIPS": "06", "OWNER": "GOVERNMENT - LOCAL", "TTL_STAFF": -999, "BEDS": 16, "TRAUMA": "NOT AVAILABLE", "HELIPAD": "N" }, "geometry": { "type": "Polygon", "coordinates": [ [ [ -120.6028456, 35.189957099999972 ], [ -120.6974971, 35.17552260000005 ], [ -120.704235700000012, 35.181075599999986 ], [ -120.70445340000002, 35.181268400000015 ], [ -120.7155979, 35.192574800000017 ], [ -120.751064700000015, 35.332443600000055 ], [ -120.632236, 35.380961 ], [ -120.5990022, 35.2367741 ], [ -120.6028456, 35.189957099999972 ] ] ] } },
{ "type": "Feature", "properties": { "OBJECTID": 4658, "ID": "0051793003", "NAME": "VENTURA COUNTY MEDICAL CENTER", "ADDRESS": "3291 LOMA VISTA ROAD", "CITY": "VENTURA", "STATE": "CA", "ZIP": "93003", "ZIP4": "NOT AVAILABLE", "TELEPHONE": "NOT AVAILABLE", "TYPE": "GENERAL ACUTE CARE", "STATUS": "OPEN", "POPULATION": 223, "COUNTY": "VENTURA", "COUNTYFIPS": "06111", "COUNTRY": "USA", "LATITUDE": 34.277350199000097, "LONGITUDE": -119.252133663, "NAICS_CODE": "622110", "NAICS_DESC": "GENERAL MEDICAL AND SURGICAL HOSPITALS", "SOURCE": "http://www.oshpd.ca.gov/HID/Facility-Listing.html", "SOURCEDATE": "2018-08-08T00:00:00.000Z", "VAL_METHOD": "IMAGERY/OTHER", "VAL_DATE": "2014-02-10T00:00:00.000Z", "WEBSITE": "http://www.vchca.org", "STATE_ID": "NOT AVAILABLE", "ALT_NAME": "NOT AVAILABLE", "ST_FIPS": "06", "OWNER": "GOVERNMENT - LOCAL", "TTL_STAFF": -999, "BEDS": 223, "TRAUMA": "LEVEL II", "HELIPAD": "Y" }, "geometry": { "type": "Polygon", "coordinates": [ [ [ -119.2212527, 34.1839812 ], [ -119.235134699999989, 34.183030699999975 ], [ -119.240344900000011, 34.187359 ], [ -119.2428351, 34.189691100000012 ], [ -119.341153100000014, 34.295583200000046 ], [ -119.303392, 34.3516091 ], [ -119.15326, 34.30806 ], [ -119.126597299999986, 34.267987 ], [ -119.1227289, 34.2219402 ], [ -119.142304400000015, 34.204032799999986 ], [ -119.2212527, 34.1839812 ] ] ] } },
{ "type": "Feature", "properties": { "OBJECTID": 4671, "ID": "0016093309", "NAME": "HEALTHSOUTH BAKERSFIELD REHABILITATION HOSPITAL", "ADDRESS": "5001 COMMERCE DRIVE", "CITY": "BAKERSFIELD", "STATE": "CA", "ZIP": "93309", "ZIP4": "NOT AVAILABLE", "TELEPHONE": "NOT AVAILABLE", "TYPE": "GENERAL ACUTE CARE", "STATUS": "OPEN", "POPULATION": 66, "COUNTY": "KERN", "COUNTYFIPS": "06029", "COUNTRY": "USA", "LATITUDE": 35.367191495999997, "LONGITUDE": -119.05767183899999, "NAICS_CODE": "622110", "NAICS_DESC": "GENERAL MEDICAL AND SURGICAL HOSPITALS", "SOURCE": "http://www.oshpd.ca.gov/HID/Facility-Listing.html", "SOURCEDATE": "2018-08-08T00:00:00.000Z", "VAL_METHOD": "IMAGERY/OTHER", "VAL_DATE": "2014-02-10T00:00:00.000Z", "WEBSITE": "http://www.healthsouthbakersfield.com/", "STATE_ID": "NOT AVAILABLE", "ALT_NAME": "NOT AVAILABLE", "ST_FIPS": "06", "OWNER": "PROPRIETARY", "TTL_STAFF": -999, "BEDS": 66, "TRAUMA": "NOT AVAILABLE", "HELIPAD": "N" }, "geometry": { "type": "Polygon", "coordinates": [ [ [ -119.024162200000021, 35.270926599999989 ], [ -119.0566955, 35.281453100000022 ], [ -119.198753, 35.3544062 ], [ -119.1006584, 35.4414274 ], [ -119.0747048, 35.455835900000018 ], [ -119.0333529, 35.441229 ], [ -118.967570200000011, 35.4127134 ], [ -118.9360306, 35.39637859999997 ], [ -118.936183400000019, 35.3521305 ], [ -119.024162200000021, 35.270926599999989 ] ] ] } },
{ "type": "Feature", "properties": { "OBJECTID": 4679, "ID": "0022193291", "NAME": "KAWEAH DELTA MEDICAL CENTER", "ADDRESS": "400 WEST MINERAL KING", "CITY": "VISALIA", "STATE": "CA", "ZIP": "93291", "ZIP4": "NOT AVAILABLE", "TELEPHONE": "NOT AVAILABLE", "TYPE": "GENERAL ACUTE CARE", "STATUS": "OPEN", "POPULATION": 403, "COUNTY": "TULARE", "COUNTYFIPS": "06107", "COUNTRY": "USA", "LATITUDE": 36.327842915000097, "LONGITUDE": -119.29510056399999, "NAICS_CODE": "622110", "NAICS_DESC": "GENERAL MEDICAL AND SURGICAL HOSPITALS", "SOURCE": "http://www.oshpd.ca.gov/HID/Facility-Listing.html", "SOURCEDATE": "2018-08-08T00:00:00.000Z", "VAL_METHOD": "IMAGERY/OTHER", "VAL_DATE": "2013-10-15T00:00:00.000Z", "WEBSITE": "http://www.kaweahdelta.org", "STATE_ID": "NOT AVAILABLE", "ALT_NAME": "NOT AVAILABLE", "ST_FIPS": "06", "OWNER": "GOVERNMENT - DISTRICT/AUTHORITY", "TTL_STAFF": -999, "BEDS": 403, "TRAUMA": "LEVEL III", "HELIPAD": "Y" }, "geometry": { "type": "Polygon", "coordinates": [ [ [ -119.332187309779897, 36.236164405643017 ], [ -119.484192306425129, 36.326764529740331 ], [ -119.48419050302256, 36.328263233286286 ], [ -119.394727802923214, 36.378139094692123 ], [ -119.332334721336338, 36.403682596037712 ], [ -119.323104978992788, 36.407168023466731 ], [ -119.296196588407284, 36.40702689078072 ], [ -119.215714803209153, 36.387242343871819 ], [ -119.11697750645601, 36.325858118531876 ], [ -119.116982406717725, 36.325712618378809 ], [ -119.157121510961304, 36.297366325468602 ], [ -119.167551936090504, 36.29293707850097 ], [ -119.260651417081093, 36.255429274076533 ], [ -119.312945764454582, 36.240429378849747 ], [ -119.332187309779897, 36.236164405643017 ] ] ] } },
{ "type": "Feature", "properties": { "OBJECTID": 4680, "ID": "0050393274", "NAME": "TULARE REGIONAL MEDICAL CENTER", "ADDRESS": "869 CHERRY AVENUE", "CITY": "TULARE", "STATE": "CA", "ZIP": "93274", "ZIP4": "NOT AVAILABLE", "TELEPHONE": "NOT AVAILABLE", "TYPE": "GENERAL ACUTE CARE", "STATUS": "OPEN", "POPULATION": 112, "COUNTY": "TULARE", "COUNTYFIPS": "06107", "COUNTRY": "USA", "LATITUDE": 36.221195759000103, "LONGITUDE": -119.338660847, "NAICS_CODE": "622110", "NAICS_DESC": "GENERAL MEDICAL AND SURGICAL HOSPITALS", "SOURCE": "http://www.oshpd.ca.gov/HID/Facility-Listing.html", "SOURCEDATE": "2018-08-08T00:00:00.000Z", "VAL_METHOD": "IMAGERY/OTHER", "VAL_DATE": "2014-02-10T00:00:00.000Z", "WEBSITE": "http://www.tulareregional.org", "STATE_ID": "NOT AVAILABLE", "ALT_NAME": "NOT AVAILABLE", "ST_FIPS": "06", "OWNER": "GOVERNMENT - DISTRICT/AUTHORITY", "TTL_STAFF": -999, "BEDS": 112, "TRAUMA": "NOT AVAILABLE", "HELIPAD": "N" }, "geometry": { "type": "Polygon", "coordinates": [ [ [ -119.323254687374373, 36.105085236817125 ], [ -119.357713143393497, 36.123400264125088 ], [ -119.421161297370531, 36.203466030609732 ], [ -119.430446748763899, 36.327515798105395 ], [ -119.412115981759598, 36.332624864251457 ], [ -119.389260719796397, 36.330842531273795 ], [ -119.331777367816855, 36.32583230187543 ], [ -119.31378575292166, 36.314578145558961 ], [ -119.291542545769701, 36.298372101605139 ], [ -119.278691155595311, 36.285601033596258 ], [ -119.233424596537731, 36.210854807166896 ], [ -119.277514505201168, 36.152772953392379 ], [ -119.323254687374373, 36.105085236817125 ] ] ] } },
{ "type": "Feature", "properties": { "OBJECTID": 4751, "ID": "0003391343", "NAME": "SEPULVEDA AMBULATORY CARE CENTER", "ADDRESS": "16111 PLUMMER ST", "CITY": "LOS ANGELES", "STATE": "CA", "ZIP": "91343", "ZIP4": "NOT AVAILABLE", "TELEPHONE": "(818) 891-7711", "TYPE": "GENERAL ACUTE CARE", "STATUS": "OPEN", "POPULATION": -999, "COUNTY": "LOS ANGELES", "COUNTYFIPS": "06037", "COUNTRY": "USA", "LATITUDE": 34.244386389000098, "LONGITUDE": -118.482041825, "NAICS_CODE": "622110", "NAICS_DESC": "GENERAL MEDICAL AND SURGICAL HOSPITALS", "SOURCE": "https://www.va.gov/directory/guide/allstate.asp", "SOURCEDATE": "2018-09-26T00:00:00.000Z", "VAL_METHOD": "IMAGERY/OTHER", "VAL_DATE": "2015-05-21T00:00:00.000Z", "WEBSITE": "http://www.losangeles.va.gov/", "STATE_ID": "NOT AVAILABLE", "ALT_NAME": "NOT AVAILABLE", "ST_FIPS": "06", "OWNER": "GOVERNMENT - FEDERAL", "TTL_STAFF": -999, "BEDS": -999, "TRAUMA": "NOT AVAILABLE", "HELIPAD": "N" }, "geometry": { "type": "Polygon", "coordinates": [ [ [ -118.4785797, 34.122833899999975 ], [ -118.5218629, 34.171284900000011 ], [ -118.5710634, 34.229162799999969 ], [ -118.5722953, 34.231848800000023 ], [ -118.5910229, 34.273635799999973 ], [ -118.590882, 34.274667 ], [ -118.5213076, 34.340894200000029 ], [ -118.5050632, 34.343210100000043 ], [ -118.4553356, 34.325138500000037 ], [ -118.4482106, 34.322173700000029 ], [ -118.4134599, 34.304035700000021 ], [ -118.3778527, 34.277308499999975 ], [ -118.3749118, 34.274020699999951 ], [ -118.363457100000019, 34.221748699999985 ], [ -118.4296147, 34.150359300000012 ], [ -118.4785797, 34.122833899999975 ] ] ] } },
{ "type": "Feature", "properties": { "OBJECTID": 4779, "ID": "0043793065", "NAME": "SIMI VALLEY HOSPITAL AND HEALTH CARE SVCS-SYCAMORE", "ADDRESS": "2975 NORTH SYCAMORE DRIVE", "CITY": "SIMI VALLEY", "STATE": "CA", "ZIP": "93065", "ZIP4": "NOT AVAILABLE", "TELEPHONE": "NOT AVAILABLE", "TYPE": "GENERAL ACUTE CARE", "STATUS": "OPEN", "POPULATION": 144, "COUNTY": "VENTURA", "COUNTYFIPS": "06111", "COUNTRY": "USA", "LATITUDE": 34.289165393000097, "LONGITUDE": -118.744535322, "NAICS_CODE": "622110", "NAICS_DESC": "GENERAL MEDICAL AND SURGICAL HOSPITALS", "SOURCE": "http://www.oshpd.ca.gov/HID/Facility-Listing.html", "SOURCEDATE": "2018-08-08T00:00:00.000Z", "VAL_METHOD": "IMAGERY", "VAL_DATE": "2014-02-10T00:00:00.000Z", "WEBSITE": "http://www.simivalleyhospital.com", "STATE_ID": "NOT AVAILABLE", "ALT_NAME": "NOT AVAILABLE", "ST_FIPS": "06", "OWNER": "NON-PROFIT", "TTL_STAFF": -999, "BEDS": 144, "TRAUMA": "NOT AVAILABLE", "HELIPAD": "Y" }, "geometry": { "type": "Polygon", "coordinates": [ [ [ -118.6486976, 34.253099400000011 ], [ -118.732726900000017, 34.236541799999955 ], [ -118.803772, 34.232084 ], [ -118.8153, 34.233534 ], [ -118.843537900000015, 34.239968500000025 ], [ -118.885448, 34.27893250000001 ], [ -118.8821044, 34.284474900000021 ], [ -118.864, 34.298513 ], [ -118.8431036, 34.306593600000028 ], [ -118.840925, 34.307401 ], [ -118.7028522, 34.331508700000015 ], [ -118.5960481, 34.2795403 ], [ -118.5857046, 34.27332220000001 ], [ -118.6486976, 34.253099400000011 ] ] ] } },
{ "type": "Feature", "properties": { "OBJECTID": 4780, "ID": "0045593010", "NAME": "ST. JOHN'S PLEASANT VALLEY HOSPITAL", "ADDRESS": "2309 ANTONIO AVENUE", "CITY": "CAMARILLO", "STATE": "CA", "ZIP": "93010", "ZIP4": "NOT AVAILABLE", "TELEPHONE": "NOT AVAILABLE", "TYPE": "GENERAL ACUTE CARE", "STATUS": "OPEN", "POPULATION": 155, "COUNTY": "VENTURA", "COUNTYFIPS": "06111", "COUNTRY": "USA", "LATITUDE": 34.24367912, "LONGITUDE": -119.019447666, "NAICS_CODE": "622110", "NAICS_DESC": "GENERAL MEDICAL AND SURGICAL HOSPITALS", "SOURCE": "http://www.oshpd.ca.gov/HID/Facility-Listing.html", "SOURCEDATE": "2018-08-08T00:00:00.000Z", "VAL_METHOD": "IMAGERY/OTHER", "VAL_DATE": "2014-02-10T00:00:00.000Z", "WEBSITE": "http://www.stjohnshealth.org", "STATE_ID": "NOT AVAILABLE", "ALT_NAME": "NOT AVAILABLE", "ST_FIPS": "06", "OWNER": "NON-PROFIT", "TTL_STAFF": -999, "BEDS": 155, "TRAUMA": "NOT AVAILABLE", "HELIPAD": "N" }, "geometry": { "type": "Polygon", "coordinates": [ [ [ -118.929339899999988, 34.180617900000023 ], [ -119.0449878, 34.16526180000001 ], [ -119.0610837, 34.164728 ], [ -119.0629088, 34.164734200000026 ], [ -119.142116, 34.218705800000023 ], [ -119.1481277, 34.2232257 ], [ -119.034668, 34.285554 ], [ -119.00017840000001, 34.299703199999975 ], [ -118.986344, 34.29752 ], [ -118.960572, 34.290256 ], [ -118.927330900000015, 34.2754679 ], [ -118.8995371, 34.2405738 ], [ -118.899293300000011, 34.239074200000033 ], [ -118.92131, 34.184212 ], [ -118.929339899999988, 34.180617900000023 ] ] ] } },
{ "type": "Feature", "properties": { "OBJECTID": 4787, "ID": "0014993111", "NAME": "GOLETA VALLEY COTTAGE HOSPITAL", "ADDRESS": "351 SOUTH PATTERSON AVENUE", "CITY": "SANTA BARBARA", "STATE": "CA", "ZIP": "93111", "ZIP4": "NOT AVAILABLE", "TELEPHONE": "NOT AVAILABLE", "TYPE": "GENERAL ACUTE CARE", "STATUS": "OPEN", "POPULATION": 52, "COUNTY": "SANTA BARBARA", "COUNTYFIPS": "06083", "COUNTRY": "USA", "LATITUDE": 34.4338234350001, "LONGITUDE": -119.810296842, "NAICS_CODE": "622110", "NAICS_DESC": "GENERAL MEDICAL AND SURGICAL HOSPITALS", "SOURCE": "http://www.oshpd.ca.gov/HID/Facility-Listing.html", "SOURCEDATE": "2018-08-08T00:00:00.000Z", "VAL_METHOD": "IMAGERY/OTHER", "VAL_DATE": "2014-02-10T00:00:00.000Z", "WEBSITE": "http://www.sbch.org", "STATE_ID": "NOT AVAILABLE", "ALT_NAME": "NOT AVAILABLE", "ST_FIPS": "06", "OWNER": "NON-PROFIT", "TTL_STAFF": -999, "BEDS": 52, "TRAUMA": "NOT AVAILABLE", "HELIPAD": "N" }, "geometry": { "type": "Polygon", "coordinates": [ [ [ -119.707059, 34.39688 ], [ -119.719446, 34.396917 ], [ -119.8695402, 34.409882899999985 ], [ -119.8768052, 34.4106151 ], [ -119.9544457, 34.44417080000003 ], [ -119.9580342, 34.446688399999971 ], [ -119.7953792, 34.491297700000068 ], [ -119.7217681, 34.4587569 ], [ -119.653530800000013, 34.422817800000018 ], [ -119.653120900000019, 34.4225719 ], [ -119.6573105, 34.420458599999975 ], [ -119.704740700000016, 34.397665499999981 ], [ -119.705519, 34.397383 ], [ -119.707059, 34.39688 ] ] ] } },
{ "type": "Feature", "properties": { "OBJECTID": 4788, "ID": "0027493454", "NAME": "MARIAN MEDICAL CENTER", "ADDRESS": "1400 EAST CHURCH STREET", "CITY": "SANTA MARIA", "STATE": "CA", "ZIP": "93454", "ZIP4": "NOT AVAILABLE", "TELEPHONE": "NOT AVAILABLE", "TYPE": "GENERAL ACUTE CARE", "STATUS": "OPEN", "POPULATION": 321, "COUNTY": "SANTA BARBARA", "COUNTYFIPS": "06083", "COUNTRY": "USA", "LATITUDE": 34.951199928000101, "LONGITUDE": -120.413130536, "NAICS_CODE": "622110", "NAICS_DESC": "GENERAL MEDICAL AND SURGICAL HOSPITALS", "SOURCE": "http://www.oshpd.ca.gov/HID/Facility-Listing.html", "SOURCEDATE": "2018-08-08T00:00:00.000Z", "VAL_METHOD": "IMAGERY", "VAL_DATE": "2014-02-10T00:00:00.000Z", "WEBSITE": "http://www.marianmedicalcenter.org", "STATE_ID": "NOT AVAILABLE", "ALT_NAME": "NOT AVAILABLE", "ST_FIPS": "06", "OWNER": "NON-PROFIT", "TTL_STAFF": -999, "BEDS": 321, "TRAUMA": "LEVEL III", "HELIPAD": "Y" }, "geometry": { "type": "Polygon", "coordinates": [ [ [ -120.361495, 34.827111599999988 ], [ -120.4365032, 34.8576894 ], [ -120.442218600000018, 34.860027 ], [ -120.446741700000018, 34.8619454 ], [ -120.4497463, 34.8651308 ], [ -120.4895983, 34.9091638 ], [ -120.5084341, 34.9569468 ], [ -120.509415, 34.962536 ], [ -120.4518405, 34.988982 ], [ -120.4461452, 34.9887141 ], [ -120.4452733, 34.988671800000041 ], [ -120.44179050000001, 34.988464099999966 ], [ -120.4400241, 34.9882 ], [ -120.4390109, 34.9879674 ], [ -120.4353084, 34.986697200000016 ], [ -120.403458400000019, 34.969734400000029 ], [ -120.364706, 34.936704 ], [ -120.351662, 34.923148 ], [ -120.361495, 34.827111599999988 ] ] ] } },
{ "type": "Feature", "properties": { "OBJECTID": 4789, "ID": "0037393105", "NAME": "COTTAGE REHABILITATION HOSPITAL", "ADDRESS": "2415 DE LA VINA", "CITY": "SANTA BARBARA", "STATE": "CA", "ZIP": "93105", "ZIP4": "NOT AVAILABLE", "TELEPHONE": "(805) 687-7444", "TYPE": "REHABILITATION", "STATUS": "OPEN", "POPULATION": 38, "COUNTY": "SANTA BARBARA", "COUNTYFIPS": "06083", "COUNTRY": "USA", "LATITUDE": 34.432967903000097, "LONGITUDE": -119.722743123, "NAICS_CODE": "622310", "NAICS_DESC": "REHABILITATION HOSPITALS (EXCEPT ALCOHOLISM, DRUG ADDICTION)", "SOURCE": "http://www.oshpd.ca.gov/HID/Facility-Listing.html", "SOURCEDATE": "2018-08-08T00:00:00.000Z", "VAL_METHOD": "IMAGERY/OTHER", "VAL_DATE": "2014-02-10T00:00:00.000Z", "WEBSITE": "http://www.cottagehealthsystem.org", "STATE_ID": "NOT AVAILABLE", "ALT_NAME": "NOT AVAILABLE", "ST_FIPS": "06", "OWNER": "NON-PROFIT", "TTL_STAFF": -999, "BEDS": 38, "TRAUMA": "NOT AVAILABLE", "HELIPAD": "N" }, "geometry": { "type": "Polygon", "coordinates": [ [ [ -119.5779714, 34.415550699999983 ], [ -119.709844, 34.396249 ], [ -119.713868, 34.396027 ], [ -119.726118, 34.396685 ], [ -119.728251, 34.396864 ], [ -119.839621500000021, 34.414570400000066 ], [ -119.872327200000015, 34.434159 ], [ -119.8710559, 34.435247699999969 ], [ -119.855422300000015, 34.4459549 ], [ -119.821002099999987, 34.462443200000024 ], [ -119.8190805, 34.462966900000026 ], [ -119.797321199999985, 34.467343600000014 ], [ -119.775201200000012, 34.469658799999962 ], [ -119.712685, 34.464295 ], [ -119.708627, 34.463738 ], [ -119.6318332, 34.442231300000032 ], [ -119.6245777, 34.4388402 ], [ -119.5779714, 34.415550699999983 ] ] ] } },
{ "type": "Feature", "properties": { "OBJECTID": 4810, "ID": "0016491355", "NAME": "HENRY MAYO NEWHALL MEMORIAL HOSPITAL", "ADDRESS": "23845 WEST MCBEAN PARKWAY", "CITY": "VALENCIA", "STATE": "CA", "ZIP": "91355", "ZIP4": "NOT AVAILABLE", "TELEPHONE": "NOT AVAILABLE", "TYPE": "GENERAL ACUTE CARE", "STATUS": "OPEN", "POPULATION": 238, "COUNTY": "LOS ANGELES", "COUNTYFIPS": "06037", "COUNTRY": "USA", "LATITUDE": 34.397726944000098, "LONGITUDE": -118.553878592, "NAICS_CODE": "622110", "NAICS_DESC": "GENERAL MEDICAL AND SURGICAL HOSPITALS", "SOURCE": "http://www.oshpd.ca.gov/HID/Facility-Listing.html", "SOURCEDATE": "2018-08-08T00:00:00.000Z", "VAL_METHOD": "IMAGERY", "VAL_DATE": "2014-02-10T00:00:00.000Z", "WEBSITE": "http://www.henrymayo.com", "STATE_ID": "NOT AVAILABLE", "ALT_NAME": "NOT AVAILABLE", "ST_FIPS": "06", "OWNER": "NON-PROFIT", "TTL_STAFF": -999, "BEDS": 238, "TRAUMA": "LEVEL II", "HELIPAD": "Y" }, "geometry": { "type": "Polygon", "coordinates": [ [ [ -118.4800348, 34.303032300000012 ], [ -118.5029769, 34.3074473 ], [ -118.5929748, 34.370603899999963 ], [ -118.656784499999986, 34.419808499999959 ], [ -118.647047400000019, 34.458803899999928 ], [ -118.628959115470963, 34.501244526088875 ], [ -118.628350416194877, 34.501567524426612 ], [ -118.5424461, 34.484132800000019 ], [ -118.4858904, 34.459698199999977 ], [ -118.4745188, 34.446781 ], [ -118.4508611, 34.404648900000026 ], [ -118.478839600000015, 34.303857299999954 ], [ -118.479253699999987, 34.303551500000033 ], [ -118.4800348, 34.303032300000012 ] ] ] } },
{ "type": "Feature", "properties": { "OBJECTID": 4821, "ID": "0035991345", "NAME": "PROVIDENCE HOLY CROSS MEDICAL CENTER", "ADDRESS": "15031 RINALDI STREET", "CITY": "MISSION HILLS", "STATE": "CA", "ZIP": "91345", "ZIP4": "NOT AVAILABLE", "TELEPHONE": "NOT AVAILABLE", "TYPE": "GENERAL ACUTE CARE", "STATUS": "OPEN", "POPULATION": 377, "COUNTY": "LOS ANGELES", "COUNTYFIPS": "06037", "COUNTRY": "USA", "LATITUDE": 34.279547440999998, "LONGITUDE": -118.459807664, "NAICS_CODE": "622110", "NAICS_DESC": "GENERAL MEDICAL AND SURGICAL HOSPITALS", "SOURCE": "http://www.oshpd.ca.gov/HID/Facility-Listing.html", "SOURCEDATE": "2018-08-08T00:00:00.000Z", "VAL_METHOD": "IMAGERY", "VAL_DATE": "2014-02-10T00:00:00.000Z", "WEBSITE": "https://california.providence.org/holy-cross/Pages/default.aspx", "STATE_ID": "NOT AVAILABLE", "ALT_NAME": "NOT AVAILABLE", "ST_FIPS": "06", "OWNER": "NON-PROFIT", "TTL_STAFF": -999, "BEDS": 377, "TRAUMA": "LEVEL II", "HELIPAD": "Y" }, "geometry": { "type": "Polygon", "coordinates": [ [ [ -118.379205700000014, 34.1567518 ], [ -118.4715776, 34.142578899999933 ], [ -118.606242900000012, 34.2723582 ], [ -118.6087887, 34.27778320000003 ], [ -118.6091914, 34.281731199999953 ], [ -118.568938, 34.380161500000021 ], [ -118.568862800000019, 34.3802743 ], [ -118.566432, 34.380646900000031 ], [ -118.4662594, 34.3958081 ], [ -118.351467, 34.299485300000029 ], [ -118.3184697, 34.259721700000014 ], [ -118.3280594, 34.1917162 ], [ -118.379205700000014, 34.1567518 ] ] ] } },
{ "type": "Feature", "properties": { "OBJECTID": 4845, "ID": "0007193612", "NAME": "CLOVIS COMMUNITY MEDICAL CENTER", "ADDRESS": "2755 HERNDON AVENUE", "CITY": "CLOVIS", "STATE": "CA", "ZIP": "93612", "ZIP4": "NOT AVAILABLE", "TELEPHONE": "NOT AVAILABLE", "TYPE": "GENERAL ACUTE CARE", "STATUS": "OPEN", "POPULATION": 208, "COUNTY": "FRESNO", "COUNTYFIPS": "06019", "COUNTRY": "USA", "LATITUDE": 36.839089899000001, "LONGITUDE": -119.66047665400001, "NAICS_CODE": "622110", "NAICS_DESC": "GENERAL MEDICAL AND SURGICAL HOSPITALS", "SOURCE": "http://www.oshpd.ca.gov/HID/Facility-Listing.html", "SOURCEDATE": "2018-08-08T00:00:00.000Z", "VAL_METHOD": "IMAGERY", "VAL_DATE": "2014-02-10T00:00:00.000Z", "WEBSITE": "http://www.communitymedical.org", "STATE_ID": "NOT AVAILABLE", "ALT_NAME": "NOT AVAILABLE", "ST_FIPS": "06", "OWNER": "NON-PROFIT", "TTL_STAFF": -999, "BEDS": 208, "TRAUMA": "NOT AVAILABLE", "HELIPAD": "Y" }, "geometry": { "type": "Polygon", "coordinates": [ [ [ -119.6640207, 36.747006 ], [ -119.7666822, 36.7551231 ], [ -119.7879745, 36.794156500000014 ], [ -119.8019735, 36.836957399999982 ], [ -119.8019787, 36.837123499999983 ], [ -119.8019561, 36.838504899999982 ], [ -119.8018775, 36.8400252 ], [ -119.7901989, 36.8540242 ], [ -119.733969, 36.896098 ], [ -119.731297500000011, 36.896142400000016 ], [ -119.729952, 36.896156499999989 ], [ -119.672711099999987, 36.895504 ], [ -119.554315, 36.879516 ], [ -119.5528308, 36.877434100000016 ], [ -119.5558284, 36.831794099999989 ], [ -119.6640207, 36.747006 ] ] ] } },
{ "type": "Feature", "properties": { "OBJECTID": 4850, "ID": "0015093308", "NAME": "GOOD SAMARITAN HOSPITAL-BAKERSFIELD", "ADDRESS": "901 OLIVE DRIVE", "CITY": "BAKERSFIELD", "STATE": "CA", "ZIP": "93308", "ZIP4": "NOT AVAILABLE", "TELEPHONE": "NOT AVAILABLE", "TYPE": "GENERAL ACUTE CARE", "STATUS": "OPEN", "POPULATION": 64, "COUNTY": "KERN", "COUNTYFIPS": "06029", "COUNTRY": "USA", "LATITUDE": 35.4117405820001, "LONGITUDE": -119.039590526, "NAICS_CODE": "622110", "NAICS_DESC": "GENERAL MEDICAL AND SURGICAL HOSPITALS", "SOURCE": "http://www.oshpd.ca.gov/HID/Facility-Listing.html", "SOURCEDATE": "2018-08-08T00:00:00.000Z", "VAL_METHOD": "IMAGERY/OTHER", "VAL_DATE": "2014-02-10T00:00:00.000Z", "WEBSITE": "http://www.goodsamhospital.com", "STATE_ID": "NOT AVAILABLE", "ALT_NAME": "NOT AVAILABLE", "ST_FIPS": "06", "OWNER": "NON-PROFIT", "TTL_STAFF": -999, "BEDS": 64, "TRAUMA": "NOT AVAILABLE", "HELIPAD": "N" }, "geometry": { "type": "Polygon", "coordinates": [ [ [ -119.0245497, 35.266849199999974 ], [ -119.145621899999981, 35.360648899999987 ], [ -119.194272200000015, 35.4416675 ], [ -119.194265, 35.441805600000023 ], [ -119.181778900000012, 35.499802800000026 ], [ -119.1795734, 35.500889099999966 ], [ -119.079673, 35.518568900000034 ], [ -118.997603, 35.491928 ], [ -118.996548, 35.49148710000005 ], [ -118.944558099999981, 35.4423477 ], [ -118.9408, 35.437947 ], [ -118.912332300000017, 35.396667099999974 ], [ -118.936183400000019, 35.3521305 ], [ -119.0245497, 35.266849199999974 ] ] ] } },
{ "type": "Feature", "properties": { "OBJECTID": 4851, "ID": "0028893301", "NAME": "MERCY HOSPITAL - BAKERSFIELD", "ADDRESS": "2215 TRUXTUN AVENUE", "CITY": "BAKERSFIELD", "STATE": "CA", "ZIP": "93301", "ZIP4": "NOT AVAILABLE", "TELEPHONE": "NOT AVAILABLE", "TYPE": "GENERAL ACUTE CARE", "STATUS": "OPEN", "POPULATION": 144, "COUNTY": "KERN", "COUNTYFIPS": "06029", "COUNTRY": "USA", "LATITUDE": 35.372863637000101, "LONGITUDE": -119.027704606, "NAICS_CODE": "622110", "NAICS_DESC": "GENERAL MEDICAL AND SURGICAL HOSPITALS", "SOURCE": "http://www.oshpd.ca.gov/HID/Facility-Listing.html", "SOURCEDATE": "2018-08-08T00:00:00.000Z", "VAL_METHOD": "IMAGERY", "VAL_DATE": "2014-02-10T00:00:00.000Z", "WEBSITE": "http://www.mercybakersfield.org", "STATE_ID": "NOT AVAILABLE", "ALT_NAME": "NOT AVAILABLE", "ST_FIPS": "06", "OWNER": "NON-PROFIT", "TTL_STAFF": -999, "BEDS": 144, "TRAUMA": "NOT AVAILABLE", "HELIPAD": "N" }, "geometry": { "type": "Polygon", "coordinates": [ [ [ -119.017626, 35.259539 ], [ -119.024868, 35.259585 ], [ -119.025726, 35.259598 ], [ -119.0389665, 35.266907 ], [ -119.183096099999986, 35.35435539999996 ], [ -119.1831062, 35.354486799999989 ], [ -119.1366322, 35.441637600000064 ], [ -119.08256950000002, 35.4704476 ], [ -119.074657, 35.473914 ], [ -118.9319548, 35.437952699999968 ], [ -118.869889, 35.40536 ], [ -118.8700385, 35.404238300000024 ], [ -118.914277, 35.33621 ], [ -119.006488, 35.26684 ], [ -119.017626, 35.259539 ] ] ] } },
{ "type": "Feature", "properties": { "OBJECTID": 4852, "ID": "0029493311", "NAME": "MERCY SOUTHWEST HOSPITAL", "ADDRESS": "400 OLD RIVER RD", "CITY": "BAKERSFIELD", "STATE": "CA", "ZIP": "93311", "ZIP4": "NOT AVAILABLE", "TELEPHONE": "NOT AVAILABLE", "TYPE": "GENERAL ACUTE CARE", "STATUS": "OPEN", "POPULATION": 78, "COUNTY": "KERN", "COUNTYFIPS": "06029", "COUNTRY": "USA", "LATITUDE": 35.351504293000097, "LONGITUDE": -119.112450471, "NAICS_CODE": "622110", "NAICS_DESC": "GENERAL MEDICAL AND SURGICAL HOSPITALS", "SOURCE": "http://www.oshpd.ca.gov/HID/Facility-Listing.html", "SOURCEDATE": "2018-08-08T00:00:00.000Z", "VAL_METHOD": "IMAGERY", "VAL_DATE": "2014-02-10T00:00:00.000Z", "WEBSITE": "http://www.mercybakersfield.org/index.htm", "STATE_ID": "NOT AVAILABLE", "ALT_NAME": "NOT AVAILABLE", "ST_FIPS": "06", "OWNER": "NON-PROFIT", "TTL_STAFF": -999, "BEDS": 78, "TRAUMA": "NOT AVAILABLE", "HELIPAD": "N" }, "geometry": { "type": "Polygon", "coordinates": [ [ [ -119.1080583, 35.264471099999966 ], [ -119.1097921, 35.264828499999958 ], [ -119.234344, 35.354313 ], [ -119.163594499999988, 35.412469799999961 ], [ -119.154260199999982, 35.419719 ], [ -119.1454661, 35.4244625 ], [ -119.1100309, 35.4374625 ], [ -119.0605, 35.417854 ], [ -119.0387866, 35.408608300000026 ], [ -119.00993, 35.381865 ], [ -119.0059453, 35.37321040000004 ], [ -119.006457, 35.353914 ], [ -119.0074733, 35.35232869999998 ], [ -119.03249, 35.316959 ], [ -119.0354427, 35.314368399999964 ], [ -119.0648541, 35.290957899999974 ], [ -119.1080583, 35.264471099999966 ] ] ] } },
{ "type": "Feature", "properties": { "OBJECTID": 1, "ID": "0005793230", "NAME": "CENTRAL VALLEY GENERAL HOSPITAL", "ADDRESS": "1025 NORTH DOUTY STREET", "CITY": "HANFORD", "STATE": "CA", "ZIP": "93230", "ZIP4": "NOT AVAILABLE", "TELEPHONE": "NOT AVAILABLE", "TYPE": "GENERAL ACUTE CARE", "STATUS": "CLOSED", "POPULATION": 49, "COUNTY": "KINGS", "COUNTYFIPS": "06031", "COUNTRY": "USA", "LATITUDE": 36.336158850000103, "LONGITUDE": -119.64566729800001, "NAICS_CODE": "622110", "NAICS_DESC": "GENERAL MEDICAL AND SURGICAL HOSPITALS", "SOURCE": "http://www.oshpd.ca.gov/HID/Facility-Listing.html", "SOURCEDATE": "2016-02-04T00:00:00.000Z", "VAL_METHOD": "IMAGERY/OTHER", "VAL_DATE": "2014-02-10T00:00:00.000Z", "WEBSITE": "http://www.hanfordhealth.com", "STATE_ID": "NOT AVAILABLE", "ALT_NAME": "NOT AVAILABLE", "ST_FIPS": "06", "OWNER": "PROPRIETARY", "TTL_STAFF": -999, "BEDS": 49, "TRAUMA": "NOT AVAILABLE", "HELIPAD": "N" }, "geometry": { "type": "Polygon", "coordinates": [ [ [ -119.654865070185394, 36.254814746476676 ], [ -119.798871338333129, 36.287719529576982 ], [ -119.780850175798889, 36.304457712657332 ], [ -119.673005534810585, 36.393512400621383 ], [ -119.642917646868838, 36.415694625635396 ], [ -119.636783647414234, 36.415689663204788 ], [ -119.51112335812212, 36.328538220529289 ], [ -119.511112960689886, 36.327414817850169 ], [ -119.600718030690473, 36.269428376426276 ], [ -119.654865070185394, 36.254814746476676 ] ] ] } },
{ "type": "Feature", "properties": { "OBJECTID": 2, "ID": "0053391362", "NAME": "LOS ROBLES HOSPITAL & MEDICAL CENTER - EAST CAMPUS", "ADDRESS": "150 VIA MERIDA", "CITY": "WESTLAKE VILAGE", "STATE": "CA", "ZIP": "91362", "ZIP4": "NOT AVAILABLE", "TELEPHONE": "NOT AVAILABLE", "TYPE": "GENERAL ACUTE CARE", "STATUS": "OPEN", "POPULATION": 62, "COUNTY": "VENTURA", "COUNTYFIPS": "06111", "COUNTRY": "USA", "LATITUDE": 34.154938872000102, "LONGITUDE": -118.815736391, "NAICS_CODE": "622110", "NAICS_DESC": "GENERAL MEDICAL AND SURGICAL HOSPITALS", "SOURCE": "http://www.oshpd.ca.gov/HID/Facility-Listing.html", "SOURCEDATE": "2018-08-08T00:00:00.000Z", "VAL_METHOD": "IMAGERY/OTHER", "VAL_DATE": "2014-02-10T00:00:00.000Z", "WEBSITE": "http://www.losrobleshospital.com", "STATE_ID": "NOT AVAILABLE", "ALT_NAME": "NOT AVAILABLE", "ST_FIPS": "06", "OWNER": "PROPRIETARY", "TTL_STAFF": -999, "BEDS": 62, "TRAUMA": "NOT AVAILABLE", "HELIPAD": "N" }, "geometry": { "type": "Polygon", "coordinates": [ [ [ -118.7519187, 34.108624700000057 ], [ -118.858440400000021, 34.1044294 ], [ -118.940637, 34.161401 ], [ -118.941088, 34.16212 ], [ -118.941501, 34.162891 ], [ -118.943188, 34.166139 ], [ -118.9526261, 34.186405299999969 ], [ -118.958527700000019, 34.200312799999971 ], [ -118.8515224, 34.267366799999969 ], [ -118.84906220000002, 34.268113 ], [ -118.8222858, 34.251689500000026 ], [ -118.6947477, 34.155806799999979 ], [ -118.692647599999987, 34.152444499999987 ], [ -118.7038263, 34.128232100000027 ], [ -118.7057714, 34.1258597 ], [ -118.7519187, 34.108624700000057 ] ] ] } },
{ "type": "Feature", "properties": { "OBJECTID": 18, "ID": "0022093277", "NAME": "KAWEAH DELTA  MENTAL HEALTH HOSPITAL D/P APH", "ADDRESS": "1100 SO. AKERS STREET", "CITY": "VISALIA", "STATE": "CA", "ZIP": "93277", "ZIP4": "NOT AVAILABLE", "TELEPHONE": "NOT AVAILABLE", "TYPE": "GENERAL ACUTE CARE", "STATUS": "OPEN", "POPULATION": 63, "COUNTY": "TULARE", "COUNTYFIPS": "06107", "COUNTRY": "USA", "LATITUDE": 36.320843945999997, "LONGITUDE": -119.34823452800001, "NAICS_CODE": "622110", "NAICS_DESC": "GENERAL MEDICAL AND SURGICAL HOSPITALS", "SOURCE": "http://www.oshpd.ca.gov/HID/Facility-Listing.html", "SOURCEDATE": "2018-08-08T00:00:00.000Z", "VAL_METHOD": "IMAGERY/OTHER", "VAL_DATE": "2014-02-10T00:00:00.000Z", "WEBSITE": "http://www.kaweahdelta.org", "STATE_ID": "NOT AVAILABLE", "ALT_NAME": "NOT AVAILABLE", "ST_FIPS": "06", "OWNER": "GOVERNMENT - DISTRICT/AUTHORITY", "TTL_STAFF": -999, "BEDS": 63, "TRAUMA": "NOT AVAILABLE", "HELIPAD": "N" }, "geometry": { "type": "Polygon", "coordinates": [ [ [ -119.331744707735552, 36.220839605602293 ], [ -119.438950885557404, 36.283391682372191 ], [ -119.511112960689886, 36.327414817850169 ], [ -119.511127358810612, 36.328239619777918 ], [ -119.51112335812212, 36.328538220529289 ], [ -119.439378464721614, 36.370835558302964 ], [ -119.403723411732358, 36.385419583036779 ], [ -119.323104978992788, 36.407168023466731 ], [ -119.220461027699386, 36.349126597126656 ], [ -119.197897178794832, 36.32707807746938 ], [ -119.207077947210749, 36.30752352471076 ], [ -119.331744707735552, 36.220839605602293 ] ] ] } },
{ "type": "Feature", "properties": { "OBJECTID": 57, "ID": "0000493703", "NAME": "VA CENTRAL CALIFORNIA HEALTH CARE SYSTEM", "ADDRESS": "2615 E CLINTON AVE", "CITY": "FRESNO", "STATE": "CA", "ZIP": "93703", "ZIP4": "NOT AVAILABLE", "TELEPHONE": "(559) 225-6100", "TYPE": "MILITARY", "STATUS": "OPEN", "POPULATION": -999, "COUNTY": "FRESNO", "COUNTYFIPS": "06019", "COUNTRY": "USA", "LATITUDE": 36.7732504310001, "LONGITUDE": -119.779145083, "NAICS_CODE": "622110", "NAICS_DESC": "GENERAL MEDICAL AND SURGICAL HOSPITALS", "SOURCE": "https://www.va.gov/directory/guide/allstate.asp", "SOURCEDATE": "2018-09-26T00:00:00.000Z", "VAL_METHOD": "IMAGERY/OTHER", "VAL_DATE": "2015-05-13T00:00:00.000Z", "WEBSITE": "http://www.fresno.va.gov/", "STATE_ID": "NOT AVAILABLE", "ALT_NAME": "NOT AVAILABLE", "ST_FIPS": "06", "OWNER": "GOVERNMENT - FEDERAL", "TTL_STAFF": -999, "BEDS": -999, "TRAUMA": "NOT AVAILABLE", "HELIPAD": "N" }, "geometry": { "type": "Polygon", "coordinates": [ [ [ -119.7237886, 36.6635623 ], [ -119.781803, 36.656044900000026 ], [ -119.7908256, 36.656001899999971 ], [ -119.9076885, 36.735341099999985 ], [ -119.8913981, 36.8116112 ], [ -119.8535285, 36.838398 ], [ -119.8498256, 36.841009 ], [ -119.7784245, 36.888128499999979 ], [ -119.7664164, 36.894935 ], [ -119.6696366, 36.841234500000027 ], [ -119.6369198, 36.73642 ], [ -119.7237886, 36.6635623 ] ] ] } },
{ "type": "Feature", "properties": { "OBJECTID": 62, "ID": "0059093436", "NAME": "THE CHAMPION CENTER", "ADDRESS": "303 SOUTH C STREET", "CITY": "LOMPOC", "STATE": "CA", "ZIP": "93436", "ZIP4": "NOT AVAILABLE", "TELEPHONE": "(844) 394-3767", "TYPE": "REHABILITATION", "STATUS": "OPEN", "POPULATION": 34, "COUNTY": "SANTA BARBARA", "COUNTYFIPS": "06083", "COUNTRY": "USA", "LATITUDE": 34.635371609000103, "LONGITUDE": -120.45218832499999, "NAICS_CODE": "622310", "NAICS_DESC": "REHABILITATION HOSPITALS (EXCEPT ALCOHOLISM, DRUG ADDICTION)", "SOURCE": "http://www.oshpd.ca.gov/HID/Facility-Listing.html", "SOURCEDATE": "2018-08-08T00:00:00.000Z", "VAL_METHOD": "IMAGERY/OTHER", "VAL_DATE": "2016-02-17T00:00:00.000Z", "WEBSITE": "https://championrecovery.com/", "STATE_ID": "NOT AVAILABLE", "ALT_NAME": "NOT AVAILABLE", "ST_FIPS": "06", "OWNER": "PROPRIETARY", "TTL_STAFF": -999, "BEDS": 34, "TRAUMA": "NOT AVAILABLE", "HELIPAD": "N" }, "geometry": { "type": "Polygon", "coordinates": [ [ [ -120.4083793, 34.589420299999979 ], [ -120.495158, 34.587408 ], [ -120.533223, 34.629657 ], [ -120.543822, 34.648441 ], [ -120.548969, 34.662524199999986 ], [ -120.4905189, 34.712485200000017 ], [ -120.4892134, 34.7131464 ], [ -120.489075500000013, 34.71317470000001 ], [ -120.471754, 34.715321 ], [ -120.467541, 34.715735 ], [ -120.462842, 34.715529 ], [ -120.435862, 34.711111 ], [ -120.357213, 34.664568 ], [ -120.357225, 34.664113 ], [ -120.4083793, 34.589420299999979 ] ] ] } },
{ "type": "Feature", "properties": { "OBJECTID": 93, "ID": "0006193638", "NAME": "VALLEY CHILDREN'S HOSPITAL", "ADDRESS": "9300 VALLEY CHILDREN'S PLACE", "CITY": "MADERA", "STATE": "CA", "ZIP": "93638", "ZIP4": "NOT AVAILABLE", "TELEPHONE": "NOT AVAILABLE", "TYPE": "CHILDREN", "STATUS": "OPEN", "POPULATION": 356, "COUNTY": "MADERA", "COUNTYFIPS": "06039", "COUNTRY": "USA", "LATITUDE": 36.8840478340001, "LONGITUDE": -119.800242412, "NAICS_CODE": "622110", "NAICS_DESC": "CHILDREN'S HOSPITALS, GENERAL", "SOURCE": "http://www.oshpd.ca.gov/HID/Facility-Listing.html", "SOURCEDATE": "2018-08-08T00:00:00.000Z", "VAL_METHOD": "IMAGERY/OTHER", "VAL_DATE": "2014-02-10T00:00:00.000Z", "WEBSITE": "http://www.valleychildrens.org/Pages/Default.aspx", "STATE_ID": "NOT AVAILABLE", "ALT_NAME": "CHILDREN'S HOSPITAL CENTRAL CALIFORNIA", "ST_FIPS": "06", "OWNER": "NON-PROFIT", "TTL_STAFF": -999, "BEDS": 356, "TRAUMA": "NOT AVAILABLE", "HELIPAD": "Y" }, "geometry": { "type": "Polygon", "coordinates": [ [ [ -119.8254856, 36.8579974 ], [ -119.848765, 36.865758 ], [ -119.8751607, 36.880420200000017 ], [ -119.862540199999984, 36.923063100000014 ], [ -119.8014467, 36.966897 ], [ -119.7845921, 36.972118 ], [ -119.7798605, 36.971406500000043 ], [ -119.779035800000017, 36.971232099999973 ], [ -119.7777879, 36.970465199999985 ], [ -119.7606144, 36.9273387 ], [ -119.760647400000011, 36.927251099999971 ], [ -119.7919777, 36.874995499999969 ], [ -119.823045, 36.85916290000003 ], [ -119.8254856, 36.8579974 ] ] ] } },
{ "type": "Feature", "properties": { "OBJECTID": 937, "ID": "0002293423", "NAME": "DEPARTMENT OF STATE HOSPITAL - ATASCADERO", "ADDRESS": "10333 EL CAMINO REAL", "CITY": "ATASCADERO", "STATE": "CA", "ZIP": "93423", "ZIP4": "NOT AVAILABLE", "TELEPHONE": "(805) 468-2000", "TYPE": "PSYCHIATRIC", "STATUS": "OPEN", "POPULATION": 1275, "COUNTY": "SAN LUIS OBISPO", "COUNTYFIPS": "06079", "COUNTRY": "USA", "LATITUDE": 35.462717613000102, "LONGITUDE": -120.63489061200001, "NAICS_CODE": "622210", "NAICS_DESC": "PSYCHIATRIC AND SUBSTANCE ABUSE HOSPITALS", "SOURCE": "http://www.oshpd.ca.gov/HID/Facility-Listing.html", "SOURCEDATE": "2018-08-08T00:00:00.000Z", "VAL_METHOD": "IMAGERY", "VAL_DATE": "2014-02-10T00:00:00.000Z", "WEBSITE": "http://www.dsh.ca.gov/atascadero/", "STATE_ID": "NOT AVAILABLE", "ALT_NAME": "ATASCADERO STATE HOSPITAL", "ST_FIPS": "06", "OWNER": "GOVERNMENT - STATE", "TTL_STAFF": -999, "BEDS": 1275, "TRAUMA": "NOT AVAILABLE", "HELIPAD": "N" }, "geometry": { "type": "Polygon", "coordinates": [ [ [ -120.6399386, 35.359697 ], [ -120.720075, 35.45567 ], [ -120.72304960000001, 35.4592659 ], [ -120.72882, 35.543312 ], [ -120.7151799, 35.558057399999988 ], [ -120.703659099999982, 35.563417 ], [ -120.6419952, 35.524739499999988 ], [ -120.623563399999981, 35.510274900000013 ], [ -120.6197908, 35.506848699999985 ], [ -120.600882699999985, 35.428412099999953 ], [ -120.6006911, 35.394089400000034 ], [ -120.6023088, 35.3906306 ], [ -120.6037911, 35.387704 ], [ -120.63677, 35.3608077 ], [ -120.6399386, 35.359697 ] ] ] } },
{ "type": "Feature", "properties": { "OBJECTID": 945, "ID": "0013993720", "NAME": "FRESNO HEART AND SURGICAL HOSPITAL", "ADDRESS": "15 E. AUDUBON DRIVE", "CITY": "FRESNO", "STATE": "CA", "ZIP": "93720", "ZIP4": "NOT AVAILABLE", "TELEPHONE": "NOT AVAILABLE", "TYPE": "GENERAL ACUTE CARE", "STATUS": "OPEN", "POPULATION": 57, "COUNTY": "FRESNO", "COUNTYFIPS": "06019", "COUNTRY": "USA", "LATITUDE": 36.860885846000002, "LONGITUDE": -119.789251933, "NAICS_CODE": "622110", "NAICS_DESC": "GENERAL MEDICAL AND SURGICAL HOSPITALS", "SOURCE": "http://www.oshpd.ca.gov/HID/Facility-Listing.html", "SOURCEDATE": "2018-08-08T00:00:00.000Z", "VAL_METHOD": "IMAGERY", "VAL_DATE": "2014-02-10T00:00:00.000Z", "WEBSITE": "http://www.fresnoheartandsurgical.org", "STATE_ID": "NOT AVAILABLE", "ALT_NAME": "NOT AVAILABLE", "ST_FIPS": "06", "OWNER": "PROPRIETARY", "TTL_STAFF": -999, "BEDS": 57, "TRAUMA": "NOT AVAILABLE", "HELIPAD": "N" }, "geometry": { "type": "Polygon", "coordinates": [ [ [ -119.7830542, 36.728569200000038 ], [ -119.80319080000001, 36.747229 ], [ -119.878765, 36.8334506 ], [ -119.8812732, 36.8372989 ], [ -119.8798913, 36.841534199999963 ], [ -119.879169, 36.842635200000025 ], [ -119.730304, 36.93767869999995 ], [ -119.7301471, 36.937676 ], [ -119.6838602, 36.8955843 ], [ -119.674978700000011, 36.866397299999974 ], [ -119.6785338, 36.8407405 ], [ -119.6805146, 36.837397599999989 ], [ -119.746482200000017, 36.754543800000022 ], [ -119.778457, 36.731555400000026 ], [ -119.7830542, 36.728569200000038 ] ] ] } },
{ "type": "Feature", "properties": { "OBJECTID": 946, "ID": "0039693720", "NAME": "SAN JOAQUIN VALLEY REHABILITATION HOSPITAL", "ADDRESS": "7173 NO. SHARON AVENUE", "CITY": "FRESNO", "STATE": "CA", "ZIP": "93720", "ZIP4": "NOT AVAILABLE", "TELEPHONE": "NOT AVAILABLE", "TYPE": "GENERAL ACUTE CARE", "STATUS": "OPEN", "POPULATION": 62, "COUNTY": "FRESNO", "COUNTYFIPS": "06019", "COUNTRY": "USA", "LATITUDE": 36.839974514000097, "LONGITUDE": -119.760553493, "NAICS_CODE": "622110", "NAICS_DESC": "GENERAL MEDICAL AND SURGICAL HOSPITALS", "SOURCE": "http://www.oshpd.ca.gov/HID/Facility-Listing.html", "SOURCEDATE": "2018-08-08T00:00:00.000Z", "VAL_METHOD": "IMAGERY", "VAL_DATE": "2014-02-10T00:00:00.000Z", "WEBSITE": "http://www.sjvrehab.com", "STATE_ID": "NOT AVAILABLE", "ALT_NAME": "NOT AVAILABLE", "ST_FIPS": "06", "OWNER": "PROPRIETARY", "TTL_STAFF": -999, "BEDS": 62, "TRAUMA": "NOT AVAILABLE", "HELIPAD": "Y" }, "geometry": { "type": "Polygon", "coordinates": [ [ [ -119.7796605, 36.731476399999984 ], [ -119.780585499999987, 36.731866900000028 ], [ -119.80319080000001, 36.747229 ], [ -119.878765, 36.8334506 ], [ -119.8806261, 36.837303300000038 ], [ -119.879857, 36.840648100000053 ], [ -119.8791428, 36.841981 ], [ -119.7332306, 36.922613199999958 ], [ -119.618602899999985, 36.8664729 ], [ -119.629957200000021, 36.837390900000024 ], [ -119.725217499999985, 36.753384400000066 ], [ -119.7796605, 36.731476399999984 ] ] ] } },
{ "type": "Feature", "properties": { "OBJECTID": 948, "ID": "0027393546", "NAME": "MAMMOTH HOSPITAL", "ADDRESS": "85 SIERRA PARK ROAD", "CITY": "MAMMOTH LAKES", "STATE": "CA", "ZIP": "93546", "ZIP4": "NOT AVAILABLE", "TELEPHONE": "NOT AVAILABLE", "TYPE": "GENERAL ACUTE CARE", "STATUS": "OPEN", "POPULATION": 17, "COUNTY": "MONO", "COUNTYFIPS": "06051", "COUNTRY": "USA", "LATITUDE": 37.643950209000003, "LONGITUDE": -118.96232892099999, "NAICS_CODE": "622110", "NAICS_DESC": "GENERAL MEDICAL AND SURGICAL HOSPITALS", "SOURCE": "http://www.oshpd.ca.gov/HID/Facility-Listing.html", "SOURCEDATE": "2018-08-08T00:00:00.000Z", "VAL_METHOD": "IMAGERY", "VAL_DATE": "2014-02-10T00:00:00.000Z", "WEBSITE": "http://www.mammothhospital.com", "STATE_ID": "NOT AVAILABLE", "ALT_NAME": "NOT AVAILABLE", "ST_FIPS": "06", "OWNER": "GOVERNMENT - DISTRICT/AUTHORITY", "TTL_STAFF": -999, "BEDS": 17, "TRAUMA": "NOT AVAILABLE", "HELIPAD": "N" }, "geometry": { "type": "Polygon", "coordinates": [ [ [ -118.8147435, 37.6159651 ], [ -119.0005043, 37.606251 ], [ -119.004983, 37.608359 ], [ -119.0055834, 37.62273219999998 ], [ -119.0014471, 37.651310699999975 ], [ -119.000379, 37.6528636 ], [ -118.9530462, 37.7090276 ], [ -118.9524077, 37.709134299999988 ], [ -118.81466260000002, 37.6161544 ], [ -118.8147435, 37.6159651 ] ] ] } },
{ "type": "Feature", "properties": { "OBJECTID": 955, "ID": "0035493258", "NAME": "PORTERVILLE DEVELOPMENTAL CENTER", "ADDRESS": "26501 AVENUE 140", "CITY": "PORTERVILLE", "STATE": "CA", "ZIP": "93258", "ZIP4": "NOT AVAILABLE", "TELEPHONE": "NOT AVAILABLE", "TYPE": "GENERAL ACUTE CARE", "STATUS": "OPEN", "POPULATION": 1226, "COUNTY": "TULARE", "COUNTYFIPS": "06107", "COUNTRY": "USA", "LATITUDE": 36.039771218000098, "LONGITUDE": -118.983418775, "NAICS_CODE": "622110", "NAICS_DESC": "GENERAL MEDICAL AND SURGICAL HOSPITALS", "SOURCE": "http://www.oshpd.ca.gov/HID/Facility-Listing.html", "SOURCEDATE": "2018-08-08T00:00:00.000Z", "VAL_METHOD": "IMAGERY", "VAL_DATE": "2014-02-10T00:00:00.000Z", "WEBSITE": "http://www.dds.ca.gov/porterville/", "STATE_ID": "NOT AVAILABLE", "ALT_NAME": "NOT AVAILABLE", "ST_FIPS": "06", "OWNER": "GOVERNMENT - STATE", "TTL_STAFF": -999, "BEDS": 1226, "TRAUMA": "NOT AVAILABLE", "HELIPAD": "N" }, "geometry": { "type": "Polygon", "coordinates": [ [ [ -118.9824033, 35.987060599999964 ], [ -119.053632, 35.9932637 ], [ -119.107494674786167, 36.051196773452141 ], [ -119.064249933754553, 36.134262077731748 ], [ -119.06403563327909, 36.134370978524991 ], [ -119.062823130868054, 36.134664283331254 ], [ -118.870664452262346, 36.099161496030398 ], [ -118.9107544, 36.025590400000034 ], [ -118.9824033, 35.987060599999964 ] ] ] } },
{ "type": "Feature", "properties": { "OBJECTID": 7526, "ID": "0026193436", "NAME": "LOMPOC VALLEY MEDICAL CENTER", "ADDRESS": "1515 E. OCEAN AVENUE", "CITY": "LOMPOC", "STATE": "CA", "ZIP": "93436", "ZIP4": "NOT AVAILABLE", "TELEPHONE": "NOT AVAILABLE", "TYPE": "GENERAL ACUTE CARE", "STATUS": "OPEN", "POPULATION": 60, "COUNTY": "SANTA BARBARA", "COUNTYFIPS": "06083", "COUNTRY": "USA", "LATITUDE": 34.640910994000002, "LONGITUDE": -120.439532368, "NAICS_CODE": "622110", "NAICS_DESC": "GENERAL MEDICAL AND SURGICAL HOSPITALS", "SOURCE": "http://www.oshpd.ca.gov/HID/Facility-Listing.html", "SOURCEDATE": "2018-08-08T00:00:00.000Z", "VAL_METHOD": "IMAGERY", "VAL_DATE": "2014-02-10T00:00:00.000Z", "WEBSITE": "http://www.lompocvmc.com", "STATE_ID": "NOT AVAILABLE", "ALT_NAME": "NOT AVAILABLE", "ST_FIPS": "06", "OWNER": "GOVERNMENT - DISTRICT/AUTHORITY", "TTL_STAFF": -999, "BEDS": 60, "TRAUMA": "NOT AVAILABLE", "HELIPAD": "N" }, "geometry": { "type": "Polygon", "coordinates": [ [ [ -120.4083793, 34.589420299999979 ], [ -120.481376, 34.58862 ], [ -120.48179, 34.588895 ], [ -120.529703, 34.634045 ], [ -120.542758, 34.649856 ], [ -120.548183, 34.661736 ], [ -120.4905189, 34.712485200000017 ], [ -120.4892134, 34.7131464 ], [ -120.489075500000013, 34.71317470000001 ], [ -120.470623, 34.713783 ], [ -120.467939, 34.713506 ], [ -120.462019, 34.712735 ], [ -120.355026, 34.672547 ], [ -120.344316, 34.664498 ], [ -120.4083793, 34.589420299999979 ] ] ] } },
{ "type": "Feature", "properties": { "OBJECTID": 7527, "ID": "0040393110", "NAME": "SANTA BARBARA PSYCHIATRIC HEALTH FACILITY", "ADDRESS": "315 CAMINO DEL REMEDIO", "CITY": "SANTA BARBARA", "STATE": "CA", "ZIP": "93110", "ZIP4": "NOT AVAILABLE", "TELEPHONE": "NOT AVAILABLE", "TYPE": "PSYCHIATRIC", "STATUS": "OPEN", "POPULATION": 16, "COUNTY": "SANTA BARBARA", "COUNTYFIPS": "06083", "COUNTRY": "USA", "LATITUDE": 34.4441368990001, "LONGITUDE": -119.780633298, "NAICS_CODE": "622210", "NAICS_DESC": "PSYCHIATRIC AND SUBSTANCE ABUSE HOSPITALS", "SOURCE": "http://www.oshpd.ca.gov/HID/Facility-Listing.html", "SOURCEDATE": "2018-08-08T00:00:00.000Z", "VAL_METHOD": "IMAGERY", "VAL_DATE": "2014-02-10T00:00:00.000Z", "WEBSITE": "http://www.countyofsb.org", "STATE_ID": "NOT AVAILABLE", "ALT_NAME": "NOT AVAILABLE", "ST_FIPS": "06", "OWNER": "GOVERNMENT - LOCAL", "TTL_STAFF": -999, "BEDS": 16, "TRAUMA": "NOT AVAILABLE", "HELIPAD": "N" }, "geometry": { "type": "Polygon", "coordinates": [ [ [ -119.708082, 34.396554 ], [ -119.709844, 34.396249 ], [ -119.713868, 34.396027 ], [ -119.726118, 34.396685 ], [ -119.728251, 34.396864 ], [ -119.8695402, 34.409882899999985 ], [ -119.8768052, 34.4106151 ], [ -119.9544457, 34.44417080000003 ], [ -119.812239609314403, 34.504464677654106 ], [ -119.631549899999982, 34.425542300000018 ], [ -119.6247875, 34.420819900000019 ], [ -119.708082, 34.396554 ] ] ] } },
{ "type": "Feature", "properties": { "OBJECTID": 7538, "ID": "0007293210", "NAME": "COALINGA REGIONAL MEDICAL CENTER", "ADDRESS": "1191 PHELPS AVENUE", "CITY": "COALINGA", "STATE": "CA", "ZIP": "93210", "ZIP4": "NOT AVAILABLE", "TELEPHONE": "NOT AVAILABLE", "TYPE": "GENERAL ACUTE CARE", "STATUS": "OPEN", "POPULATION": 123, "COUNTY": "FRESNO", "COUNTYFIPS": "06019", "COUNTRY": "USA", "LATITUDE": 36.152471117000097, "LONGITUDE": -120.340684029, "NAICS_CODE": "622110", "NAICS_DESC": "GENERAL MEDICAL AND SURGICAL HOSPITALS", "SOURCE": "http://www.oshpd.ca.gov/HID/Facility-Listing.html", "SOURCEDATE": "2018-08-08T00:00:00.000Z", "VAL_METHOD": "IMAGERY", "VAL_DATE": "2014-02-10T00:00:00.000Z", "WEBSITE": "http://www.coalingamedicalcenter.com", "STATE_ID": "NOT AVAILABLE", "ALT_NAME": "NOT AVAILABLE", "ST_FIPS": "06", "OWNER": "GOVERNMENT - DISTRICT/AUTHORITY", "TTL_STAFF": -999, "BEDS": 123, "TRAUMA": "NOT AVAILABLE", "HELIPAD": "Y" }, "geometry": { "type": "Polygon", "coordinates": [ [ [ -120.298878302927363, 36.129325245987097 ], [ -120.37433075754636, 36.121986224424695 ], [ -120.397271239565072, 36.121417214665129 ], [ -120.390995824249501, 36.17993121890261 ], [ -120.372935501399866, 36.208866702921824 ], [ -120.311426755301824, 36.210333744142083 ], [ -120.293204661306874, 36.151639314435187 ], [ -120.290324492798362, 36.136909536967067 ], [ -120.298878302927363, 36.129325245987097 ] ] ] } },
{ "type": "Feature", "properties": { "OBJECTID": 5175, "ID": "0004889820", "NAME": "BATTLE MOUNTAIN GENERAL HOSPITAL", "ADDRESS": "535 SOUTH HUMBOLDT STREET", "CITY": "BATTE MTN", "STATE": "NV", "ZIP": "89820", "ZIP4": "NOT AVAILABLE", "TELEPHONE": "(775) 635-2550", "TYPE": "GENERAL ACUTE CARE", "STATUS": "OPEN", "POPULATION": 7, "COUNTY": "LANDER", "COUNTYFIPS": "32015", "COUNTRY": "USA", "LATITUDE": 40.639550621000097, "LONGITUDE": -116.94028622099999, "NAICS_CODE": "622110", "NAICS_DESC": "GENERAL MEDICAL AND SURGICAL HOSPITALS", "SOURCE": "http://dpbh.nv.gov/Reg/HealthFacilities/Community_Resources/", "SOURCEDATE": "2018-08-09T00:00:00.000Z", "VAL_METHOD": "IMAGERY/OTHER", "VAL_DATE": "2013-11-26T00:00:00.000Z", "WEBSITE": "http://www.bmgh.org", "STATE_ID": "631-RUH-28", "ALT_NAME": "NOT AVAILABLE", "ST_FIPS": "32", "OWNER": "GOVERNMENT - DISTRICT/AUTHORITY", "TTL_STAFF": -999, "BEDS": 7, "TRAUMA": "NOT AVAILABLE", "HELIPAD": "N" }, "geometry": { "type": "Polygon", "coordinates": [ [ [ -116.8766882, 40.567308900000022 ], [ -116.886379100000013, 40.567081700000017 ], [ -117.010235499999979, 40.58252990000004 ], [ -116.982443300000014, 40.654929900000049 ], [ -116.969830300000012, 40.656722899999956 ], [ -116.9528321, 40.654801 ], [ -116.9248837, 40.648123100000042 ], [ -116.9131132, 40.643408399999984 ], [ -116.910983599999966, 40.642386700000031 ], [ -116.874820900000017, 40.613043199999957 ], [ -116.8739286, 40.607608500000012 ], [ -116.8699841, 40.582158300000025 ], [ -116.8766882, 40.567308900000022 ] ] ] } },
{ "type": "Feature", "properties": { "OBJECTID": 5179, "ID": "0004989415", "NAME": "MOUNT GRANT GENERAL HOSPITAL", "ADDRESS": "FIRST AND 'A' STREET", "CITY": "HAWTHORNE", "STATE": "NV", "ZIP": "89415", "ZIP4": "NOT AVAILABLE", "TELEPHONE": "(702) 945-2461", "TYPE": "CRITICAL ACCESS", "STATUS": "OPEN", "POPULATION": 11, "COUNTY": "MINERAL", "COUNTYFIPS": "32021", "COUNTRY": "USA", "LATITUDE": 38.517003461000101, "LONGITUDE": -118.62738978, "NAICS_CODE": "622110", "NAICS_DESC": "GENERAL MEDICAL AND SURGICAL HOSPITALS", "SOURCE": "http://dpbh.nv.gov/Reg/HealthFacilities/Community_Resources/", "SOURCEDATE": "2018-08-09T00:00:00.000Z", "VAL_METHOD": "IMAGERY/OTHER", "VAL_DATE": "2014-02-10T00:00:00.000Z", "WEBSITE": "http://mtgrantgenhospital.org/", "STATE_ID": "651-RUH-21", "ALT_NAME": "NOT AVAILABLE", "ST_FIPS": "32", "OWNER": "NON-PROFIT", "TTL_STAFF": -999, "BEDS": 11, "TRAUMA": "NOT AVAILABLE", "HELIPAD": "Y" }, "geometry": { "type": "Polygon", "coordinates": [ [ [ -118.635767700000017, 38.44498470000002 ], [ -118.6536481, 38.459793899999973 ], [ -118.6653432, 38.504252 ], [ -118.674138, 38.545255 ], [ -118.673599, 38.546151 ], [ -118.62141, 38.5571307 ], [ -118.608349, 38.524487 ], [ -118.635767700000017, 38.44498470000002 ] ] ] } },
{ "type": "Feature", "properties": { "OBJECTID": 5180, "ID": "0004789049", "NAME": "NYE REGIONAL MEDICAL CENTER", "ADDRESS": "825 SOUTH MAIN STREET", "CITY": "TONOPAH", "STATE": "NV", "ZIP": "89049", "ZIP4": "NOT AVAILABLE", "TELEPHONE": "(775) 482-6233", "TYPE": "GENERAL ACUTE CARE", "STATUS": "CLOSED", "POPULATION": 44, "COUNTY": "NYE", "COUNTYFIPS": "32023", "COUNTRY": "USA", "LATITUDE": 38.061643183000101, "LONGITUDE": -117.22249012100001, "NAICS_CODE": "622110", "NAICS_DESC": "GENERAL MEDICAL AND SURGICAL HOSPITALS", "SOURCE": "http://dhhs.nv.gov/Health/hcqc/healthfacilitiesquery/FacilitiesSearch.aspx", "SOURCEDATE": "2012-11-24T00:00:00.000Z", "VAL_METHOD": "IMAGERY/OTHER", "VAL_DATE": "2013-11-26T00:00:00.000Z", "WEBSITE": "http://www.nyeregional.org", "STATE_ID": "NOT AVAILABLE", "ALT_NAME": "NOT AVAILABLE", "ST_FIPS": "32", "OWNER": "PROPRIETARY", "TTL_STAFF": -999, "BEDS": 44, "TRAUMA": "NOT AVAILABLE", "HELIPAD": "N" }, "geometry": { "type": "Polygon", "coordinates": [ [ [ -117.1937656, 38.0370392 ], [ -117.203341199999983, 38.040426800000034 ], [ -117.2164352, 38.047895699999962 ], [ -117.231878400000028, 38.0591855 ], [ -117.2539806, 38.080318500000018 ], [ -117.256606, 38.084975 ], [ -117.25605, 38.086207 ], [ -117.254493, 38.087826 ], [ -117.241571, 38.091866 ], [ -117.091115400000021, 38.073863 ], [ -117.091056, 38.073134399999979 ], [ -117.096487, 38.059828 ], [ -117.1937656, 38.0370392 ] ] ] } },
{ "type": "Feature", "properties": { "OBJECTID": 5447, "ID": "0033693030", "NAME": "PACIFIC SHORES HOSPITAL", "ADDRESS": "2130 VENTURA ROAD", "CITY": "OXNARD", "STATE": "CA", "ZIP": "93030", "ZIP4": "NOT AVAILABLE", "TELEPHONE": "NOT AVAILABLE", "TYPE": "PSYCHIATRIC", "STATUS": "CLOSED", "POPULATION": 30, "COUNTY": "VENTURA", "COUNTYFIPS": "06111", "COUNTRY": "USA", "LATITUDE": 34.224141306999996, "LONGITUDE": -119.19423049, "NAICS_CODE": "622210", "NAICS_DESC": "HOSPITALS, PSYCHIATRIC (EXCEPT CONVALESCENT)", "SOURCE": "http://www.oshpd.ca.gov/HID/Facility-Listing.html", "SOURCEDATE": "2016-02-04T00:00:00.000Z", "VAL_METHOD": "IMAGERY", "VAL_DATE": "2014-02-10T00:00:00.000Z", "WEBSITE": "http://www.raderprograms.com", "STATE_ID": "NOT AVAILABLE", "ALT_NAME": "NOT AVAILABLE", "ST_FIPS": "06", "OWNER": "PROPRIETARY", "TTL_STAFF": -999, "BEDS": 30, "TRAUMA": "NOT AVAILABLE", "HELIPAD": "N" }, "geometry": { "type": "Polygon", "coordinates": [ [ [ -119.1144135, 34.149251600000049 ], [ -119.183968, 34.140156 ], [ -119.190503600000014, 34.141342 ], [ -119.218176, 34.151961 ], [ -119.222924600000013, 34.1568196 ], [ -119.225885500000018, 34.1598615 ], [ -119.232848700000019, 34.170476299999962 ], [ -119.2972485, 34.277572199999987 ], [ -119.217861900000017, 34.295171 ], [ -119.1586619, 34.2925841 ], [ -119.1525897, 34.291738299999984 ], [ -119.1450566, 34.2881661 ], [ -119.0402341, 34.2173137 ], [ -119.1144135, 34.149251600000049 ] ] ] } },
{ "type": "Feature", "properties": { "OBJECTID": 5474, "ID": "0049193561", "NAME": "ADVENTIST HEALTH MEDICAL CENTER TEHACHAPI VALLEY", "ADDRESS": "115 WEST E STREET", "CITY": "TEHACHAPI", "STATE": "CA", "ZIP": "93561", "ZIP4": "NOT AVAILABLE", "TELEPHONE": "NOT AVAILABLE", "TYPE": "GENERAL ACUTE CARE", "STATUS": "OPEN", "POPULATION": 28, "COUNTY": "KERN", "COUNTYFIPS": "06029", "COUNTRY": "USA", "LATITUDE": 35.130343782000097, "LONGITUDE": -118.44873692900001, "NAICS_CODE": "622110", "NAICS_DESC": "GENERAL MEDICAL AND SURGICAL HOSPITALS", "SOURCE": "http://www.oshpd.ca.gov/HID/Facility-Listing.html", "SOURCEDATE": "2018-08-08T00:00:00.000Z", "VAL_METHOD": "IMAGERY/OTHER", "VAL_DATE": "2014-02-10T00:00:00.000Z", "WEBSITE": "https://www.adventisthealth.org/TehachapiValley/", "STATE_ID": "NOT AVAILABLE", "ALT_NAME": "TEHACHAPI HOSPITAL", "ST_FIPS": "06", "OWNER": "NON-PROFIT", "TTL_STAFF": -999, "BEDS": 28, "TRAUMA": "NOT AVAILABLE", "HELIPAD": "N" }, "geometry": { "type": "Polygon", "coordinates": [ [ [ -118.296624599999987, 35.098408100000022 ], [ -118.400844, 35.081793 ], [ -118.422118, 35.078595 ], [ -118.523353, 35.094332 ], [ -118.533758, 35.100146 ], [ -118.548025599999988, 35.117216 ], [ -118.5490721, 35.129152600000026 ], [ -118.5249092, 35.201394 ], [ -118.519622, 35.199086499999979 ], [ -118.3224895, 35.1110982 ], [ -118.296624599999987, 35.098408100000022 ] ] ] } },
{ "type": "Feature", "properties": { "OBJECTID": 3105, "ID": "0005289406", "NAME": "BANNER CHURCHILL COMMUNITY HOSPITAL", "ADDRESS": "801 EAST WILLIAMS AVENUE", "CITY": "FALLON", "STATE": "NV", "ZIP": "89406", "ZIP4": "NOT AVAILABLE", "TELEPHONE": "(775) 423-3151", "TYPE": "GENERAL ACUTE CARE", "STATUS": "OPEN", "POPULATION": 40, "COUNTY": "CHURCHILL", "COUNTYFIPS": "32001", "COUNTRY": "USA", "LATITUDE": 39.476558126, "LONGITUDE": -118.766205231, "NAICS_CODE": "622110", "NAICS_DESC": "GENERAL MEDICAL AND SURGICAL HOSPITALS", "SOURCE": "http://dpbh.nv.gov/Reg/HealthFacilities/Community_Resources/", "SOURCEDATE": "2018-08-09T00:00:00.000Z", "VAL_METHOD": "IMAGERY/OTHER", "VAL_DATE": "2014-02-10T00:00:00.000Z", "WEBSITE": "http://www.bannerhealth.com/Locations/Nevada/Banner+Churchill+ Community+Hospital", "STATE_ID": "638-RUH-34", "ALT_NAME": "NOT AVAILABLE", "ST_FIPS": "32", "OWNER": "NON-PROFIT", "TTL_STAFF": -999, "BEDS": 40, "TRAUMA": "NOT AVAILABLE", "HELIPAD": "Y" }, "geometry": { "type": "Polygon", "coordinates": [ [ [ -118.7254674, 39.3943969 ], [ -118.7815987, 39.3991926 ], [ -118.8004591, 39.40182930000001 ], [ -118.861275400000011, 39.445470499999978 ], [ -118.8756371, 39.459954399999958 ], [ -118.894343800000016, 39.4942159 ], [ -118.8568367, 39.50732710000004 ], [ -118.762550200000021, 39.5288719 ], [ -118.7554685, 39.528900700000044 ], [ -118.6367569, 39.492691 ], [ -118.637853800000016, 39.489557100000042 ], [ -118.6679328, 39.438112299999979 ], [ -118.7254674, 39.3943969 ] ] ] } },
{ "type": "Feature", "properties": { "OBJECTID": 3109, "ID": "0005489445", "NAME": "HUMBOLDT GENERAL HOSPITAL", "ADDRESS": "118 EAST HASKELL STREET", "CITY": "WINNEMUCCA", "STATE": "NV", "ZIP": "89445", "ZIP4": "NOT AVAILABLE", "TELEPHONE": "(775) 623-5222", "TYPE": "GENERAL ACUTE CARE", "STATUS": "OPEN", "POPULATION": 52, "COUNTY": "HUMBOLDT", "COUNTYFIPS": "32013", "COUNTRY": "USA", "LATITUDE": 40.971325039000099, "LONGITUDE": -117.727187258, "NAICS_CODE": "622110", "NAICS_DESC": "GENERAL MEDICAL AND SURGICAL HOSPITALS", "SOURCE": "http://dpbh.nv.gov/Reg/HealthFacilities/Community_Resources/", "SOURCEDATE": "2018-08-09T00:00:00.000Z", "VAL_METHOD": "IMAGERY/OTHER", "VAL_DATE": "2014-03-12T00:00:00.000Z", "WEBSITE": "http://www.hghospital.ws", "STATE_ID": "645-RUH-23", "ALT_NAME": "NOT AVAILABLE", "ST_FIPS": "32", "OWNER": "GOVERNMENT - DISTRICT/AUTHORITY", "TTL_STAFF": -999, "BEDS": 52, "TRAUMA": "NOT AVAILABLE", "HELIPAD": "Y" }, "geometry": { "type": "Polygon", "coordinates": [ [ [ -117.767991400000014, 40.893648 ], [ -117.832898699999987, 40.913814100000025 ], [ -117.811471, 40.963528600000011 ], [ -117.7108819, 41.0731564 ], [ -117.7091479, 41.073137099999954 ], [ -117.581947700000015, 41.023234099999961 ], [ -117.5776209, 41.0201601 ], [ -117.5752566, 41.016215699999989 ], [ -117.677485, 40.931467200000036 ], [ -117.767991400000014, 40.893648 ] ] ] } },
{ "type": "Feature", "properties": { "OBJECTID": 3731, "ID": "0004589301", "NAME": "WILLIAM BEE RIRIE HOSPITAL", "ADDRESS": "1500 AVENUE 'H'", "CITY": "ELY", "STATE": "NV", "ZIP": "89301", "ZIP4": "NOT AVAILABLE", "TELEPHONE": "(775) 289-3001", "TYPE": "CRITICAL ACCESS", "STATUS": "OPEN", "POPULATION": 12, "COUNTY": "WHITE PINE", "COUNTYFIPS": "32033", "COUNTRY": "USA", "LATITUDE": 39.256727038000101, "LONGITUDE": -114.858604793, "NAICS_CODE": "622110", "NAICS_DESC": "GENERAL MEDICAL AND SURGICAL HOSPITALS", "SOURCE": "http://dpbh.nv.gov/Reg/HealthFacilities/Community_Resources/", "SOURCEDATE": "2018-08-09T00:00:00.000Z", "VAL_METHOD": "IMAGERY/OTHER", "VAL_DATE": "2013-11-26T00:00:00.000Z", "WEBSITE": "http://www.elynevadahospital.org", "STATE_ID": "670-RUH-28", "ALT_NAME": "NOT AVAILABLE", "ST_FIPS": "32", "OWNER": "GOVERNMENT - DISTRICT/AUTHORITY", "TTL_STAFF": -999, "BEDS": 12, "TRAUMA": "NOT AVAILABLE", "HELIPAD": "N" }, "geometry": { "type": "Polygon", "coordinates": [ [ [ -114.8195765, 39.169983099999989 ], [ -114.967252, 39.2197 ], [ -114.882912, 39.326741 ], [ -114.88248, 39.327034 ], [ -114.8009746, 39.35505430000002 ], [ -114.8195765, 39.169983099999989 ] ] ] } },
{ "type": "Feature", "properties": { "OBJECTID": 3889, "ID": "0176593702", "NAME": "EXODUS PSYCHIATRIC HEALTH FACILITY FRESNO", "ADDRESS": "4411 E. KINGS CANYON ROAD", "CITY": "FRESNO", "STATE": "CA", "ZIP": "93702", "ZIP4": "NOT AVAILABLE", "TELEPHONE": "NOT AVAILABLE", "TYPE": "PSYCHIATRIC", "STATUS": "OPEN", "POPULATION": 16, "COUNTY": "FRESNO", "COUNTYFIPS": "06019", "COUNTRY": "USA", "LATITUDE": 36.737288685000102, "LONGITUDE": -119.752187693, "NAICS_CODE": "622210", "NAICS_DESC": "PSYCHIATRIC AND SUBSTANCE ABUSE HOSPITALS", "SOURCE": "http://www.oshpd.ca.gov/HID/Facility-Listing.html", "SOURCEDATE": "2018-08-08T00:00:00.000Z", "VAL_METHOD": "IMAGERY/OTHER", "VAL_DATE": "2019-05-09T00:00:00.000Z", "WEBSITE": "https://www.exodusrecovery.com/fresno-programs/fresno-csc-in-patient/", "STATE_ID": "NOT AVAILABLE", "ALT_NAME": "NOT AVAILABLE", "ST_FIPS": "06", "OWNER": "PROPRIETARY", "TTL_STAFF": -999, "BEDS": 16, "TRAUMA": "NOT AVAILABLE", "HELIPAD": "N" }, "geometry": { "type": "Polygon", "coordinates": [ [ [ -119.7818214, 36.634278400000014 ], [ -119.7908417, 36.6342469 ], [ -119.88075910000002, 36.735485799999964 ], [ -119.8609369, 36.791167100000045 ], [ -119.7904294, 36.840056600000025 ], [ -119.7848571, 36.8422892 ], [ -119.6997838, 36.8397258 ], [ -119.6976242, 36.839134399999985 ], [ -119.6943753, 36.837552300000013 ], [ -119.6190273, 36.735799 ], [ -119.7104642, 36.656295899999989 ], [ -119.7818214, 36.634278400000014 ] ] ] } }
]
}
