{
"type": "FeatureCollection",
"crs": { "type": "name", "properties": { "name": "urn:ogc:def:crs:OGC:1.3:CRS84" } },
"features": [
{ "type": "Feature", "properties": { "OBJECTID": 1098, "ID": "0002148708", "NAME": "MCLAREN BAY REGION", "ADDRESS": "1900 COLUMBUS AVE", "CITY": "BAY CITY", "STATE": "MI", "ZIP": "48708", "ZIP4": "NOT AVAILABLE", "TELEPHONE": "NOT AVAILABLE", "TYPE": "GENERAL ACUTE CARE", "STATUS": "OPEN", "POPULATION": 338, "COUNTY": "BAY", "COUNTYFIPS": "26017", "COUNTRY": "USA", "LATITUDE": 43.588216427000098, "LONGITUDE": -83.868396153999996, "NAICS_CODE": "622110", "NAICS_DESC": "GENERAL MEDICAL AND SURGICAL HOSPITALS", "SOURCE": "https://w2.lara.state.mi.us/VAL/License/Search", "SOURCEDATE": "2018-08-09T00:00:00.000Z", "VAL_METHOD": "IMAGERY", "VAL_DATE": "2014-02-10T00:00:00.000Z", "WEBSITE": "http://www.bayregional.org", "STATE_ID": "NOT AVAILABLE", "ALT_NAME": "NOT AVAILABLE", "ST_FIPS": "26", "OWNER": "NON-PROFIT", "TTL_STAFF": -999, "BEDS": 338, "TRAUMA": "NOT AVAILABLE", "HELIPAD": "Y" }, "geometry": { "type": "Polygon", "coordinates": [ [ [ -83.836004, 43.507849 ], [ -83.941175, 43.525128 ], [ -83.9666546, 43.537062800000044 ], [ -84.01198, 43.603185 ], [ -83.94504, 43.654482 ], [ -83.912507, 43.659931 ], [ -83.897485, 43.661419 ], [ -83.88191, 43.65766 ], [ -83.8117938, 43.634334900000013 ], [ -83.777006, 43.618147 ], [ -83.739549, 43.588862 ], [ -83.748863, 43.536519 ], [ -83.793798, 43.50773 ], [ -83.794113, 43.50773 ], [ -83.836004, 43.507849 ] ] ] } },
{ "type": "Feature", "properties": { "OBJECTID": 1105, "ID": "0000000061", "NAME": "ST MARY'S OF MICHIGAN-TOWNE CTR", "ADDRESS": "4599 TOWNE CENTRE RD", "CITY": "SAGINAW", "STATE": "MI", "ZIP": "48604", "ZIP4": "NOT AVAILABLE", "TELEPHONE": "(989) 497-3000", "TYPE": "GENERAL ACUTE CARE", "STATUS": "OPEN", "POPULATION": -999, "COUNTY": "SAGINAW", "COUNTYFIPS": "26145", "COUNTRY": "USA", "LATITUDE": 43.473972275999998, "LONGITUDE": -83.9649316859999, "NAICS_CODE": "622110", "NAICS_DESC": "GENERAL MEDICAL AND SURGICAL HOSPITALS", "SOURCE": "https://w2.lara.state.mi.us/VAL/License/Search", "SOURCEDATE": "2018-08-09T00:00:00.000Z", "VAL_METHOD": "IMAGERY/OTHER", "VAL_DATE": "2015-05-21T00:00:00.000Z", "WEBSITE": "http://www.stmarysofmichigan.org/find_a_location/index.php?i=86", "STATE_ID": "NOT AVAILABLE", "ALT_NAME": "NOT AVAILABLE", "ST_FIPS": "26", "OWNER": "NON-PROFIT", "TTL_STAFF": -999, "BEDS": -999, "TRAUMA": "NOT AVAILABLE", "HELIPAD": "N" }, "geometry": { "type": "Polygon", "coordinates": [ [ [ -83.955434, 43.387227 ], [ -83.987709, 43.398916 ], [ -83.991473, 43.400734 ], [ -84.01481, 43.415292 ], [ -84.0449298, 43.4371868 ], [ -84.071845, 43.466161 ], [ -84.0838002, 43.481213100000019 ], [ -83.9948, 43.545136 ], [ -83.9800264, 43.553088099999975 ], [ -83.957004, 43.565317 ], [ -83.953782, 43.566247 ], [ -83.9311212, 43.566415299999981 ], [ -83.8567577, 43.450498 ], [ -83.867899, 43.414532 ], [ -83.896874, 43.398079 ], [ -83.907065, 43.392874 ], [ -83.955434, 43.387227 ] ] ] } },
{ "type": "Feature", "properties": { "OBJECTID": 2096, "ID": "0002548915", "NAME": "SPARROW HEALTH SYSTEM-ST LAWRENCE CAMPUS", "ADDRESS": "1210 W SAGINAW", "CITY": "LANSING", "STATE": "MI", "ZIP": "48915", "ZIP4": "NOT AVAILABLE", "TELEPHONE": "NOT AVAILABLE", "TYPE": "GENERAL ACUTE CARE", "STATUS": "OPEN", "POPULATION": 50, "COUNTY": "INGHAM", "COUNTYFIPS": "26065", "COUNTRY": "USA", "LATITUDE": 42.741519649000097, "LONGITUDE": -84.569991795000007, "NAICS_CODE": "622110", "NAICS_DESC": "GENERAL MEDICAL AND SURGICAL HOSPITALS", "SOURCE": "https://w2.lara.state.mi.us/VAL/License/Search", "SOURCEDATE": "2018-08-09T00:00:00.000Z", "VAL_METHOD": "IMAGERY", "VAL_DATE": "2014-02-10T00:00:00.000Z", "WEBSITE": "http://www.sparrow.org/?id=528&sid=1", "STATE_ID": "NOT AVAILABLE", "ALT_NAME": "NOT AVAILABLE", "ST_FIPS": "26", "OWNER": "NON-PROFIT", "TTL_STAFF": -999, "BEDS": 50, "TRAUMA": "NOT AVAILABLE", "HELIPAD": "N" }, "geometry": { "type": "Polygon", "coordinates": [ [ [ -84.6765057, 42.661133500000069 ], [ -84.676675, 42.661286 ], [ -84.705073, 42.726298 ], [ -84.706913, 42.7408218 ], [ -84.542938, 42.823387 ], [ -84.5130357, 42.8188923 ], [ -84.4406532, 42.757015799999984 ], [ -84.4405176, 42.756890600000041 ], [ -84.4527422, 42.7107551 ], [ -84.48026, 42.668513 ], [ -84.565682, 42.653259 ], [ -84.602994, 42.6551503 ], [ -84.6765057, 42.661133500000069 ] ] ] } },
{ "type": "Feature", "properties": { "OBJECTID": 2097, "ID": "0002848910", "NAME": "MCLAREN GREATER LANSING", "ADDRESS": "401 W GREENLAWN AVE", "CITY": "LANSING", "STATE": "MI", "ZIP": "48910", "ZIP4": "NOT AVAILABLE", "TELEPHONE": "NOT AVAILABLE", "TYPE": "GENERAL ACUTE CARE", "STATUS": "OPEN", "POPULATION": 322, "COUNTY": "INGHAM", "COUNTYFIPS": "26065", "COUNTRY": "USA", "LATITUDE": 42.703762961000102, "LONGITUDE": -84.554988812999994, "NAICS_CODE": "622110", "NAICS_DESC": "GENERAL MEDICAL AND SURGICAL HOSPITALS", "SOURCE": "https://w2.lara.state.mi.us/VAL/License/Search", "SOURCEDATE": "2018-08-09T00:00:00.000Z", "VAL_METHOD": "IMAGERY", "VAL_DATE": "2014-03-12T00:00:00.000Z", "WEBSITE": "http://www.irmc.org", "STATE_ID": "NOT AVAILABLE", "ALT_NAME": "NOT AVAILABLE", "ST_FIPS": "26", "OWNER": "NON-PROFIT", "TTL_STAFF": -999, "BEDS": 322, "TRAUMA": "NOT AVAILABLE", "HELIPAD": "Y" }, "geometry": { "type": "Polygon", "coordinates": [ [ [ -84.5802251, 42.622833900000039 ], [ -84.5823525, 42.623240600000017 ], [ -84.602940300000014, 42.639028100000026 ], [ -84.648188, 42.680302 ], [ -84.6695326, 42.709489499999954 ], [ -84.6687204, 42.741069600000046 ], [ -84.5111673, 42.806552500000031 ], [ -84.5034409, 42.8028902 ], [ -84.456196, 42.7469429 ], [ -84.432832, 42.67676 ], [ -84.503119100000021, 42.626936 ], [ -84.5032829, 42.6268393 ], [ -84.522297, 42.620578 ], [ -84.523096, 42.620569 ], [ -84.5802251, 42.622833900000039 ] ] ] } },
{ "type": "Feature", "properties": { "OBJECTID": 2107, "ID": "0013648867", "NAME": "MEMORIAL HEALTHCARE", "ADDRESS": "826 WEST KING STREET", "CITY": "OWOSSO", "STATE": "MI", "ZIP": "48867", "ZIP4": "NOT AVAILABLE", "TELEPHONE": "NOT AVAILABLE", "TYPE": "GENERAL ACUTE CARE", "STATUS": "OPEN", "POPULATION": 107, "COUNTY": "SHIAWASSEE", "COUNTYFIPS": "26155", "COUNTRY": "USA", "LATITUDE": 43.006052056000001, "LONGITUDE": -84.18167719, "NAICS_CODE": "622110", "NAICS_DESC": "GENERAL MEDICAL AND SURGICAL HOSPITALS", "SOURCE": "https://w2.lara.state.mi.us/VAL/License/Search", "SOURCEDATE": "2018-08-09T00:00:00.000Z", "VAL_METHOD": "IMAGERY", "VAL_DATE": "2014-02-10T00:00:00.000Z", "WEBSITE": "http://www.memorialhealthcare.org", "STATE_ID": "NOT AVAILABLE", "ALT_NAME": "NOT AVAILABLE", "ST_FIPS": "26", "OWNER": "NON-PROFIT", "TTL_STAFF": -999, "BEDS": 107, "TRAUMA": "NOT AVAILABLE", "HELIPAD": "Y" }, "geometry": { "type": "Polygon", "coordinates": [ [ [ -84.2226493, 42.935736599999977 ], [ -84.3047742, 42.999204700000057 ], [ -84.2260879, 43.057108099999965 ], [ -84.190555, 43.082665 ], [ -84.168243, 43.091809 ], [ -84.118927, 43.057403 ], [ -84.059611, 43.005629 ], [ -84.0596439, 42.9993484 ], [ -84.0597326, 42.995804900000024 ], [ -84.118867, 42.954457 ], [ -84.183473, 42.936506 ], [ -84.2149333, 42.9357413 ], [ -84.2226493, 42.935736599999977 ] ] ] } },
{ "type": "Feature", "properties": { "OBJECTID": 2110, "ID": "0014348118", "NAME": "ST JOSEPH MERCY CHELSEA", "ADDRESS": "775 S MAIN ST", "CITY": "CHELSEA", "STATE": "MI", "ZIP": "48118", "ZIP4": "NOT AVAILABLE", "TELEPHONE": "NOT AVAILABLE", "TYPE": "GENERAL ACUTE CARE", "STATUS": "OPEN", "POPULATION": 102, "COUNTY": "WASHTENAW", "COUNTYFIPS": "26161", "COUNTRY": "USA", "LATITUDE": 42.310261343000001, "LONGITUDE": -84.015833588999996, "NAICS_CODE": "622110", "NAICS_DESC": "GENERAL MEDICAL AND SURGICAL HOSPITALS", "SOURCE": "https://w2.lara.state.mi.us/VAL/License/Search", "SOURCEDATE": "2018-08-09T00:00:00.000Z", "VAL_METHOD": "IMAGERY/OTHER", "VAL_DATE": "2014-02-10T00:00:00.000Z", "WEBSITE": "http://www.stjoeschelsea.org/chelsea", "STATE_ID": "NOT AVAILABLE", "ALT_NAME": "CHELSEA COMMUNITY HOSPITAL", "ST_FIPS": "26", "OWNER": "NON-PROFIT", "TTL_STAFF": -999, "BEDS": 102, "TRAUMA": "NOT AVAILABLE", "HELIPAD": "Y" }, "geometry": { "type": "Polygon", "coordinates": [ [ [ -84.032382, 42.191551 ], [ -84.1309914, 42.269723299999946 ], [ -84.1311939, 42.270102400000049 ], [ -84.132187, 42.31005 ], [ -84.0703782, 42.36421389999996 ], [ -84.015567, 42.375888 ], [ -83.837319, 42.290655500000042 ], [ -83.838594, 42.2896033 ], [ -84.032382, 42.191551 ] ] ] } },
{ "type": "Feature", "properties": { "OBJECTID": 2894, "ID": "0005148910", "NAME": "MCLAREN ORTHOPEDIC HOSPITAL", "ADDRESS": "2727 S PENNSYLVANIA", "CITY": "LANSING", "STATE": "MI", "ZIP": "48910", "ZIP4": "NOT AVAILABLE", "TELEPHONE": "NOT AVAILABLE", "TYPE": "GENERAL ACUTE CARE", "STATUS": "OPEN", "POPULATION": 53, "COUNTY": "INGHAM", "COUNTYFIPS": "26065", "COUNTRY": "USA", "LATITUDE": 42.703304467000102, "LONGITUDE": -84.535030193999901, "NAICS_CODE": "622110", "NAICS_DESC": "GENERAL MEDICAL AND SURGICAL HOSPITALS", "SOURCE": "https://w2.lara.state.mi.us/VAL/License/Search", "SOURCEDATE": "2018-08-09T00:00:00.000Z", "VAL_METHOD": "IMAGERY", "VAL_DATE": "2014-02-10T00:00:00.000Z", "WEBSITE": "http://www.mclaren.org/orthopedichospital/OrthopedicHospital.aspx", "STATE_ID": "NOT AVAILABLE", "ALT_NAME": "NOT AVAILABLE", "ST_FIPS": "26", "OWNER": "NON-PROFIT", "TTL_STAFF": -999, "BEDS": 53, "TRAUMA": "NOT AVAILABLE", "HELIPAD": "N" }, "geometry": { "type": "Polygon", "coordinates": [ [ [ -84.523164, 42.622949 ], [ -84.567703, 42.640328 ], [ -84.602994, 42.6551503 ], [ -84.6384783, 42.6877735 ], [ -84.6683943, 42.7305875 ], [ -84.5110868, 42.812487 ], [ -84.4990016, 42.802256 ], [ -84.4475012, 42.751556100000016 ], [ -84.4284873, 42.717902 ], [ -84.4281348, 42.716521400000019 ], [ -84.424963, 42.677822699999986 ], [ -84.432884, 42.664726 ], [ -84.4777776, 42.6358116 ], [ -84.5032829, 42.6268393 ], [ -84.523164, 42.622949 ] ] ] } },
{ "type": "Feature", "properties": { "OBJECTID": 2896, "ID": "0004848801", "NAME": "MIDMICHIGAN MEDICAL CENTER-GRATIOT", "ADDRESS": "300 E WARWICK DR", "CITY": "ALMA", "STATE": "MI", "ZIP": "48801", "ZIP4": "NOT AVAILABLE", "TELEPHONE": "NOT AVAILABLE", "TYPE": "GENERAL ACUTE CARE", "STATUS": "OPEN", "POPULATION": 67, "COUNTY": "GRATIOT", "COUNTYFIPS": "26057", "COUNTRY": "USA", "LATITUDE": 43.390729271000097, "LONGITUDE": -84.66330985, "NAICS_CODE": "622110", "NAICS_DESC": "GENERAL MEDICAL AND SURGICAL HOSPITALS", "SOURCE": "https://w2.lara.state.mi.us/VAL/License/Search", "SOURCEDATE": "2018-08-09T00:00:00.000Z", "VAL_METHOD": "IMAGERY", "VAL_DATE": "2014-02-10T00:00:00.000Z", "WEBSITE": "http://www.midmichigan.org/gratiot", "STATE_ID": "NOT AVAILABLE", "ALT_NAME": "NOT AVAILABLE", "ST_FIPS": "26", "OWNER": "NON-PROFIT", "TTL_STAFF": -999, "BEDS": 67, "TRAUMA": "NOT AVAILABLE", "HELIPAD": "Y" }, "geometry": { "type": "Polygon", "coordinates": [ [ [ -84.5839682, 43.295244500000024 ], [ -84.697436, 43.328333 ], [ -84.736555, 43.364644 ], [ -84.776598, 43.40824 ], [ -84.76661, 43.415511 ], [ -84.68716, 43.466112 ], [ -84.607314, 43.436848 ], [ -84.596679, 43.429576 ], [ -84.567926, 43.407808 ], [ -84.547801, 43.379 ], [ -84.5839682, 43.295244500000024 ] ] ] } },
{ "type": "Feature", "properties": { "OBJECTID": 6412, "ID": "0005048413", "NAME": "HURON MEDICAL CENTER", "ADDRESS": "1100 SOUTH VAN DYKE ROAD", "CITY": "BAD AXE", "STATE": "MI", "ZIP": "48413", "ZIP4": "NOT AVAILABLE", "TELEPHONE": "NOT AVAILABLE", "TYPE": "GENERAL ACUTE CARE", "STATUS": "OPEN", "POPULATION": 48, "COUNTY": "HURON", "COUNTYFIPS": "26063", "COUNTRY": "USA", "LATITUDE": 43.803210311999997, "LONGITUDE": -83.032129182999896, "NAICS_CODE": "622110", "NAICS_DESC": "GENERAL MEDICAL AND SURGICAL HOSPITALS", "SOURCE": "https://w2.lara.state.mi.us/VAL/License/Search", "SOURCEDATE": "2018-08-09T00:00:00.000Z", "VAL_METHOD": "IMAGERY/OTHER", "VAL_DATE": "2014-02-10T00:00:00.000Z", "WEBSITE": "http://www.huronmedicalcenter.org", "STATE_ID": "NOT AVAILABLE", "ALT_NAME": "NOT AVAILABLE", "ST_FIPS": "26", "OWNER": "NON-PROFIT", "TTL_STAFF": -999, "BEDS": 48, "TRAUMA": "NOT AVAILABLE", "HELIPAD": "Y" }, "geometry": { "type": "Polygon", "coordinates": [ [ [ -83.0200578, 43.779800199999976 ], [ -83.068275, 43.788323 ], [ -83.080569, 43.79319 ], [ -83.141097, 43.819422 ], [ -83.104209, 43.837684 ], [ -83.0423, 43.865526 ], [ -83.002396, 43.866642 ], [ -82.9618893, 43.82503290000006 ], [ -82.976646, 43.8014524 ], [ -82.994514, 43.78782 ], [ -83.0200578, 43.779800199999976 ] ] ] } },
{ "type": "Feature", "properties": { "OBJECTID": 6415, "ID": "0012148602", "NAME": "COVENANT MEDICAL CENTER", "ADDRESS": "1447 N HARRISON", "CITY": "SAGINAW", "STATE": "MI", "ZIP": "48602", "ZIP4": "NOT AVAILABLE", "TELEPHONE": "NOT AVAILABLE", "TYPE": "GENERAL ACUTE CARE", "STATUS": "OPEN", "POPULATION": 277, "COUNTY": "SAGINAW", "COUNTYFIPS": "26145", "COUNTRY": "USA", "LATITUDE": 43.428451852000101, "LONGITUDE": -83.956490419000005, "NAICS_CODE": "622110", "NAICS_DESC": "GENERAL MEDICAL AND SURGICAL HOSPITALS", "SOURCE": "https://w2.lara.state.mi.us/VAL/License/Search", "SOURCEDATE": "2018-08-09T00:00:00.000Z", "VAL_METHOD": "IMAGERY", "VAL_DATE": "2014-02-10T00:00:00.000Z", "WEBSITE": "http://www.covenanthealthcare.com", "STATE_ID": "NOT AVAILABLE", "ALT_NAME": "NOT AVAILABLE", "ST_FIPS": "26", "OWNER": "NON-PROFIT", "TTL_STAFF": -999, "BEDS": 277, "TRAUMA": "LEVEL II, LEVEL II PEDIATRIC", "HELIPAD": "Y" }, "geometry": { "type": "Polygon", "coordinates": [ [ [ -83.953672, 43.320886 ], [ -84.0816005, 43.416037699999976 ], [ -84.061941, 43.449892799999979 ], [ -83.9735489, 43.52329850000001 ], [ -83.94554, 43.512962 ], [ -83.917535, 43.501154 ], [ -83.836754, 43.453899 ], [ -83.836367, 43.446019 ], [ -83.837177, 43.41437 ], [ -83.8625992, 43.3497494 ], [ -83.8638162, 43.347495199999955 ], [ -83.953672, 43.320886 ] ] ] } },
{ "type": "Feature", "properties": { "OBJECTID": 6416, "ID": "0002948915", "NAME": "SPARROW SPECIALTY HOSPITAL", "ADDRESS": "1210 W SAGINAW", "CITY": "LANSING", "STATE": "MI", "ZIP": "48915", "ZIP4": "NOT AVAILABLE", "TELEPHONE": "NOT AVAILABLE", "TYPE": "LONG TERM CARE", "STATUS": "CLOSED", "POPULATION": 30, "COUNTY": "INGHAM", "COUNTYFIPS": "26065", "COUNTRY": "USA", "LATITUDE": 42.741624383999998, "LONGITUDE": -84.570441009000007, "NAICS_CODE": "622310", "NAICS_DESC": "EXTENDED CARE HOSPITALS (EXCEPT MENTAL, SUBSTANCE ABUSE)", "SOURCE": "https://w2.lara.state.mi.us/VAL/License/Search", "SOURCEDATE": "2016-08-06T00:00:00.000Z", "VAL_METHOD": "IMAGERY", "VAL_DATE": "2014-02-10T00:00:00.000Z", "WEBSITE": "http://www.sparrow.org/ssh", "STATE_ID": "NOT AVAILABLE", "ALT_NAME": "NOT AVAILABLE", "ST_FIPS": "26", "OWNER": "NON-PROFIT", "TTL_STAFF": -999, "BEDS": 30, "TRAUMA": "NOT AVAILABLE", "HELIPAD": "N" }, "geometry": { "type": "Polygon", "coordinates": [ [ [ -84.6765057, 42.661133500000069 ], [ -84.676675, 42.661286 ], [ -84.705073, 42.726298 ], [ -84.706913, 42.7408218 ], [ -84.542938, 42.823387 ], [ -84.5130357, 42.8188923 ], [ -84.4406532, 42.757015799999984 ], [ -84.4405176, 42.756890600000041 ], [ -84.4527422, 42.7107551 ], [ -84.48026, 42.668513 ], [ -84.565682, 42.653259 ], [ -84.602994, 42.6551503 ], [ -84.6765057, 42.661133500000069 ] ] ] } },
{ "type": "Feature", "properties": { "OBJECTID": 4083, "ID": "0002448706", "NAME": "MCLAREN BAY SPECIAL CARE HOSPITAL", "ADDRESS": "3250 E MIDLAND RD, SUITE 1", "CITY": "BAY CITY", "STATE": "MI", "ZIP": "48706", "ZIP4": "NOT AVAILABLE", "TELEPHONE": "NOT AVAILABLE", "TYPE": "LONG TERM CARE", "STATUS": "OPEN", "POPULATION": 31, "COUNTY": "BAY", "COUNTYFIPS": "26017", "COUNTRY": "USA", "LATITUDE": 43.600477033000097, "LONGITUDE": -83.924456643, "NAICS_CODE": "622310", "NAICS_DESC": "SPECIALTY (EXCEPT PSYCHIATRIC AND SUBSTANCE ABUSE) HOSPITALS", "SOURCE": "https://w2.lara.state.mi.us/VAL/License/Search", "SOURCEDATE": "2018-08-09T00:00:00.000Z", "VAL_METHOD": "IMAGERY", "VAL_DATE": "2014-02-10T00:00:00.000Z", "WEBSITE": "http://www.mclaren.org/bayspecialcare/bayspecialcare.aspx", "STATE_ID": "NOT AVAILABLE", "ALT_NAME": "NOT AVAILABLE", "ST_FIPS": "26", "OWNER": "NON-PROFIT", "TTL_STAFF": -999, "BEDS": 31, "TRAUMA": "NOT AVAILABLE", "HELIPAD": "N" }, "geometry": { "type": "Polygon", "coordinates": [ [ [ -83.953966, 43.483961 ], [ -84.0897318, 43.582009 ], [ -84.1002082, 43.6038566 ], [ -84.038493, 43.667693 ], [ -83.9639, 43.688787 ], [ -83.9172268, 43.682483599999976 ], [ -83.869757, 43.652721 ], [ -83.8165499, 43.617983600000017 ], [ -83.809535, 43.608565500000012 ], [ -83.7994215, 43.594214100000059 ], [ -83.799415, 43.591222600000023 ], [ -83.831653, 43.551065 ], [ -83.921557, 43.485193 ], [ -83.953966, 43.483961 ] ] ] } },
{ "type": "Feature", "properties": { "OBJECTID": 4280, "ID": "0017848602", "NAME": "SELECT SPECIALTY HOSPITAL - SAGINAW", "ADDRESS": "1447 N HARRISON, 7TH & 8TH FLOOR", "CITY": "SAGINAW", "STATE": "MI", "ZIP": "48602", "ZIP4": "NOT AVAILABLE", "TELEPHONE": "NOT AVAILABLE", "TYPE": "LONG TERM CARE", "STATUS": "OPEN", "POPULATION": 32, "COUNTY": "SAGINAW", "COUNTYFIPS": "26145", "COUNTRY": "USA", "LATITUDE": 43.428654106000103, "LONGITUDE": -83.955943143, "NAICS_CODE": "622310", "NAICS_DESC": "SPECIALTY (EXCEPT PSYCHIATRIC AND SUBSTANCE ABUSE) HOSPITALS", "SOURCE": "https://w2.lara.state.mi.us/VAL/License/Search", "SOURCEDATE": "2018-08-09T00:00:00.000Z", "VAL_METHOD": "IMAGERY", "VAL_DATE": "2016-08-08T00:00:00.000Z", "WEBSITE": "http://saginaw.selectspecialtyhospitals.com/", "STATE_ID": "NOT AVAILABLE", "ALT_NAME": "NOT AVAILABLE", "ST_FIPS": "26", "OWNER": "PROPRIETARY", "TTL_STAFF": -999, "BEDS": 32, "TRAUMA": "NOT AVAILABLE", "HELIPAD": "Y" }, "geometry": { "type": "Polygon", "coordinates": [ [ [ -83.953716, 43.324705 ], [ -84.079372, 43.415996 ], [ -84.061941, 43.449892799999979 ], [ -83.9720307, 43.5276713 ], [ -83.917535, 43.501154 ], [ -83.836918, 43.457365 ], [ -83.836367, 43.446019 ], [ -83.837177, 43.41437 ], [ -83.860957, 43.348959 ], [ -83.8638162, 43.347495199999955 ], [ -83.953716, 43.324705 ] ] ] } },
{ "type": "Feature", "properties": { "OBJECTID": 244, "ID": "0005848843", "NAME": "SAINT JOSEPH MERCY LIVINGSTON HOSPITAL", "ADDRESS": "620 BYRON RD", "CITY": "HOWELL", "STATE": "MI", "ZIP": "48843", "ZIP4": "NOT AVAILABLE", "TELEPHONE": "NOT AVAILABLE", "TYPE": "GENERAL ACUTE CARE", "STATUS": "OPEN", "POPULATION": 136, "COUNTY": "LIVINGSTON", "COUNTYFIPS": "26093", "COUNTRY": "USA", "LATITUDE": 42.615587564000101, "LONGITUDE": -83.940990396000004, "NAICS_CODE": "622110", "NAICS_DESC": "GENERAL MEDICAL AND SURGICAL HOSPITALS", "SOURCE": "https://w2.lara.state.mi.us/VAL/License/Search", "SOURCEDATE": "2018-08-09T00:00:00.000Z", "VAL_METHOD": "IMAGERY", "VAL_DATE": "2014-02-10T00:00:00.000Z", "WEBSITE": "http://www.stjoeslivingston.org/livingston", "STATE_ID": "NOT AVAILABLE", "ALT_NAME": "NOT AVAILABLE", "ST_FIPS": "26", "OWNER": "NON-PROFIT", "TTL_STAFF": -999, "BEDS": 136, "TRAUMA": "NOT AVAILABLE", "HELIPAD": "Y" }, "geometry": { "type": "Polygon", "coordinates": [ [ [ -83.9339738, 42.530963599999943 ], [ -83.9469656, 42.538484700000019 ], [ -84.031386, 42.599471 ], [ -84.0742511, 42.643935399999975 ], [ -84.0784319, 42.651057100000024 ], [ -84.072848, 42.653343 ], [ -83.936803, 42.687313 ], [ -83.876765, 42.664835 ], [ -83.8366756, 42.639692600000032 ], [ -83.824405500000012, 42.6307633 ], [ -83.830256, 42.577991 ], [ -83.834156900000011, 42.5672027 ], [ -83.9336342, 42.530977299999982 ], [ -83.9339738, 42.530963599999943 ] ] ] } },
{ "type": "Feature", "properties": { "OBJECTID": 248, "ID": "0005648858", "NAME": "MCLAREN CENTRAL MICHIGAN", "ADDRESS": "1221 SOUTH DRIVE", "CITY": "MOUNT PLEASANT", "STATE": "MI", "ZIP": "48858", "ZIP4": "NOT AVAILABLE", "TELEPHONE": "NOT AVAILABLE", "TYPE": "GENERAL ACUTE CARE", "STATUS": "OPEN", "POPULATION": 118, "COUNTY": "ISABELLA", "COUNTYFIPS": "26073", "COUNTRY": "USA", "LATITUDE": 43.599122484000098, "LONGITUDE": -84.761412860999897, "NAICS_CODE": "622110", "NAICS_DESC": "GENERAL MEDICAL AND SURGICAL HOSPITALS", "SOURCE": "https://w2.lara.state.mi.us/VAL/License/Search", "SOURCEDATE": "2018-08-09T00:00:00.000Z", "VAL_METHOD": "IMAGERY", "VAL_DATE": "2014-02-10T00:00:00.000Z", "WEBSITE": "http://www.cmch.org", "STATE_ID": "NOT AVAILABLE", "ALT_NAME": "NOT AVAILABLE", "ST_FIPS": "26", "OWNER": "NON-PROFIT", "TTL_STAFF": -999, "BEDS": 118, "TRAUMA": "NOT AVAILABLE", "HELIPAD": "Y" }, "geometry": { "type": "Polygon", "coordinates": [ [ [ -84.787316, 43.524015 ], [ -84.8768101, 43.597760699999988 ], [ -84.7876699, 43.698567800000014 ], [ -84.767795, 43.712717 ], [ -84.755827, 43.712889200000042 ], [ -84.7479317, 43.712903499999982 ], [ -84.7280506, 43.698983499999983 ], [ -84.6259306, 43.613054100000056 ], [ -84.667507, 43.524149 ], [ -84.6855622, 43.5215004 ], [ -84.787316, 43.524015 ] ] ] } },
{ "type": "Feature", "properties": { "OBJECTID": 5011, "ID": "0001848755", "NAME": "SCHEURER HOSPITAL", "ADDRESS": "170 N CASEVILLE RD", "CITY": "PIGEON", "STATE": "MI", "ZIP": "48755", "ZIP4": "NOT AVAILABLE", "TELEPHONE": "NOT AVAILABLE", "TYPE": "CRITICAL ACCESS", "STATUS": "OPEN", "POPULATION": 25, "COUNTY": "HURON", "COUNTYFIPS": "26063", "COUNTRY": "USA", "LATITUDE": 43.8341880770001, "LONGITUDE": -83.278190009999904, "NAICS_CODE": "622110", "NAICS_DESC": "GENERAL MEDICAL AND SURGICAL HOSPITALS", "SOURCE": "https://w2.lara.state.mi.us/VAL/License/Search", "SOURCEDATE": "2018-08-09T00:00:00.000Z", "VAL_METHOD": "IMAGERY", "VAL_DATE": "2014-02-10T00:00:00.000Z", "WEBSITE": "http://www.scheurer.org", "STATE_ID": "NOT AVAILABLE", "ALT_NAME": "NOT AVAILABLE", "ST_FIPS": "26", "OWNER": "NON-PROFIT", "TTL_STAFF": -999, "BEDS": 25, "TRAUMA": "NOT AVAILABLE", "HELIPAD": "N" }, "geometry": { "type": "Polygon", "coordinates": [ [ [ -83.277396, 43.743275 ], [ -83.389211, 43.813572 ], [ -83.392223, 43.827185300000025 ], [ -83.3924184, 43.828397199999976 ], [ -83.380477, 43.851532 ], [ -83.3229737, 43.8972683 ], [ -83.2822949, 43.9270401 ], [ -83.2808277, 43.926658 ], [ -83.18127, 43.847066 ], [ -83.16492, 43.817842 ], [ -83.1656697, 43.8166656 ], [ -83.277396, 43.743275 ] ] ] } },
{ "type": "Feature", "properties": { "OBJECTID": 5012, "ID": "0002048441", "NAME": "HARBOR BEACH COMMUNITY HOSPITAL", "ADDRESS": "210 S FIRST ST", "CITY": "HARBOR BEACH", "STATE": "MI", "ZIP": "48441", "ZIP4": "NOT AVAILABLE", "TELEPHONE": "NOT AVAILABLE", "TYPE": "CRITICAL ACCESS", "STATUS": "OPEN", "POPULATION": 15, "COUNTY": "HURON", "COUNTYFIPS": "26063", "COUNTRY": "USA", "LATITUDE": 43.842662631000103, "LONGITUDE": -82.652115683999995, "NAICS_CODE": "622110", "NAICS_DESC": "GENERAL MEDICAL AND SURGICAL HOSPITALS", "SOURCE": "https://w2.lara.state.mi.us/VAL/License/Search", "SOURCEDATE": "2018-08-09T00:00:00.000Z", "VAL_METHOD": "IMAGERY", "VAL_DATE": "2014-02-10T00:00:00.000Z", "WEBSITE": "http://www.hbch.org", "STATE_ID": "NOT AVAILABLE", "ALT_NAME": "NOT AVAILABLE", "ST_FIPS": "26", "OWNER": "NON-PROFIT", "TTL_STAFF": -999, "BEDS": 15, "TRAUMA": "NOT AVAILABLE", "HELIPAD": "N" }, "geometry": { "type": "Polygon", "coordinates": [ [ [ -82.618539200000015, 43.748225200000029 ], [ -82.781114, 43.809352 ], [ -82.772307, 43.844402 ], [ -82.703906, 43.932997 ], [ -82.703111, 43.933016 ], [ -82.701915, 43.933041 ], [ -82.701324, 43.933016 ], [ -82.643404, 43.852066 ], [ -82.615229, 43.776879 ], [ -82.618539200000015, 43.748225200000029 ] ] ] } },
{ "type": "Feature", "properties": { "OBJECTID": 5014, "ID": "0001048879", "NAME": "SPARROW CLINTON HOSPITAL", "ADDRESS": "805 S OAKLAND", "CITY": "SAINT JOHNS", "STATE": "MI", "ZIP": "48879", "ZIP4": "NOT AVAILABLE", "TELEPHONE": "NOT AVAILABLE", "TYPE": "CRITICAL ACCESS", "STATUS": "OPEN", "POPULATION": 25, "COUNTY": "CLINTON", "COUNTYFIPS": "26037", "COUNTRY": "USA", "LATITUDE": 42.993130902000097, "LONGITUDE": -84.555135858, "NAICS_CODE": "622110", "NAICS_DESC": "GENERAL MEDICAL AND SURGICAL HOSPITALS", "SOURCE": "https://w2.lara.state.mi.us/VAL/License/Search", "SOURCEDATE": "2018-08-09T00:00:00.000Z", "VAL_METHOD": "IMAGERY", "VAL_DATE": "2014-02-10T00:00:00.000Z", "WEBSITE": "http://www.sparrow.org/sparrowclinton", "STATE_ID": "NOT AVAILABLE", "ALT_NAME": "CLINTON MEMORIAL HOSPITAL", "ST_FIPS": "26", "OWNER": "NON-PROFIT", "TTL_STAFF": -999, "BEDS": 25, "TRAUMA": "NOT AVAILABLE", "HELIPAD": "Y" }, "geometry": { "type": "Polygon", "coordinates": [ [ [ -84.5177555, 42.895625600000017 ], [ -84.5428546, 42.9042001 ], [ -84.680112, 43.001733 ], [ -84.5634678, 43.110288900000022 ], [ -84.5631551, 43.1102888 ], [ -84.445176, 43.004357 ], [ -84.445092, 43.000755 ], [ -84.445007, 42.99352 ], [ -84.5177555, 42.895625600000017 ] ] ] } },
{ "type": "Feature", "properties": { "OBJECTID": 5024, "ID": "0012448602", "NAME": "COVENANT MEDICAL CENTER, COOPER", "ADDRESS": "700 COOPER", "CITY": "SAGINAW", "STATE": "MI", "ZIP": "48602", "ZIP4": "NOT AVAILABLE", "TELEPHONE": "NOT AVAILABLE", "TYPE": "GENERAL ACUTE CARE", "STATUS": "OPEN", "POPULATION": 290, "COUNTY": "SAGINAW", "COUNTYFIPS": "26145", "COUNTRY": "USA", "LATITUDE": 43.429785846000101, "LONGITUDE": -83.953001978000003, "NAICS_CODE": "622110", "NAICS_DESC": "GENERAL MEDICAL AND SURGICAL HOSPITALS", "SOURCE": "https://w2.lara.state.mi.us/VAL/License/Search", "SOURCEDATE": "2018-08-09T00:00:00.000Z", "VAL_METHOD": "IMAGERY", "VAL_DATE": "2014-02-10T00:00:00.000Z", "WEBSITE": "http://www.covenanthealthcare.com/Main/Home.aspx", "STATE_ID": "NOT AVAILABLE", "ALT_NAME": "NOT AVAILABLE", "ST_FIPS": "26", "OWNER": "NON-PROFIT", "TTL_STAFF": -999, "BEDS": 290, "TRAUMA": "NOT AVAILABLE", "HELIPAD": "Y" }, "geometry": { "type": "Polygon", "coordinates": [ [ [ -83.953716, 43.324705 ], [ -84.075834, 43.416 ], [ -84.061941, 43.449892799999979 ], [ -83.9678397, 43.53538 ], [ -83.857113, 43.472059 ], [ -83.836918, 43.457365 ], [ -83.817838, 43.413184 ], [ -83.853241, 43.345003 ], [ -83.953716, 43.324705 ] ] ] } },
{ "type": "Feature", "properties": { "OBJECTID": 5025, "ID": "0012548602", "NAME": "COVENANT MEDICAL CENTER, MICHIGAN", "ADDRESS": "515 N. MICHIGAN AVE.", "CITY": "SAGINAW", "STATE": "MI", "ZIP": "48602", "ZIP4": "NOT AVAILABLE", "TELEPHONE": "NOT AVAILABLE", "TYPE": "GENERAL ACUTE CARE", "STATUS": "OPEN", "POPULATION": 56, "COUNTY": "SAGINAW", "COUNTYFIPS": "26145", "COUNTRY": "USA", "LATITUDE": 43.420800201000098, "LONGITUDE": -83.960291841999904, "NAICS_CODE": "622110", "NAICS_DESC": "GENERAL MEDICAL AND SURGICAL HOSPITALS", "SOURCE": "https://w2.lara.state.mi.us/VAL/License/Search", "SOURCEDATE": "2018-08-09T00:00:00.000Z", "VAL_METHOD": "IMAGERY", "VAL_DATE": "2014-02-10T00:00:00.000Z", "WEBSITE": "http://www.covenanthealthcare.com/Main/Home.aspx", "STATE_ID": "NOT AVAILABLE", "ALT_NAME": "NOT AVAILABLE", "ST_FIPS": "26", "OWNER": "NON-PROFIT", "TTL_STAFF": -999, "BEDS": 56, "TRAUMA": "NOT AVAILABLE", "HELIPAD": "N" }, "geometry": { "type": "Polygon", "coordinates": [ [ [ -83.9534715, 43.314921099999978 ], [ -84.094662, 43.415943 ], [ -84.094655, 43.416133 ], [ -84.067168199999983, 43.452828700000012 ], [ -83.9738025, 43.5175708 ], [ -83.9733903, 43.517493 ], [ -83.9456069, 43.511349600000038 ], [ -83.913957, 43.493786 ], [ -83.875206, 43.472173 ], [ -83.836593, 43.45026 ], [ -83.837177, 43.41437 ], [ -83.8625992, 43.3497494 ], [ -83.8638162, 43.347495199999955 ], [ -83.9534715, 43.314921099999978 ] ] ] } },
{ "type": "Feature", "properties": { "OBJECTID": 5372, "ID": "0007148602", "NAME": "ALEDA E. LUTZ VA MEDICAL CENTER", "ADDRESS": "1500 WEISS ST", "CITY": "SAGINAW", "STATE": "MI", "ZIP": "48602", "ZIP4": "NOT AVAILABLE", "TELEPHONE": "(989) 497-2500", "TYPE": "MILITARY", "STATUS": "OPEN", "POPULATION": -999, "COUNTY": "SAGINAW", "COUNTYFIPS": "26145", "COUNTRY": "USA", "LATITUDE": 43.444795706999997, "LONGITUDE": -83.962023579999894, "NAICS_CODE": "622110", "NAICS_DESC": "GENERAL MEDICAL AND SURGICAL HOSPITALS", "SOURCE": "https://www.va.gov/directory/guide/allstate.asp", "SOURCEDATE": "2018-09-26T00:00:00.000Z", "VAL_METHOD": "IMAGERY/OTHER", "VAL_DATE": "2015-05-20T00:00:00.000Z", "WEBSITE": "http://www.saginaw.va.gov/", "STATE_ID": "NOT AVAILABLE", "ALT_NAME": "NOT AVAILABLE", "ST_FIPS": "26", "OWNER": "GOVERNMENT - FEDERAL", "TTL_STAFF": -999, "BEDS": -999, "TRAUMA": "NOT AVAILABLE", "HELIPAD": "N" }, "geometry": { "type": "Polygon", "coordinates": [ [ [ -83.954285, 43.346422 ], [ -84.064237, 43.415862 ], [ -84.0737424, 43.4375002 ], [ -84.0776723, 43.4592434 ], [ -83.9616015, 43.542582299999985 ], [ -83.836593, 43.45026 ], [ -83.837177, 43.41437 ], [ -83.8638162, 43.347495199999955 ], [ -83.954285, 43.346422 ] ] ] } },
{ "type": "Feature", "properties": { "OBJECTID": 5593, "ID": "0002348706", "NAME": "MCLAREN BAY REGIONAL", "ADDRESS": "3250 E. MIDLAND RD.", "CITY": "BAY CITY", "STATE": "MI", "ZIP": "48706", "ZIP4": "NOT AVAILABLE", "TELEPHONE": "NOT AVAILABLE", "TYPE": "GENERAL ACUTE CARE", "STATUS": "OPEN", "POPULATION": 20, "COUNTY": "BAY", "COUNTYFIPS": "26017", "COUNTRY": "USA", "LATITUDE": 43.599836745000097, "LONGITUDE": -83.9243996, "NAICS_CODE": "622110", "NAICS_DESC": "GENERAL MEDICAL AND SURGICAL HOSPITALS", "SOURCE": "https://w2.lara.state.mi.us/VAL/License/Search", "SOURCEDATE": "2018-08-09T00:00:00.000Z", "VAL_METHOD": "IMAGERY", "VAL_DATE": "2014-02-11T00:00:00.000Z", "WEBSITE": "http://www.mclaren.org/bayspecialcare/bayspecialcare.aspx", "STATE_ID": "NOT AVAILABLE", "ALT_NAME": "NOT AVAILABLE", "ST_FIPS": "26", "OWNER": "NON-PROFIT", "TTL_STAFF": -999, "BEDS": 20, "TRAUMA": "NOT AVAILABLE", "HELIPAD": "N" }, "geometry": { "type": "Polygon", "coordinates": [ [ [ -83.922518, 43.487113 ], [ -83.9730845, 43.508817 ], [ -84.09329, 43.597098499999959 ], [ -84.0944214, 43.599420400000014 ], [ -84.0925236, 43.603685499999983 ], [ -84.089328100000017, 43.6080039 ], [ -84.0286185, 43.66759449999995 ], [ -84.013006500000017, 43.67152109999995 ], [ -83.9599104, 43.6779916 ], [ -83.957989, 43.678059 ], [ -83.915014, 43.678443 ], [ -83.8723747, 43.652772700000014 ], [ -83.836251, 43.6259739 ], [ -83.824505, 43.617012 ], [ -83.8012707, 43.594197 ], [ -83.826824, 43.565407 ], [ -83.922518, 43.487113 ] ] ] } },
{ "type": "Feature", "properties": { "OBJECTID": 5597, "ID": "0009748670", "NAME": "MIDMICHIGAN MEDICAL CENTER-MIDLAND", "ADDRESS": "4000 WELLNESS DRIVE", "CITY": "MIDLAND", "STATE": "MI", "ZIP": "48670", "ZIP4": "NOT AVAILABLE", "TELEPHONE": "NOT AVAILABLE", "TYPE": "GENERAL ACUTE CARE", "STATUS": "OPEN", "POPULATION": 308, "COUNTY": "MIDLAND", "COUNTYFIPS": "26111", "COUNTRY": "USA", "LATITUDE": 43.635236087000102, "LONGITUDE": -84.260395992, "NAICS_CODE": "622110", "NAICS_DESC": "GENERAL MEDICAL AND SURGICAL HOSPITALS", "SOURCE": "https://w2.lara.state.mi.us/VAL/License/Search", "SOURCEDATE": "2018-08-09T00:00:00.000Z", "VAL_METHOD": "IMAGERY", "VAL_DATE": "2014-02-10T00:00:00.000Z", "WEBSITE": "http://www.midmichigan.org", "STATE_ID": "NOT AVAILABLE", "ALT_NAME": "NOT AVAILABLE", "ST_FIPS": "26", "OWNER": "NON-PROFIT", "TTL_STAFF": -999, "BEDS": 308, "TRAUMA": "LEVEL II", "HELIPAD": "Y" }, "geometry": { "type": "Polygon", "coordinates": [ [ [ -84.248717, 43.5514164 ], [ -84.33054, 43.59068 ], [ -84.3702635, 43.612509799999962 ], [ -84.3708507, 43.614003600000025 ], [ -84.398796, 43.6899508 ], [ -84.39347, 43.692464 ], [ -84.368254, 43.697972 ], [ -84.2470387, 43.714149499999984 ], [ -84.2359644, 43.708355100000013 ], [ -84.1993997, 43.683608599999978 ], [ -84.1478543, 43.640736400000037 ], [ -84.1568375, 43.599412500000014 ], [ -84.248717, 43.5514164 ] ] ] } },
{ "type": "Feature", "properties": { "OBJECTID": 5601, "ID": "0002248912", "NAME": "EDWARD W SPARROW HOSPITAL", "ADDRESS": "1215 E MICHIGAN AVENUE", "CITY": "LANSING", "STATE": "MI", "ZIP": "48912", "ZIP4": "NOT AVAILABLE", "TELEPHONE": "NOT AVAILABLE", "TYPE": "GENERAL ACUTE CARE", "STATUS": "OPEN", "POPULATION": 638, "COUNTY": "INGHAM", "COUNTYFIPS": "26065", "COUNTRY": "USA", "LATITUDE": 42.7340987050001, "LONGITUDE": -84.535341876000004, "NAICS_CODE": "622110", "NAICS_DESC": "GENERAL MEDICAL AND SURGICAL HOSPITALS", "SOURCE": "https://w2.lara.state.mi.us/VAL/License/Search", "SOURCEDATE": "2018-08-09T00:00:00.000Z", "VAL_METHOD": "IMAGERY", "VAL_DATE": "2014-03-12T00:00:00.000Z", "WEBSITE": "http://www.sparrow.org", "STATE_ID": "NOT AVAILABLE", "ALT_NAME": "NOT AVAILABLE", "ST_FIPS": "26", "OWNER": "NON-PROFIT", "TTL_STAFF": -999, "BEDS": 638, "TRAUMA": "LEVEL I", "HELIPAD": "Y" }, "geometry": { "type": "Polygon", "coordinates": [ [ [ -84.483728, 42.628993 ], [ -84.66231, 42.668683 ], [ -84.66375, 42.670325 ], [ -84.6739278, 42.686539 ], [ -84.6915651, 42.7261217 ], [ -84.691367, 42.740803 ], [ -84.54527, 42.830366 ], [ -84.5429494, 42.831310500000022 ], [ -84.4497864, 42.7977189 ], [ -84.427966, 42.766184800000012 ], [ -84.4214076, 42.755457700000036 ], [ -84.424963, 42.677822699999986 ], [ -84.432887, 42.663804 ], [ -84.462577, 42.640335 ], [ -84.483728, 42.628993 ] ] ] } },
{ "type": "Feature", "properties": { "OBJECTID": 5621, "ID": "0012248601", "NAME": "ST MARY'S OF MICHIGAN MEDICAL CENTER", "ADDRESS": "800 S WASHINGTON AVENUE", "CITY": "SAGINAW", "STATE": "MI", "ZIP": "48601", "ZIP4": "NOT AVAILABLE", "TELEPHONE": "NOT AVAILABLE", "TYPE": "GENERAL ACUTE CARE", "STATUS": "OPEN", "POPULATION": 268, "COUNTY": "SAGINAW", "COUNTYFIPS": "26145", "COUNTRY": "USA", "LATITUDE": 43.424028265000103, "LONGITUDE": -83.938660607000003, "NAICS_CODE": "622110", "NAICS_DESC": "GENERAL MEDICAL AND SURGICAL HOSPITALS", "SOURCE": "https://w2.lara.state.mi.us/VAL/License/Search", "SOURCEDATE": "2018-08-09T00:00:00.000Z", "VAL_METHOD": "IMAGERY", "VAL_DATE": "2014-03-12T00:00:00.000Z", "WEBSITE": "http://www.stmarysofmichigan.org", "STATE_ID": "NOT AVAILABLE", "ALT_NAME": "NOT AVAILABLE", "ST_FIPS": "26", "OWNER": "NON-PROFIT", "TTL_STAFF": -999, "BEDS": 268, "TRAUMA": "LEVEL II", "HELIPAD": "Y" }, "geometry": { "type": "Polygon", "coordinates": [ [ [ -83.9534715, 43.314921099999978 ], [ -84.068484, 43.415909 ], [ -84.014834, 43.480550299999976 ], [ -83.9738025, 43.5175708 ], [ -83.9733903, 43.517493 ], [ -83.945734, 43.508283 ], [ -83.913957, 43.493786 ], [ -83.836918, 43.457365 ], [ -83.82171, 43.414132 ], [ -83.860957, 43.348959 ], [ -83.8638162, 43.347495199999955 ], [ -83.9534715, 43.314921099999978 ] ] ] } },
{ "type": "Feature", "properties": { "OBJECTID": 5635, "ID": "0012348608", "NAME": "HEALTHSOURCE SAGINAW", "ADDRESS": "3340 HOSPITAL ROAD", "CITY": "SAGINAW", "STATE": "MI", "ZIP": "48608", "ZIP4": "NOT AVAILABLE", "TELEPHONE": "NOT AVAILABLE", "TYPE": "PSYCHIATRIC", "STATUS": "OPEN", "POPULATION": 45, "COUNTY": "SAGINAW", "COUNTYFIPS": "26145", "COUNTRY": "USA", "LATITUDE": 43.454742096000103, "LONGITUDE": -84.050337490999894, "NAICS_CODE": "622210", "NAICS_DESC": "PSYCHIATRIC AND SUBSTANCE ABUSE HOSPITALS", "SOURCE": "https://w2.lara.state.mi.us/VAL/License/Search", "SOURCEDATE": "2018-08-09T00:00:00.000Z", "VAL_METHOD": "IMAGERY", "VAL_DATE": "2014-02-10T00:00:00.000Z", "WEBSITE": "http://www.healthsourcesaginaw.org", "STATE_ID": "NOT AVAILABLE", "ALT_NAME": "NOT AVAILABLE", "ST_FIPS": "26", "OWNER": "GOVERNMENT - DISTRICT/AUTHORITY", "TTL_STAFF": -999, "BEDS": 45, "TRAUMA": "NOT AVAILABLE", "HELIPAD": "N" }, "geometry": { "type": "Polygon", "coordinates": [ [ [ -84.054735, 43.379145 ], [ -84.111153, 43.416084 ], [ -84.13131, 43.481679 ], [ -84.1188726, 43.51461 ], [ -84.034385, 43.523982 ], [ -83.9748527, 43.48502830000001 ], [ -83.9479045, 43.462356300000032 ], [ -83.9374623, 43.4506816 ], [ -83.9584639, 43.410089400000039 ], [ -84.0123971, 43.390108800000036 ], [ -84.052016, 43.379094 ], [ -84.054735, 43.379145 ] ] ] } },
{ "type": "Feature", "properties": { "OBJECTID": 3938, "ID": "0179848912", "NAME": "SPARROW SPECIALTY HOSPITAL", "ADDRESS": "1215 E MICHIGAN AVENUE, 8W", "CITY": "LANSING", "STATE": "MI", "ZIP": "48912", "ZIP4": "NOT AVAILABLE", "TELEPHONE": "NOT AVAILABLE", "TYPE": "LONG TERM CARE", "STATUS": "OPEN", "POPULATION": 30, "COUNTY": "INGHAM", "COUNTYFIPS": "26065", "COUNTRY": "USA", "LATITUDE": 42.734194517, "LONGITUDE": -84.535962619000003, "NAICS_CODE": "622310", "NAICS_DESC": "SPECIALTY (EXCEPT PSYCHIATRIC AND SUBSTANCE ABUSE) HOSPITALS", "SOURCE": "https://w2.lara.state.mi.us/VAL/License/Search", "SOURCEDATE": "2018-08-09T00:00:00.000Z", "VAL_METHOD": "IMAGERY/OTHER", "VAL_DATE": "2019-05-09T00:00:00.000Z", "WEBSITE": "http://www.sparrow.org/SSH", "STATE_ID": "1060000149", "ALT_NAME": "NOT AVAILABLE", "ST_FIPS": "26", "OWNER": "NON-PROFIT", "TTL_STAFF": -999, "BEDS": 30, "TRAUMA": "NOT AVAILABLE", "HELIPAD": "Y" }, "geometry": { "type": "Polygon", "coordinates": [ [ [ -84.483728, 42.628993 ], [ -84.66231, 42.668683 ], [ -84.66375, 42.670325 ], [ -84.6739278, 42.686539 ], [ -84.6915651, 42.7261217 ], [ -84.691367, 42.740803 ], [ -84.54527, 42.830366 ], [ -84.5429494, 42.831310500000022 ], [ -84.4497864, 42.7977189 ], [ -84.427966, 42.766184800000012 ], [ -84.4214076, 42.755457700000036 ], [ -84.424963, 42.677822699999986 ], [ -84.432887, 42.663804 ], [ -84.462577, 42.640335 ], [ -84.483728, 42.628993 ] ] ] } }
]
}
