{
"type": "FeatureCollection",
"crs": { "type": "name", "properties": { "name": "urn:ogc:def:crs:OGC:1.3:CRS84" } },
"features": [
{ "type": "Feature", "properties": { "OBJECTID": 1288, "ID": "0012545701", "NAME": "O'BLENESS MEMORIAL HOSPITAL", "ADDRESS": "55 HOSPITAL DRIVE", "CITY": "ATHENS", "STATE": "OH", "ZIP": "45701", "ZIP4": "NOT AVAILABLE", "TELEPHONE": "(740) 592-9354", "TYPE": "GENERAL ACUTE CARE", "STATUS": "OPEN", "POPULATION": 132, "COUNTY": "ATHENS", "COUNTYFIPS": "39009", "COUNTRY": "USA", "LATITUDE": 39.327952656999997, "LONGITUDE": -82.115433977999899, "NAICS_CODE": "622110", "NAICS_DESC": "GENERAL MEDICAL AND SURGICAL HOSPITALS", "SOURCE": "http://publicapps.odh.ohio.gov/EID/Provider_Search.aspx", "SOURCEDATE": "2018-08-10T00:00:00.000Z", "VAL_METHOD": "IMAGERY", "VAL_DATE": "2014-03-12T00:00:00.000Z", "WEBSITE": "https://www.ohiohealth.com/obleness/", "STATE_ID": "1109", "ALT_NAME": "NOT AVAILABLE", "ST_FIPS": "39", "OWNER": "NON-PROFIT", "TTL_STAFF": -999, "BEDS": 132, "TRAUMA": "NOT AVAILABLE", "HELIPAD": "Y" }, "geometry": { "type": "Polygon", "coordinates": [ [ [ -82.0744652, 39.23850540000003 ], [ -82.158917, 39.267262 ], [ -82.163905, 39.27099 ], [ -82.188147, 39.290421 ], [ -82.220121, 39.323902 ], [ -82.2194542, 39.329698 ], [ -82.171623, 39.404656 ], [ -82.171489, 39.40481 ], [ -82.128397, 39.4034255 ], [ -82.083363, 39.380219 ], [ -82.0021064, 39.33158659999998 ], [ -81.9951062, 39.324265899999979 ], [ -82.069874, 39.238297 ], [ -82.0744652, 39.23850540000003 ] ] ] } },
{ "type": "Feature", "properties": { "OBJECTID": 1326, "ID": "0012743015", "NAME": "GRADY MEMORIAL HOSPITAL", "ADDRESS": "561 WEST CENTRAL AVENUE", "CITY": "DELAWARE", "STATE": "OH", "ZIP": "43015", "ZIP4": "NOT AVAILABLE", "TELEPHONE": "(740) 615-1000", "TYPE": "GENERAL ACUTE CARE", "STATUS": "OPEN", "POPULATION": 152, "COUNTY": "DELAWARE", "COUNTYFIPS": "39041", "COUNTRY": "USA", "LATITUDE": 40.305514023999997, "LONGITUDE": -83.089252856000002, "NAICS_CODE": "622110", "NAICS_DESC": "GENERAL MEDICAL AND SURGICAL HOSPITALS", "SOURCE": "http://publicapps.odh.ohio.gov/EID/Provider_Search.aspx", "SOURCEDATE": "2018-08-10T00:00:00.000Z", "VAL_METHOD": "IMAGERY", "VAL_DATE": "2014-03-12T00:00:00.000Z", "WEBSITE": "https://www.ohiohealth.com/grady", "STATE_ID": "1163", "ALT_NAME": "NOT AVAILABLE", "ST_FIPS": "39", "OWNER": "NON-PROFIT", "TTL_STAFF": -999, "BEDS": 152, "TRAUMA": "NOT AVAILABLE", "HELIPAD": "Y" }, "geometry": { "type": "Polygon", "coordinates": [ [ [ -83.033662, 40.216072 ], [ -83.084222, 40.22514 ], [ -83.148357, 40.246182 ], [ -83.191264, 40.280396 ], [ -83.212911, 40.334164 ], [ -83.162265, 40.398227 ], [ -83.07367, 40.395372 ], [ -83.001016, 40.339082 ], [ -82.987752, 40.319661 ], [ -82.9637249, 40.272783200000028 ], [ -82.9637166, 40.272594100000013 ], [ -83.033471, 40.216107 ], [ -83.033662, 40.216072 ] ] ] } },
{ "type": "Feature", "properties": { "OBJECTID": 1331, "ID": "0126843016", "NAME": "DUBLIN SPRINGS", "ADDRESS": "7625 HOSPITAL DRIVE", "CITY": "DUBLIN", "STATE": "OH", "ZIP": "43016", "ZIP4": "NOT AVAILABLE", "TELEPHONE": "(614) 717-1800", "TYPE": "PSYCHIATRIC", "STATUS": "OPEN", "POPULATION": 72, "COUNTY": "FRANKLIN", "COUNTYFIPS": "39049", "COUNTRY": "USA", "LATITUDE": 40.1038159390001, "LONGITUDE": -83.170971659000003, "NAICS_CODE": "622210", "NAICS_DESC": "PSYCHIATRIC AND SUBSTANCE ABUSE HOSPITALS", "SOURCE": "http://publicapps.odh.ohio.gov/EID/Provider_Search.aspx", "SOURCEDATE": "2018-08-10T00:00:00.000Z", "VAL_METHOD": "IMAGERY/OTHER", "VAL_DATE": "2015-03-11T00:00:00.000Z", "WEBSITE": "http://www.dublinsprings.com/", "STATE_ID": "1507", "ALT_NAME": "NOT AVAILABLE", "ST_FIPS": "39", "OWNER": "PROPRIETARY", "TTL_STAFF": -999, "BEDS": 72, "TRAUMA": "NOT AVAILABLE", "HELIPAD": "N" }, "geometry": { "type": "Polygon", "coordinates": [ [ [ -83.118497851193951, 39.996824107661752 ], [ -83.123696457770876, 39.999145106855828 ], [ -83.131291, 40.002962 ], [ -83.2666317, 40.086578899999971 ], [ -83.2694662, 40.0883464 ], [ -83.2787554, 40.104388300000025 ], [ -83.2821577, 40.2002142 ], [ -83.1595282, 40.179173600000013 ], [ -83.139942, 40.170883 ], [ -83.016061100000016, 40.117154800000016 ], [ -83.0052162, 40.111413900000045 ], [ -83.112146, 40.002044 ], [ -83.118497851193951, 39.996824107661752 ] ] ] } },
{ "type": "Feature", "properties": { "OBJECTID": 1396, "ID": "0013843338", "NAME": "MORROW COUNTY HOSPITAL", "ADDRESS": "651 WEST MARION ROAD", "CITY": "MOUNT GILEAD", "STATE": "OH", "ZIP": "43338", "ZIP4": "NOT AVAILABLE", "TELEPHONE": "(419) 949-3180", "TYPE": "CRITICAL ACCESS", "STATUS": "OPEN", "POPULATION": 22, "COUNTY": "MORROW", "COUNTYFIPS": "39117", "COUNTRY": "USA", "LATITUDE": 40.547981168, "LONGITUDE": -82.850406602999996, "NAICS_CODE": "622110", "NAICS_DESC": "GENERAL MEDICAL AND SURGICAL HOSPITALS", "SOURCE": "http://publicapps.odh.ohio.gov/EID/Provider_Search.aspx", "SOURCEDATE": "2018-08-10T00:00:00.000Z", "VAL_METHOD": "IMAGERY", "VAL_DATE": "2014-01-31T00:00:00.000Z", "WEBSITE": "http://www.morrowcountyhospital.com", "STATE_ID": "1249", "ALT_NAME": "NOT AVAILABLE", "ST_FIPS": "39", "OWNER": "GOVERNMENT - LOCAL", "TTL_STAFF": -999, "BEDS": 22, "TRAUMA": "NOT AVAILABLE", "HELIPAD": "Y" }, "geometry": { "type": "Polygon", "coordinates": [ [ [ -82.844423, 40.449053 ], [ -82.93146, 40.483275 ], [ -82.9623486, 40.550619299999973 ], [ -82.9622914, 40.586236 ], [ -82.958416, 40.601523 ], [ -82.861583, 40.646395 ], [ -82.859749, 40.646416 ], [ -82.841499, 40.639787 ], [ -82.728997, 40.580651 ], [ -82.710976, 40.536102 ], [ -82.711174, 40.521564 ], [ -82.72546, 40.500792 ], [ -82.844423, 40.449053 ] ] ] } },
{ "type": "Feature", "properties": { "OBJECTID": 1401, "ID": "0007945601", "NAME": "ADENA REGIONAL MEDICAL CENTER", "ADDRESS": "272 HOSPITAL ROAD", "CITY": "CHILLICOTHE", "STATE": "OH", "ZIP": "45601", "ZIP4": "NOT AVAILABLE", "TELEPHONE": "(740) 779-7500", "TYPE": "GENERAL ACUTE CARE", "STATUS": "OPEN", "POPULATION": 261, "COUNTY": "ROSS", "COUNTYFIPS": "39141", "COUNTRY": "USA", "LATITUDE": 39.396497774000103, "LONGITUDE": -82.967616108999906, "NAICS_CODE": "622110", "NAICS_DESC": "GENERAL MEDICAL AND SURGICAL HOSPITALS", "SOURCE": "http://publicapps.odh.ohio.gov/EID/Provider_Search.aspx", "SOURCEDATE": "2018-08-10T00:00:00.000Z", "VAL_METHOD": "IMAGERY/OTHER", "VAL_DATE": "2014-03-12T00:00:00.000Z", "WEBSITE": "http://www.adena.org", "STATE_ID": "1029", "ALT_NAME": "NOT AVAILABLE", "ST_FIPS": "39", "OWNER": "NON-PROFIT", "TTL_STAFF": -999, "BEDS": 261, "TRAUMA": "NOT AVAILABLE", "HELIPAD": "Y" }, "geometry": { "type": "Polygon", "coordinates": [ [ [ -82.95918, 39.2771255 ], [ -82.9594887, 39.2773483 ], [ -82.9609436, 39.278441599999972 ], [ -83.0027662, 39.320197 ], [ -83.0545644, 39.3751572 ], [ -82.978438682098769, 39.479574774325897 ], [ -82.906812589671048, 39.478354877659697 ], [ -82.903357386288818, 39.475997682492633 ], [ -82.867133200000012, 39.438557200000012 ], [ -82.8981702, 39.2990735 ], [ -82.9046146, 39.287371199999974 ], [ -82.95918, 39.2771255 ] ] ] } },
{ "type": "Feature", "properties": { "OBJECTID": 1686, "ID": "0124143205", "NAME": "NATIONWIDE CHILDREN'S HOSPITAL", "ADDRESS": "700 CHILDREN'S DRIVE", "CITY": "COLUMBUS", "STATE": "OH", "ZIP": "43205", "ZIP4": "NOT AVAILABLE", "TELEPHONE": "(614) 355-0802", "TYPE": "CHILDREN", "STATUS": "OPEN", "POPULATION": 468, "COUNTY": "FRANKLIN", "COUNTYFIPS": "39049", "COUNTRY": "USA", "LATITUDE": 39.95251412, "LONGITUDE": -82.979524042999998, "NAICS_CODE": "622310", "NAICS_DESC": "CHILDREN'S HOSPITALS, SPECIALTY (EXCEPT PSYCHIATRIC, SUBSTANCE ABUSE)", "SOURCE": "http://publicapps.odh.ohio.gov/EID/Provider_Search.aspx", "SOURCEDATE": "2018-08-10T00:00:00.000Z", "VAL_METHOD": "IMAGERY/OTHER", "VAL_DATE": "2015-03-10T00:00:00.000Z", "WEBSITE": "http://www.nationwidechildrens.org/", "STATE_ID": "1169", "ALT_NAME": "NOT AVAILABLE", "ST_FIPS": "39", "OWNER": "NON-PROFIT", "TTL_STAFF": -999, "BEDS": 468, "TRAUMA": "LEVEL I PEDIATRIC", "HELIPAD": "Y" }, "geometry": { "type": "Polygon", "coordinates": [ [ [ -83.052803188102274, 39.874104185025033 ], [ -83.055755191049371, 39.875435183480491 ], [ -83.062383498372967, 39.878753679868424 ], [ -83.127636312158117, 39.976819018027292 ], [ -83.11859872778146, 39.985582913392179 ], [ -83.0010426, 40.0738662 ], [ -82.9997477, 40.0747755 ], [ -82.996797, 40.074689 ], [ -82.902212, 40.041622 ], [ -82.876945, 40.026606 ], [ -82.8665621, 40.018328300000022 ], [ -82.831179164233205, 39.929645380948926 ], [ -82.831344061325879, 39.927768480612663 ], [ -82.884076639865782, 39.875317950100289 ], [ -82.926033091601084, 39.874949230664875 ], [ -83.052803188102274, 39.874104185025033 ] ] ] } },
{ "type": "Feature", "properties": { "OBJECTID": 1687, "ID": "0124343223", "NAME": "OHIO HOSPITAL FOR PSYCHIATRY", "ADDRESS": "880 GREENLAWN AVENUE", "CITY": "COLUMBUS", "STATE": "OH", "ZIP": "43223", "ZIP4": "NOT AVAILABLE", "TELEPHONE": "(614) 449-9664", "TYPE": "PSYCHIATRIC", "STATUS": "OPEN", "POPULATION": 90, "COUNTY": "FRANKLIN", "COUNTYFIPS": "39049", "COUNTRY": "USA", "LATITUDE": 39.940678640999998, "LONGITUDE": -83.020291763000003, "NAICS_CODE": "622110", "NAICS_DESC": "GENERAL MEDICAL AND SURGICAL HOSPITALS", "SOURCE": "http://publicapps.odh.ohio.gov/EID/Provider_Search.aspx", "SOURCEDATE": "2018-08-10T00:00:00.000Z", "VAL_METHOD": "IMAGERY/OTHER", "VAL_DATE": "2015-03-10T00:00:00.000Z", "WEBSITE": "http://www.ohiohospitalforpsychiatry.com/", "STATE_ID": "1459", "ALT_NAME": "NOT AVAILABLE", "ST_FIPS": "39", "OWNER": "PROPRIETARY", "TTL_STAFF": -999, "BEDS": 90, "TRAUMA": "NOT AVAILABLE", "HELIPAD": "N" }, "geometry": { "type": "Polygon", "coordinates": [ [ [ -83.095520115133127, 39.836131196796011 ], [ -83.099531125468729, 39.841090192775276 ], [ -83.154016430291449, 39.981649116480554 ], [ -83.1187478, 40.0078229 ], [ -83.0337592, 40.051955300000031 ], [ -83.0321432, 40.051907500000013 ], [ -83.030339, 40.051853499999936 ], [ -82.917743, 40.004517 ], [ -82.912773795754276, 40.000004796275412 ], [ -82.912569594573824, 39.999498996666453 ], [ -82.908661195861541, 39.946518217107013 ], [ -82.909138144740794, 39.917116225663946 ], [ -82.912037143825003, 39.914460224511771 ], [ -82.951038133270856, 39.880720215988276 ], [ -82.993613245722074, 39.858730611551756 ], [ -83.095520115133127, 39.836131196796011 ] ] ] } },
{ "type": "Feature", "properties": { "OBJECTID": 1698, "ID": "0129043230", "NAME": "WOODS AT PARKSIDE,THE", "ADDRESS": "349 OLDE RIDENOUR ROAD", "CITY": "COLUMBUS", "STATE": "OH", "ZIP": "43230", "ZIP4": "NOT AVAILABLE", "TELEPHONE": "(614) 471-2552", "TYPE": "SPECIAL", "STATUS": "OPEN", "POPULATION": 50, "COUNTY": "FRANKLIN", "COUNTYFIPS": "39049", "COUNTRY": "USA", "LATITUDE": 40.027142695000101, "LONGITUDE": -82.8818433389999, "NAICS_CODE": "622210", "NAICS_DESC": "HOSPITALS, SUBSTANCE ABUSE", "SOURCE": "http://publicapps.odh.ohio.gov/EID/Provider_Search.aspx", "SOURCEDATE": "2018-08-10T00:00:00.000Z", "VAL_METHOD": "IMAGERY/OTHER", "VAL_DATE": "2015-03-12T00:00:00.000Z", "WEBSITE": "http://www.thewoodsatparkside.com/", "STATE_ID": "1815", "ALT_NAME": "NOT AVAILABLE", "ST_FIPS": "39", "OWNER": "PROPRIETARY", "TTL_STAFF": -999, "BEDS": 50, "TRAUMA": "NOT AVAILABLE", "HELIPAD": "N" }, "geometry": { "type": "Polygon", "coordinates": [ [ [ -82.862374603408043, 39.928549457357462 ], [ -82.988320617041211, 39.954443743721548 ], [ -82.997322337894857, 39.959118132063494 ], [ -83.018716968980627, 39.970956320327538 ], [ -83.021160383927352, 39.97841821480538 ], [ -82.9856492, 40.0611367 ], [ -82.959282, 40.107525 ], [ -82.928725, 40.118126 ], [ -82.928012, 40.118172 ], [ -82.8297473, 40.0915399 ], [ -82.787593, 40.042568 ], [ -82.775454, 40.018522 ], [ -82.797464108970104, 39.984543322664429 ], [ -82.819119090141285, 39.954970294602511 ], [ -82.829510089515523, 39.946175284236936 ], [ -82.845269189218399, 39.933479670411685 ], [ -82.862374603408043, 39.928549457357462 ] ] ] } },
{ "type": "Feature", "properties": { "OBJECTID": 2325, "ID": "0014743054", "NAME": "MOUNT CARMEL NEW ALBANY SURGICAL HOSPITAL", "ADDRESS": "7333 SMITH'S MILL ROAD", "CITY": "NEW ALBANY", "STATE": "OH", "ZIP": "43054", "ZIP4": "NOT AVAILABLE", "TELEPHONE": "(614) 775-6600", "TYPE": "SPECIAL", "STATUS": "OPEN", "POPULATION": 60, "COUNTY": "FRANKLIN", "COUNTYFIPS": "39049", "COUNTRY": "USA", "LATITUDE": 40.086432472000098, "LONGITUDE": -82.790199742, "NAICS_CODE": "622310", "NAICS_DESC": "SPECIALTY (EXCEPT PSYCHIATRIC AND SUBSTANCE ABUSE) HOSPITALS", "SOURCE": "http://publicapps.odh.ohio.gov/EID/Provider_Search.aspx", "SOURCEDATE": "2018-08-10T00:00:00.000Z", "VAL_METHOD": "IMAGERY", "VAL_DATE": "2014-01-31T00:00:00.000Z", "WEBSITE": "http://www.mountcarmelhealth.com", "STATE_ID": "1451", "ALT_NAME": "NOT AVAILABLE", "ST_FIPS": "39", "OWNER": "NON-PROFIT", "TTL_STAFF": -999, "BEDS": 60, "TRAUMA": "NOT AVAILABLE", "HELIPAD": "N" }, "geometry": { "type": "Polygon", "coordinates": [ [ [ -82.809927, 40.005429 ], [ -82.866764300000014, 40.016074900000021 ], [ -82.928931, 40.04993 ], [ -82.937416, 40.058817 ], [ -82.9603134, 40.0861924 ], [ -82.959282, 40.107525 ], [ -82.9489397, 40.112818900000015 ], [ -82.839392, 40.15712 ], [ -82.808125, 40.155846 ], [ -82.7599099, 40.151442 ], [ -82.70678895786665, 40.144949956494521 ], [ -82.723128177525581, 40.05336929067645 ], [ -82.733345106627283, 40.041791391725106 ], [ -82.7895471, 40.011017799999976 ], [ -82.809927, 40.005429 ] ] ] } },
{ "type": "Feature", "properties": { "OBJECTID": 2326, "ID": "0012043081", "NAME": "MOUNT CARMEL ST ANN'S HOSPITAL", "ADDRESS": "500 SOUTH CLEVELAND AVENUE", "CITY": "WESTERVILLE", "STATE": "OH", "ZIP": "43081", "ZIP4": "NOT AVAILABLE", "TELEPHONE": "(614) 546-4533", "TYPE": "GENERAL ACUTE CARE", "STATUS": "OPEN", "POPULATION": 392, "COUNTY": "FRANKLIN", "COUNTYFIPS": "39049", "COUNTRY": "USA", "LATITUDE": 40.114809833000002, "LONGITUDE": -82.946704905000004, "NAICS_CODE": "622110", "NAICS_DESC": "GENERAL MEDICAL AND SURGICAL HOSPITALS", "SOURCE": "http://publicapps.odh.ohio.gov/EID/Provider_Search.aspx", "SOURCEDATE": "2018-08-10T00:00:00.000Z", "VAL_METHOD": "IMAGERY", "VAL_DATE": "2014-03-13T00:00:00.000Z", "WEBSITE": "http://www.mountcarmelhealth.com", "STATE_ID": "1606", "ALT_NAME": "NOT AVAILABLE", "ST_FIPS": "39", "OWNER": "NON-PROFIT", "TTL_STAFF": -999, "BEDS": 392, "TRAUMA": "NOT AVAILABLE", "HELIPAD": "Y" }, "geometry": { "type": "Polygon", "coordinates": [ [ [ -82.986244, 40.000824 ], [ -83.0005443, 40.0089123 ], [ -83.009908, 40.014686 ], [ -83.1351458, 40.098373800000026 ], [ -83.1323432, 40.1018132 ], [ -83.109714, 40.120994 ], [ -83.089648, 40.133015 ], [ -83.019298, 40.161697 ], [ -82.991102, 40.170355 ], [ -82.912556, 40.179993 ], [ -82.902949, 40.179351 ], [ -82.8034647, 40.090110099999976 ], [ -82.873434, 40.006189 ], [ -82.926655314316747, 39.999499180709094 ], [ -82.983954, 40.000693 ], [ -82.985047, 40.000744 ], [ -82.986244, 40.000824 ] ] ] } },
{ "type": "Feature", "properties": { "OBJECTID": 2972, "ID": "0127543210", "NAME": "OSU JAMES CANCER HOSPITAL & SOLOVE RESEARCH INSTITUTE", "ADDRESS": "300 WEST TENTH AVENUE", "CITY": "COLUMBUS", "STATE": "OH", "ZIP": "43210", "ZIP4": "NOT AVAILABLE", "TELEPHONE": "(614) 293-3121", "TYPE": "GENERAL ACUTE CARE", "STATUS": "OPEN", "POPULATION": 306, "COUNTY": "FRANKLIN", "COUNTYFIPS": "39049", "COUNTRY": "USA", "LATITUDE": 39.995582196000001, "LONGITUDE": -83.01673059, "NAICS_CODE": "622310", "NAICS_DESC": "SPECIALTY (EXCEPT PSYCHIATRIC AND SUBSTANCE ABUSE) HOSPITALS", "SOURCE": "http://publicapps.odh.ohio.gov/EID/Provider_Search.aspx", "SOURCEDATE": "2018-08-10T00:00:00.000Z", "VAL_METHOD": "IMAGERY/OTHER", "VAL_DATE": "2015-03-11T00:00:00.000Z", "WEBSITE": "https://cancer.osu.edu", "STATE_ID": "1818", "ALT_NAME": "NOT AVAILABLE", "ST_FIPS": "39", "OWNER": "GOVERNMENT - STATE", "TTL_STAFF": -999, "BEDS": 306, "TRAUMA": "NOT AVAILABLE", "HELIPAD": "Y" }, "geometry": { "type": "Polygon", "coordinates": [ [ [ -83.041562923096109, 39.892705974674129 ], [ -83.136298315158569, 39.97703401809239 ], [ -83.110289, 40.014038 ], [ -83.093276, 40.036396 ], [ -83.0351433, 40.111740600000033 ], [ -82.9846555, 40.08744140000001 ], [ -82.890448, 40.020636300000028 ], [ -82.890022, 40.016108 ], [ -82.893476267187665, 39.999140118375834 ], [ -82.899433652050405, 39.985708215033114 ], [ -82.924882685195584, 39.928344810414764 ], [ -82.925163685309371, 39.928201310259745 ], [ -82.926073685916279, 39.927870809707727 ], [ -83.038710122709006, 39.892715875185395 ], [ -83.041562923096109, 39.892705974674129 ] ] ] } },
{ "type": "Feature", "properties": { "OBJECTID": 6006, "ID": "0029043055", "NAME": "SHEPERD HILL HOSPITAL", "ADDRESS": "200 MESSIMER DRIVE", "CITY": "NEWARK", "STATE": "OH", "ZIP": "43055", "ZIP4": "NOT AVAILABLE", "TELEPHONE": "(220) 564-4887", "TYPE": "PSYCHIATRIC", "STATUS": "OPEN", "POPULATION": 14, "COUNTY": "LICKING", "COUNTYFIPS": "39089", "COUNTRY": "USA", "LATITUDE": 40.041072716000002, "LONGITUDE": -82.453675102000005, "NAICS_CODE": "622210", "NAICS_DESC": "HOSPITALS, SUBSTANCE ABUSE", "SOURCE": "http://publicapps.odh.ohio.gov/EID/Provider_Search.aspx", "SOURCEDATE": "2018-08-10T00:00:00.000Z", "VAL_METHOD": "IMAGERY/OTHER", "VAL_DATE": "2016-09-21T00:00:00.000Z", "WEBSITE": "https://www.shepherdhill.net", "STATE_ID": "1816", "ALT_NAME": "NOT AVAILABLE", "ST_FIPS": "39", "OWNER": "NON-PROFIT", "TTL_STAFF": -999, "BEDS": 14, "TRAUMA": "NOT AVAILABLE", "HELIPAD": "N" }, "geometry": { "type": "Polygon", "coordinates": [ [ [ -82.487608340242772, 39.969343905721075 ], [ -82.560369, 40.050351 ], [ -82.541932, 40.071953 ], [ -82.520398, 40.089173 ], [ -82.4294161, 40.121116899999969 ], [ -82.36861, 40.096054 ], [ -82.32566, 40.065829 ], [ -82.3784759, 40.009145899999986 ], [ -82.486552340694445, 39.969709905985063 ], [ -82.487608340242772, 39.969343905721075 ] ] ] } },
{ "type": "Feature", "properties": { "OBJECTID": 6038, "ID": "0011545601", "NAME": "VA MEDICAL CENTER - CHILLICOTHE", "ADDRESS": "17273 OH-104", "CITY": "CHILLICOTHE", "STATE": "OH", "ZIP": "45601", "ZIP4": "NOT AVAILABLE", "TELEPHONE": "(740) 773-1141", "TYPE": "MILITARY", "STATUS": "OPEN", "POPULATION": -999, "COUNTY": "ROSS", "COUNTYFIPS": "39141", "COUNTRY": "USA", "LATITUDE": 39.390431036000102, "LONGITUDE": -83.020398762, "NAICS_CODE": "622110", "NAICS_DESC": "GENERAL MEDICAL AND SURGICAL HOSPITALS", "SOURCE": "https://www.va.gov/directory/guide/allstate.asp", "SOURCEDATE": "2018-09-26T00:00:00.000Z", "VAL_METHOD": "IMAGERY/OTHER", "VAL_DATE": "2015-05-26T00:00:00.000Z", "WEBSITE": "http://www.chillicothe.va.gov/", "STATE_ID": "NOT AVAILABLE", "ALT_NAME": "NOT AVAILABLE", "ST_FIPS": "39", "OWNER": "GOVERNMENT - FEDERAL", "TTL_STAFF": -999, "BEDS": -999, "TRAUMA": "NOT AVAILABLE", "HELIPAD": "Y" }, "geometry": { "type": "Polygon", "coordinates": [ [ [ -82.9915369, 39.322550699999987 ], [ -82.9927243, 39.322704 ], [ -82.9944845, 39.3230455 ], [ -83.0506741, 39.349976499999975 ], [ -83.0653062, 39.3609581 ], [ -83.0661651, 39.371935099999988 ], [ -83.0654401, 39.377007700000036 ], [ -83.0510277, 39.4334046 ], [ -83.0248356, 39.459794400000021 ], [ -82.970033574583795, 39.464846788884884 ], [ -82.969779774269455, 39.464837589240155 ], [ -82.9395103, 39.4286903 ], [ -82.9400087, 39.337335200000012 ], [ -82.9651957, 39.325651799999967 ], [ -82.9915369, 39.322550699999987 ] ] ] } },
{ "type": "Feature", "properties": { "OBJECTID": 6169, "ID": "0000643302", "NAME": "MARION GENERAL HOSPITAL", "ADDRESS": "1000 MCKINLEY PARK DRIVE", "CITY": "MARION", "STATE": "OH", "ZIP": "43302", "ZIP4": "NOT AVAILABLE", "TELEPHONE": "(740) 383-8400", "TYPE": "GENERAL ACUTE CARE", "STATUS": "OPEN", "POPULATION": 270, "COUNTY": "MARION", "COUNTYFIPS": "39101", "COUNTRY": "USA", "LATITUDE": 40.571343157000101, "LONGITUDE": -83.128727745999996, "NAICS_CODE": "622110", "NAICS_DESC": "GENERAL MEDICAL AND SURGICAL HOSPITALS", "SOURCE": "http://publicapps.odh.ohio.gov/EID/Provider_Search.aspx", "SOURCEDATE": "2018-08-10T00:00:00.000Z", "VAL_METHOD": "IMAGERY", "VAL_DATE": "2014-03-12T00:00:00.000Z", "WEBSITE": "http://www.ohiohealth.com/mariongeneral", "STATE_ID": "1233", "ALT_NAME": "NOT AVAILABLE", "ST_FIPS": "39", "OWNER": "NON-PROFIT", "TTL_STAFF": -999, "BEDS": 270, "TRAUMA": "NOT AVAILABLE", "HELIPAD": "Y" }, "geometry": { "type": "Polygon", "coordinates": [ [ [ -83.0865898, 40.484059299999963 ], [ -83.175474, 40.507053 ], [ -83.2107044, 40.532274200000025 ], [ -83.2180192, 40.560684 ], [ -83.2180018, 40.561876100000021 ], [ -83.217386500000018, 40.586093200000043 ], [ -83.2077498, 40.612365700000019 ], [ -83.1453563, 40.65904740000002 ], [ -83.1050351, 40.651904500000036 ], [ -83.0732564, 40.6301914 ], [ -83.040149, 40.582064 ], [ -83.038628, 40.553081 ], [ -83.038719, 40.549009 ], [ -83.0865898, 40.484059299999963 ] ] ] } },
{ "type": "Feature", "properties": { "OBJECTID": 6252, "ID": "0013043113", "NAME": "BERGER HOSPITAL", "ADDRESS": "600 NORTH PICKAWAY STREET", "CITY": "CIRCLEVILLE", "STATE": "OH", "ZIP": "43113", "ZIP4": "NOT AVAILABLE", "TELEPHONE": "(740) 474-2126", "TYPE": "GENERAL ACUTE CARE", "STATUS": "OPEN", "POPULATION": 82, "COUNTY": "PICKAWAY", "COUNTYFIPS": "39129", "COUNTRY": "USA", "LATITUDE": 39.610338898000101, "LONGITUDE": -82.936211758999903, "NAICS_CODE": "622110", "NAICS_DESC": "GENERAL MEDICAL AND SURGICAL HOSPITALS", "SOURCE": "http://publicapps.odh.ohio.gov/EID/Provider_Search.aspx", "SOURCEDATE": "2018-08-10T00:00:00.000Z", "VAL_METHOD": "IMAGERY", "VAL_DATE": "2014-01-31T00:00:00.000Z", "WEBSITE": "http://www.bergerhealth.com", "STATE_ID": "1254", "ALT_NAME": "NOT AVAILABLE", "ST_FIPS": "39", "OWNER": "GOVERNMENT - LOCAL", "TTL_STAFF": -999, "BEDS": 82, "TRAUMA": "NOT AVAILABLE", "HELIPAD": "Y" }, "geometry": { "type": "Polygon", "coordinates": [ [ [ -82.974389673176731, 39.496590777118115 ], [ -83.029008399058029, 39.583814971262377 ], [ -83.03085618517467, 39.587667981299248 ], [ -83.030338284177546, 39.625315049821658 ], [ -82.992658465802364, 39.709021104451793 ], [ -82.988546244150044, 39.714644016861023 ], [ -82.98687713734158, 39.716274520412355 ], [ -82.891994564189432, 39.704526205416208 ], [ -82.851726108847757, 39.67287887138999 ], [ -82.855965952140124, 39.624724710287957 ], [ -82.863105568978156, 39.552480812459848 ], [ -82.974177672885787, 39.496605777433587 ], [ -82.974389673176731, 39.496590777118115 ] ] ] } },
{ "type": "Feature", "properties": { "OBJECTID": 6345, "ID": "0000000096", "NAME": "MT CARMEL EAST HOSPITAL", "ADDRESS": "6001 E BROAD ST", "CITY": "COLUMBUS", "STATE": "OH", "ZIP": "43213", "ZIP4": "NOT AVAILABLE", "TELEPHONE": "(614) 234-6000", "TYPE": "GENERAL ACUTE CARE", "STATUS": "OPEN", "POPULATION": 461, "COUNTY": "FRANKLIN", "COUNTYFIPS": "39049", "COUNTRY": "USA", "LATITUDE": 39.976919332000101, "LONGITUDE": -82.843307830999905, "NAICS_CODE": "622110", "NAICS_DESC": "GENERAL MEDICAL AND SURGICAL HOSPITALS", "SOURCE": "http://publicapps.odh.ohio.gov/EID/Provider_Search.aspx", "SOURCEDATE": "2018-08-10T00:00:00.000Z", "VAL_METHOD": "IMAGERY/OTHER", "VAL_DATE": "2015-05-22T00:00:00.000Z", "WEBSITE": "http://www.mountcarmelhealth.com/mount-carmel-east-hospital", "STATE_ID": "1027", "ALT_NAME": "NOT AVAILABLE", "ST_FIPS": "39", "OWNER": "NON-PROFIT", "TTL_STAFF": -999, "BEDS": 461, "TRAUMA": "LEVEL II", "HELIPAD": "Y" }, "geometry": { "type": "Polygon", "coordinates": [ [ [ -82.933396695636631, 39.872069028495474 ], [ -82.984107555935495, 39.978498730469987 ], [ -82.937416, 40.058817 ], [ -82.935757, 40.061081 ], [ -82.906615, 40.08742 ], [ -82.8520279, 40.080483299999969 ], [ -82.783035, 40.045802 ], [ -82.781228, 40.044274 ], [ -82.769461, 40.027526 ], [ -82.765365035058664, 39.965904347758759 ], [ -82.765835520083812, 39.956046142736909 ], [ -82.766907505932238, 39.946207537264435 ], [ -82.785906997828349, 39.925390613755667 ], [ -82.824798994380288, 39.892544280308535 ], [ -82.884076639865782, 39.875317950100289 ], [ -82.933396695636631, 39.872069028495474 ] ] ] } },
{ "type": "Feature", "properties": { "OBJECTID": 6536, "ID": "0008343701", "NAME": "GENESIS HOSPITAL", "ADDRESS": "2951 MAPLE AVENUE", "CITY": "ZANESVILLE", "STATE": "OH", "ZIP": "43701", "ZIP4": "NOT AVAILABLE", "TELEPHONE": "(740) 454-4354", "TYPE": "GENERAL ACUTE CARE", "STATUS": "OPEN", "POPULATION": 321, "COUNTY": "MUSKINGUM", "COUNTYFIPS": "39119", "COUNTRY": "USA", "LATITUDE": 39.974808289000102, "LONGITUDE": -82.016500660999995, "NAICS_CODE": "622110", "NAICS_DESC": "GENERAL MEDICAL AND SURGICAL HOSPITALS", "SOURCE": "http://publicapps.odh.ohio.gov/EID/Provider_Search.aspx", "SOURCEDATE": "2018-08-10T00:00:00.000Z", "VAL_METHOD": "IMAGERY", "VAL_DATE": "2014-03-12T00:00:00.000Z", "WEBSITE": "http://www.genesishcs.org", "STATE_ID": "1250", "ALT_NAME": "BETHESDAY HOSPITAL", "ST_FIPS": "39", "OWNER": "NON-PROFIT", "TTL_STAFF": -999, "BEDS": 321, "TRAUMA": "LEVEL III", "HELIPAD": "Y" }, "geometry": { "type": "Polygon", "coordinates": [ [ [ -82.028651606262713, 39.897801841049947 ], [ -82.032337801492432, 39.898880136557302 ], [ -82.09784288725362, 39.950260057850862 ], [ -82.097822585341831, 39.952355457924348 ], [ -82.0886982, 40.0172631 ], [ -82.0618415, 40.046977800000029 ], [ -82.0252074, 40.06212749999996 ], [ -82.0153901, 40.056636799999971 ], [ -81.894680925343039, 39.96805178690159 ], [ -81.896074530592472, 39.961958785473669 ], [ -81.945270696553393, 39.925263790594897 ], [ -81.997295842712759, 39.894925081864415 ], [ -82.019095116940122, 39.896817652709615 ], [ -82.028651606262713, 39.897801841049947 ] ] ] } },
{ "type": "Feature", "properties": { "OBJECTID": 6947, "ID": "0010743210", "NAME": "OHIO STATE UNIVERSITY HOSPITALS", "ADDRESS": "410 WEST 10TH AVENUE", "CITY": "COLUMBUS", "STATE": "OH", "ZIP": "43210", "ZIP4": "NOT AVAILABLE", "TELEPHONE": "(614) 293-9700", "TYPE": "GENERAL ACUTE CARE", "STATUS": "OPEN", "POPULATION": 1106, "COUNTY": "FRANKLIN", "COUNTYFIPS": "39049", "COUNTRY": "USA", "LATITUDE": 39.994260861999997, "LONGITUDE": -83.01856537, "NAICS_CODE": "622110", "NAICS_DESC": "GENERAL MEDICAL AND SURGICAL HOSPITALS", "SOURCE": "http://publicapps.odh.ohio.gov/EID/Provider_Search.aspx", "SOURCEDATE": "2018-08-10T00:00:00.000Z", "VAL_METHOD": "IMAGERY", "VAL_DATE": "2014-03-12T00:00:00.000Z", "WEBSITE": "http://www.medicalcenter.osu.edu", "STATE_ID": "1171", "ALT_NAME": "NOT AVAILABLE", "ST_FIPS": "39", "OWNER": "GOVERNMENT - STATE", "TTL_STAFF": -999, "BEDS": 1106, "TRAUMA": "LEVEL I", "HELIPAD": "Y" }, "geometry": { "type": "Polygon", "coordinates": [ [ [ -83.045496208463064, 39.884930979275019 ], [ -83.149651219762433, 39.977349318217385 ], [ -83.0346267, 40.1148611 ], [ -82.987356, 40.084303 ], [ -82.8945114, 40.01814160000005 ], [ -82.895781869429911, 39.998573415900445 ], [ -82.899433652050405, 39.985708215033114 ], [ -82.926693990776272, 39.930140908337584 ], [ -83.045496208463064, 39.884930979275019 ] ] ] } },
{ "type": "Feature", "properties": { "OBJECTID": 6948, "ID": "0009643214", "NAME": "RIVERSIDE METHODIST HOSPITAL", "ADDRESS": "3535 OLENTANGY RIVER RD", "CITY": "COLUMBUS", "STATE": "OH", "ZIP": "43214", "ZIP4": "NOT AVAILABLE", "TELEPHONE": "(614) 566-4408", "TYPE": "GENERAL ACUTE CARE", "STATUS": "OPEN", "POPULATION": 1059, "COUNTY": "FRANKLIN", "COUNTYFIPS": "39049", "COUNTRY": "USA", "LATITUDE": 40.030567989000097, "LONGITUDE": -83.034017085999906, "NAICS_CODE": "622110", "NAICS_DESC": "GENERAL MEDICAL AND SURGICAL HOSPITALS", "SOURCE": "http://publicapps.odh.ohio.gov/EID/Provider_Search.aspx", "SOURCEDATE": "2018-08-10T00:00:00.000Z", "VAL_METHOD": "IMAGERY/OTHER", "VAL_DATE": "2014-02-10T00:00:00.000Z", "WEBSITE": "https://www.ohiohealth.com/riverside/", "STATE_ID": "1005", "ALT_NAME": "NOT AVAILABLE", "ST_FIPS": "39", "OWNER": "NON-PROFIT", "TTL_STAFF": -999, "BEDS": 1059, "TRAUMA": "LEVEL II", "HELIPAD": "Y" }, "geometry": { "type": "Polygon", "coordinates": [ [ [ -83.021921252203029, 39.909395165893223 ], [ -83.056232793469064, 39.927307249241508 ], [ -83.122656710403632, 39.976679818001543 ], [ -83.129251, 40.0327061 ], [ -83.118582, 40.066332 ], [ -83.1172534, 40.069639899999977 ], [ -83.0986946, 40.109459300000012 ], [ -83.090411, 40.117908 ], [ -83.069689, 40.127925 ], [ -83.039792, 40.137484 ], [ -83.0375975, 40.13743969999998 ], [ -83.007243, 40.136707 ], [ -83.0057339, 40.1363631 ], [ -82.958738, 40.107172 ], [ -82.9222685, 40.058549700000057 ], [ -82.92346, 40.033859 ], [ -82.93134829669431, 39.985962181131519 ], [ -82.931535295410313, 39.985099181299958 ], [ -82.944128550540754, 39.950555685019111 ], [ -83.00721766362453, 39.916798762240461 ], [ -83.021921252203029, 39.909395165893223 ] ] ] } },
{ "type": "Feature", "properties": { "OBJECTID": 4131, "ID": "0126943701", "NAME": "SELECT SPECIALTY HOSPITAL-ZANESVILLE INC", "ADDRESS": "800 FOREST AVENUE, 6TH FLOOR", "CITY": "ZANESVILLE", "STATE": "OH", "ZIP": "43701", "ZIP4": "NOT AVAILABLE", "TELEPHONE": "(740) 588-7855", "TYPE": "SPECIAL", "STATUS": "CLOSED", "POPULATION": -999, "COUNTY": "MUSKINGUM", "COUNTYFIPS": "39119", "COUNTRY": "USA", "LATITUDE": 39.954978106000098, "LONGITUDE": -82.012788418999904, "NAICS_CODE": "622310", "NAICS_DESC": "HOSPITALS, SPECIALTY (EXCEPT PSYCHIATRIC, SUBSTANCE ABUSE)", "SOURCE": "http://publicapps.odh.ohio.gov", "SOURCEDATE": "2015-03-03T00:00:00.000Z", "VAL_METHOD": "IMAGERY/OTHER", "VAL_DATE": "2015-03-11T00:00:00.000Z", "WEBSITE": "NOT AVAILABLE", "STATE_ID": "NOT AVAILABLE", "ALT_NAME": "NOT AVAILABLE", "ST_FIPS": "39", "OWNER": "NOT AVAILABLE", "TTL_STAFF": -999, "BEDS": -999, "TRAUMA": "NOT AVAILABLE", "HELIPAD": "Y" }, "geometry": { "type": "Polygon", "coordinates": [ [ [ -82.058229389394825, 39.883462904785993 ], [ -82.122121562029903, 39.950991228610896 ], [ -82.097896646382438, 39.994522158821873 ], [ -82.0523087, 40.032629700000022 ], [ -82.0441526, 40.038444 ], [ -82.0189137, 40.037551099999988 ], [ -81.839544096663985, 39.975713694836365 ], [ -81.836131904458796, 39.973632002354599 ], [ -81.981643987295783, 39.876105116488077 ], [ -81.981936386912921, 39.875986215849863 ], [ -82.058229389394825, 39.883462904785993 ] ] ] } },
{ "type": "Feature", "properties": { "OBJECTID": 4197, "ID": "0028443222", "NAME": "SELECT SPECIALTY HOSPITAL MT. CARMEL", "ADDRESS": "793 WEST STATE STREET, 5TH FLOOR", "CITY": "COLUMBUS", "STATE": "OH", "ZIP": "43222", "ZIP4": "NOT AVAILABLE", "TELEPHONE": "(717) 972-1139", "TYPE": "LONG TERM CARE", "STATUS": "OPEN", "POPULATION": 24, "COUNTY": "FRANKLIN", "COUNTYFIPS": "39049", "COUNTRY": "USA", "LATITUDE": 39.957855211000002, "LONGITUDE": -83.022290696, "NAICS_CODE": "622310", "NAICS_DESC": "SPECIALTY (EXCEPT PSYCHIATRIC AND SUBSTANCE ABUSE) HOSPITALS", "SOURCE": "http://publicapps.odh.ohio.gov/EID/Provider_Search.aspx", "SOURCEDATE": "2018-08-10T00:00:00.000Z", "VAL_METHOD": "IMAGERY/OTHER", "VAL_DATE": "2016-09-20T00:00:00.000Z", "WEBSITE": "http://columbusmountcarmel.selectspecialtyhospitals.com/", "STATE_ID": "1456", "ALT_NAME": "NOT AVAILABLE", "ST_FIPS": "39", "OWNER": "PROPRIETARY", "TTL_STAFF": -999, "BEDS": 24, "TRAUMA": "NOT AVAILABLE", "HELIPAD": "Y" }, "geometry": { "type": "Polygon", "coordinates": [ [ [ -83.092389621064157, 39.839102996088307 ], [ -83.167658415413285, 39.97290712032617 ], [ -83.169609434081053, 39.981223117123541 ], [ -83.16885343823138, 39.983235116317921 ], [ -83.168178440315444, 39.98428811588311 ], [ -83.165314448995503, 39.988694114025179 ], [ -83.155307069876471, 39.999864108841443 ], [ -83.1231855, 40.0333296 ], [ -83.04128, 40.069042 ], [ -82.998069, 40.057492 ], [ -82.8945114, 40.01814160000005 ], [ -82.872167930668951, 39.936940849096914 ], [ -82.895300096148205, 39.899563239272119 ], [ -82.996055353090227, 39.861070008825493 ], [ -83.092389621064157, 39.839102996088307 ] ] ] } },
{ "type": "Feature", "properties": { "OBJECTID": 4198, "ID": "0126443201", "NAME": "SELECT SPECIALTY HOSPITAL-COLUMBUS, INC", "ADDRESS": "1087 DENNISON AVENUE, 2ND FLOOR", "CITY": "COLUMBUS", "STATE": "OH", "ZIP": "43201", "ZIP4": "NOT AVAILABLE", "TELEPHONE": "(717) 972-1139", "TYPE": "LONG TERM CARE", "STATUS": "OPEN", "POPULATION": 162, "COUNTY": "FRANKLIN", "COUNTYFIPS": "39049", "COUNTRY": "USA", "LATITUDE": 39.984598599000002, "LONGITUDE": -83.008832365000004, "NAICS_CODE": "622310", "NAICS_DESC": "SPECIALTY (EXCEPT PSYCHIATRIC AND SUBSTANCE ABUSE) HOSPITALS", "SOURCE": "http://publicapps.odh.ohio.gov/EID/Provider_Search.aspx", "SOURCEDATE": "2018-08-10T00:00:00.000Z", "VAL_METHOD": "IMAGERY/OTHER", "VAL_DATE": "2015-03-11T00:00:00.000Z", "WEBSITE": "http://columbusvictorianvillage.selectspecialtyhospitals.com/", "STATE_ID": "1429", "ALT_NAME": "NOT AVAILABLE", "ST_FIPS": "39", "OWNER": "PROPRIETARY", "TTL_STAFF": -999, "BEDS": 162, "TRAUMA": "NOT AVAILABLE", "HELIPAD": "N" }, "geometry": { "type": "Polygon", "coordinates": [ [ [ -83.051691196437673, 39.87840718239832 ], [ -83.15028531589617, 39.975457719050397 ], [ -83.15275172933832, 39.98138341655541 ], [ -83.036902, 40.0921634 ], [ -82.986785, 40.091699 ], [ -82.980293, 40.089977 ], [ -82.9752995, 40.087241 ], [ -82.902212, 40.041622 ], [ -82.877628, 40.024904 ], [ -82.8686074, 40.0183991 ], [ -82.862273, 40.002682 ], [ -82.884178245150025, 39.936115439662387 ], [ -82.912473143781725, 39.914115224328079 ], [ -83.051691196437673, 39.87840718239832 ] ] ] } },
{ "type": "Feature", "properties": { "OBJECTID": 4199, "ID": "0028543205", "NAME": "SELECT SPECIALTY HOSPITAL COLUMBUS EAST", "ADDRESS": "181 TAYLOR AVE, 6TH FLOOR", "CITY": "COLUMBUS", "STATE": "OH", "ZIP": "43205", "ZIP4": "NOT AVAILABLE", "TELEPHONE": "(717) 972-1100", "TYPE": "LONG TERM CARE", "STATUS": "OPEN", "POPULATION": 23, "COUNTY": "FRANKLIN", "COUNTYFIPS": "39049", "COUNTRY": "USA", "LATITUDE": 39.970791331000001, "LONGITUDE": -82.962863724000002, "NAICS_CODE": "622310", "NAICS_DESC": "SPECIALTY (EXCEPT PSYCHIATRIC AND SUBSTANCE ABUSE) HOSPITALS", "SOURCE": "http://publicapps.odh.ohio.gov/EID/Provider_Search.aspx", "SOURCEDATE": "2018-08-10T00:00:00.000Z", "VAL_METHOD": "IMAGERY/OTHER", "VAL_DATE": "2016-09-20T00:00:00.000Z", "WEBSITE": "http://columbuseast.selectspecialtyhospitals.com/", "STATE_ID": "1513", "ALT_NAME": "NOT AVAILABLE", "ST_FIPS": "39", "OWNER": "PROPRIETARY", "TTL_STAFF": -999, "BEDS": 23, "TRAUMA": "NOT AVAILABLE", "HELIPAD": "Y" }, "geometry": { "type": "Polygon", "coordinates": [ [ [ -83.041562923096109, 39.892705974674129 ], [ -83.100999600788498, 39.975094118468725 ], [ -83.101458405668566, 39.977404117204891 ], [ -83.011226, 40.062104699999978 ], [ -83.000855, 40.071428 ], [ -82.998045, 40.072542 ], [ -82.90677740000001, 40.084270200000013 ], [ -82.8727999, 40.055705600000017 ], [ -82.847328, 40.031477 ], [ -82.833532, 40.016653299999966 ], [ -82.834940974621574, 39.932904378400679 ], [ -82.878805652612257, 39.886535750966367 ], [ -82.882353051439821, 39.883264249624446 ], [ -83.041562923096109, 39.892705974674129 ] ] ] } },
{ "type": "Feature", "properties": { "OBJECTID": 4289, "ID": "0124543201", "NAME": "OHIOHEALTH REHABILITATION HOSPITAL", "ADDRESS": "1087 DENNISON AVENUE, 4TH FLOOR", "CITY": "COLUMBUS", "STATE": "OH", "ZIP": "43201", "ZIP4": "NOT AVAILABLE", "TELEPHONE": "(614) 484-9600", "TYPE": "REHABILITATION", "STATUS": "OPEN", "POPULATION": 74, "COUNTY": "FRANKLIN", "COUNTYFIPS": "39049", "COUNTRY": "USA", "LATITUDE": 39.983927591000104, "LONGITUDE": -83.008889472000007, "NAICS_CODE": "622310", "NAICS_DESC": "REHABILITATION HOSPITALS (EXCEPT ALCOHOLISM, DRUG ADDICTION)", "SOURCE": "http://publicapps.odh.ohio.gov/EID/Provider_Search.aspx", "SOURCEDATE": "2018-08-10T00:00:00.000Z", "VAL_METHOD": "IMAGERY/OTHER", "VAL_DATE": "2015-03-10T00:00:00.000Z", "WEBSITE": "http://www.ohiohealth-rehab.com/", "STATE_ID": "1511", "ALT_NAME": "NOT AVAILABLE", "ST_FIPS": "39", "OWNER": "PROPRIETARY", "TTL_STAFF": -999, "BEDS": 74, "TRAUMA": "NOT AVAILABLE", "HELIPAD": "N" }, "geometry": { "type": "Polygon", "coordinates": [ [ [ -83.052803188102274, 39.874104185025033 ], [ -83.149987410797465, 39.973118120061685 ], [ -83.156037431701648, 39.982020116386678 ], [ -83.040857, 40.08953 ], [ -83.036902, 40.0921634 ], [ -82.986785, 40.091699 ], [ -82.870235, 40.018458 ], [ -82.865882, 40.003901 ], [ -82.909138144740794, 39.917116225663946 ], [ -82.912037143825003, 39.914460224511771 ], [ -82.912473143781725, 39.914115224328079 ], [ -83.052803188102274, 39.874104185025033 ] ] ] } },
{ "type": "Feature", "properties": { "OBJECTID": 4292, "ID": "0028943055", "NAME": "SELECT SPECIALTY HOSPITAL SOUTHEAST OHIO", "ADDRESS": "2000 TAMARACK ROAD, 2ND FLOOR", "CITY": "NEWARK", "STATE": "OH", "ZIP": "43055", "ZIP4": "NOT AVAILABLE", "TELEPHONE": "(717) 975-4502", "TYPE": "LONG TERM CARE", "STATUS": "OPEN", "POPULATION": 35, "COUNTY": "LICKING", "COUNTYFIPS": "39089", "COUNTRY": "USA", "LATITUDE": 40.042559363000102, "LONGITUDE": -82.464661786999997, "NAICS_CODE": "622310", "NAICS_DESC": "SPECIALTY (EXCEPT PSYCHIATRIC AND SUBSTANCE ABUSE) HOSPITALS", "SOURCE": "http://publicapps.odh.ohio.gov/EID/Provider_Search.aspx", "SOURCEDATE": "2018-08-10T00:00:00.000Z", "VAL_METHOD": "IMAGERY/OTHER", "VAL_DATE": "2016-09-21T00:00:00.000Z", "WEBSITE": "http://southeastohio.selectspecialtyhospitals.com/", "STATE_ID": "1450", "ALT_NAME": "NOT AVAILABLE", "ST_FIPS": "39", "OWNER": "PROPRIETARY", "TTL_STAFF": -999, "BEDS": 35, "TRAUMA": "NOT AVAILABLE", "HELIPAD": "N" }, "geometry": { "type": "Polygon", "coordinates": [ [ [ -82.483817345971161, 39.96611390724707 ], [ -82.525309297272742, 39.988959908273316 ], [ -82.583136, 40.037606 ], [ -82.6117395, 40.0737759 ], [ -82.608199, 40.086523 ], [ -82.519684, 40.101292 ], [ -82.4282475, 40.112099 ], [ -82.376375, 40.092493 ], [ -82.354098, 40.078043 ], [ -82.333104, 40.063855 ], [ -82.333854, 40.0630624 ], [ -82.384279, 40.015348 ], [ -82.419237366190458, 39.996767923858634 ], [ -82.483817345971161, 39.96611390724707 ] ] ] } },
{ "type": "Feature", "properties": { "OBJECTID": 4472, "ID": "0000000092", "NAME": "WESTERVILLE MEDICAL CAMPUS", "ADDRESS": "300 POLARIS PKWY", "CITY": "WESTERVILLE", "STATE": "OH", "ZIP": "43082", "ZIP4": "NOT AVAILABLE", "TELEPHONE": "(614) 533-3000", "TYPE": "GENERAL ACUTE CARE", "STATUS": "CLOSED", "POPULATION": -999, "COUNTY": "DELAWARE", "COUNTYFIPS": "39041", "COUNTRY": "USA", "LATITUDE": 40.147119908999997, "LONGITUDE": -82.937713505999994, "NAICS_CODE": "622110", "NAICS_DESC": "GENERAL MEDICAL AND SURGICAL HOSPITALS", "SOURCE": "http://publicapps.odh.ohio.gov", "SOURCEDATE": "2015-03-03T00:00:00.000Z", "VAL_METHOD": "IMAGERY/OTHER", "VAL_DATE": "2015-05-22T00:00:00.000Z", "WEBSITE": "https://www.ohiohealth.com/locations/medical-campus/westerville-medical-campus/", "STATE_ID": "NOT AVAILABLE", "ALT_NAME": "NOT AVAILABLE", "ST_FIPS": "39", "OWNER": "NOT AVAILABLE", "TTL_STAFF": -999, "BEDS": -999, "TRAUMA": "NOT AVAILABLE", "HELIPAD": "N" }, "geometry": { "type": "Polygon", "coordinates": [ [ [ -82.928646, 40.073546 ], [ -83.0041465, 40.088323699999968 ], [ -83.0177042, 40.09462209999996 ], [ -83.0363094, 40.1064444 ], [ -83.0418434, 40.112379700000027 ], [ -83.060785, 40.1575 ], [ -83.060371, 40.158242 ], [ -83.0304485, 40.195332200000017 ], [ -82.985252, 40.214251 ], [ -82.928804, 40.227683 ], [ -82.87602, 40.237949 ], [ -82.8722861, 40.236918 ], [ -82.864259, 40.179766 ], [ -82.8856533, 40.10032710000003 ], [ -82.9000726, 40.081675199999964 ], [ -82.907900200000014, 40.0774345 ], [ -82.928646, 40.073546 ] ] ] } },
{ "type": "Feature", "properties": { "OBJECTID": 7429, "ID": "0125943207", "NAME": "SELECT SPECIALTY HOSPITAL COLUMBUS SOUTH", "ADDRESS": "1430 SOUTH HIGH STREET", "CITY": "COLUMBUS", "STATE": "OH", "ZIP": "43207", "ZIP4": "NOT AVAILABLE", "TELEPHONE": "(614) 456-0339", "TYPE": "LONG TERM CARE", "STATUS": "OPEN", "POPULATION": 43, "COUNTY": "FRANKLIN", "COUNTYFIPS": "39049", "COUNTRY": "USA", "LATITUDE": 39.933084024000003, "LONGITUDE": -82.99534134, "NAICS_CODE": "622310", "NAICS_DESC": "SPECIALTY (EXCEPT PSYCHIATRIC AND SUBSTANCE ABUSE) HOSPITALS", "SOURCE": "http://publicapps.odh.ohio.gov/EID/Provider_Search.aspx", "SOURCEDATE": "2018-08-10T00:00:00.000Z", "VAL_METHOD": "IMAGERY/OTHER", "VAL_DATE": "2015-03-11T00:00:00.000Z", "WEBSITE": "http://columbussouth.selectspecialtyhospitals.com/", "STATE_ID": "1474", "ALT_NAME": "NOT AVAILABLE", "ST_FIPS": "39", "OWNER": "PROPRIETARY", "TTL_STAFF": -999, "BEDS": 43, "TRAUMA": "NOT AVAILABLE", "HELIPAD": "N" }, "geometry": { "type": "Polygon", "coordinates": [ [ [ -83.090857525752384, 39.84144049521759 ], [ -83.136298315158569, 39.97703401809239 ], [ -83.046705, 40.027801 ], [ -83.042512, 40.02991 ], [ -83.0290398, 40.036588200000025 ], [ -82.993664, 40.030885 ], [ -82.9226902, 40.001803599999981 ], [ -82.91975060536285, 39.999907288383547 ], [ -82.880619005076809, 39.915618545595962 ], [ -82.881259458487619, 39.888144849423732 ], [ -83.000266903661171, 39.832069930173397 ], [ -83.000457003670491, 39.832071530110099 ], [ -83.090857525752384, 39.84144049521759 ] ] ] } },
{ "type": "Feature", "properties": { "OBJECTID": 5379, "ID": "0011443219", "NAME": "CHALMERS P. WYLIE VA AMBULATORY CARE CENTER", "ADDRESS": "420 N JAMES RD", "CITY": "COLUMBUS", "STATE": "OH", "ZIP": "43219", "ZIP4": "NOT AVAILABLE", "TELEPHONE": "(614) 257-5200", "TYPE": "MILITARY", "STATUS": "OPEN", "POPULATION": -999, "COUNTY": "FRANKLIN", "COUNTYFIPS": "39049", "COUNTRY": "USA", "LATITUDE": 39.980824698, "LONGITUDE": -82.909584940999906, "NAICS_CODE": "622110", "NAICS_DESC": "GENERAL MEDICAL AND SURGICAL HOSPITALS", "SOURCE": "https://www.va.gov/directory/guide/allstate.asp", "SOURCEDATE": "2018-09-26T00:00:00.000Z", "VAL_METHOD": "IMAGERY/OTHER", "VAL_DATE": "2015-05-22T00:00:00.000Z", "WEBSITE": "http://www.columbus.va.gov/", "STATE_ID": "NOT AVAILABLE", "ALT_NAME": "NOT AVAILABLE", "ST_FIPS": "39", "OWNER": "GOVERNMENT - FEDERAL", "TTL_STAFF": -999, "BEDS": -999, "TRAUMA": "NOT AVAILABLE", "HELIPAD": "N" }, "geometry": { "type": "Polygon", "coordinates": [ [ [ -82.8836121532037, 39.88336794896577 ], [ -82.966200210783796, 39.912665188957334 ], [ -82.977325233057044, 39.916932178674983 ], [ -83.04725937306101, 39.96891012186407 ], [ -82.9991616, 40.031273399999961 ], [ -82.9176931, 40.099198 ], [ -82.8632313, 40.061917900000019 ], [ -82.830319, 40.035992 ], [ -82.798649110396411, 39.984412321379317 ], [ -82.831179164233205, 39.929645380948926 ], [ -82.878805652612257, 39.886535750966367 ], [ -82.883351052851566, 39.88335434910114 ], [ -82.8836121532037, 39.88336794896577 ] ] ] } },
{ "type": "Feature", "properties": { "OBJECTID": 5888, "ID": "0126245701", "NAME": "APPALACHIAN BEHAVIORAL HEALTH CARE", "ADDRESS": "100 HOSPITAL DRIVE", "CITY": "ATHENS", "STATE": "OH", "ZIP": "45701", "ZIP4": "NOT AVAILABLE", "TELEPHONE": "(614) 594-5000", "TYPE": "PSYCHIATRIC", "STATUS": "OPEN", "POPULATION": 88, "COUNTY": "ATHENS", "COUNTYFIPS": "39009", "COUNTRY": "USA", "LATITUDE": 39.328832859000002, "LONGITUDE": -82.118785154999998, "NAICS_CODE": "622210", "NAICS_DESC": "PSYCHIATRIC AND SUBSTANCE ABUSE HOSPITALS", "SOURCE": "http://publicapps.odh.ohio.gov/EID/Provider_Search.aspx", "SOURCEDATE": "2018-08-10T00:00:00.000Z", "VAL_METHOD": "IMAGERY/OTHER", "VAL_DATE": "2015-03-11T00:00:00.000Z", "WEBSITE": "http://mha.ohio.gov/default.aspx?tabid=187", "STATE_ID": "NOT AVAILABLE", "ALT_NAME": "NOT AVAILABLE", "ST_FIPS": "39", "OWNER": "GOVERNMENT - STATE", "TTL_STAFF": -999, "BEDS": 88, "TRAUMA": "NOT AVAILABLE", "HELIPAD": "N" }, "geometry": { "type": "Polygon", "coordinates": [ [ [ -82.0744652, 39.23850540000003 ], [ -82.175478, 39.252705 ], [ -82.175816, 39.253008 ], [ -82.222595, 39.323861 ], [ -82.2194542, 39.329698 ], [ -82.171623, 39.404656 ], [ -82.171489, 39.40481 ], [ -82.1277991, 39.405202399999951 ], [ -82.1270504, 39.404784400000018 ], [ -82.083363, 39.380219 ], [ -82.0021064, 39.33158659999998 ], [ -81.9953598, 39.3240723 ], [ -82.069874, 39.238297 ], [ -82.0744652, 39.23850540000003 ] ] ] } },
{ "type": "Feature", "properties": { "OBJECTID": 5947, "ID": "0015443110", "NAME": "DILEY RIDGE MEDICAL CENTER", "ADDRESS": "7911 DILEY ROAD", "CITY": "CANAL WINCHESTER", "STATE": "OH", "ZIP": "43110", "ZIP4": "NOT AVAILABLE", "TELEPHONE": "(614) 838-7911", "TYPE": "GENERAL ACUTE CARE", "STATUS": "OPEN", "POPULATION": 10, "COUNTY": "FAIRFIELD", "COUNTYFIPS": "39045", "COUNTRY": "USA", "LATITUDE": 39.850669895000102, "LONGITUDE": -82.784080954999993, "NAICS_CODE": "622110", "NAICS_DESC": "GENERAL MEDICAL AND SURGICAL HOSPITALS", "SOURCE": "http://publicapps.odh.ohio.gov/EID/Provider_Search.aspx", "SOURCEDATE": "2018-08-10T00:00:00.000Z", "VAL_METHOD": "IMAGERY", "VAL_DATE": "2014-02-10T00:00:00.000Z", "WEBSITE": "http://www.dileyridgemedicalcenter.com", "STATE_ID": "1494", "ALT_NAME": "NOT AVAILABLE", "ST_FIPS": "39", "OWNER": "NON-PROFIT", "TTL_STAFF": -999, "BEDS": 10, "TRAUMA": "NOT AVAILABLE", "HELIPAD": "Y" }, "geometry": { "type": "Polygon", "coordinates": [ [ [ -82.807127776439415, 39.77295626119696 ], [ -82.842609866615703, 39.802948265683284 ], [ -82.828142831381342, 39.912268280997075 ], [ -82.816436039968963, 39.926688291556957 ], [ -82.791623729239816, 39.940195714372642 ], [ -82.773676404724824, 39.939775128817516 ], [ -82.753797966187875, 39.932040340880391 ], [ -82.727438454038861, 39.917536037421286 ], [ -82.71440269465954, 39.906505832047742 ], [ -82.680460137723045, 39.86753431122888 ], [ -82.673068093817989, 39.845329298346662 ], [ -82.681843835055204, 39.771893254880993 ], [ -82.684380821864124, 39.769086253271183 ], [ -82.69087530883391, 39.768539353060433 ], [ -82.807127776439415, 39.77295626119696 ] ] ] } },
{ "type": "Feature", "properties": { "OBJECTID": 5948, "ID": "0124643223", "NAME": "POMEGRANATE HEALTH SYSTEMS OF COLUMBUS", "ADDRESS": "765 PIERCE DRIVE", "CITY": "COLUMBUS", "STATE": "OH", "ZIP": "43223", "ZIP4": "NOT AVAILABLE", "TELEPHONE": "(614) 223-1650", "TYPE": "PSYCHIATRIC", "STATUS": "OPEN", "POPULATION": 20, "COUNTY": "FRANKLIN", "COUNTYFIPS": "39049", "COUNTRY": "USA", "LATITUDE": 39.946702766000001, "LONGITUDE": -83.018182183999997, "NAICS_CODE": "622210", "NAICS_DESC": "PSYCHIATRIC AND SUBSTANCE ABUSE HOSPITALS", "SOURCE": "http://publicapps.odh.ohio.gov/EID/Provider_Search.aspx", "SOURCEDATE": "2018-08-10T00:00:00.000Z", "VAL_METHOD": "IMAGERY/OTHER", "VAL_DATE": "2015-03-10T00:00:00.000Z", "WEBSITE": "http://pomegranatehealthsystems.com/", "STATE_ID": "1495", "ALT_NAME": "SEQUEL POMEGRANATE HEALTH SYSTEMS LLC", "ST_FIPS": "39", "OWNER": "PROPRIETARY", "TTL_STAFF": -999, "BEDS": 20, "TRAUMA": "NOT AVAILABLE", "HELIPAD": "N" }, "geometry": { "type": "Polygon", "coordinates": [ [ [ -83.095520115133127, 39.836131196796011 ], [ -83.150629023216197, 39.978826217598268 ], [ -83.150471924051118, 39.979237617416338 ], [ -83.1167228, 40.0021784 ], [ -83.0305051, 40.058617100000021 ], [ -82.917743, 40.004517 ], [ -82.916473399916597, 39.999426192268928 ], [ -82.910489198471851, 39.946613215526028 ], [ -82.909276870311899, 39.931538421161477 ], [ -82.915091253059117, 39.917443321440651 ], [ -82.915430552986933, 39.917152921303945 ], [ -82.953091643748621, 39.885074012616798 ], [ -82.989319146663618, 39.862074210716429 ], [ -82.99612054953046, 39.859120810303708 ], [ -83.095520115133127, 39.836131196796011 ] ] ] } },
{ "type": "Feature", "properties": { "OBJECTID": 5949, "ID": "0124043222", "NAME": "MOUNT CARMEL WEST", "ADDRESS": "793 WEST STATE STREET", "CITY": "COLUMBUS", "STATE": "OH", "ZIP": "43222", "ZIP4": "NOT AVAILABLE", "TELEPHONE": "(614) 234-5000", "TYPE": "GENERAL ACUTE CARE", "STATUS": "OPEN", "POPULATION": 514, "COUNTY": "FRANKLIN", "COUNTYFIPS": "39049", "COUNTRY": "USA", "LATITUDE": 39.957426908000102, "LONGITUDE": -83.021862392999907, "NAICS_CODE": "622110", "NAICS_DESC": "GENERAL MEDICAL AND SURGICAL HOSPITALS", "SOURCE": "http://publicapps.odh.ohio.gov/EID/Provider_Search.aspx", "SOURCEDATE": "2018-08-10T00:00:00.000Z", "VAL_METHOD": "IMAGERY/OTHER", "VAL_DATE": "2015-03-10T00:00:00.000Z", "WEBSITE": "http://www.mountcarmelhealth.com/", "STATE_ID": "1175", "ALT_NAME": "NOT AVAILABLE", "ST_FIPS": "39", "OWNER": "NON-PROFIT", "TTL_STAFF": -999, "BEDS": 514, "TRAUMA": "LEVEL II", "HELIPAD": "Y" }, "geometry": { "type": "Polygon", "coordinates": [ [ [ -83.092389621064157, 39.839102996088307 ], [ -83.167658415413285, 39.97290712032617 ], [ -83.169609434081053, 39.981223117123541 ], [ -83.16885343823138, 39.983235116317921 ], [ -83.168178440315444, 39.98428811588311 ], [ -83.165314448995503, 39.988694114025179 ], [ -83.155307069876471, 39.999864108841443 ], [ -83.1231855, 40.0333296 ], [ -83.04128, 40.069042 ], [ -82.998069, 40.057492 ], [ -82.8945114, 40.01814160000005 ], [ -82.872167930668951, 39.936940849096914 ], [ -82.895300096148205, 39.899563239272119 ], [ -82.996055353090227, 39.861070008825493 ], [ -83.092389621064157, 39.839102996088307 ] ] ] } },
{ "type": "Feature", "properties": { "OBJECTID": 5950, "ID": "0028343205", "NAME": "OHIO STATE UNIVERSITY HOSPITAL EAST", "ADDRESS": "181 TAYLOR AVE", "CITY": "COLUMBUS", "STATE": "OH", "ZIP": "43205", "ZIP4": "NOT AVAILABLE", "TELEPHONE": "(614) 257-3700", "TYPE": "GENERAL ACUTE CARE", "STATUS": "OPEN", "POPULATION": 190, "COUNTY": "FRANKLIN", "COUNTYFIPS": "39049", "COUNTRY": "USA", "LATITUDE": 39.970517692999998, "LONGITUDE": -82.962875620999995, "NAICS_CODE": "622110", "NAICS_DESC": "GENERAL MEDICAL AND SURGICAL HOSPITALS", "SOURCE": "http://publicapps.odh.ohio.gov/EID/Provider_Search.aspx", "SOURCEDATE": "2018-08-10T00:00:00.000Z", "VAL_METHOD": "IMAGERY/OTHER", "VAL_DATE": "2016-09-20T00:00:00.000Z", "WEBSITE": "https://wexnermedical.osu.edu/locations-and-parking/university-hospital-east", "STATE_ID": "1170", "ALT_NAME": "NOT AVAILABLE", "ST_FIPS": "39", "OWNER": "GOVERNMENT - STATE", "TTL_STAFF": -999, "BEDS": 190, "TRAUMA": "LEVEL III", "HELIPAD": "Y" }, "geometry": { "type": "Polygon", "coordinates": [ [ [ -83.041562923096109, 39.892705974674129 ], [ -83.100999600788498, 39.975094118468725 ], [ -83.101458405668566, 39.977404117204891 ], [ -83.011226, 40.062104699999978 ], [ -83.000855, 40.071428 ], [ -82.998045, 40.072542 ], [ -82.90677740000001, 40.084270200000013 ], [ -82.8727999, 40.055705600000017 ], [ -82.847328, 40.031477 ], [ -82.833532, 40.016653299999966 ], [ -82.834940974621574, 39.932904378400679 ], [ -82.878805652612257, 39.886535750966367 ], [ -82.882353051439821, 39.883264249624446 ], [ -83.041562923096109, 39.892705974674129 ] ] ] } },
{ "type": "Feature", "properties": { "OBJECTID": 5952, "ID": "0014843016", "NAME": "DUBLIN METHODIST HOSPITAL", "ADDRESS": "7500 HOSPITAL AVENUE", "CITY": "DUBLIN", "STATE": "OH", "ZIP": "43016", "ZIP4": "NOT AVAILABLE", "TELEPHONE": "(614) 544-8000", "TYPE": "GENERAL ACUTE CARE", "STATUS": "OPEN", "POPULATION": 147, "COUNTY": "FRANKLIN", "COUNTYFIPS": "39049", "COUNTRY": "USA", "LATITUDE": 40.101219536000002, "LONGITUDE": -83.165741968999995, "NAICS_CODE": "622110", "NAICS_DESC": "GENERAL MEDICAL AND SURGICAL HOSPITALS", "SOURCE": "http://publicapps.odh.ohio.gov/EID/Provider_Search.aspx", "SOURCEDATE": "2018-08-10T00:00:00.000Z", "VAL_METHOD": "IMAGERY", "VAL_DATE": "2014-02-10T00:00:00.000Z", "WEBSITE": "http://www.ohiohealth.com", "STATE_ID": "1473", "ALT_NAME": "NOT AVAILABLE", "ST_FIPS": "39", "OWNER": "NON-PROFIT", "TTL_STAFF": -999, "BEDS": 147, "TRAUMA": "NOT AVAILABLE", "HELIPAD": "Y" }, "geometry": { "type": "Polygon", "coordinates": [ [ [ -83.118914026711607, 39.985023313689268 ], [ -83.2694662, 40.0883464 ], [ -83.283729, 40.105027 ], [ -83.289668, 40.2044179 ], [ -83.197365, 40.195891 ], [ -83.092804, 40.154652 ], [ -83.0155245, 40.122413900000033 ], [ -82.9935017, 40.110939900000041 ], [ -83.118914026711607, 39.985023313689268 ] ] ] } },
{ "type": "Feature", "properties": { "OBJECTID": 5953, "ID": "0001643215", "NAME": "GRANT MEDICAL CENTER", "ADDRESS": "111 SOUTH GRANT AVENUE", "CITY": "COLUMBUS", "STATE": "OH", "ZIP": "43215", "ZIP4": "NOT AVAILABLE", "TELEPHONE": "(614) 566-9000", "TYPE": "GENERAL ACUTE CARE", "STATUS": "OPEN", "POPULATION": 636, "COUNTY": "FRANKLIN", "COUNTYFIPS": "39049", "COUNTRY": "USA", "LATITUDE": 39.9609732750001, "LONGITUDE": -82.991001983000004, "NAICS_CODE": "622110", "NAICS_DESC": "GENERAL MEDICAL AND SURGICAL HOSPITALS", "SOURCE": "http://publicapps.odh.ohio.gov/EID/Provider_Search.aspx", "SOURCEDATE": "2018-08-10T00:00:00.000Z", "VAL_METHOD": "IMAGERY", "VAL_DATE": "2014-02-10T00:00:00.000Z", "WEBSITE": "http://www.ohiohealth.com", "STATE_ID": "1173", "ALT_NAME": "NOT AVAILABLE", "ST_FIPS": "39", "OWNER": "NON-PROFIT", "TTL_STAFF": -999, "BEDS": 636, "TRAUMA": "LEVEL I", "HELIPAD": "Y" }, "geometry": { "type": "Polygon", "coordinates": [ [ [ -83.060677187428439, 39.87333118374579 ], [ -83.063902192500962, 39.875709181489633 ], [ -83.066028196802506, 39.877750179721964 ], [ -83.149651219762433, 39.977349318217385 ], [ -83.1167497, 40.001451100000047 ], [ -82.986785, 40.091699 ], [ -82.9013546, 40.057264 ], [ -82.8657807, 40.0283032 ], [ -82.857488, 40.017869 ], [ -82.834940974621574, 39.932904378400679 ], [ -82.878805652612257, 39.886535750966367 ], [ -82.882353051439821, 39.883264249624446 ], [ -83.003392483784779, 39.874671395748429 ], [ -83.047085285590484, 39.873138986973593 ], [ -83.060677187428439, 39.87333118374579 ] ] ] } },
{ "type": "Feature", "properties": { "OBJECTID": 5991, "ID": "0013143138", "NAME": "HOCKING VALLEY COMMUNITY HOSPITAL", "ADDRESS": "601 STATE ROUTE 664N", "CITY": "LOGAN", "STATE": "OH", "ZIP": "43138", "ZIP4": "NOT AVAILABLE", "TELEPHONE": "(740) 380-8000", "TYPE": "CRITICAL ACCESS", "STATUS": "OPEN", "POPULATION": 30, "COUNTY": "HOCKING", "COUNTYFIPS": "39073", "COUNTRY": "USA", "LATITUDE": 39.547952590000101, "LONGITUDE": -82.429611135000002, "NAICS_CODE": "622110", "NAICS_DESC": "GENERAL MEDICAL AND SURGICAL HOSPITALS", "SOURCE": "http://publicapps.odh.ohio.gov/EID/Provider_Search.aspx", "SOURCEDATE": "2018-08-10T00:00:00.000Z", "VAL_METHOD": "IMAGERY/OTHER", "VAL_DATE": "2014-02-10T00:00:00.000Z", "WEBSITE": "http://www.hvch.org", "STATE_ID": "1201", "ALT_NAME": "NOT AVAILABLE", "ST_FIPS": "39", "OWNER": "GOVERNMENT - LOCAL", "TTL_STAFF": -999, "BEDS": 30, "TRAUMA": "NOT AVAILABLE", "HELIPAD": "Y" }, "geometry": { "type": "Polygon", "coordinates": [ [ [ -82.435728763968967, 39.464083096339877 ], [ -82.491028721347433, 39.489097078623281 ], [ -82.541392654776487, 39.534341077505111 ], [ -82.543496649538554, 39.53949107619168 ], [ -82.551436620787442, 39.571586063764521 ], [ -82.549805597687566, 39.605654043044602 ], [ -82.432571654424379, 39.63694998341257 ], [ -82.349716732670572, 39.595148981271329 ], [ -82.306759807289097, 39.509534981451637 ], [ -82.319823818308024, 39.473770029236469 ], [ -82.320770518243904, 39.472886131043161 ], [ -82.435728763968967, 39.464083096339877 ] ] ] } },
{ "type": "Feature", "properties": { "OBJECTID": 3003, "ID": "0002543055", "NAME": "LICKING MEMORIAL HOSPITAL", "ADDRESS": "1320 WEST MAIN STREET", "CITY": "NEWARK", "STATE": "OH", "ZIP": "43055", "ZIP4": "NOT AVAILABLE", "TELEPHONE": "(740) 348-4000", "TYPE": "GENERAL ACUTE CARE", "STATUS": "OPEN", "POPULATION": 213, "COUNTY": "LICKING", "COUNTYFIPS": "39089", "COUNTRY": "USA", "LATITUDE": 40.048301927000097, "LONGITUDE": -82.450635227000006, "NAICS_CODE": "622110", "NAICS_DESC": "GENERAL MEDICAL AND SURGICAL HOSPITALS", "SOURCE": "http://publicapps.odh.ohio.gov/EID/Provider_Search.aspx", "SOURCEDATE": "2018-08-10T00:00:00.000Z", "VAL_METHOD": "IMAGERY", "VAL_DATE": "2014-02-10T00:00:00.000Z", "WEBSITE": "http://www.lmhealth.org", "STATE_ID": "1213", "ALT_NAME": "NOT AVAILABLE", "ST_FIPS": "39", "OWNER": "NON-PROFIT", "TTL_STAFF": -999, "BEDS": 213, "TRAUMA": "NOT AVAILABLE", "HELIPAD": "Y" }, "geometry": { "type": "Polygon", "coordinates": [ [ [ -82.478554358801375, 39.956229909992338 ], [ -82.49106384532061, 39.96089520582327 ], [ -82.491978144083703, 39.961514305477735 ], [ -82.570871, 40.043019 ], [ -82.5996818, 40.073511899999964 ], [ -82.4281217, 40.133972400000033 ], [ -82.360451, 40.103818 ], [ -82.310674, 40.068185 ], [ -82.367839, 40.001041 ], [ -82.478554358801375, 39.956229909992338 ] ] ] } },
{ "type": "Feature", "properties": { "OBJECTID": 3606, "ID": "0005045764", "NAME": "DOCTORS HOSPITAL OF NELSONVILLE", "ADDRESS": "1950 MOUNT ST MARYS DRIVE", "CITY": "NELSONVILLE", "STATE": "OH", "ZIP": "45764", "ZIP4": "NOT AVAILABLE", "TELEPHONE": "(740) 753-7300", "TYPE": "CRITICAL ACCESS", "STATUS": "CLOSED", "POPULATION": 25, "COUNTY": "ATHENS", "COUNTYFIPS": "39009", "COUNTRY": "USA", "LATITUDE": 39.463282902000103, "LONGITUDE": -82.243210179000002, "NAICS_CODE": "622110", "NAICS_DESC": "GENERAL MEDICAL AND SURGICAL HOSPITALS", "SOURCE": "http://publicapps.odh.ohio.gov/EID/Provider_Search.aspx", "SOURCEDATE": "2012-07-23T00:00:00.000Z", "VAL_METHOD": "IMAGERY", "VAL_DATE": "2014-02-10T00:00:00.000Z", "WEBSITE": "https://www.ohiohealth.com/nelsonvilledoctors/", "STATE_ID": "361305", "ALT_NAME": "NOT AVAILABLE", "ST_FIPS": "39", "OWNER": "NON-PROFIT", "TTL_STAFF": -999, "BEDS": 25, "TRAUMA": "NOT AVAILABLE", "HELIPAD": "Y" }, "geometry": { "type": "Polygon", "coordinates": [ [ [ -82.158872, 39.389676 ], [ -82.242314, 39.40399 ], [ -82.333283, 39.432647 ], [ -82.344397812020588, 39.46086406057627 ], [ -82.335831799385716, 39.495695001573061 ], [ -82.331868301298897, 39.496060699313439 ], [ -82.217550859913459, 39.498495981127569 ], [ -82.147184895125775, 39.465346070519672 ], [ -82.155336, 39.390024 ], [ -82.158872, 39.389676 ] ] ] } },
{ "type": "Feature", "properties": { "OBJECTID": 3630, "ID": "0010543130", "NAME": "FAIRFIELD MEDICAL CENTER", "ADDRESS": "401 NORTH EWING STREET", "CITY": "LANCASTER", "STATE": "OH", "ZIP": "43130", "ZIP4": "NOT AVAILABLE", "TELEPHONE": "(740) 687-8000", "TYPE": "GENERAL ACUTE CARE", "STATUS": "OPEN", "POPULATION": 245, "COUNTY": "FAIRFIELD", "COUNTYFIPS": "39045", "COUNTRY": "USA", "LATITUDE": 39.717551254000099, "LONGITUDE": -82.577456608999995, "NAICS_CODE": "622110", "NAICS_DESC": "GENERAL MEDICAL AND SURGICAL HOSPITALS", "SOURCE": "http://publicapps.odh.ohio.gov/EID/Provider_Search.aspx", "SOURCEDATE": "2018-08-10T00:00:00.000Z", "VAL_METHOD": "IMAGERY", "VAL_DATE": "2014-03-12T00:00:00.000Z", "WEBSITE": "http://www.fmchealth.org", "STATE_ID": "1167", "ALT_NAME": "NOT AVAILABLE", "ST_FIPS": "39", "OWNER": "NON-PROFIT", "TTL_STAFF": -999, "BEDS": 245, "TRAUMA": "NOT AVAILABLE", "HELIPAD": "Y" }, "geometry": { "type": "Polygon", "coordinates": [ [ [ -82.552716563023424, 39.651335018742358 ], [ -82.644769888549348, 39.663568370342027 ], [ -82.68529291984629, 39.682262196407208 ], [ -82.687928835522627, 39.717291220320881 ], [ -82.671273817415937, 39.760855248157554 ], [ -82.671102218001195, 39.760949248209847 ], [ -82.572271430554096, 39.804818961720329 ], [ -82.532061466129534, 39.795733942861482 ], [ -82.481333540459843, 39.75293593452767 ], [ -82.439481595686743, 39.71748295248328 ], [ -82.550806564451037, 39.651253017549642 ], [ -82.552716563023424, 39.651335018742358 ] ] ] } },
{ "type": "Feature", "properties": { "OBJECTID": 3631, "ID": "0012243228", "NAME": "DOCTORS HOSPITAL", "ADDRESS": "5100 WEST  BROAD STREET", "CITY": "COLUMBUS", "STATE": "OH", "ZIP": "43228", "ZIP4": "NOT AVAILABLE", "TELEPHONE": "(614) 544-1000", "TYPE": "GENERAL ACUTE CARE", "STATUS": "OPEN", "POPULATION": 251, "COUNTY": "FRANKLIN", "COUNTYFIPS": "39049", "COUNTRY": "USA", "LATITUDE": 39.952525182000002, "LONGITUDE": -83.137865351999906, "NAICS_CODE": "622110", "NAICS_DESC": "GENERAL MEDICAL AND SURGICAL HOSPITALS", "SOURCE": "http://publicapps.odh.ohio.gov/EID/Provider_Search.aspx", "SOURCEDATE": "2018-08-10T00:00:00.000Z", "VAL_METHOD": "IMAGERY", "VAL_DATE": "2014-02-10T00:00:00.000Z", "WEBSITE": "https://www.ohiohealth.com/doctors/", "STATE_ID": "1015", "ALT_NAME": "NOT AVAILABLE", "ST_FIPS": "39", "OWNER": "NON-PROFIT", "TTL_STAFF": -999, "BEDS": 251, "TRAUMA": "NOT AVAILABLE", "HELIPAD": "Y" }, "geometry": { "type": "Polygon", "coordinates": [ [ [ -83.161214174160676, 39.862195165373542 ], [ -83.236132391136351, 39.953791125366884 ], [ -83.240683411881292, 39.962291123352614 ], [ -83.249265355089008, 39.979918119741129 ], [ -83.243606480027992, 39.991444117161258 ], [ -83.21442, 40.016925 ], [ -83.1369948, 40.0812678 ], [ -83.1283313, 40.076732 ], [ -82.993853961432194, 39.974255623748213 ], [ -82.992509057230791, 39.972989826041584 ], [ -83.003392483784779, 39.874671395748429 ], [ -83.005404376311276, 39.870582698482878 ], [ -83.161214174160676, 39.862195165373542 ] ] ] } },
{ "type": "Feature", "properties": { "OBJECTID": 3633, "ID": "0129343223", "NAME": "TWIN VALLEY BEHAVIORAL HEALTHCARE", "ADDRESS": "2200 WEST BROAD STREET", "CITY": "COLUMBUS", "STATE": "OH", "ZIP": "43223", "ZIP4": "NOT AVAILABLE", "TELEPHONE": "(614) 752-0333", "TYPE": "PSYCHIATRIC", "STATUS": "OPEN", "POPULATION": 228, "COUNTY": "FRANKLIN", "COUNTYFIPS": "39049", "COUNTRY": "USA", "LATITUDE": 39.956752487000102, "LONGITUDE": -83.059165047999997, "NAICS_CODE": "622210", "NAICS_DESC": "PSYCHIATRIC AND SUBSTANCE ABUSE HOSPITALS", "SOURCE": "http://publicapps.odh.ohio.gov/EID/Provider_Search.aspx", "SOURCEDATE": "2018-08-10T00:00:00.000Z", "VAL_METHOD": "IMAGERY/OTHER", "VAL_DATE": "2015-03-12T00:00:00.000Z", "WEBSITE": "http://mha.ohio.gov/Default.aspx?tabid=193", "STATE_ID": "NOT AVAILABLE", "ALT_NAME": "NOT AVAILABLE", "ST_FIPS": "39", "OWNER": "GOVERNMENT - STATE", "TTL_STAFF": -999, "BEDS": 228, "TRAUMA": "NOT AVAILABLE", "HELIPAD": "N" }, "geometry": { "type": "Polygon", "coordinates": [ [ [ -83.052803188102274, 39.874104185025033 ], [ -83.060618191927645, 39.875605182286705 ], [ -83.147587257750118, 39.90185215139261 ], [ -83.195351770857272, 39.949300328292388 ], [ -83.19537957107157, 39.949393628260765 ], [ -83.179490451575901, 39.987834115010941 ], [ -83.162869, 40.004 ], [ -83.1255495, 40.039933800000014 ], [ -83.0290398, 40.036588200000025 ], [ -82.994334, 40.023308400000019 ], [ -82.929945714386136, 39.996955778040615 ], [ -82.909276870311899, 39.931538421161477 ], [ -82.920774865980704, 39.920559116359456 ], [ -83.008645787061766, 39.876101293464885 ], [ -83.052803188102274, 39.874104185025033 ] ] ] } },
{ "type": "Feature", "properties": { "OBJECTID": 3676, "ID": "0002743050", "NAME": "KNOX COMMUNITY HOSPITAL", "ADDRESS": "1330 COSHOCTON ROAD", "CITY": "MOUNT VERNON", "STATE": "OH", "ZIP": "43050", "ZIP4": "NOT AVAILABLE", "TELEPHONE": "(740) 393-9623", "TYPE": "GENERAL ACUTE CARE", "STATUS": "OPEN", "POPULATION": 111, "COUNTY": "KNOX", "COUNTYFIPS": "39083", "COUNTRY": "USA", "LATITUDE": 40.399716167000101, "LONGITUDE": -82.448537519999903, "NAICS_CODE": "622110", "NAICS_DESC": "GENERAL MEDICAL AND SURGICAL HOSPITALS", "SOURCE": "http://publicapps.odh.ohio.gov/EID/Provider_Search.aspx", "SOURCEDATE": "2018-08-10T00:00:00.000Z", "VAL_METHOD": "IMAGERY", "VAL_DATE": "2014-02-10T00:00:00.000Z", "WEBSITE": "http://www.knoxcommhosp.org", "STATE_ID": "1030", "ALT_NAME": "NOT AVAILABLE", "ST_FIPS": "39", "OWNER": "NON-PROFIT", "TTL_STAFF": -999, "BEDS": 111, "TRAUMA": "NOT AVAILABLE", "HELIPAD": "Y" }, "geometry": { "type": "Polygon", "coordinates": [ [ [ -82.505136, 40.341305 ], [ -82.505553, 40.341377 ], [ -82.533759, 40.352706 ], [ -82.552096, 40.38255 ], [ -82.5587533, 40.4006769 ], [ -82.5583601, 40.40158 ], [ -82.528579, 40.443842 ], [ -82.440662, 40.472855 ], [ -82.369285, 40.477227 ], [ -82.3406841, 40.414315300000048 ], [ -82.3406587, 40.414014299999977 ], [ -82.340598, 40.409106500000043 ], [ -82.371096, 40.360445 ], [ -82.38582, 40.355564 ], [ -82.459087, 40.341113 ], [ -82.505136, 40.341305 ] ] ] } },
{ "type": "Feature", "properties": { "OBJECTID": 3678, "ID": "0128443055", "NAME": "MEDICAL CENTER OF NEWARK LLC", "ADDRESS": "2000 TAMARACK ROAD", "CITY": "NEWARK", "STATE": "OH", "ZIP": "43055", "ZIP4": "NOT AVAILABLE", "TELEPHONE": "(740) 522-7800", "TYPE": "GENERAL ACUTE CARE", "STATUS": "CLOSED", "POPULATION": -999, "COUNTY": "LICKING", "COUNTYFIPS": "39089", "COUNTRY": "USA", "LATITUDE": 40.042630746999997, "LONGITUDE": -82.465078192999997, "NAICS_CODE": "622110", "NAICS_DESC": "GENERAL MEDICAL AND SURGICAL HOSPITALS", "SOURCE": "http://publicapps.odh.ohio.gov", "SOURCEDATE": "2015-03-03T00:00:00.000Z", "VAL_METHOD": "IMAGERY/OTHER", "VAL_DATE": "2015-03-11T00:00:00.000Z", "WEBSITE": "NOT AVAILABLE", "STATE_ID": "NOT AVAILABLE", "ALT_NAME": "NOT AVAILABLE", "ST_FIPS": "39", "OWNER": "NOT AVAILABLE", "TTL_STAFF": -999, "BEDS": -999, "TRAUMA": "NOT AVAILABLE", "HELIPAD": "N" }, "geometry": { "type": "Polygon", "coordinates": [ [ [ -82.483817345971161, 39.96611390724707 ], [ -82.525309297272742, 39.988959908273316 ], [ -82.583136, 40.037606 ], [ -82.6117395, 40.0737759 ], [ -82.608199, 40.086523 ], [ -82.519684, 40.101292 ], [ -82.4282475, 40.112099 ], [ -82.376375, 40.092493 ], [ -82.354098, 40.078043 ], [ -82.333104, 40.063855 ], [ -82.333854, 40.0630624 ], [ -82.384279, 40.015348 ], [ -82.419237366190458, 39.996767923858634 ], [ -82.483817345971161, 39.96611390724707 ] ] ] } },
{ "type": "Feature", "properties": { "OBJECTID": 3719, "ID": "0029843701", "NAME": "GOOD SAMARITAN HOSPITAL", "ADDRESS": "800 FOREST AVENUE", "CITY": "ZANESVILLE", "STATE": "OH", "ZIP": "43701", "ZIP4": "NOT AVAILABLE", "TELEPHONE": "(740) 454-4354", "TYPE": "GENERAL ACUTE CARE", "STATUS": "CLOSED", "POPULATION": 271, "COUNTY": "MUSKINGUM", "COUNTYFIPS": "39119", "COUNTRY": "USA", "LATITUDE": 39.955035213000002, "LONGITUDE": -82.013373766000001, "NAICS_CODE": "622110", "NAICS_DESC": "GENERAL MEDICAL AND SURGICAL HOSPITALS", "SOURCE": "http://publicapps.odh.ohio.gov/EID/Default.aspx", "SOURCEDATE": "2016-09-14T00:00:00.000Z", "VAL_METHOD": "IMAGERY/OTHER", "VAL_DATE": "2016-09-21T00:00:00.000Z", "WEBSITE": "NOT AVAILABLE", "STATE_ID": "1251", "ALT_NAME": "NOT AVAILABLE", "ST_FIPS": "39", "OWNER": "NON-PROFIT", "TTL_STAFF": -999, "BEDS": 271, "TRAUMA": "NOT AVAILABLE", "HELIPAD": "Y" }, "geometry": { "type": "Polygon", "coordinates": [ [ [ -82.058229389394825, 39.883462904785993 ], [ -82.135623645460655, 39.954177712448946 ], [ -82.0886982, 40.0172631 ], [ -82.0443735, 40.034151899999927 ], [ -82.0189137, 40.037551099999988 ], [ -81.839544096663985, 39.975713694836365 ], [ -81.836131904458796, 39.973632002354599 ], [ -81.981643987295783, 39.876105116488077 ], [ -81.981936386912921, 39.875986215849863 ], [ -82.058229389394825, 39.883462904785993 ] ] ] } },
{ "type": "Feature", "properties": { "OBJECTID": 3940, "ID": "0174743229", "NAME": "SUN BEHAVIORAL COLUMBUS", "ADDRESS": "900 EAST DUBLIN GRANVILLE ROAD", "CITY": "COLUMBUS", "STATE": "OH", "ZIP": "43229", "ZIP4": "NOT AVAILABLE", "TELEPHONE": "(732) 747-1894", "TYPE": "PSYCHIATRIC", "STATUS": "OPEN", "POPULATION": -999, "COUNTY": "FRANKLIN", "COUNTYFIPS": "39049", "COUNTRY": "USA", "LATITUDE": 40.089141558000101, "LONGITUDE": -82.993511181000002, "NAICS_CODE": "622210", "NAICS_DESC": "PSYCHIATRIC AND SUBSTANCE ABUSE HOSPITALS", "SOURCE": "http://publicapps.odh.ohio.gov/EID/Provider_Search.aspx", "SOURCEDATE": "2018-08-10T00:00:00.000Z", "VAL_METHOD": "IMAGERY", "VAL_DATE": "2019-05-09T00:00:00.000Z", "WEBSITE": "http://www.sunpsychiatrichospitalcolumbus.com/", "STATE_ID": "NOT AVAILABLE", "ALT_NAME": "NOT AVAILABLE", "ST_FIPS": "39", "OWNER": "PROPRIETARY", "TTL_STAFF": -999, "BEDS": -999, "TRAUMA": "NOT AVAILABLE", "HELIPAD": "N" }, "geometry": { "type": "Polygon", "coordinates": [ [ [ -82.988320617041211, 39.954443743721548 ], [ -83.018716968980627, 39.970956320327538 ], [ -83.0936024, 40.073638699999954 ], [ -83.108112, 40.09419 ], [ -83.110342, 40.099655699999978 ], [ -83.1099502, 40.100815599999962 ], [ -83.0999372, 40.119816100000016 ], [ -83.020863, 40.170517 ], [ -82.991613, 40.181451 ], [ -82.8297473, 40.0915399 ], [ -82.904427, 40.019903 ], [ -82.973117195548383, 39.953885357632217 ], [ -82.988320617041211, 39.954443743721548 ] ] ] } },
{ "type": "Feature", "properties": { "OBJECTID": 3953, "ID": "0180443082", "NAME": "MOUNT CARMEL REHABILITATION HOSPITAL", "ADDRESS": "597 EXECUTIVE CAMPUS DR", "CITY": "WESTERVILLE", "STATE": "OH", "ZIP": "43082", "ZIP4": "NOT AVAILABLE", "TELEPHONE": "(614) 392-3400", "TYPE": "REHABILITATION", "STATUS": "OPEN", "POPULATION": 60, "COUNTY": "DELAWARE", "COUNTYFIPS": "39041", "COUNTRY": "USA", "LATITUDE": 40.144655739000001, "LONGITUDE": -82.9485274419999, "NAICS_CODE": "622310", "NAICS_DESC": "REHABILITATION HOSPITALS (EXCEPT ALCOHOLISM, DRUG ADDICTION)", "SOURCE": "http://publicapps.odh.ohio.gov/EID/Provider_Search.aspx", "SOURCEDATE": "2018-08-10T00:00:00.000Z", "VAL_METHOD": "IMAGERY", "VAL_DATE": "2019-05-10T00:00:00.000Z", "WEBSITE": "http://www.mountcarmelrehab.com/", "STATE_ID": "NOT AVAILABLE", "ALT_NAME": "NOT AVAILABLE", "ST_FIPS": "39", "OWNER": "PROPRIETARY", "TTL_STAFF": -999, "BEDS": 60, "TRAUMA": "NOT AVAILABLE", "HELIPAD": "N" }, "geometry": { "type": "Polygon", "coordinates": [ [ [ -82.997644, 40.080651 ], [ -83.0178273, 40.092931599999979 ], [ -83.0363094, 40.1064444 ], [ -83.0418434, 40.112379700000027 ], [ -83.063822, 40.15763809999995 ], [ -83.063973, 40.159038 ], [ -83.029128, 40.200443 ], [ -82.9275408, 40.262563800000059 ], [ -82.8831463, 40.2291577 ], [ -82.864259, 40.179766 ], [ -82.8856533, 40.10032710000003 ], [ -82.907900200000014, 40.0774345 ], [ -82.928646, 40.073546 ], [ -82.997644, 40.080651 ] ] ] } }
]
}
