{
"type": "FeatureCollection",
"crs": { "type": "name", "properties": { "name": "urn:ogc:def:crs:OGC:1.3:CRS84" } },
"features": [
{ "type": "Feature", "properties": { "OBJECTID": 1412, "ID": "0002047501", "NAME": "DAVIESS COMMUNITY HOSPITAL", "ADDRESS": "1314 E WALNUT ST", "CITY": "WASHINGTON", "STATE": "IN", "ZIP": "47501", "ZIP4": "NOT AVAILABLE", "TELEPHONE": "(812) 254-2760", "TYPE": "GENERAL ACUTE CARE", "STATUS": "OPEN", "POPULATION": 80, "COUNTY": "DAVIESS", "COUNTYFIPS": "18027", "COUNTRY": "USA", "LATITUDE": 38.659613843000002, "LONGITUDE": -87.159752397999995, "NAICS_CODE": "622110", "NAICS_DESC": "GENERAL MEDICAL AND SURGICAL HOSPITALS", "SOURCE": "http://www.in.gov/isdh/reports/QAMIS/hosdir", "SOURCEDATE": "2018-08-16T00:00:00.000Z", "VAL_METHOD": "IMAGERY", "VAL_DATE": "2014-01-24T00:00:00.000Z", "WEBSITE": "http://www.dchosp.org", "STATE_ID": "17-005056-1", "ALT_NAME": "NOT AVAILABLE", "ST_FIPS": "18", "OWNER": "GOVERNMENT - LOCAL", "TTL_STAFF": -999, "BEDS": 80, "TRAUMA": "NOT AVAILABLE", "HELIPAD": "Y" }, "geometry": { "type": "Polygon", "coordinates": [ [ [ -87.21248, 38.575916 ], [ -87.2430669, 38.646380299999969 ], [ -87.2348356, 38.680239700000016 ], [ -87.166993, 38.744254 ], [ -87.047436, 38.66281 ], [ -87.047443, 38.662522 ], [ -87.10949, 38.589767 ], [ -87.21248, 38.575916 ] ] ] } },
{ "type": "Feature", "properties": { "OBJECTID": 1416, "ID": "0002147747", "NAME": "DEACONESS HOSPITAL INC", "ADDRESS": "600 MARY ST", "CITY": "EVANSVILLE", "STATE": "IN", "ZIP": "47747", "ZIP4": "NOT AVAILABLE", "TELEPHONE": "(812) 450-5000", "TYPE": "GENERAL ACUTE CARE", "STATUS": "OPEN", "POPULATION": 509, "COUNTY": "VANDERBURGH", "COUNTYFIPS": "18163", "COUNTRY": "USA", "LATITUDE": 37.983739540999998, "LONGITUDE": -87.571106775999993, "NAICS_CODE": "622110", "NAICS_DESC": "GENERAL MEDICAL AND SURGICAL HOSPITALS", "SOURCE": "http://www.in.gov/isdh/reports/QAMIS/hosdir", "SOURCEDATE": "2018-08-16T00:00:00.000Z", "VAL_METHOD": "IMAGERY", "VAL_DATE": "2014-03-12T00:00:00.000Z", "WEBSITE": "http://www.deaconess.com", "STATE_ID": "17-005074-1", "ALT_NAME": "NOT AVAILABLE", "ST_FIPS": "18", "OWNER": "NON-PROFIT", "TTL_STAFF": -999, "BEDS": 509, "TRAUMA": "LEVEL II", "HELIPAD": "Y" }, "geometry": { "type": "Polygon", "coordinates": [ [ [ -87.630501, 37.919283 ], [ -87.689054, 37.962637 ], [ -87.690098, 37.96483 ], [ -87.678477, 38.029923 ], [ -87.672919, 38.044187 ], [ -87.575264, 38.076079 ], [ -87.5452966, 38.060754 ], [ -87.525387, 38.048961 ], [ -87.4713657, 38.012911699999982 ], [ -87.4654904, 38.0060238 ], [ -87.4494104, 37.969468699999979 ], [ -87.458304, 37.957242 ], [ -87.492964, 37.927784 ], [ -87.52791, 37.915163 ], [ -87.630501, 37.919283 ] ] ] } },
{ "type": "Feature", "properties": { "OBJECTID": 1417, "ID": "0003147714", "NAME": "EVANSVILLE STATE HOSPITAL", "ADDRESS": "3400 LINCOLN AVENUE", "CITY": "EVANSVILLE", "STATE": "IN", "ZIP": "47714", "ZIP4": "NOT AVAILABLE", "TELEPHONE": "(812) 469-6800", "TYPE": "PSYCHIATRIC", "STATUS": "OPEN", "POPULATION": 168, "COUNTY": "VANDERBURGH", "COUNTYFIPS": "18163", "COUNTRY": "USA", "LATITUDE": 37.9728535570001, "LONGITUDE": -87.501553708000003, "NAICS_CODE": "622210", "NAICS_DESC": "PSYCHIATRIC AND SUBSTANCE ABUSE HOSPITALS", "SOURCE": "http://www.in.gov/isdh/reports/QAMIS/hosdir", "SOURCEDATE": "2018-08-16T00:00:00.000Z", "VAL_METHOD": "IMAGERY", "VAL_DATE": "2014-02-10T00:00:00.000Z", "WEBSITE": "www.IN.gov", "STATE_ID": "NOT AVAILABLE", "ALT_NAME": "NOT AVAILABLE", "ST_FIPS": "18", "OWNER": "GOVERNMENT - STATE", "TTL_STAFF": -999, "BEDS": 168, "TRAUMA": "NOT AVAILABLE", "HELIPAD": "N" }, "geometry": { "type": "Polygon", "coordinates": [ [ [ -87.5034305, 37.9101048 ], [ -87.5299943, 37.9162129 ], [ -87.5454846, 37.922239699999984 ], [ -87.625944, 37.958682 ], [ -87.628979, 37.960545 ], [ -87.645942, 37.974549 ], [ -87.645944, 37.97476 ], [ -87.636561, 37.989778 ], [ -87.611071, 38.007793 ], [ -87.543427, 38.046637 ], [ -87.491278, 38.063888 ], [ -87.4012415, 38.0280267 ], [ -87.4000406, 38.027272 ], [ -87.3934588, 37.976040099999977 ], [ -87.3964994, 37.94144169999997 ], [ -87.5034305, 37.9101048 ] ] ] } },
{ "type": "Feature", "properties": { "OBJECTID": 1418, "ID": "0005047804", "NAME": "HAMILTON CENTER INC", "ADDRESS": "620 8TH AVE", "CITY": "TERRE HAUTE", "STATE": "IN", "ZIP": "47804", "ZIP4": "NOT AVAILABLE", "TELEPHONE": "(812) 231-8285", "TYPE": "PSYCHIATRIC", "STATUS": "OPEN", "POPULATION": 16, "COUNTY": "VIGO", "COUNTYFIPS": "18167", "COUNTRY": "USA", "LATITUDE": 39.485410862000002, "LONGITUDE": -87.409983622, "NAICS_CODE": "622210", "NAICS_DESC": "PSYCHIATRIC AND SUBSTANCE ABUSE HOSPITALS", "SOURCE": "http://www.in.gov/isdh/reports/QAMIS/hosdir", "SOURCEDATE": "2018-08-16T00:00:00.000Z", "VAL_METHOD": "IMAGERY", "VAL_DATE": "2014-03-12T00:00:00.000Z", "WEBSITE": "http://www.hamiltoncenter.org", "STATE_ID": "NOT AVAILABLE", "ALT_NAME": "NOT AVAILABLE", "ST_FIPS": "18", "OWNER": "GOVERNMENT - STATE", "TTL_STAFF": -999, "BEDS": 16, "TRAUMA": "NOT AVAILABLE", "HELIPAD": "Y" }, "geometry": { "type": "Polygon", "coordinates": [ [ [ -87.451695799999982, 39.3971088 ], [ -87.4977721, 39.4479852 ], [ -87.4978987, 39.448191800000018 ], [ -87.4801921, 39.542010599999976 ], [ -87.4644078, 39.583761700000025 ], [ -87.4464422, 39.6004183 ], [ -87.437286, 39.607636 ], [ -87.370388, 39.578898200000012 ], [ -87.359985400000014, 39.571614500000017 ], [ -87.314182, 39.483085 ], [ -87.3440384, 39.430578 ], [ -87.3975729, 39.393733200000014 ], [ -87.3980116, 39.393689099999939 ], [ -87.451695799999982, 39.3971088 ] ] ] } },
{ "type": "Feature", "properties": { "OBJECTID": 1429, "ID": "0000647630", "NAME": "BRENTWOOD MEADOWS LLC", "ADDRESS": "4488 ROSLIN RD", "CITY": "NEWBURGH", "STATE": "IN", "ZIP": "47630", "ZIP4": "NOT AVAILABLE", "TELEPHONE": "(812) 858-7200", "TYPE": "PSYCHIATRIC", "STATUS": "OPEN", "POPULATION": 48, "COUNTY": "WARRICK", "COUNTYFIPS": "18173", "COUNTRY": "USA", "LATITUDE": 37.992909968, "LONGITUDE": -87.331528503000001, "NAICS_CODE": "622210", "NAICS_DESC": "PSYCHIATRIC AND SUBSTANCE ABUSE HOSPITALS", "SOURCE": "http://www.in.gov/isdh/reports/QAMIS/hosdir", "SOURCEDATE": "2018-08-16T00:00:00.000Z", "VAL_METHOD": "IMAGERY/OTHER", "VAL_DATE": "2014-02-10T00:00:00.000Z", "WEBSITE": "http://www.brentwoodmeadows.com", "STATE_ID": "NOT AVAILABLE", "ALT_NAME": "NOT AVAILABLE", "ST_FIPS": "18", "OWNER": "PROPRIETARY", "TTL_STAFF": -999, "BEDS": 48, "TRAUMA": "NOT AVAILABLE", "HELIPAD": "N" }, "geometry": { "type": "Polygon", "coordinates": [ [ [ -87.3135877, 37.922140499999969 ], [ -87.3513148, 37.931135300000022 ], [ -87.4049898, 37.954707 ], [ -87.4351928, 37.976890600000033 ], [ -87.4085756, 38.004775 ], [ -87.4001385, 38.012743799999988 ], [ -87.3818236, 38.027211099999974 ], [ -87.3171512, 38.048388099999968 ], [ -87.303441, 38.052552300000016 ], [ -87.2766783, 38.053088199999983 ], [ -87.2754804, 38.0530586 ], [ -87.2730348, 38.0518612 ], [ -87.2686184, 38.048942 ], [ -87.2323936, 37.9897812 ], [ -87.298244, 37.924813 ], [ -87.3135877, 37.922140499999969 ] ] ] } },
{ "type": "Feature", "properties": { "OBJECTID": 1542, "ID": "0015962863", "NAME": "WABASH GENERAL HOSPITAL", "ADDRESS": "1418 COLLEGE DRIVE", "CITY": "MOUNT CARMEL", "STATE": "IL", "ZIP": "62863", "ZIP4": "NOT AVAILABLE", "TELEPHONE": "(618) 262-8621", "TYPE": "CRITICAL ACCESS", "STATUS": "OPEN", "POPULATION": 25, "COUNTY": "WABASH", "COUNTYFIPS": "17185", "COUNTRY": "USA", "LATITUDE": 38.420606927000101, "LONGITUDE": -87.769388840999994, "NAICS_CODE": "622110", "NAICS_DESC": "GENERAL MEDICAL AND SURGICAL HOSPITALS", "SOURCE": "https://data.illinois.gov/", "SOURCEDATE": "2018-08-09T00:00:00.000Z", "VAL_METHOD": "IMAGERY", "VAL_DATE": "2014-03-12T00:00:00.000Z", "WEBSITE": "http://www.wabashgeneral.com", "STATE_ID": "141327", "ALT_NAME": "NOT AVAILABLE", "ST_FIPS": "17", "OWNER": "GOVERNMENT - LOCAL", "TTL_STAFF": -999, "BEDS": 25, "TRAUMA": "NOT AVAILABLE", "HELIPAD": "Y" }, "geometry": { "type": "Polygon", "coordinates": [ [ [ -87.854511, 38.36067 ], [ -87.882813, 38.408172 ], [ -87.883059, 38.408773 ], [ -87.815933, 38.48076 ], [ -87.741872, 38.5058 ], [ -87.727233, 38.509164 ], [ -87.723988, 38.505643 ], [ -87.7498414, 38.39506729999998 ], [ -87.791448, 38.379101 ], [ -87.809765, 38.372638 ], [ -87.854511, 38.36067 ] ] ] } },
{ "type": "Feature", "properties": { "OBJECTID": 2343, "ID": "0009347546", "NAME": "MEMORIAL HOSPITAL AND HEALTH CARE CENTER", "ADDRESS": "800 W 9TH ST", "CITY": "JASPER", "STATE": "IN", "ZIP": "47546", "ZIP4": "NOT AVAILABLE", "TELEPHONE": "(812) 996-2345", "TYPE": "GENERAL ACUTE CARE", "STATUS": "OPEN", "POPULATION": 123, "COUNTY": "DUBOIS", "COUNTYFIPS": "18037", "COUNTRY": "USA", "LATITUDE": 38.395012168999997, "LONGITUDE": -86.941229410999895, "NAICS_CODE": "622110", "NAICS_DESC": "GENERAL MEDICAL AND SURGICAL HOSPITALS", "SOURCE": "http://www.in.gov/isdh/reports/QAMIS/hosdir", "SOURCEDATE": "2018-08-16T00:00:00.000Z", "VAL_METHOD": "IMAGERY", "VAL_DATE": "2014-03-12T00:00:00.000Z", "WEBSITE": "http://www.mhhcc.org", "STATE_ID": "17-005102-1", "ALT_NAME": "NOT AVAILABLE", "ST_FIPS": "18", "OWNER": "NON-PROFIT", "TTL_STAFF": -999, "BEDS": 123, "TRAUMA": "LEVEL III", "HELIPAD": "Y" }, "geometry": { "type": "Polygon", "coordinates": [ [ [ -86.955483245576218, 38.292830957434013 ], [ -86.960937245233964, 38.298759939403908 ], [ -87.017141152277674, 38.374446327615289 ], [ -87.0448236, 38.432610799999964 ], [ -86.962593201621559, 38.461892529543583 ], [ -86.914584255900152, 38.476347460552617 ], [ -86.871023285332228, 38.423663595787659 ], [ -86.841386, 38.381921 ], [ -86.840915, 38.380266 ], [ -86.877777241308877, 38.324824902883996 ], [ -86.878662241130698, 38.324436903768678 ], [ -86.955483245576218, 38.292830957434013 ] ] ] } },
{ "type": "Feature", "properties": { "OBJECTID": 2439, "ID": "0014847265", "NAME": "ST VINCENT JENNINGS HOSPITAL INC", "ADDRESS": "301 HENRY ST", "CITY": "NORTH VERNON", "STATE": "IN", "ZIP": "47265", "ZIP4": "NOT AVAILABLE", "TELEPHONE": "(812) 352-4200", "TYPE": "CRITICAL ACCESS", "STATUS": "OPEN", "POPULATION": 17, "COUNTY": "JENNINGS", "COUNTYFIPS": "18079", "COUNTRY": "USA", "LATITUDE": 39.011277161000102, "LONGITUDE": -85.641143039, "NAICS_CODE": "622110", "NAICS_DESC": "GENERAL MEDICAL AND SURGICAL HOSPITALS", "SOURCE": "http://www.in.gov/isdh/reports/QAMIS/hosdir", "SOURCEDATE": "2018-08-16T00:00:00.000Z", "VAL_METHOD": "IMAGERY", "VAL_DATE": "2014-03-12T00:00:00.000Z", "WEBSITE": "http://www.stvincent.org", "STATE_ID": "17-005108-1", "ALT_NAME": "NOT AVAILABLE", "ST_FIPS": "18", "OWNER": "NON-PROFIT", "TTL_STAFF": -999, "BEDS": 17, "TRAUMA": "NOT AVAILABLE", "HELIPAD": "Y" }, "geometry": { "type": "Polygon", "coordinates": [ [ [ -85.610062, 38.940705 ], [ -85.694115, 38.961875 ], [ -85.731062, 38.975736 ], [ -85.73458, 39.028097 ], [ -85.722263900000016, 39.083965299999967 ], [ -85.640024, 39.102396 ], [ -85.527305, 39.029617 ], [ -85.576579, 38.948077 ], [ -85.6065042, 38.940714 ], [ -85.610062, 38.940705 ] ] ] } },
{ "type": "Feature", "properties": { "OBJECTID": 6054, "ID": "0003047715", "NAME": "EVANSVILLE PSYCHIATRIC CHILDREN'S CENTER", "ADDRESS": "3300 E MORGAN AVE", "CITY": "EVANSVILLE", "STATE": "IN", "ZIP": "47715", "ZIP4": "NOT AVAILABLE", "TELEPHONE": "(812) 477-6436", "TYPE": "PSYCHIATRIC", "STATUS": "OPEN", "POPULATION": -999, "COUNTY": "VANDERBURGH", "COUNTYFIPS": "18163", "COUNTRY": "USA", "LATITUDE": 37.993908018000099, "LONGITUDE": -87.50906592, "NAICS_CODE": "622210", "NAICS_DESC": "PSYCHIATRIC AND SUBSTANCE ABUSE HOSPITALS", "SOURCE": "http://www.in.gov/isdh/reports/QAMIS/hosdir", "SOURCEDATE": "2018-08-16T00:00:00.000Z", "VAL_METHOD": "IMAGERY", "VAL_DATE": "2014-02-10T00:00:00.000Z", "WEBSITE": "http://www.khrh.org", "STATE_ID": "NOT AVAILABLE", "ALT_NAME": "NOT AVAILABLE", "ST_FIPS": "18", "OWNER": "GOVERNMENT - STATE", "TTL_STAFF": -999, "BEDS": -999, "TRAUMA": "NOT AVAILABLE", "HELIPAD": "N" }, "geometry": { "type": "Polygon", "coordinates": [ [ [ -87.5454846, 37.922239699999984 ], [ -87.617664, 37.960394 ], [ -87.627883, 37.974253 ], [ -87.627883, 37.977755 ], [ -87.627861, 37.978525 ], [ -87.627702, 37.98104 ], [ -87.626579, 37.986313 ], [ -87.6164407, 38.006788699999966 ], [ -87.556497, 38.057769 ], [ -87.4753274, 38.089002 ], [ -87.3804833, 38.037412800000013 ], [ -87.4286699, 37.9513934 ], [ -87.479669, 37.925748 ], [ -87.5454846, 37.922239699999984 ] ] ] } },
{ "type": "Feature", "properties": { "OBJECTID": 6164, "ID": "0017047630", "NAME": "WOMEN'S HOSPITAL THE", "ADDRESS": "4199 GATEWAY BLVD", "CITY": "NEWBURGH", "STATE": "IN", "ZIP": "47630", "ZIP4": "NOT AVAILABLE", "TELEPHONE": "(812) 842-4200", "TYPE": "SPECIAL", "STATUS": "OPEN", "POPULATION": 74, "COUNTY": "WARRICK", "COUNTYFIPS": "18173", "COUNTRY": "USA", "LATITUDE": 37.9737925270001, "LONGITUDE": -87.447302062999896, "NAICS_CODE": "622110", "NAICS_DESC": "GENERAL MEDICAL AND SURGICAL HOSPITALS", "SOURCE": "http://www.in.gov/isdh/reports/QAMIS/hosdir", "SOURCEDATE": "2018-08-16T00:00:00.000Z", "VAL_METHOD": "IMAGERY", "VAL_DATE": "2014-01-23T00:00:00.000Z", "WEBSITE": "http://www.deaconess.com", "STATE_ID": "17-002855-1", "ALT_NAME": "NOT AVAILABLE", "ST_FIPS": "18", "OWNER": "PROPRIETARY", "TTL_STAFF": -999, "BEDS": 74, "TRAUMA": "NOT AVAILABLE", "HELIPAD": "Y" }, "geometry": { "type": "Polygon", "coordinates": [ [ [ -87.479669, 37.925748 ], [ -87.492964, 37.927784 ], [ -87.497645, 37.928516 ], [ -87.5321545, 37.935950499999947 ], [ -87.5350704, 37.936693499999983 ], [ -87.5403902, 37.9388662 ], [ -87.5426162, 37.939805 ], [ -87.5449685, 37.9409092 ], [ -87.6028146, 37.974756399999961 ], [ -87.607231, 37.978266 ], [ -87.604787, 37.980927 ], [ -87.4763965, 38.093057900000012 ], [ -87.377006800000018, 38.039605400000028 ], [ -87.3764228, 37.9662682 ], [ -87.3764004, 37.961906099999979 ], [ -87.395263, 37.940993100000028 ], [ -87.479669, 37.925748 ] ] ] } },
{ "type": "Feature", "properties": { "OBJECTID": 6199, "ID": "0013047274", "NAME": "SCHNECK MEDICAL CENTER", "ADDRESS": "411 W TIPTON ST", "CITY": "SEYMOUR", "STATE": "IN", "ZIP": "47274", "ZIP4": "NOT AVAILABLE", "TELEPHONE": "(812) 522-2349", "TYPE": "GENERAL ACUTE CARE", "STATUS": "OPEN", "POPULATION": 93, "COUNTY": "JACKSON", "COUNTYFIPS": "18071", "COUNTRY": "USA", "LATITUDE": 38.955740442, "LONGITUDE": -85.891833925, "NAICS_CODE": "622110", "NAICS_DESC": "GENERAL MEDICAL AND SURGICAL HOSPITALS", "SOURCE": "http://www.in.gov/isdh/reports/QAMIS/hosdir", "SOURCEDATE": "2018-08-16T00:00:00.000Z", "VAL_METHOD": "IMAGERY", "VAL_DATE": "2014-01-23T00:00:00.000Z", "WEBSITE": "http://www.schneckmed.org", "STATE_ID": "17-005060-1", "ALT_NAME": "NOT AVAILABLE", "ST_FIPS": "18", "OWNER": "GOVERNMENT - LOCAL", "TTL_STAFF": -999, "BEDS": 93, "TRAUMA": "NOT AVAILABLE", "HELIPAD": "Y" }, "geometry": { "type": "Polygon", "coordinates": [ [ [ -85.8935279, 38.8734583 ], [ -86.010799, 38.895831 ], [ -86.011995, 38.89803 ], [ -86.011422, 38.901354 ], [ -85.9945764, 38.97475630000001 ], [ -85.8831059, 39.056879899999942 ], [ -85.835585, 39.023403 ], [ -85.777448, 38.970777 ], [ -85.865733, 38.888715 ], [ -85.8916964, 38.873517199999952 ], [ -85.8935279, 38.8734583 ] ] ] } },
{ "type": "Feature", "properties": { "OBJECTID": 6719, "ID": "0013347713", "NAME": "SELECT SPECIALTY HOSPITAL-EVANSVILLE", "ADDRESS": "400 SE 4TH ST", "CITY": "EVANSVILLE", "STATE": "IN", "ZIP": "47713", "ZIP4": "NOT AVAILABLE", "TELEPHONE": "(812) 421-2330", "TYPE": "LONG TERM CARE", "STATUS": "OPEN", "POPULATION": 60, "COUNTY": "VANDERBURGH", "COUNTYFIPS": "18163", "COUNTRY": "USA", "LATITUDE": 37.967988800999997, "LONGITUDE": -87.567291171999997, "NAICS_CODE": "622110", "NAICS_DESC": "GENERAL MEDICAL AND SURGICAL HOSPITALS", "SOURCE": "http://www.in.gov/isdh/reports/QAMIS/hosdir", "SOURCEDATE": "2018-08-16T00:00:00.000Z", "VAL_METHOD": "IMAGERY", "VAL_DATE": "2014-02-10T00:00:00.000Z", "WEBSITE": "http://www.selectspecialtyhospitals.com/company/locations/evansvill e.aspx", "STATE_ID": "12-009443-1", "ALT_NAME": "NOT AVAILABLE", "ST_FIPS": "18", "OWNER": "PROPRIETARY", "TTL_STAFF": -999, "BEDS": 60, "TRAUMA": "NOT AVAILABLE", "HELIPAD": "Y" }, "geometry": { "type": "Polygon", "coordinates": [ [ [ -87.512069, 37.906859 ], [ -87.629378, 37.928282 ], [ -87.686974, 37.963356 ], [ -87.687123, 37.964794 ], [ -87.687007, 37.966176 ], [ -87.6724537, 37.9978291 ], [ -87.653671, 38.029123 ], [ -87.641117, 38.035396 ], [ -87.57653, 38.060805 ], [ -87.54433, 38.050177100000035 ], [ -87.473683, 38.011376 ], [ -87.4654904, 38.0060238 ], [ -87.4379985, 37.9532812 ], [ -87.5065728, 37.90783889999998 ], [ -87.512069, 37.906859 ] ] ] } },
{ "type": "Feature", "properties": { "OBJECTID": 6720, "ID": "0015747802", "NAME": "TERRE HAUTE REGIONAL HOSPITAL", "ADDRESS": "3901 S SEVENTH ST", "CITY": "TERRE HAUTE", "STATE": "IN", "ZIP": "47802", "ZIP4": "NOT AVAILABLE", "TELEPHONE": "(812) 232-0021", "TYPE": "GENERAL ACUTE CARE", "STATUS": "OPEN", "POPULATION": 278, "COUNTY": "VIGO", "COUNTYFIPS": "18167", "COUNTRY": "USA", "LATITUDE": 39.419396156000097, "LONGITUDE": -87.409046743000005, "NAICS_CODE": "622110", "NAICS_DESC": "GENERAL MEDICAL AND SURGICAL HOSPITALS", "SOURCE": "http://www.in.gov/isdh/reports/QAMIS/hosdir", "SOURCEDATE": "2018-08-16T00:00:00.000Z", "VAL_METHOD": "IMAGERY", "VAL_DATE": "2014-01-24T00:00:00.000Z", "WEBSITE": "http://www.regionalhospital.com", "STATE_ID": "17-005042-1", "ALT_NAME": "NOT AVAILABLE", "ST_FIPS": "18", "OWNER": "PROPRIETARY", "TTL_STAFF": -999, "BEDS": 278, "TRAUMA": "LEVEL II", "HELIPAD": "Y" }, "geometry": { "type": "Polygon", "coordinates": [ [ [ -87.3883924, 39.313780199999975 ], [ -87.4784223, 39.364563900000014 ], [ -87.4790313, 39.364945399999982 ], [ -87.5053469, 39.444806199999981 ], [ -87.4351432, 39.5138227 ], [ -87.4348302, 39.513841500000012 ], [ -87.3856048, 39.506686 ], [ -87.3327168, 39.474142399999948 ], [ -87.295674, 39.434425 ], [ -87.2952388, 39.4337423 ], [ -87.3499694, 39.346675399999988 ], [ -87.3881206, 39.313779900000014 ], [ -87.3883924, 39.313780199999975 ] ] ] } },
{ "type": "Feature", "properties": { "OBJECTID": 6721, "ID": "0016147804", "NAME": "UNION HOSPITAL INC", "ADDRESS": "1606 N SEVENTH ST", "CITY": "TERRE HAUTE", "STATE": "IN", "ZIP": "47804", "ZIP4": "NOT AVAILABLE", "TELEPHONE": "(812) 238-7606", "TYPE": "GENERAL ACUTE CARE", "STATUS": "OPEN", "POPULATION": 211, "COUNTY": "VIGO", "COUNTYFIPS": "18167", "COUNTRY": "USA", "LATITUDE": 39.485864575999997, "LONGITUDE": -87.406975607999996, "NAICS_CODE": "622110", "NAICS_DESC": "GENERAL MEDICAL AND SURGICAL HOSPITALS", "SOURCE": "http://www.in.gov/isdh/reports/QAMIS/hosdir", "SOURCEDATE": "2018-08-16T00:00:00.000Z", "VAL_METHOD": "IMAGERY/OTHER", "VAL_DATE": "2014-03-12T00:00:00.000Z", "WEBSITE": "http://www.uhhg.org", "STATE_ID": "17-005022-1", "ALT_NAME": "NOT AVAILABLE", "ST_FIPS": "18", "OWNER": "NON-PROFIT", "TTL_STAFF": -999, "BEDS": 211, "TRAUMA": "LEVEL III", "HELIPAD": "Y" }, "geometry": { "type": "Polygon", "coordinates": [ [ [ -87.4003887, 39.3984607 ], [ -87.451066, 39.403086100000017 ], [ -87.487464, 39.452632199999982 ], [ -87.4876414, 39.454086 ], [ -87.480107, 39.5203061 ], [ -87.4623032, 39.5782391 ], [ -87.437530800000019, 39.6004747 ], [ -87.4309524, 39.6005209 ], [ -87.3704844, 39.587057200000032 ], [ -87.3584822, 39.57163030000001 ], [ -87.314182, 39.483085 ], [ -87.3440384, 39.430578 ], [ -87.3810768, 39.40514 ], [ -87.4003887, 39.3984607 ] ] ] } },
{ "type": "Feature", "properties": { "OBJECTID": 6727, "ID": "0015847630", "NAME": "THE HEART HOSPITAL AT DEACONESS GATEWAY LLC", "ADDRESS": "4007 GATEWAY BLVD", "CITY": "NEWBURGH", "STATE": "IN", "ZIP": "47630", "ZIP4": "NOT AVAILABLE", "TELEPHONE": "(812) 842-4784", "TYPE": "GENERAL ACUTE CARE", "STATUS": "OPEN", "POPULATION": 24, "COUNTY": "WARRICK", "COUNTYFIPS": "18173", "COUNTRY": "USA", "LATITUDE": 37.974883165000101, "LONGITUDE": -87.445107776, "NAICS_CODE": "622110", "NAICS_DESC": "GENERAL MEDICAL AND SURGICAL HOSPITALS", "SOURCE": "http://www.in.gov/isdh/reports/QAMIS/hosdir", "SOURCEDATE": "2018-08-16T00:00:00.000Z", "VAL_METHOD": "IMAGERY", "VAL_DATE": "2014-01-23T00:00:00.000Z", "WEBSITE": "http://www.deaconess.com/", "STATE_ID": "17-011772-1", "ALT_NAME": "NOT AVAILABLE", "ST_FIPS": "18", "OWNER": "PROPRIETARY", "TTL_STAFF": -999, "BEDS": 24, "TRAUMA": "NOT AVAILABLE", "HELIPAD": "Y" }, "geometry": { "type": "Polygon", "coordinates": [ [ [ -87.479669, 37.925748 ], [ -87.492964, 37.927784 ], [ -87.497645, 37.928516 ], [ -87.5321545, 37.935950499999947 ], [ -87.5350704, 37.936693499999983 ], [ -87.5403902, 37.9388662 ], [ -87.5426162, 37.939805 ], [ -87.5449685, 37.9409092 ], [ -87.6028146, 37.974756399999961 ], [ -87.607231, 37.978266 ], [ -87.604787, 37.980927 ], [ -87.4763965, 38.093057900000012 ], [ -87.377006800000018, 38.039605400000028 ], [ -87.3764228, 37.9662682 ], [ -87.3764004, 37.961906099999979 ], [ -87.395263, 37.940993100000028 ], [ -87.479669, 37.925748 ] ] ] } },
{ "type": "Feature", "properties": { "OBJECTID": 6742, "ID": "0014347421", "NAME": "ST VINCENT DUNN HOSPITAL INC", "ADDRESS": "1600 23RD ST", "CITY": "BEDFORD", "STATE": "IN", "ZIP": "47421", "ZIP4": "NOT AVAILABLE", "TELEPHONE": "(812) 275-3331", "TYPE": "CRITICAL ACCESS", "STATUS": "OPEN", "POPULATION": 25, "COUNTY": "LAWRENCE", "COUNTYFIPS": "18093", "COUNTRY": "USA", "LATITUDE": 38.852872580000103, "LONGITUDE": -86.493958171000003, "NAICS_CODE": "622110", "NAICS_DESC": "GENERAL MEDICAL AND SURGICAL HOSPITALS", "SOURCE": "http://www.in.gov/isdh/reports/QAMIS/hosdir", "SOURCEDATE": "2018-08-16T00:00:00.000Z", "VAL_METHOD": "IMAGERY", "VAL_DATE": "2014-02-10T00:00:00.000Z", "WEBSITE": "http://www.stvincent.org/St-Vincent-Dunn/Default.aspx", "STATE_ID": "17-004779-1", "ALT_NAME": "NOT AVAILABLE", "ST_FIPS": "18", "OWNER": "NON-PROFIT", "TTL_STAFF": -999, "BEDS": 25, "TRAUMA": "NOT AVAILABLE", "HELIPAD": "N" }, "geometry": { "type": "Polygon", "coordinates": [ [ [ -86.4955542, 38.753319700000013 ], [ -86.5504359, 38.781517900000026 ], [ -86.5805471, 38.865259 ], [ -86.5799852, 38.867838099999986 ], [ -86.5579057, 38.919468800000018 ], [ -86.5467082, 38.9295112 ], [ -86.546372, 38.9295066 ], [ -86.4702118, 38.911756900000022 ], [ -86.4132182, 38.897064900000011 ], [ -86.3808358, 38.875215300000036 ], [ -86.4955542, 38.753319700000013 ] ] ] } },
{ "type": "Feature", "properties": { "OBJECTID": 4320, "ID": "0017662439", "NAME": "LAWRENCE COUNTY MEMORIAL HOSPITAL", "ADDRESS": "2200 W STATE ST", "CITY": "LAWRENCEVILLE", "STATE": "IL", "ZIP": "62439", "ZIP4": "NOT AVAILABLE", "TELEPHONE": "(618) 943-1000", "TYPE": "CRITICAL ACCESS", "STATUS": "OPEN", "POPULATION": 25, "COUNTY": "LAWRENCE", "COUNTYFIPS": "17101", "COUNTRY": "USA", "LATITUDE": 38.728615177999998, "LONGITUDE": -87.693873249000006, "NAICS_CODE": "622110", "NAICS_DESC": "GENERAL MEDICAL AND SURGICAL HOSPITALS", "SOURCE": "https://data.illinois.gov/", "SOURCEDATE": "2018-08-09T00:00:00.000Z", "VAL_METHOD": "IMAGERY", "VAL_DATE": "2014-03-12T00:00:00.000Z", "WEBSITE": "http://www.lcmhosp.org", "STATE_ID": "141344", "ALT_NAME": "NOT AVAILABLE", "ST_FIPS": "17", "OWNER": "NON-PROFIT", "TTL_STAFF": -999, "BEDS": 25, "TRAUMA": "NOT AVAILABLE", "HELIPAD": "Y" }, "geometry": { "type": "Polygon", "coordinates": [ [ [ -87.694298, 38.64357 ], [ -87.856537, 38.731775 ], [ -87.684557, 38.822282 ], [ -87.5545568, 38.713537700000025 ], [ -87.5538211, 38.712723899999943 ], [ -87.554146799999984, 38.697136799999953 ], [ -87.554223, 38.697047 ], [ -87.694298, 38.64357 ] ] ] } },
{ "type": "Feature", "properties": { "OBJECTID": 462, "ID": "0005842420", "NAME": "METHODIST HOSPITAL", "ADDRESS": "1305 N ELM STREET", "CITY": "HENDERSON", "STATE": "KY", "ZIP": "42420", "ZIP4": "NOT AVAILABLE", "TELEPHONE": "(270) 827-7700", "TYPE": "GENERAL ACUTE CARE", "STATUS": "OPEN", "POPULATION": 192, "COUNTY": "HENDERSON", "COUNTYFIPS": "21101", "COUNTRY": "USA", "LATITUDE": 37.854974612, "LONGITUDE": -87.583199015999995, "NAICS_CODE": "622110", "NAICS_DESC": "GENERAL MEDICAL AND SURGICAL HOSPITALS", "SOURCE": "https://chfs.ky.gov/agencies/os/oig/dhc/Documents/Directories/Hospital_Directory.pdf", "SOURCEDATE": "2018-08-11T00:00:00.000Z", "VAL_METHOD": "IMAGERY/OTHER", "VAL_DATE": "2014-02-10T00:00:00.000Z", "WEBSITE": "http://www.methodisthospital.net", "STATE_ID": "100173", "ALT_NAME": "NOT AVAILABLE", "ST_FIPS": "21", "OWNER": "NON-PROFIT", "TTL_STAFF": -999, "BEDS": 192, "TRAUMA": "NOT AVAILABLE", "HELIPAD": "Y" }, "geometry": { "type": "Polygon", "coordinates": [ [ [ -87.541641, 37.762728 ], [ -87.593907, 37.766756 ], [ -87.6682579, 37.791210299999975 ], [ -87.6687339, 37.79192130000002 ], [ -87.662468, 37.802844 ], [ -87.5454328, 37.922523799999965 ], [ -87.459512, 37.871531 ], [ -87.444219, 37.859128 ], [ -87.4651933, 37.783887400000012 ], [ -87.541641, 37.762728 ] ] ] } },
{ "type": "Feature", "properties": { "OBJECTID": 633, "ID": "0015261944", "NAME": "PARIS COMMUNITY HOSPITAL", "ADDRESS": "721 E COURT STREET", "CITY": "PARIS", "STATE": "IL", "ZIP": "61944", "ZIP4": "NOT AVAILABLE", "TELEPHONE": "(217) 465-4141", "TYPE": "CRITICAL ACCESS", "STATUS": "OPEN", "POPULATION": 25, "COUNTY": "EDGAR", "COUNTYFIPS": "17045", "COUNTRY": "USA", "LATITUDE": 39.606840038000001, "LONGITUDE": -87.677654701999998, "NAICS_CODE": "622110", "NAICS_DESC": "GENERAL MEDICAL AND SURGICAL HOSPITALS", "SOURCE": "https://data.illinois.gov/", "SOURCEDATE": "2018-08-09T00:00:00.000Z", "VAL_METHOD": "IMAGERY", "VAL_DATE": "2014-03-12T00:00:00.000Z", "WEBSITE": "http://www.pariscommunityhospital.com", "STATE_ID": "141320", "ALT_NAME": "NOT AVAILABLE", "ST_FIPS": "17", "OWNER": "NON-PROFIT", "TTL_STAFF": -999, "BEDS": 25, "TRAUMA": "NOT AVAILABLE", "HELIPAD": "Y" }, "geometry": { "type": "Polygon", "coordinates": [ [ [ -87.677423, 39.523501 ], [ -87.790685, 39.570601 ], [ -87.790686, 39.570981 ], [ -87.787294, 39.620128 ], [ -87.786859, 39.620426 ], [ -87.688935, 39.67697 ], [ -87.652121, 39.67535 ], [ -87.651594, 39.675316 ], [ -87.609281, 39.657037 ], [ -87.584649, 39.644969 ], [ -87.550475, 39.60772 ], [ -87.550767, 39.607318 ], [ -87.556085, 39.603437 ], [ -87.644033, 39.541938 ], [ -87.677042, 39.52352 ], [ -87.677423, 39.523501 ] ] ] } },
{ "type": "Feature", "properties": { "OBJECTID": 7237, "ID": "0017562454", "NAME": "CRAWFORD MEMORIAL HOSPITAL", "ADDRESS": "1000 NORTH ALLEN STREET", "CITY": "ROBINSON", "STATE": "IL", "ZIP": "62454", "ZIP4": "NOT AVAILABLE", "TELEPHONE": "(618) 546-2514", "TYPE": "CRITICAL ACCESS", "STATUS": "OPEN", "POPULATION": 63, "COUNTY": "CRAWFORD", "COUNTYFIPS": "17033", "COUNTRY": "USA", "LATITUDE": 39.0145414610001, "LONGITUDE": -87.750416764999997, "NAICS_CODE": "622110", "NAICS_DESC": "GENERAL MEDICAL AND SURGICAL HOSPITALS", "SOURCE": "https://data.illinois.gov/", "SOURCEDATE": "2018-08-09T00:00:00.000Z", "VAL_METHOD": "IMAGERY", "VAL_DATE": "2014-03-12T00:00:00.000Z", "WEBSITE": "http://www.crawfordmh.org", "STATE_ID": "141343", "ALT_NAME": "NOT AVAILABLE", "ST_FIPS": "17", "OWNER": "GOVERNMENT - DISTRICT/AUTHORITY", "TTL_STAFF": -999, "BEDS": 63, "TRAUMA": "NOT AVAILABLE", "HELIPAD": "Y" }, "geometry": { "type": "Polygon", "coordinates": [ [ [ -87.744847, 38.946155 ], [ -87.833099, 38.982786 ], [ -87.8680443, 39.0029 ], [ -87.800752, 39.049251 ], [ -87.768784, 39.065054 ], [ -87.749279, 39.073592 ], [ -87.7307605, 39.066308599999985 ], [ -87.72136, 39.062485 ], [ -87.684573, 39.044617 ], [ -87.639898, 39.007517 ], [ -87.684712, 38.970475 ], [ -87.744847, 38.946155 ] ] ] } },
{ "type": "Feature", "properties": { "OBJECTID": 5199, "ID": "0013947750", "NAME": "ST MARY'S MEDICAL CENTER OF EVANSVILLE INC", "ADDRESS": "3700 WASHINGTON AVE", "CITY": "EVANSVILLE", "STATE": "IN", "ZIP": "47750", "ZIP4": "NOT AVAILABLE", "TELEPHONE": "(812) 485-4000", "TYPE": "GENERAL ACUTE CARE", "STATUS": "OPEN", "POPULATION": 426, "COUNTY": "VANDERBURGH", "COUNTYFIPS": "18163", "COUNTRY": "USA", "LATITUDE": 37.963344448999997, "LONGITUDE": -87.502926150999897, "NAICS_CODE": "622110", "NAICS_DESC": "GENERAL MEDICAL AND SURGICAL HOSPITALS", "SOURCE": "http://www.in.gov/isdh/reports/QAMIS/hosdir", "SOURCEDATE": "2018-08-16T00:00:00.000Z", "VAL_METHOD": "IMAGERY", "VAL_DATE": "2014-03-12T00:00:00.000Z", "WEBSITE": "http://www.stmarys.org", "STATE_ID": "17-005089-1", "ALT_NAME": "NOT AVAILABLE", "ST_FIPS": "18", "OWNER": "NON-PROFIT", "TTL_STAFF": -999, "BEDS": 426, "TRAUMA": "LEVEL II, LEVEL II PEDIATRIC", "HELIPAD": "Y" }, "geometry": { "type": "Polygon", "coordinates": [ [ [ -87.5034305, 37.9101048 ], [ -87.52791, 37.915163 ], [ -87.5454846, 37.922239699999984 ], [ -87.618926200000018, 37.95839490000003 ], [ -87.636901, 37.97518 ], [ -87.638023, 37.977205 ], [ -87.626781, 37.988524 ], [ -87.6084539, 38.004327499999981 ], [ -87.5412, 38.040909 ], [ -87.491409, 38.052415 ], [ -87.4088733, 38.026367500000049 ], [ -87.4086846, 38.0262036 ], [ -87.395263, 37.940993100000028 ], [ -87.5034305, 37.9101048 ] ] ] } },
{ "type": "Feature", "properties": { "OBJECTID": 3034, "ID": "0005447714", "NAME": "HEALTHSOUTH DEACONESS REHABILITATION HOSPITAL", "ADDRESS": "4100 COVERT AVE", "CITY": "EVANSVILLE", "STATE": "IN", "ZIP": "47714", "ZIP4": "NOT AVAILABLE", "TELEPHONE": "(812) 476-9983", "TYPE": "REHABILITATION", "STATUS": "OPEN", "POPULATION": 103, "COUNTY": "VANDERBURGH", "COUNTYFIPS": "18163", "COUNTRY": "USA", "LATITUDE": 37.956130735000002, "LONGITUDE": -87.500695412, "NAICS_CODE": "622310", "NAICS_DESC": "REHABILITATION HOSPITALS (EXCEPT ALCOHOLISM, DRUG ADDICTION)", "SOURCE": "http://www.in.gov/isdh/reports/QAMIS/hosdir", "SOURCEDATE": "2018-08-16T00:00:00.000Z", "VAL_METHOD": "IMAGERY", "VAL_DATE": "2014-01-22T00:00:00.000Z", "WEBSITE": "http://www.healthsouthdeaconess.com", "STATE_ID": "17-005164-1", "ALT_NAME": "NOT AVAILABLE", "ST_FIPS": "18", "OWNER": "PROPRIETARY", "TTL_STAFF": -999, "BEDS": 103, "TRAUMA": "NOT AVAILABLE", "HELIPAD": "N" }, "geometry": { "type": "Polygon", "coordinates": [ [ [ -87.5120834, 37.9071824 ], [ -87.5454846, 37.922239699999984 ], [ -87.61263, 37.962139 ], [ -87.627872, 37.977609 ], [ -87.627883, 37.977755 ], [ -87.627861, 37.978525 ], [ -87.613798, 37.989703 ], [ -87.600007, 38.000184 ], [ -87.582688, 38.00963 ], [ -87.543203, 38.028201 ], [ -87.491447, 38.049585 ], [ -87.4221059, 38.019305499999966 ], [ -87.4219344, 38.0191156 ], [ -87.382067, 37.937380500000046 ], [ -87.5120834, 37.9071824 ] ] ] } },
{ "type": "Feature", "properties": { "OBJECTID": 3035, "ID": "0005347802", "NAME": "HARSHA BEHAVIORAL CENTER INC", "ADDRESS": "1420 E CROSSING BLVD", "CITY": "TERRE HAUTE", "STATE": "IN", "ZIP": "47802", "ZIP4": "NOT AVAILABLE", "TELEPHONE": "(812) 298-8888", "TYPE": "PSYCHIATRIC", "STATUS": "OPEN", "POPULATION": 36, "COUNTY": "VIGO", "COUNTYFIPS": "18167", "COUNTRY": "USA", "LATITUDE": 39.3985767120001, "LONGITUDE": -87.398919636999906, "NAICS_CODE": "622210", "NAICS_DESC": "PSYCHIATRIC AND SUBSTANCE ABUSE HOSPITALS", "SOURCE": "http://www.in.gov/isdh/reports/QAMIS/hosdir", "SOURCEDATE": "2018-08-16T00:00:00.000Z", "VAL_METHOD": "IMAGERY", "VAL_DATE": "2014-02-10T00:00:00.000Z", "WEBSITE": "http://www.harshacenter.com", "STATE_ID": "NOT AVAILABLE", "ALT_NAME": "NOT AVAILABLE", "ST_FIPS": "18", "OWNER": "PROPRIETARY", "TTL_STAFF": -999, "BEDS": 36, "TRAUMA": "NOT AVAILABLE", "HELIPAD": "N" }, "geometry": { "type": "Polygon", "coordinates": [ [ [ -87.3926362, 39.273755299999976 ], [ -87.476621, 39.368637 ], [ -87.477421, 39.370437 ], [ -87.4839253, 39.429132799999969 ], [ -87.4838206, 39.433581500000031 ], [ -87.4753839, 39.455028100000035 ], [ -87.4607812, 39.4679737 ], [ -87.4169405, 39.496463499999976 ], [ -87.397643, 39.49305240000006 ], [ -87.3327859, 39.448291200000028 ], [ -87.3143736, 39.433805099999965 ], [ -87.3126156, 39.377876199999989 ], [ -87.3130963, 39.375736 ], [ -87.3242678, 39.343592699999988 ], [ -87.3885713, 39.2737754 ], [ -87.3926362, 39.273755299999976 ] ] ] } },
{ "type": "Feature", "properties": { "OBJECTID": 3048, "ID": "0006347421", "NAME": "INDIANA UNIVERSITY HEALTH BEDFORD HOSPITAL", "ADDRESS": "2900 W 16TH ST", "CITY": "BEDFORD", "STATE": "IN", "ZIP": "47421", "ZIP4": "NOT AVAILABLE", "TELEPHONE": "(812) 275-1200", "TYPE": "CRITICAL ACCESS", "STATUS": "OPEN", "POPULATION": 25, "COUNTY": "LAWRENCE", "COUNTYFIPS": "18093", "COUNTRY": "USA", "LATITUDE": 38.859920877, "LONGITUDE": -86.513198317000004, "NAICS_CODE": "622110", "NAICS_DESC": "GENERAL MEDICAL AND SURGICAL HOSPITALS", "SOURCE": "http://www.in.gov/isdh/reports/QAMIS/hosdir", "SOURCEDATE": "2018-08-16T00:00:00.000Z", "VAL_METHOD": "IMAGERY", "VAL_DATE": "2014-03-12T00:00:00.000Z", "WEBSITE": "http://www.iuhealth.com", "STATE_ID": "17-004683-1", "ALT_NAME": "NOT AVAILABLE", "ST_FIPS": "18", "OWNER": "NON-PROFIT", "TTL_STAFF": -999, "BEDS": 25, "TRAUMA": "NOT AVAILABLE", "HELIPAD": "Y" }, "geometry": { "type": "Polygon", "coordinates": [ [ [ -86.4981184, 38.760372600000046 ], [ -86.5504359, 38.781517900000026 ], [ -86.610396, 38.823820600000019 ], [ -86.6199008, 38.859471799999987 ], [ -86.5992022, 38.93156310000002 ], [ -86.5508437, 38.9713483 ], [ -86.3870325, 38.8753476 ], [ -86.432019600000018, 38.825128100000022 ], [ -86.4968631, 38.760381 ], [ -86.4981184, 38.760372600000046 ] ] ] } },
{ "type": "Feature", "properties": { "OBJECTID": 3050, "ID": "0004947441", "NAME": "GREENE COUNTY GENERAL HOSPITAL", "ADDRESS": "1185 N 1000 W", "CITY": "LINTON", "STATE": "IN", "ZIP": "47441", "ZIP4": "NOT AVAILABLE", "TELEPHONE": "(812) 847-2281", "TYPE": "CRITICAL ACCESS", "STATUS": "OPEN", "POPULATION": 25, "COUNTY": "GREENE", "COUNTYFIPS": "18055", "COUNTRY": "USA", "LATITUDE": 39.040742209000001, "LONGITUDE": -87.130309913999994, "NAICS_CODE": "622110", "NAICS_DESC": "GENERAL MEDICAL AND SURGICAL HOSPITALS", "SOURCE": "http://www.in.gov/isdh/reports/QAMIS/hosdir", "SOURCEDATE": "2018-08-16T00:00:00.000Z", "VAL_METHOD": "IMAGERY", "VAL_DATE": "2014-03-12T00:00:00.000Z", "WEBSITE": "http://www.greenecountyhospital.com", "STATE_ID": "17-005061-1", "ALT_NAME": "NOT AVAILABLE", "ST_FIPS": "18", "OWNER": "GOVERNMENT - LOCAL", "TTL_STAFF": -999, "BEDS": 25, "TRAUMA": "NOT AVAILABLE", "HELIPAD": "Y" }, "geometry": { "type": "Polygon", "coordinates": [ [ [ -87.1484564, 38.981896800000051 ], [ -87.1857888, 38.9943777 ], [ -87.222463, 39.030946 ], [ -87.2087394, 39.067075400000022 ], [ -87.1853827, 39.083181699999969 ], [ -87.1476441, 39.1035544 ], [ -87.1290587, 39.111024500000056 ], [ -87.01183738562564, 39.079386378404507 ], [ -86.987968107761418, 39.028873105190954 ], [ -87.072022, 38.988901800000043 ], [ -87.0921861, 38.983318 ], [ -87.1484564, 38.981896800000051 ] ] ] } },
{ "type": "Feature", "properties": { "OBJECTID": 3051, "ID": "0004647670", "NAME": "GIBSON GENERAL HOSPITAL", "ADDRESS": "1808 SHERMAN DR", "CITY": "PRINCETON", "STATE": "IN", "ZIP": "47670", "ZIP4": "NOT AVAILABLE", "TELEPHONE": "(812) 385-3401", "TYPE": "CRITICAL ACCESS", "STATUS": "OPEN", "POPULATION": 25, "COUNTY": "GIBSON", "COUNTYFIPS": "18051", "COUNTRY": "USA", "LATITUDE": 38.360917272999998, "LONGITUDE": -87.589832205999997, "NAICS_CODE": "622110", "NAICS_DESC": "GENERAL MEDICAL AND SURGICAL HOSPITALS", "SOURCE": "http://www.in.gov/isdh/reports/QAMIS/hosdir", "SOURCEDATE": "2018-08-16T00:00:00.000Z", "VAL_METHOD": "IMAGERY", "VAL_DATE": "2014-02-10T00:00:00.000Z", "WEBSITE": "http://www.gibsongeneral.com", "STATE_ID": "17-005019-1", "ALT_NAME": "NOT AVAILABLE", "ST_FIPS": "18", "OWNER": "NON-PROFIT", "TTL_STAFF": -999, "BEDS": 25, "TRAUMA": "NOT AVAILABLE", "HELIPAD": "N" }, "geometry": { "type": "Polygon", "coordinates": [ [ [ -87.5678918, 38.274110899999968 ], [ -87.5713474, 38.274446300000029 ], [ -87.67326, 38.337294 ], [ -87.687096, 38.34792 ], [ -87.7068244, 38.370225400000038 ], [ -87.603156, 38.427799 ], [ -87.602037, 38.428406 ], [ -87.586443, 38.436473 ], [ -87.575338, 38.442016 ], [ -87.572223, 38.44206 ], [ -87.571947, 38.442052 ], [ -87.565477, 38.441799 ], [ -87.520855, 38.414021 ], [ -87.492628, 38.333216 ], [ -87.5678918, 38.274110899999968 ] ] ] } },
{ "type": "Feature", "properties": { "OBJECTID": 3139, "ID": "0016047842", "NAME": "UNION HOSPITAL CLINTON", "ADDRESS": "801 S MAIN ST", "CITY": "CLINTON", "STATE": "IN", "ZIP": "47842", "ZIP4": "NOT AVAILABLE", "TELEPHONE": "(765) 832-1234", "TYPE": "CRITICAL ACCESS", "STATUS": "OPEN", "POPULATION": 25, "COUNTY": "VERMILLION", "COUNTYFIPS": "18165", "COUNTRY": "USA", "LATITUDE": 39.652902508000103, "LONGITUDE": -87.39918421, "NAICS_CODE": "622110", "NAICS_DESC": "GENERAL MEDICAL AND SURGICAL HOSPITALS", "SOURCE": "http://www.in.gov/isdh/reports/QAMIS/hosdir", "SOURCEDATE": "2018-08-16T00:00:00.000Z", "VAL_METHOD": "IMAGERY", "VAL_DATE": "2014-03-12T00:00:00.000Z", "WEBSITE": "http://www.uhhg.org/wcch/index.html", "STATE_ID": "17-005055-1", "ALT_NAME": "NOT AVAILABLE", "ST_FIPS": "18", "OWNER": "NON-PROFIT", "TTL_STAFF": -999, "BEDS": 25, "TRAUMA": "NOT AVAILABLE", "HELIPAD": "Y" }, "geometry": { "type": "Polygon", "coordinates": [ [ [ -87.4379051, 39.589454 ], [ -87.509117, 39.665113 ], [ -87.403904, 39.739147 ], [ -87.398678, 39.741064 ], [ -87.398402, 39.74103 ], [ -87.38367, 39.724891 ], [ -87.385229, 39.697681 ], [ -87.3929144, 39.6567575 ], [ -87.398717, 39.63335 ], [ -87.416419, 39.592236 ], [ -87.4373512, 39.589449899999963 ], [ -87.4376148, 39.5894485 ], [ -87.4379051, 39.589454 ] ] ] } },
{ "type": "Feature", "properties": { "OBJECTID": 3141, "ID": "0014047601", "NAME": "ST MARY'S WARRICK HOSPITAL INC", "ADDRESS": "1116 MILLIS AVE", "CITY": "BOONVILLE", "STATE": "IN", "ZIP": "47601", "ZIP4": "NOT AVAILABLE", "TELEPHONE": "(812) 897-4800", "TYPE": "CRITICAL ACCESS", "STATUS": "OPEN", "POPULATION": 35, "COUNTY": "WARRICK", "COUNTYFIPS": "18173", "COUNTRY": "USA", "LATITUDE": 38.041928632000101, "LONGITUDE": -87.262811198999898, "NAICS_CODE": "622110", "NAICS_DESC": "GENERAL MEDICAL AND SURGICAL HOSPITALS", "SOURCE": "http://www.in.gov/isdh/reports/QAMIS/hosdir", "SOURCEDATE": "2018-08-16T00:00:00.000Z", "VAL_METHOD": "IMAGERY", "VAL_DATE": "2014-02-10T00:00:00.000Z", "WEBSITE": "http://www.stmarys.org/warrick", "STATE_ID": "17-005111-1", "ALT_NAME": "NOT AVAILABLE", "ST_FIPS": "18", "OWNER": "NON-PROFIT", "TTL_STAFF": -999, "BEDS": 35, "TRAUMA": "NOT AVAILABLE", "HELIPAD": "N" }, "geometry": { "type": "Polygon", "coordinates": [ [ [ -87.285028, 37.977805 ], [ -87.3172547, 37.9832864 ], [ -87.3590307, 38.020234 ], [ -87.3635821, 38.024400600000014 ], [ -87.3807447, 38.041585900000015 ], [ -87.372476, 38.0493014 ], [ -87.2914456, 38.120518900000015 ], [ -87.2834968, 38.120477500000021 ], [ -87.2224822, 38.103231 ], [ -87.159015600000018, 38.06138980000005 ], [ -87.1564624, 38.0401856 ], [ -87.1681838, 38.025394199999944 ], [ -87.1856463, 38.0063647 ], [ -87.2233911, 37.9749721 ], [ -87.285028, 37.977805 ] ] ] } },
{ "type": "Feature", "properties": { "OBJECTID": 3146, "ID": "0015547882", "NAME": "SULLIVAN COUNTY COMMUNITY HOSPITAL", "ADDRESS": "2200 N SECTION ST", "CITY": "SULLIVAN", "STATE": "IN", "ZIP": "47882", "ZIP4": "NOT AVAILABLE", "TELEPHONE": "(812) 268-4311", "TYPE": "CRITICAL ACCESS", "STATUS": "OPEN", "POPULATION": 25, "COUNTY": "SULLIVAN", "COUNTYFIPS": "18153", "COUNTRY": "USA", "LATITUDE": 39.125570249000098, "LONGITUDE": -87.412610068999996, "NAICS_CODE": "622110", "NAICS_DESC": "GENERAL MEDICAL AND SURGICAL HOSPITALS", "SOURCE": "http://www.in.gov/isdh/reports/QAMIS/hosdir", "SOURCEDATE": "2018-08-16T00:00:00.000Z", "VAL_METHOD": "IMAGERY", "VAL_DATE": "2014-01-24T00:00:00.000Z", "WEBSITE": "http://www.schosp.com", "STATE_ID": "17-005013-1", "ALT_NAME": "NOT AVAILABLE", "ST_FIPS": "18", "OWNER": "GOVERNMENT - LOCAL", "TTL_STAFF": -999, "BEDS": 25, "TRAUMA": "NOT AVAILABLE", "HELIPAD": "Y" }, "geometry": { "type": "Polygon", "coordinates": [ [ [ -87.4095845, 39.0543214 ], [ -87.4894412, 39.108454800000025 ], [ -87.4225942, 39.186459599999964 ], [ -87.3896618, 39.21918 ], [ -87.3890782, 39.219174800000012 ], [ -87.3711109, 39.186436699999966 ], [ -87.3484846, 39.128214400000033 ], [ -87.372584, 39.0754907 ], [ -87.408954, 39.054304 ], [ -87.4092686, 39.054309900000035 ], [ -87.4095845, 39.0543214 ] ] ] } },
{ "type": "Feature", "properties": { "OBJECTID": 3762, "ID": "0004747591", "NAME": "GOOD SAMARITAN HOSPITAL", "ADDRESS": "520 S 7TH ST", "CITY": "VINCENNES", "STATE": "IN", "ZIP": "47591", "ZIP4": "NOT AVAILABLE", "TELEPHONE": "(812) 882-5220", "TYPE": "GENERAL ACUTE CARE", "STATUS": "OPEN", "POPULATION": 175, "COUNTY": "KNOX", "COUNTYFIPS": "18083", "COUNTRY": "USA", "LATITUDE": 38.673312929000097, "LONGITUDE": -87.532093359000001, "NAICS_CODE": "622110", "NAICS_DESC": "GENERAL MEDICAL AND SURGICAL HOSPITALS", "SOURCE": "http://www.in.gov/isdh/reports/QAMIS/hosdir", "SOURCEDATE": "2018-08-16T00:00:00.000Z", "VAL_METHOD": "IMAGERY", "VAL_DATE": "2014-01-24T00:00:00.000Z", "WEBSITE": "http://www.gshvin.org/goodsamaritan", "STATE_ID": "17-005038-1", "ALT_NAME": "NOT AVAILABLE", "ST_FIPS": "18", "OWNER": "GOVERNMENT - LOCAL", "TTL_STAFF": -999, "BEDS": 175, "TRAUMA": "LEVEL III", "HELIPAD": "Y" }, "geometry": { "type": "Polygon", "coordinates": [ [ [ -87.5386045, 38.571850500000025 ], [ -87.5611564, 38.586435099999946 ], [ -87.5943701, 38.639783799999975 ], [ -87.5640941, 38.673054199999982 ], [ -87.4878485, 38.755206499999986 ], [ -87.4691813, 38.768991499999984 ], [ -87.4330474, 38.744122100000034 ], [ -87.4127991, 38.679635 ], [ -87.44733140000001, 38.635767600000037 ], [ -87.538350800000018, 38.571850499999968 ], [ -87.5386045, 38.571850500000025 ] ] ] } }
]
}
