{
"type": "FeatureCollection",
"crs": { "type": "name", "properties": { "name": "urn:ogc:def:crs:OGC:1.3:CRS84" } },
"features": [
{ "type": "Feature", "properties": { "OBJECTID": 1170, "ID": "0007039730", "NAME": "PIONEER COMMUNITY HOSPITAL OF ABERDEEN", "ADDRESS": "400 SOUTH CHESTNUT STREET", "CITY": "ABERDEEN", "STATE": "MS", "ZIP": "39730", "ZIP4": "NOT AVAILABLE", "TELEPHONE": "(662) 369-2455", "TYPE": "GENERAL ACUTE CARE", "STATUS": "OPEN", "POPULATION": 35, "COUNTY": "MONROE", "COUNTYFIPS": "28095", "COUNTRY": "USA", "LATITUDE": 33.820182411000097, "LONGITUDE": -88.54024448, "NAICS_CODE": "622110", "NAICS_DESC": "GENERAL MEDICAL AND SURGICAL HOSPITALS", "SOURCE": "https://msdh.ms.gov/msdhsite/_static/resources/7660.pdf", "SOURCEDATE": "2018-08-09T00:00:00.000Z", "VAL_METHOD": "IMAGERY", "VAL_DATE": "2014-02-10T00:00:00.000Z", "WEBSITE": "http://www.pchaberdeen.com", "STATE_ID": "LICENSE #16-230", "ALT_NAME": "NOT AVAILABLE", "ST_FIPS": "28", "OWNER": "PROPRIETARY", "TTL_STAFF": -999, "BEDS": 35, "TRAUMA": "NOT AVAILABLE", "HELIPAD": "Y" }, "geometry": { "type": "Polygon", "coordinates": [ [ [ -88.6328442, 33.753101399999977 ], [ -88.660335, 33.796757 ], [ -88.665722, 33.840302 ], [ -88.6290859, 33.873146400000017 ], [ -88.5962266, 33.898566299999956 ], [ -88.5959288, 33.898572100000017 ], [ -88.4763585, 33.876602 ], [ -88.415369, 33.838888499999975 ], [ -88.4480063, 33.7504492 ], [ -88.6286482, 33.753021300000022 ], [ -88.6328442, 33.753101399999977 ] ] ] } },
{ "type": "Feature", "properties": { "OBJECTID": 1175, "ID": "0004439303", "NAME": "ALLIANCE HEALTH SYSTEM", "ADDRESS": "5000 HIGHWAY 39 NORTH", "CITY": "MERIDIAN", "STATE": "MS", "ZIP": "39303", "ZIP4": "NOT AVAILABLE", "TELEPHONE": "(601) 483-6211", "TYPE": "GENERAL ACUTE CARE", "STATUS": "OPEN", "POPULATION": 154, "COUNTY": "LAUDERDALE", "COUNTYFIPS": "28075", "COUNTRY": "USA", "LATITUDE": 32.409301675999998, "LONGITUDE": -88.675996568000002, "NAICS_CODE": "622110", "NAICS_DESC": "GENERAL MEDICAL AND SURGICAL HOSPITALS", "SOURCE": "https://msdh.ms.gov/msdhsite/_static/resources/7660.pdf", "SOURCEDATE": "2018-08-09T00:00:00.000Z", "VAL_METHOD": "IMAGERY", "VAL_DATE": "2013-08-30T00:00:00.000Z", "WEBSITE": "http://www.alliancehealthcenter.com", "STATE_ID": "LICENSE #12-308", "ALT_NAME": "NOT AVAILABLE", "ST_FIPS": "28", "OWNER": "PROPRIETARY", "TTL_STAFF": -999, "BEDS": 154, "TRAUMA": "NOT AVAILABLE", "HELIPAD": "N" }, "geometry": { "type": "Polygon", "coordinates": [ [ [ -88.658436878117314, 32.328364055726425 ], [ -88.719219323733938, 32.337783715560697 ], [ -88.736608132553101, 32.350118155872067 ], [ -88.737208532761045, 32.350698557148753 ], [ -88.7595849, 32.393387 ], [ -88.760128, 32.423515 ], [ -88.729097395145345, 32.48275878765029 ], [ -88.669810608968376, 32.508144972017156 ], [ -88.582081636991575, 32.492768147519072 ], [ -88.580865337149206, 32.492481045392857 ], [ -88.568136074916467, 32.411074969880801 ], [ -88.572837160506367, 32.391193467108707 ], [ -88.595413739370656, 32.344691095145045 ], [ -88.658436878117314, 32.328364055726425 ] ] ] } },
{ "type": "Feature", "properties": { "OBJECTID": 1272, "ID": "0001535611", "NAME": "ATHENS LIMESTONE HOSPITAL", "ADDRESS": "700 WEST MARKET STREET", "CITY": "ATHENS", "STATE": "AL", "ZIP": "35611", "ZIP4": "NOT AVAILABLE", "TELEPHONE": "(256) 233-9292", "TYPE": "GENERAL ACUTE CARE", "STATUS": "OPEN", "POPULATION": 71, "COUNTY": "LIMESTONE", "COUNTYFIPS": "01083", "COUNTRY": "USA", "LATITUDE": 34.804163930000101, "LONGITUDE": -86.978407207999993, "NAICS_CODE": "622110", "NAICS_DESC": "GENERAL MEDICAL AND SURGICAL HOSPITALS", "SOURCE": "http://dph1.adph.state.al.us/FacilitiesDirectory", "SOURCEDATE": "2018-08-09T00:00:00.000Z", "VAL_METHOD": "IMAGERY/OTHER", "VAL_DATE": "2013-10-02T00:00:00.000Z", "WEBSITE": "http://www.athenslimestonehospital.com", "STATE_ID": "H4201", "ALT_NAME": "NOT AVAILABLE", "ST_FIPS": "01", "OWNER": "PROPRIETARY", "TTL_STAFF": -999, "BEDS": 71, "TRAUMA": "LEVEL III", "HELIPAD": "N" }, "geometry": { "type": "Polygon", "coordinates": [ [ [ -86.955967, 34.698573 ], [ -87.045807, 34.744567 ], [ -87.115964, 34.795343 ], [ -87.099851, 34.821169 ], [ -87.061911, 34.871012 ], [ -86.9951383, 34.8999036 ], [ -86.9926021, 34.899878899999983 ], [ -86.989652, 34.899792 ], [ -86.871727, 34.846597 ], [ -86.859256, 34.763736 ], [ -86.859249, 34.763597 ], [ -86.954727, 34.698542 ], [ -86.955967, 34.698573 ] ] ] } },
{ "type": "Feature", "properties": { "OBJECTID": 1273, "ID": "0001335233", "NAME": "VA MEDICAL CENTER - BIRMINGHAM", "ADDRESS": "700 S 19TH ST S", "CITY": "BIRMINGHAM", "STATE": "AL", "ZIP": "35233", "ZIP4": "NOT AVAILABLE", "TELEPHONE": "(205) 933-8101", "TYPE": "MILITARY", "STATUS": "OPEN", "POPULATION": -999, "COUNTY": "JEFFERSON", "COUNTYFIPS": "01073", "COUNTRY": "USA", "LATITUDE": 33.5044482610001, "LONGITUDE": -86.801346120999895, "NAICS_CODE": "622110", "NAICS_DESC": "GENERAL MEDICAL AND SURGICAL HOSPITALS", "SOURCE": "https://www.va.gov/directory/guide/allstate.asp", "SOURCEDATE": "2018-09-26T00:00:00.000Z", "VAL_METHOD": "IMAGERY/OTHER", "VAL_DATE": "2015-05-13T00:00:00.000Z", "WEBSITE": "http://www.birmingham.va.gov/", "STATE_ID": "H3724", "ALT_NAME": "NOT AVAILABLE", "ST_FIPS": "01", "OWNER": "GOVERNMENT - FEDERAL", "TTL_STAFF": -999, "BEDS": -999, "TRAUMA": "NOT AVAILABLE", "HELIPAD": "N" }, "geometry": { "type": "Polygon", "coordinates": [ [ [ -86.8045807, 33.394405399999968 ], [ -86.807817, 33.395535 ], [ -86.8507683, 33.414124 ], [ -86.8516354, 33.414815899999979 ], [ -86.8739622, 33.433070900000011 ], [ -86.8745436, 33.433584199999977 ], [ -86.9248198, 33.4790055 ], [ -86.923754, 33.522835 ], [ -86.923619, 33.523106 ], [ -86.8966839, 33.566103600000019 ], [ -86.808395, 33.608873100000025 ], [ -86.700817, 33.584871299999989 ], [ -86.6834482, 33.545887600000043 ], [ -86.6838565, 33.53222880000002 ], [ -86.7050499, 33.426193899999973 ], [ -86.7863759, 33.3969926 ], [ -86.8045807, 33.394405399999968 ] ] ] } },
{ "type": "Feature", "properties": { "OBJECTID": 1274, "ID": "0000535259", "NAME": "BROOKWOOD MEDICAL CENTER", "ADDRESS": "2010 BROOKWOOD MEDICAL CENTER DRIVE", "CITY": "BIRMINGHAM", "STATE": "AL", "ZIP": "35259", "ZIP4": "NOT AVAILABLE", "TELEPHONE": "(205) 877-1000", "TYPE": "GENERAL ACUTE CARE", "STATUS": "OPEN", "POPULATION": 607, "COUNTY": "JEFFERSON", "COUNTYFIPS": "01073", "COUNTRY": "USA", "LATITUDE": 33.463730941999998, "LONGITUDE": -86.776253389000004, "NAICS_CODE": "622110", "NAICS_DESC": "GENERAL MEDICAL AND SURGICAL HOSPITALS", "SOURCE": "http://dph1.adph.state.al.us/FacilitiesDirectory", "SOURCEDATE": "2018-08-09T00:00:00.000Z", "VAL_METHOD": "IMAGERY/OTHER", "VAL_DATE": "2014-03-13T00:00:00.000Z", "WEBSITE": "http://www.bwmc.com", "STATE_ID": "H3721", "ALT_NAME": "NOT AVAILABLE", "ST_FIPS": "01", "OWNER": "PROPRIETARY", "TTL_STAFF": -999, "BEDS": 607, "TRAUMA": "LEVEL III", "HELIPAD": "Y" }, "geometry": { "type": "Polygon", "coordinates": [ [ [ -86.8049147, 33.376208799999965 ], [ -86.8051892, 33.376271 ], [ -86.8148332, 33.380889400000015 ], [ -86.8828444, 33.428920600000019 ], [ -86.8828684, 33.4291273 ], [ -86.862915, 33.505104 ], [ -86.851558, 33.530875 ], [ -86.8310282, 33.55649869999997 ], [ -86.818775, 33.561413 ], [ -86.783335, 33.566793 ], [ -86.738432, 33.551625 ], [ -86.720711, 33.544904 ], [ -86.7003967, 33.534378899999986 ], [ -86.69222, 33.521912 ], [ -86.66577, 33.414928 ], [ -86.665952, 33.41485 ], [ -86.666392, 33.414682 ], [ -86.694791, 33.406329 ], [ -86.8033026, 33.376576600000028 ], [ -86.8049147, 33.376208799999965 ] ] ] } },
{ "type": "Feature", "properties": { "OBJECTID": 1275, "ID": "0000735233", "NAME": "CHILDREN'S HOSPITAL OF ALABAMA", "ADDRESS": "1600 SEVENTH AVENUE, SOUTH", "CITY": "BIRMINGHAM", "STATE": "AL", "ZIP": "35233", "ZIP4": "NOT AVAILABLE", "TELEPHONE": "(205) 638-9100", "TYPE": "CHILDREN", "STATUS": "OPEN", "POPULATION": 332, "COUNTY": "JEFFERSON", "COUNTYFIPS": "01073", "COUNTRY": "USA", "LATITUDE": 33.504048154000003, "LONGITUDE": -86.805159139999901, "NAICS_CODE": "622110", "NAICS_DESC": "CHILDREN'S HOSPITALS, GENERAL", "SOURCE": "http://dph1.adph.state.al.us/FacilitiesDirectory", "SOURCEDATE": "2018-08-09T00:00:00.000Z", "VAL_METHOD": "IMAGERY/OTHER", "VAL_DATE": "2014-03-12T00:00:00.000Z", "WEBSITE": "http://www.childrensal.org", "STATE_ID": "H3704", "ALT_NAME": "NOT AVAILABLE", "ST_FIPS": "01", "OWNER": "NON-PROFIT", "TTL_STAFF": -999, "BEDS": 332, "TRAUMA": "LEVEL I", "HELIPAD": "Y" }, "geometry": { "type": "Polygon", "coordinates": [ [ [ -86.80656, 33.390233299999977 ], [ -86.8550931, 33.4110311 ], [ -86.8790345, 33.42888760000001 ], [ -86.9288183, 33.47553910000002 ], [ -86.928553, 33.524957 ], [ -86.9000443, 33.570346499999978 ], [ -86.8618348, 33.5893945 ], [ -86.8106591, 33.612369 ], [ -86.7100146, 33.57947320000001 ], [ -86.6890164, 33.530755099999979 ], [ -86.7113669, 33.43101990000001 ], [ -86.7114092, 33.430833399999969 ], [ -86.711742, 33.430456 ], [ -86.713399, 33.428953 ], [ -86.7811036, 33.394951899999974 ], [ -86.7882321, 33.3929376 ], [ -86.80656, 33.390233299999977 ] ] ] } },
{ "type": "Feature", "properties": { "OBJECTID": 1276, "ID": "0009235261", "NAME": "NOLAND HOSPITAL BIRMINGHAM", "ADDRESS": "50 MEDICAL PARK EAST DRIVE", "CITY": "BIRMINGHAM", "STATE": "AL", "ZIP": "35261", "ZIP4": "NOT AVAILABLE", "TELEPHONE": "(205) 838-5100", "TYPE": "LONG TERM CARE", "STATUS": "OPEN", "POPULATION": 45, "COUNTY": "SHELBY", "COUNTYFIPS": "01117", "COUNTRY": "USA", "LATITUDE": 33.4149192100001, "LONGITUDE": -86.686022062999896, "NAICS_CODE": "622310", "NAICS_DESC": "SPECIALTY (EXCEPT PSYCHIATRIC AND SUBSTANCE ABUSE) HOSPITALS", "SOURCE": "http://dph1.adph.state.al.us/FacilitiesDirectory", "SOURCEDATE": "2018-08-09T00:00:00.000Z", "VAL_METHOD": "IMAGERY", "VAL_DATE": "2014-02-10T00:00:00.000Z", "WEBSITE": "http://www.nolandhealth.com", "STATE_ID": "H3723", "ALT_NAME": "NOT AVAILABLE", "ST_FIPS": "01", "OWNER": "PROPRIETARY", "TTL_STAFF": -999, "BEDS": 45, "TRAUMA": "NOT AVAILABLE", "HELIPAD": "N" }, "geometry": { "type": "Polygon", "coordinates": [ [ [ -86.635426, 33.33202 ], [ -86.6731806, 33.336479 ], [ -86.763042, 33.34722 ], [ -86.775303, 33.35734 ], [ -86.774567, 33.360948 ], [ -86.766204, 33.386736 ], [ -86.752057, 33.408226 ], [ -86.740531, 33.422311 ], [ -86.6369861, 33.4913585 ], [ -86.607139, 33.496833 ], [ -86.599413, 33.351203 ], [ -86.599628, 33.350901 ], [ -86.599992, 33.350427 ], [ -86.6255127, 33.333757599999963 ], [ -86.635426, 33.33202 ] ] ] } },
{ "type": "Feature", "properties": { "OBJECTID": 1277, "ID": "0008535213", "NAME": "SELECT SPECIALTY HOSPITAL-BIRMINGHAM", "ADDRESS": "800 MONTCLAIR ROAD", "CITY": "BIRMINGHAM", "STATE": "AL", "ZIP": "35213", "ZIP4": "NOT AVAILABLE", "TELEPHONE": "(205) 599-4595", "TYPE": "GENERAL ACUTE CARE", "STATUS": "OPEN", "POPULATION": 38, "COUNTY": "JEFFERSON", "COUNTYFIPS": "01073", "COUNTRY": "USA", "LATITUDE": 33.464103937000097, "LONGITUDE": -86.777332621, "NAICS_CODE": "622110", "NAICS_DESC": "GENERAL MEDICAL AND SURGICAL HOSPITALS", "SOURCE": "http://dph1.adph.state.al.us/FacilitiesDirectory", "SOURCEDATE": "2018-08-09T00:00:00.000Z", "VAL_METHOD": "IMAGERY/OTHER", "VAL_DATE": "2014-03-12T00:00:00.000Z", "WEBSITE": "http://www.selectspecialtyhospitals.com/company/locations/birmingh am.aspx", "STATE_ID": "H3722", "ALT_NAME": "NOT AVAILABLE", "ST_FIPS": "01", "OWNER": "PROPRIETARY", "TTL_STAFF": -999, "BEDS": 38, "TRAUMA": "NOT AVAILABLE", "HELIPAD": "Y" }, "geometry": { "type": "Polygon", "coordinates": [ [ [ -86.8062715, 33.3825532 ], [ -86.8556755, 33.409882400000058 ], [ -86.8861293, 33.4295032 ], [ -86.867201, 33.504154 ], [ -86.8549073, 33.531911399999984 ], [ -86.8301435, 33.5584599 ], [ -86.818305, 33.564737199999982 ], [ -86.784048, 33.569392 ], [ -86.7363206, 33.553801699999987 ], [ -86.6974038, 33.535623099999981 ], [ -86.69222, 33.521912 ], [ -86.663895, 33.416714 ], [ -86.6646475, 33.410976800000022 ], [ -86.707869, 33.401742 ], [ -86.8062715, 33.3825532 ] ] ] } },
{ "type": "Feature", "properties": { "OBJECTID": 1278, "ID": "0011935233", "NAME": "UNIVERSITY OF ALABAMA HOSPITAL", "ADDRESS": "619 SOUTH 19TH STREET", "CITY": "BIRMINGHAM", "STATE": "AL", "ZIP": "35233", "ZIP4": "NOT AVAILABLE", "TELEPHONE": "(205) 934-4444", "TYPE": "GENERAL ACUTE CARE", "STATUS": "OPEN", "POPULATION": 1157, "COUNTY": "JEFFERSON", "COUNTYFIPS": "01073", "COUNTRY": "USA", "LATITUDE": 33.505603292000004, "LONGITUDE": -86.802035396999898, "NAICS_CODE": "622110", "NAICS_DESC": "GENERAL MEDICAL AND SURGICAL HOSPITALS", "SOURCE": "http://dph1.adph.state.al.us/FacilitiesDirectory", "SOURCEDATE": "2018-08-09T00:00:00.000Z", "VAL_METHOD": "IMAGERY/OTHER", "VAL_DATE": "2014-03-12T00:00:00.000Z", "WEBSITE": "http://www.health.uab.edu", "STATE_ID": "H3717", "ALT_NAME": "NOT AVAILABLE", "ST_FIPS": "01", "OWNER": "GOVERNMENT - STATE", "TTL_STAFF": -999, "BEDS": 1157, "TRAUMA": "LEVEL I", "HELIPAD": "Y" }, "geometry": { "type": "Polygon", "coordinates": [ [ [ -86.8056418, 33.395187499999977 ], [ -86.8516354, 33.414815899999979 ], [ -86.8748496, 33.4338677 ], [ -86.926006, 33.4769557 ], [ -86.9265689, 33.4774419 ], [ -86.9246795, 33.523568400000016 ], [ -86.8988391, 33.568849199999988 ], [ -86.8550433, 33.5906762 ], [ -86.8106591, 33.612369 ], [ -86.700817, 33.584871299999989 ], [ -86.6834482, 33.545887600000043 ], [ -86.6819279, 33.5330978 ], [ -86.707266, 33.428241 ], [ -86.707411, 33.428111 ], [ -86.7076113, 33.427936199999976 ], [ -86.7863759, 33.3969926 ], [ -86.8056418, 33.395187499999977 ] ] ] } },
{ "type": "Feature", "properties": { "OBJECTID": 1280, "ID": "0006436726", "NAME": "J. PAUL JONES HOSPITAL", "ADDRESS": "317 MCWILLIAMS AVENUE", "CITY": "CAMDEN", "STATE": "AL", "ZIP": "36726", "ZIP4": "NOT AVAILABLE", "TELEPHONE": "(334) 682-4131", "TYPE": "GENERAL ACUTE CARE", "STATUS": "OPEN", "POPULATION": 30, "COUNTY": "WILCOX", "COUNTYFIPS": "01131", "COUNTRY": "USA", "LATITUDE": 31.997525148000101, "LONGITUDE": -87.300257836, "NAICS_CODE": "622110", "NAICS_DESC": "GENERAL MEDICAL AND SURGICAL HOSPITALS", "SOURCE": "http://dph1.adph.state.al.us/FacilitiesDirectory", "SOURCEDATE": "2018-08-09T00:00:00.000Z", "VAL_METHOD": "IMAGERY/OTHER", "VAL_DATE": "2014-02-10T00:00:00.000Z", "WEBSITE": "NOT AVAILABLE", "STATE_ID": "H6601", "ALT_NAME": "NOT AVAILABLE", "ST_FIPS": "01", "OWNER": "GOVERNMENT - LOCAL", "TTL_STAFF": -999, "BEDS": 30, "TRAUMA": "NOT AVAILABLE", "HELIPAD": "Y" }, "geometry": { "type": "Polygon", "coordinates": [ [ [ -87.344056, 31.932224 ], [ -87.408836, 31.973801 ], [ -87.409093, 31.974309 ], [ -87.356301, 32.077343 ], [ -87.21275, 32.043976 ], [ -87.195162, 31.991235 ], [ -87.198521, 31.96484 ], [ -87.198996, 31.961401 ], [ -87.247235, 31.925062 ], [ -87.344056, 31.932224 ] ] ] } },
{ "type": "Feature", "properties": { "OBJECTID": 1282, "ID": "0091836732", "NAME": "BRYAN W. WHITFIELD MEMORIAL HOSPITAL", "ADDRESS": "105 U.S. HIGHWAY 80, EAST", "CITY": "DEMOPOLIS", "STATE": "AL", "ZIP": "36732", "ZIP4": "NOT AVAILABLE", "TELEPHONE": "(334) 287-2423", "TYPE": "GENERAL ACUTE CARE", "STATUS": "OPEN", "POPULATION": 99, "COUNTY": "MARENGO", "COUNTYFIPS": "01091", "COUNTRY": "USA", "LATITUDE": 32.504788531000003, "LONGITUDE": -87.8363988, "NAICS_CODE": "622110", "NAICS_DESC": "GENERAL MEDICAL AND SURGICAL HOSPITALS", "SOURCE": "http://dph1.adph.state.al.us/FacilitiesDirectory", "SOURCEDATE": "2018-08-09T00:00:00.000Z", "VAL_METHOD": "IMAGERY/OTHER", "VAL_DATE": "2015-02-03T00:00:00.000Z", "WEBSITE": "NOT AVAILABLE", "STATE_ID": "H4601", "ALT_NAME": "NOT AVAILABLE", "ST_FIPS": "01", "OWNER": "GOVERNMENT - DISTRICT/AUTHORITY", "TTL_STAFF": -999, "BEDS": 99, "TRAUMA": "LEVEL III", "HELIPAD": "Y" }, "geometry": { "type": "Polygon", "coordinates": [ [ [ -87.78762, 32.393122 ], [ -87.984490166199492, 32.442015727330457 ], [ -87.987496164087091, 32.443581723386693 ], [ -87.987373963403613, 32.44379342350166 ], [ -87.900086981682136, 32.522549822037547 ], [ -87.8348421, 32.54986330000002 ], [ -87.7676395, 32.539109299999971 ], [ -87.728459, 32.531751 ], [ -87.721324, 32.526431 ], [ -87.752633, 32.444724 ], [ -87.784018, 32.397439 ], [ -87.78762, 32.393122 ] ] ] } },
{ "type": "Feature", "properties": { "OBJECTID": 1286, "ID": "0004835555", "NAME": "FAYETTE MEDICAL CENTER", "ADDRESS": "1653 TEMPLE AVENUE, NORTH", "CITY": "FAYETTE", "STATE": "AL", "ZIP": "35555", "ZIP4": "NOT AVAILABLE", "TELEPHONE": "(205) 932-5966", "TYPE": "GENERAL ACUTE CARE", "STATUS": "OPEN", "POPULATION": 61, "COUNTY": "FAYETTE", "COUNTYFIPS": "01057", "COUNTRY": "USA", "LATITUDE": 33.70817814, "LONGITUDE": -87.824688981999898, "NAICS_CODE": "622110", "NAICS_DESC": "GENERAL MEDICAL AND SURGICAL HOSPITALS", "SOURCE": "http://dph1.adph.state.al.us/FacilitiesDirectory", "SOURCEDATE": "2018-08-09T00:00:00.000Z", "VAL_METHOD": "IMAGERY/OTHER", "VAL_DATE": "2014-03-12T00:00:00.000Z", "WEBSITE": "http://www.dchsystem.com/body.cfm?id=36928", "STATE_ID": "H2901", "ALT_NAME": "NOT AVAILABLE", "ST_FIPS": "01", "OWNER": "GOVERNMENT - DISTRICT/AUTHORITY", "TTL_STAFF": -999, "BEDS": 61, "TRAUMA": "NOT AVAILABLE", "HELIPAD": "Y" }, "geometry": { "type": "Polygon", "coordinates": [ [ [ -87.82387399971482, 33.607421002431387 ], [ -87.858122999871185, 33.611636003260806 ], [ -87.916436001039202, 33.672284002912839 ], [ -87.913107001952284, 33.737281000944208 ], [ -87.912870001957813, 33.738007000922849 ], [ -87.80616599858061, 33.822191005039379 ], [ -87.750669998338466, 33.80971400265723 ], [ -87.733723996020984, 33.758039003276906 ], [ -87.733030996814819, 33.692578002337285 ], [ -87.82387399971482, 33.607421002431387 ] ] ] } },
{ "type": "Feature", "properties": { "OBJECTID": 1287, "ID": "0008035904", "NAME": "MOUNTAIN VIEW HOSPITAL", "ADDRESS": "3001 SCENIC HIGHWAY", "CITY": "GADSDEN", "STATE": "AL", "ZIP": "35904", "ZIP4": "NOT AVAILABLE", "TELEPHONE": "(256) 546-9265", "TYPE": "PSYCHIATRIC", "STATUS": "OPEN", "POPULATION": 68, "COUNTY": "ETOWAH", "COUNTYFIPS": "01055", "COUNTRY": "USA", "LATITUDE": 34.072425744999997, "LONGITUDE": -86.019766069, "NAICS_CODE": "622210", "NAICS_DESC": "PSYCHIATRIC AND SUBSTANCE ABUSE HOSPITALS", "SOURCE": "http://dph1.adph.state.al.us/FacilitiesDirectory", "SOURCEDATE": "2018-08-09T00:00:00.000Z", "VAL_METHOD": "IMAGERY", "VAL_DATE": "2014-02-10T00:00:00.000Z", "WEBSITE": "http://www.mtnviewhospital.com", "STATE_ID": "H2802", "ALT_NAME": "NOT AVAILABLE", "ST_FIPS": "01", "OWNER": "PROPRIETARY", "TTL_STAFF": -999, "BEDS": 68, "TRAUMA": "NOT AVAILABLE", "HELIPAD": "N" }, "geometry": { "type": "Polygon", "coordinates": [ [ [ -86.0299927, 33.993479099999981 ], [ -86.0803054, 34.006950099999969 ], [ -86.0863606, 34.0197995 ], [ -86.0640724, 34.094925899999986 ], [ -86.0383869, 34.1169534 ], [ -85.9830839, 34.124238300000023 ], [ -85.9536344, 34.1092413 ], [ -85.953470199999984, 34.1067692 ], [ -85.9545144, 34.093232899999975 ], [ -85.9796387, 34.0075442 ], [ -85.9931991, 33.9997845 ], [ -86.004569100000012, 33.995899800000011 ], [ -86.0299927, 33.993479099999981 ] ] ] } },
{ "type": "Feature", "properties": { "OBJECTID": 1289, "ID": "0008435801", "NAME": "CRESTWOOD MEDICAL CENTER", "ADDRESS": "ONE HOSPITAL DRIVE", "CITY": "HUNTSVILLE", "STATE": "AL", "ZIP": "35801", "ZIP4": "NOT AVAILABLE", "TELEPHONE": "(256) 429-5000", "TYPE": "GENERAL ACUTE CARE", "STATUS": "OPEN", "POPULATION": 147, "COUNTY": "MADISON", "COUNTYFIPS": "01089", "COUNTRY": "USA", "LATITUDE": 34.693611396999998, "LONGITUDE": -86.572171542999996, "NAICS_CODE": "622110", "NAICS_DESC": "GENERAL MEDICAL AND SURGICAL HOSPITALS", "SOURCE": "http://dph1.adph.state.al.us/FacilitiesDirectory", "SOURCEDATE": "2018-08-09T00:00:00.000Z", "VAL_METHOD": "IMAGERY", "VAL_DATE": "2013-10-02T00:00:00.000Z", "WEBSITE": "http://www.crestwoodmedcenter.com", "STATE_ID": "H4501", "ALT_NAME": "NOT AVAILABLE", "ST_FIPS": "01", "OWNER": "PROPRIETARY", "TTL_STAFF": -999, "BEDS": 147, "TRAUMA": "LEVEL III", "HELIPAD": "N" }, "geometry": { "type": "Polygon", "coordinates": [ [ [ -86.5538719, 34.5792945 ], [ -86.564605, 34.582204 ], [ -86.5802282, 34.595092500000014 ], [ -86.682165, 34.704066 ], [ -86.680559, 34.713416 ], [ -86.6657073, 34.740963799999975 ], [ -86.64266, 34.760407 ], [ -86.616539, 34.781408 ], [ -86.580554, 34.792844 ], [ -86.5771884, 34.793143600000029 ], [ -86.573612, 34.79279 ], [ -86.536494, 34.785023 ], [ -86.5261838, 34.775774699999964 ], [ -86.481555, 34.659986 ], [ -86.5538719, 34.5792945 ] ] ] } },
{ "type": "Feature", "properties": { "OBJECTID": 1290, "ID": "0001935806", "NAME": "BEHAVIORAL HEALTHCARE CENTER AT HUNTSVILLE, INC.", "ADDRESS": "5315 MILLENNIUM DRIVE", "CITY": "HUNTSVILLE", "STATE": "AL", "ZIP": "35806", "ZIP4": "NOT AVAILABLE", "TELEPHONE": "(256) 964-6700", "TYPE": "PSYCHIATRIC", "STATUS": "OPEN", "POPULATION": 20, "COUNTY": "MADISON", "COUNTYFIPS": "01089", "COUNTRY": "USA", "LATITUDE": 34.75317024, "LONGITUDE": -86.665696354000005, "NAICS_CODE": "622210", "NAICS_DESC": "PSYCHIATRIC AND SUBSTANCE ABUSE HOSPITALS", "SOURCE": "http://dph1.adph.state.al.us/FacilitiesDirectory", "SOURCEDATE": "2018-08-09T00:00:00.000Z", "VAL_METHOD": "IMAGERY", "VAL_DATE": "2014-02-10T00:00:00.000Z", "WEBSITE": "http://www.tnhealthmanagement.com/bhc/huntsville", "STATE_ID": "H4505", "ALT_NAME": "NOT AVAILABLE", "ST_FIPS": "01", "OWNER": "PROPRIETARY", "TTL_STAFF": -999, "BEDS": 20, "TRAUMA": "NOT AVAILABLE", "HELIPAD": "N" }, "geometry": { "type": "Polygon", "coordinates": [ [ [ -86.757206, 34.671612 ], [ -86.791595, 34.748334 ], [ -86.791477, 34.748682 ], [ -86.771769, 34.772778 ], [ -86.7094, 34.842123300000019 ], [ -86.709231700000018, 34.8422235 ], [ -86.6426736, 34.848121100000021 ], [ -86.607113, 34.829445 ], [ -86.5732083, 34.763621800000017 ], [ -86.56538, 34.739655 ], [ -86.5654, 34.738599 ], [ -86.565427, 34.737562 ], [ -86.5667698, 34.734477699999978 ], [ -86.5768122, 34.7200714 ], [ -86.5894153, 34.706938 ], [ -86.62466, 34.684028 ], [ -86.716682, 34.673777 ], [ -86.757206, 34.671612 ] ] ] } },
{ "type": "Feature", "properties": { "OBJECTID": 1291, "ID": "0000000133", "NAME": "FOX ARMY HEALTH CENTER: LAMBERT RHONDA W", "ADDRESS": "4100 GOSS RD SW", "CITY": "HUNTSVILLE", "STATE": "AL", "ZIP": "35890", "ZIP4": "NOT AVAILABLE", "TELEPHONE": "(256) 265-1000", "TYPE": "MILITARY", "STATUS": "OPEN", "POPULATION": -999, "COUNTY": "MADISON", "COUNTYFIPS": "01089", "COUNTRY": "USA", "LATITUDE": 34.6962142020001, "LONGITUDE": -86.660230886999997, "NAICS_CODE": "622110", "NAICS_DESC": "GENERAL MEDICAL AND SURGICAL HOSPITALS", "SOURCE": "http://dph1.adph.state.al.us", "SOURCEDATE": "2018-08-09T00:00:00.000Z", "VAL_METHOD": "IMAGERY/OTHER", "VAL_DATE": "2015-10-21T00:00:00.000Z", "WEBSITE": "NOT AVAILABLE", "STATE_ID": "H4503", "ALT_NAME": "NOT AVAILABLE", "ST_FIPS": "01", "OWNER": "GOVERNMENT - FEDERAL", "TTL_STAFF": -999, "BEDS": -999, "TRAUMA": "NOT AVAILABLE", "HELIPAD": "Y" }, "geometry": { "type": "Polygon", "coordinates": [ [ [ -86.64437, 34.694883 ], [ -86.661588, 34.698521 ], [ -86.659228, 34.704953 ], [ -86.644023, 34.708472 ], [ -86.640161, 34.708765 ], [ -86.634591, 34.699682 ], [ -86.6346828, 34.698381799999986 ], [ -86.6347604, 34.697951499999974 ], [ -86.64437, 34.694883 ] ] ] } },
{ "type": "Feature", "properties": { "OBJECTID": 1293, "ID": "0006836265", "NAME": "RMC JACKSONVILLE", "ADDRESS": "1701 SOUTH PELHAM ROAD", "CITY": "JACKSONVILLE", "STATE": "AL", "ZIP": "36265", "ZIP4": "NOT AVAILABLE", "TELEPHONE": "(256) 782-4538", "TYPE": "GENERAL ACUTE CARE", "STATUS": "OPEN", "POPULATION": 104, "COUNTY": "CALHOUN", "COUNTYFIPS": "01015", "COUNTRY": "USA", "LATITUDE": 33.784932245999997, "LONGITUDE": -85.76355079, "NAICS_CODE": "622110", "NAICS_DESC": "GENERAL MEDICAL AND SURGICAL HOSPITALS", "SOURCE": "http://dph1.adph.state.al.us/FacilitiesDirectory", "SOURCEDATE": "2018-08-09T00:00:00.000Z", "VAL_METHOD": "IMAGERY", "VAL_DATE": "2019-05-09T00:00:00.000Z", "WEBSITE": "http://www.jmchealth.com", "STATE_ID": "H0804", "ALT_NAME": "NOT AVAILABLE", "ST_FIPS": "01", "OWNER": "PROPRIETARY", "TTL_STAFF": -999, "BEDS": 104, "TRAUMA": "NOT AVAILABLE", "HELIPAD": "N" }, "geometry": { "type": "Polygon", "coordinates": [ [ [ -85.825934, 33.68045 ], [ -85.856789, 33.715403 ], [ -85.873334, 33.770922 ], [ -85.838677, 33.821476 ], [ -85.823963, 33.833574 ], [ -85.808718, 33.844954 ], [ -85.792437, 33.852287 ], [ -85.731263893491999, 33.870575271706926 ], [ -85.682720696717439, 33.801640221079111 ], [ -85.691278695634111, 33.754317095696301 ], [ -85.825316, 33.680405 ], [ -85.825934, 33.68045 ] ] ] } },
{ "type": "Feature", "properties": { "OBJECTID": 1294, "ID": "0012035502", "NAME": "WALKER BAPTIST MEDICAL CENTER", "ADDRESS": "3400 HIGHWAY 78, EAST", "CITY": "JASPER", "STATE": "AL", "ZIP": "35502", "ZIP4": "NOT AVAILABLE", "TELEPHONE": "(205) 715-5309", "TYPE": "GENERAL ACUTE CARE", "STATUS": "OPEN", "POPULATION": 267, "COUNTY": "WALKER", "COUNTYFIPS": "01127", "COUNTRY": "USA", "LATITUDE": 33.842728904000097, "LONGITUDE": -87.235999582000005, "NAICS_CODE": "622110", "NAICS_DESC": "GENERAL MEDICAL AND SURGICAL HOSPITALS", "SOURCE": "http://dph1.adph.state.al.us/FacilitiesDirectory", "SOURCEDATE": "2018-08-09T00:00:00.000Z", "VAL_METHOD": "IMAGERY/OTHER", "VAL_DATE": "2014-03-12T00:00:00.000Z", "WEBSITE": "http://www.bhsala.com/home_walker.cfm?id=41", "STATE_ID": "H6101", "ALT_NAME": "NOT AVAILABLE", "ST_FIPS": "01", "OWNER": "PROPRIETARY", "TTL_STAFF": -999, "BEDS": 267, "TRAUMA": "LEVEL III", "HELIPAD": "Y" }, "geometry": { "type": "Polygon", "coordinates": [ [ [ -87.1856989, 33.7215702 ], [ -87.339944, 33.798777 ], [ -87.352791, 33.816932 ], [ -87.379395, 33.859832 ], [ -87.349859, 33.895589 ], [ -87.304773, 33.90765 ], [ -87.300761, 33.907655 ], [ -87.140743, 33.906584 ], [ -87.1347385, 33.9048229 ], [ -87.114291, 33.7997773 ], [ -87.1856989, 33.7215702 ] ] ] } },
{ "type": "Feature", "properties": { "OBJECTID": 1297, "ID": "0002336116", "NAME": "HEALTHSOUTH REHABILITATION HOSPITAL OF MONTGOMERY", "ADDRESS": "4465 NARROW LANE ROAD", "CITY": "MONTGOMERY", "STATE": "AL", "ZIP": "36116", "ZIP4": "NOT AVAILABLE", "TELEPHONE": "(334) 284-7700", "TYPE": "REHABILITATION", "STATUS": "OPEN", "POPULATION": 70, "COUNTY": "MONTGOMERY", "COUNTYFIPS": "01101", "COUNTRY": "USA", "LATITUDE": 32.3191069820001, "LONGITUDE": -86.280709802999993, "NAICS_CODE": "622310", "NAICS_DESC": "REHABILITATION HOSPITALS (EXCEPT ALCOHOLISM, DRUG ADDICTION)", "SOURCE": "http://dph1.adph.state.al.us/FacilitiesDirectory", "SOURCEDATE": "2018-08-09T00:00:00.000Z", "VAL_METHOD": "IMAGERY/OTHER", "VAL_DATE": "2014-02-10T00:00:00.000Z", "WEBSITE": "http://www.healthsouthmontgomery.com", "STATE_ID": "H5101", "ALT_NAME": "NOT AVAILABLE", "ST_FIPS": "01", "OWNER": "PROPRIETARY", "TTL_STAFF": -999, "BEDS": 70, "TRAUMA": "NOT AVAILABLE", "HELIPAD": "N" }, "geometry": { "type": "Polygon", "coordinates": [ [ [ -86.2947391, 32.2392032 ], [ -86.348955, 32.255598 ], [ -86.354681, 32.258766 ], [ -86.3570905, 32.2602823 ], [ -86.364155, 32.265515 ], [ -86.4063211, 32.305544899999973 ], [ -86.4063525, 32.305708500000023 ], [ -86.385688, 32.357576 ], [ -86.379537, 32.365245 ], [ -86.3097149, 32.403618 ], [ -86.28877, 32.408188 ], [ -86.2123668, 32.399847699999988 ], [ -86.167306, 32.361418 ], [ -86.167223, 32.338749 ], [ -86.1730156, 32.2742481 ], [ -86.1731609, 32.2741548 ], [ -86.2945372, 32.2392447 ], [ -86.2947391, 32.2392032 ] ] ] } },
{ "type": "Feature", "properties": { "OBJECTID": 1298, "ID": "0006636106", "NAME": "JACKSON HOSPITAL AND CLINIC", "ADDRESS": "1725 PINE STREET", "CITY": "MONTGOMERY", "STATE": "AL", "ZIP": "36106", "ZIP4": "NOT AVAILABLE", "TELEPHONE": "(334) 293-8000", "TYPE": "GENERAL ACUTE CARE", "STATUS": "OPEN", "POPULATION": 344, "COUNTY": "MONTGOMERY", "COUNTYFIPS": "01101", "COUNTRY": "USA", "LATITUDE": 32.366952996000101, "LONGITUDE": -86.285385544999897, "NAICS_CODE": "622110", "NAICS_DESC": "GENERAL MEDICAL AND SURGICAL HOSPITALS", "SOURCE": "http://dph1.adph.state.al.us/FacilitiesDirectory", "SOURCEDATE": "2018-08-09T00:00:00.000Z", "VAL_METHOD": "IMAGERY/OTHER", "VAL_DATE": "2014-02-10T00:00:00.000Z", "WEBSITE": "http://www.jackson.org", "STATE_ID": "H5103", "ALT_NAME": "NOT AVAILABLE", "ST_FIPS": "01", "OWNER": "NON-PROFIT", "TTL_STAFF": -999, "BEDS": 344, "TRAUMA": "LEVEL III", "HELIPAD": "Y" }, "geometry": { "type": "Polygon", "coordinates": [ [ [ -86.26455, 32.283628 ], [ -86.308919, 32.288897 ], [ -86.349672, 32.294108 ], [ -86.3796831, 32.308863699999961 ], [ -86.3887167, 32.390953599999989 ], [ -86.36058, 32.43103 ], [ -86.356998, 32.433846 ], [ -86.261733, 32.44567 ], [ -86.218758, 32.43537 ], [ -86.135823, 32.37509 ], [ -86.128545, 32.368397899999984 ], [ -86.1309953, 32.355533900000033 ], [ -86.2064165, 32.302063500000017 ], [ -86.26455, 32.283628 ] ] ] } },
{ "type": "Feature", "properties": { "OBJECTID": 1299, "ID": "0008835650", "NAME": "LAWRENCE MEDICAL CENTER", "ADDRESS": "202 HOSPITAL ST", "CITY": "MOULTON", "STATE": "AL", "ZIP": "35650", "ZIP4": "NOT AVAILABLE", "TELEPHONE": "(256) 974-2200", "TYPE": "GENERAL ACUTE CARE", "STATUS": "OPEN", "POPULATION": 98, "COUNTY": "LAWRENCE", "COUNTYFIPS": "01079", "COUNTRY": "USA", "LATITUDE": 34.483414650999997, "LONGITUDE": -87.285310435, "NAICS_CODE": "622110", "NAICS_DESC": "GENERAL MEDICAL AND SURGICAL HOSPITALS", "SOURCE": "http://dph1.adph.state.al.us/FacilitiesDirectory", "SOURCEDATE": "2018-08-09T00:00:00.000Z", "VAL_METHOD": "IMAGERY/OTHER", "VAL_DATE": "2014-03-12T00:00:00.000Z", "WEBSITE": "http://www.lawrencemedicalcenter.com", "STATE_ID": "01-0059", "ALT_NAME": "NOT AVAILABLE", "ST_FIPS": "01", "OWNER": "GOVERNMENT - LOCAL", "TTL_STAFF": -999, "BEDS": 98, "TRAUMA": "NOT AVAILABLE", "HELIPAD": "Y" }, "geometry": { "type": "Polygon", "coordinates": [ [ [ -87.316678, 34.392209 ], [ -87.433653, 34.480863 ], [ -87.43377, 34.484349 ], [ -87.433775, 34.484568 ], [ -87.383638, 34.570422 ], [ -87.261649, 34.591958 ], [ -87.143735, 34.544432 ], [ -87.14361940000002, 34.5442531 ], [ -87.148768, 34.416135 ], [ -87.149075, 34.410063700000016 ], [ -87.149223, 34.409877 ], [ -87.316678, 34.392209 ] ] ] } },
{ "type": "Feature", "properties": { "OBJECTID": 1301, "ID": "0007435476", "NAME": "NORTHPORT MEDICAL CENTER", "ADDRESS": "2700 HOSPITAL DRIVE", "CITY": "NORTHPORT", "STATE": "AL", "ZIP": "35476", "ZIP4": "NOT AVAILABLE", "TELEPHONE": "(205) 759-7964", "TYPE": "GENERAL ACUTE CARE", "STATUS": "OPEN", "POPULATION": 204, "COUNTY": "TUSCALOOSA", "COUNTYFIPS": "01125", "COUNTRY": "USA", "LATITUDE": 33.23398145, "LONGITUDE": -87.570910897999994, "NAICS_CODE": "622110", "NAICS_DESC": "GENERAL MEDICAL AND SURGICAL HOSPITALS", "SOURCE": "http://dph1.adph.state.al.us/FacilitiesDirectory", "SOURCEDATE": "2018-08-09T00:00:00.000Z", "VAL_METHOD": "IMAGERY/OTHER", "VAL_DATE": "2014-02-10T00:00:00.000Z", "WEBSITE": "http://www.dchsystem.com", "STATE_ID": "01-0145", "ALT_NAME": "NOT AVAILABLE", "ST_FIPS": "01", "OWNER": "GOVERNMENT - DISTRICT/AUTHORITY", "TTL_STAFF": -999, "BEDS": 204, "TRAUMA": "NOT AVAILABLE", "HELIPAD": "N" }, "geometry": { "type": "Polygon", "coordinates": [ [ [ -87.55152, 33.115945 ], [ -87.627908, 33.159919 ], [ -87.6311153, 33.162913399999979 ], [ -87.69052, 33.236457 ], [ -87.7103914, 33.2641194 ], [ -87.710286, 33.264245 ], [ -87.646851, 33.318949 ], [ -87.607438, 33.335807 ], [ -87.56396, 33.342925 ], [ -87.4961786, 33.271977100000036 ], [ -87.475264, 33.239998 ], [ -87.473064, 33.235354 ], [ -87.473079, 33.234549 ], [ -87.4817793, 33.199854 ], [ -87.5047203, 33.137482 ], [ -87.5048303, 33.1372911 ], [ -87.55152, 33.115945 ] ] ] } },
{ "type": "Feature", "properties": { "OBJECTID": 1304, "ID": "0011635125", "NAME": "ST. VINCENT'S ST.CLAIR", "ADDRESS": "7063 VETERANS PARKWAY", "CITY": "PELL CITY", "STATE": "AL", "ZIP": "35125", "ZIP4": "NOT AVAILABLE", "TELEPHONE": "(205) 338-3301", "TYPE": "GENERAL ACUTE CARE", "STATUS": "OPEN", "POPULATION": 40, "COUNTY": "ST. CLAIR", "COUNTYFIPS": "01115", "COUNTRY": "USA", "LATITUDE": 33.605110768000003, "LONGITUDE": -86.277469101999898, "NAICS_CODE": "622110", "NAICS_DESC": "GENERAL MEDICAL AND SURGICAL HOSPITALS", "SOURCE": "http://dph1.adph.state.al.us/FacilitiesDirectory", "SOURCEDATE": "2018-08-09T00:00:00.000Z", "VAL_METHOD": "IMAGERY/OTHER", "VAL_DATE": "2014-02-10T00:00:00.000Z", "WEBSITE": "http://www.stvhs.com", "STATE_ID": "H5801", "ALT_NAME": "NOT AVAILABLE", "ST_FIPS": "01", "OWNER": "NON-PROFIT", "TTL_STAFF": -999, "BEDS": 40, "TRAUMA": "NOT AVAILABLE", "HELIPAD": "Y" }, "geometry": { "type": "Polygon", "coordinates": [ [ [ -86.306507, 33.510986 ], [ -86.411309, 33.578972 ], [ -86.411931, 33.588688 ], [ -86.36952, 33.63984 ], [ -86.283946, 33.708248 ], [ -86.2619743, 33.6944778 ], [ -86.238155, 33.678848 ], [ -86.187739, 33.627009 ], [ -86.1873657, 33.5970789 ], [ -86.187856, 33.594919 ], [ -86.232687, 33.524307 ], [ -86.23438, 33.523367 ], [ -86.249815, 33.516778 ], [ -86.306507, 33.510986 ] ] ] } },
{ "type": "Feature", "properties": { "OBJECTID": 1307, "ID": "0010235582", "NAME": "RED BAY HOSPITAL", "ADDRESS": "211 HOSPITAL ROAD", "CITY": "RED BAY", "STATE": "AL", "ZIP": "35582", "ZIP4": "NOT AVAILABLE", "TELEPHONE": "(256) 356-9532", "TYPE": "CRITICAL ACCESS", "STATUS": "OPEN", "POPULATION": 25, "COUNTY": "FRANKLIN", "COUNTYFIPS": "01059", "COUNTRY": "USA", "LATITUDE": 34.458105759, "LONGITUDE": -88.147325061999894, "NAICS_CODE": "622110", "NAICS_DESC": "GENERAL MEDICAL AND SURGICAL HOSPITALS", "SOURCE": "http://dph1.adph.state.al.us/FacilitiesDirectory", "SOURCEDATE": "2018-08-09T00:00:00.000Z", "VAL_METHOD": "IMAGERY/OTHER", "VAL_DATE": "2013-09-06T00:00:00.000Z", "WEBSITE": "http://redbayhospital.net/", "STATE_ID": "H3002", "ALT_NAME": "NOT AVAILABLE", "ST_FIPS": "01", "OWNER": "GOVERNMENT - DISTRICT/AUTHORITY", "TTL_STAFF": -999, "BEDS": 25, "TRAUMA": "NOT AVAILABLE", "HELIPAD": "Y" }, "geometry": { "type": "Polygon", "coordinates": [ [ [ -88.076743995417033, 34.378138953959834 ], [ -88.141112, 34.385354 ], [ -88.191188, 34.392701 ], [ -88.2010257, 34.3972826 ], [ -88.227095, 34.477719 ], [ -88.2070964, 34.5036387 ], [ -88.1205628, 34.505416899999986 ], [ -88.098195, 34.500025 ], [ -88.067622000881315, 34.474058967280548 ], [ -88.040662998827926, 34.44949898727684 ], [ -88.040735498813234, 34.449220087224198 ], [ -88.041501998676111, 34.446582986656701 ], [ -88.076743995417033, 34.378138953959834 ] ] ] } },
{ "type": "Feature", "properties": { "OBJECTID": 1308, "ID": "0006035660", "NAME": "HELEN KELLER MEMORIAL HOSPITAL", "ADDRESS": "1301 S.MONTGOMERY AVENUE", "CITY": "SHEFFIELD", "STATE": "AL", "ZIP": "35660", "ZIP4": "NOT AVAILABLE", "TELEPHONE": "(256) 386-4556", "TYPE": "GENERAL ACUTE CARE", "STATUS": "OPEN", "POPULATION": 185, "COUNTY": "COLBERT", "COUNTYFIPS": "01033", "COUNTRY": "USA", "LATITUDE": 34.745950151000002, "LONGITUDE": -87.700261460999997, "NAICS_CODE": "622110", "NAICS_DESC": "GENERAL MEDICAL AND SURGICAL HOSPITALS", "SOURCE": "http://dph1.adph.state.al.us/FacilitiesDirectory", "SOURCEDATE": "2018-08-09T00:00:00.000Z", "VAL_METHOD": "IMAGERY/OTHER", "VAL_DATE": "2014-02-10T00:00:00.000Z", "WEBSITE": "http://www.helenkeller.com", "STATE_ID": "H1701", "ALT_NAME": "NOT AVAILABLE", "ST_FIPS": "01", "OWNER": "GOVERNMENT - DISTRICT/AUTHORITY", "TTL_STAFF": -999, "BEDS": 185, "TRAUMA": "LEVEL III", "HELIPAD": "Y" }, "geometry": { "type": "Polygon", "coordinates": [ [ [ -87.657062286407154, 34.656111669210141 ], [ -87.744528682709046, 34.683196918371095 ], [ -87.804501690475377, 34.720454920665553 ], [ -87.804499690160341, 34.720676920581766 ], [ -87.707663698940223, 34.768480924832936 ], [ -87.703839711575924, 34.770292928278657 ], [ -87.698399628510501, 34.772182332937554 ], [ -87.696262335096648, 34.7729223347499 ], [ -87.687195762379019, 34.775804942274704 ], [ -87.675913995054941, 34.778884551322122 ], [ -87.623083937414734, 34.793143990810876 ], [ -87.5899801, 34.757940499999989 ], [ -87.604425, 34.685758 ], [ -87.656886786696433, 34.6561515692852 ], [ -87.657062286407154, 34.656111669210141 ] ] ] } },
{ "type": "Feature", "properties": { "OBJECTID": 1310, "ID": "0003435150", "NAME": "COOSA VALLEY MEDICAL CENTER", "ADDRESS": "315 WEST HICKORY STREET", "CITY": "SYLACAUGA", "STATE": "AL", "ZIP": "35150", "ZIP4": "NOT AVAILABLE", "TELEPHONE": "(256) 401-4000", "TYPE": "GENERAL ACUTE CARE", "STATUS": "OPEN", "POPULATION": 163, "COUNTY": "TALLADEGA", "COUNTYFIPS": "01121", "COUNTRY": "USA", "LATITUDE": 33.164560226, "LONGITUDE": -86.255487581999901, "NAICS_CODE": "622110", "NAICS_DESC": "GENERAL MEDICAL AND SURGICAL HOSPITALS", "SOURCE": "http://dph1.adph.state.al.us/FacilitiesDirectory", "SOURCEDATE": "2018-08-09T00:00:00.000Z", "VAL_METHOD": "IMAGERY", "VAL_DATE": "2014-02-10T00:00:00.000Z", "WEBSITE": "http://www.cvhealth.net", "STATE_ID": "H6102", "ALT_NAME": "NOT AVAILABLE", "ST_FIPS": "01", "OWNER": "NON-PROFIT", "TTL_STAFF": -999, "BEDS": 163, "TRAUMA": "LEVEL III", "HELIPAD": "N" }, "geometry": { "type": "Polygon", "coordinates": [ [ [ -86.233048, 33.046807 ], [ -86.260203, 33.056528 ], [ -86.342765, 33.139339 ], [ -86.347886, 33.164425 ], [ -86.345274, 33.256687 ], [ -86.207962, 33.280175 ], [ -86.20769, 33.279801 ], [ -86.149164, 33.176983 ], [ -86.166437, 33.076546 ], [ -86.167691, 33.074541 ], [ -86.170561, 33.071382 ], [ -86.233048, 33.046807 ] ] ] } },
{ "type": "Feature", "properties": { "OBJECTID": 1311, "ID": "0003035161", "NAME": "CITIZENS BAPTIST MEDICAL CENTER", "ADDRESS": "604 STONE AVENUE", "CITY": "TALLADEGA", "STATE": "AL", "ZIP": "35161", "ZIP4": "NOT AVAILABLE", "TELEPHONE": "(205) 715-5309", "TYPE": "GENERAL ACUTE CARE", "STATUS": "OPEN", "POPULATION": 122, "COUNTY": "TALLADEGA", "COUNTYFIPS": "01121", "COUNTRY": "USA", "LATITUDE": 33.440276821000097, "LONGITUDE": -86.090783395999907, "NAICS_CODE": "622110", "NAICS_DESC": "GENERAL MEDICAL AND SURGICAL HOSPITALS", "SOURCE": "http://dph1.adph.state.al.us/FacilitiesDirectory", "SOURCEDATE": "2018-08-09T00:00:00.000Z", "VAL_METHOD": "IMAGERY", "VAL_DATE": "2014-02-10T00:00:00.000Z", "WEBSITE": "http://www.bhsala.com/home_citizens.cfm?id=38", "STATE_ID": "H6101", "ALT_NAME": "NOT AVAILABLE", "ST_FIPS": "01", "OWNER": "NON-PROFIT", "TTL_STAFF": -999, "BEDS": 122, "TRAUMA": "LEVEL III", "HELIPAD": "Y" }, "geometry": { "type": "Polygon", "coordinates": [ [ [ -86.1795614, 33.353940700000052 ], [ -86.191347, 33.409239 ], [ -86.175837, 33.463512 ], [ -86.166729, 33.493561 ], [ -86.15162, 33.51773 ], [ -86.126018, 33.534258 ], [ -86.125758, 33.534244 ], [ -85.988028, 33.511825 ], [ -86.0186337, 33.359538599999958 ], [ -86.023609, 33.352933 ], [ -86.025015, 33.352365 ], [ -86.1792385, 33.353937599999988 ], [ -86.1795614, 33.353940700000052 ] ] ] } },
{ "type": "Feature", "properties": { "OBJECTID": 1312, "ID": "0091235402", "NAME": "MARY S. HARPER GERIATRIC PSYCHIATRY CENTER", "ADDRESS": "201 UNIVERSITY BOULEVARD", "CITY": "TUSCALOOSA", "STATE": "AL", "ZIP": "35402", "ZIP4": "NOT AVAILABLE", "TELEPHONE": "(205) 759-0900", "TYPE": "PSYCHIATRIC", "STATUS": "OPEN", "POPULATION": -999, "COUNTY": "TUSCALOOSA", "COUNTYFIPS": "01125", "COUNTRY": "USA", "LATITUDE": 33.219066, "LONGITUDE": -87.533981, "NAICS_CODE": "622210", "NAICS_DESC": "PSYCHIATRIC AND SUBSTANCE ABUSE HOSPITALS", "SOURCE": "http://dph1.adph.state.al.us/FacilitiesDirectory", "SOURCEDATE": "2018-08-09T00:00:00.000Z", "VAL_METHOD": "IMAGERY/OTHER", "VAL_DATE": "2018-02-20T00:00:00.000Z", "WEBSITE": "NOT AVAILABLE", "STATE_ID": "H6307", "ALT_NAME": "NOT AVAILABLE", "ST_FIPS": "01", "OWNER": "GOVERNMENT - STATE", "TTL_STAFF": -999, "BEDS": -999, "TRAUMA": "NOT AVAILABLE", "HELIPAD": "N" }, "geometry": { "type": "Polygon", "coordinates": [ [ [ -87.5488777, 33.127763100000031 ], [ -87.6015374, 33.1520747 ], [ -87.621676, 33.167887 ], [ -87.624506, 33.18112 ], [ -87.6260479, 33.232372699999985 ], [ -87.6095947, 33.260788199999936 ], [ -87.6029757, 33.265668500000068 ], [ -87.601733400000015, 33.266164499999988 ], [ -87.5522, 33.280894 ], [ -87.526603, 33.284408 ], [ -87.5208975, 33.284748499999985 ], [ -87.4954045, 33.272870099999984 ], [ -87.491695, 33.270747 ], [ -87.437367, 33.221564 ], [ -87.429155, 33.189855 ], [ -87.4828054, 33.124954799999983 ], [ -87.48302, 33.124836899999977 ], [ -87.484465, 33.124623 ], [ -87.507266, 33.124772 ], [ -87.5488777, 33.127763100000031 ] ] ] } },
{ "type": "Feature", "properties": { "OBJECTID": 1313, "ID": "0004535401", "NAME": "VA MEDICAL CENTER - TUSCALOOSA", "ADDRESS": "3701 LOOP RD E", "CITY": "TUSCALOOSA", "STATE": "AL", "ZIP": "35401", "ZIP4": "NOT AVAILABLE", "TELEPHONE": "(205) 554-2000", "TYPE": "MILITARY", "STATUS": "OPEN", "POPULATION": -999, "COUNTY": "TUSCALOOSA", "COUNTYFIPS": "01125", "COUNTRY": "USA", "LATITUDE": 33.1899356690001, "LONGITUDE": -87.488317847000005, "NAICS_CODE": "622110", "NAICS_DESC": "GENERAL MEDICAL AND SURGICAL HOSPITALS", "SOURCE": "https://www.va.gov/directory/guide/allstate.asp", "SOURCEDATE": "2018-09-26T00:00:00.000Z", "VAL_METHOD": "IMAGERY/OTHER", "VAL_DATE": "2015-05-20T00:00:00.000Z", "WEBSITE": "http://www.tuscaloosa.va.gov/", "STATE_ID": "H6309", "ALT_NAME": "NOT AVAILABLE", "ST_FIPS": "01", "OWNER": "GOVERNMENT - FEDERAL", "TTL_STAFF": -999, "BEDS": -999, "TRAUMA": "NOT AVAILABLE", "HELIPAD": "N" }, "geometry": { "type": "Polygon", "coordinates": [ [ [ -87.479616, 33.120244 ], [ -87.507266, 33.124772 ], [ -87.545946, 33.134701 ], [ -87.6015374, 33.1520747 ], [ -87.596701, 33.201403 ], [ -87.5723764, 33.237799 ], [ -87.517007, 33.267296 ], [ -87.389833, 33.255778 ], [ -87.373952, 33.171027 ], [ -87.432937, 33.1265 ], [ -87.479616, 33.120244 ] ] ] } },
{ "type": "Feature", "properties": { "OBJECTID": 1314, "ID": "0001636083", "NAME": "CENTRAL ALABAMA VETERANS HEALTH CARE SYSTEM EAST CAMPUS", "ADDRESS": "2400 HOSPITAL RD", "CITY": "TUSKEGEE", "STATE": "AL", "ZIP": "36083", "ZIP4": "NOT AVAILABLE", "TELEPHONE": "(334) 727-0550", "TYPE": "MILITARY", "STATUS": "OPEN", "POPULATION": -999, "COUNTY": "MACON", "COUNTYFIPS": "01087", "COUNTRY": "USA", "LATITUDE": 32.445218316000002, "LONGITUDE": -85.712148611000003, "NAICS_CODE": "622110", "NAICS_DESC": "GENERAL MEDICAL AND SURGICAL HOSPITALS", "SOURCE": "https://www.va.gov/directory/guide/allstate.asp", "SOURCEDATE": "2018-09-26T00:00:00.000Z", "VAL_METHOD": "IMAGERY/OTHER", "VAL_DATE": "2015-05-13T00:00:00.000Z", "WEBSITE": "http://www.centralalabama.va.gov/", "STATE_ID": "H4401", "ALT_NAME": "NOT AVAILABLE", "ST_FIPS": "01", "OWNER": "GOVERNMENT - FEDERAL", "TTL_STAFF": -999, "BEDS": -999, "TRAUMA": "NOT AVAILABLE", "HELIPAD": "Y" }, "geometry": { "type": "Polygon", "coordinates": [ [ [ -85.778784134871543, 32.378525029821937 ], [ -85.77884213488359, 32.378767029731343 ], [ -85.784927107593973, 32.435929003173953 ], [ -85.772061043500742, 32.468093993780776 ], [ -85.770979039203525, 32.469747993711387 ], [ -85.690760946845955, 32.498679007263725 ], [ -85.688310946144725, 32.498708007595134 ], [ -85.639598935697094, 32.48556501608941 ], [ -85.60701, 32.462159 ], [ -85.628768950859367, 32.399758028909005 ], [ -85.65872197714566, 32.369321030635028 ], [ -85.660501978344854, 32.369225030511423 ], [ -85.778784134871543, 32.378525029821937 ] ] ] } },
{ "type": "Feature", "properties": { "OBJECTID": 1315, "ID": "0008236089", "NAME": "BULLOCK COUNTY HOSPITAL", "ADDRESS": "102 WEST CONECUH AVENUE", "CITY": "UNION SPRINGS", "STATE": "AL", "ZIP": "36089", "ZIP4": "NOT AVAILABLE", "TELEPHONE": "(334) 738-2140", "TYPE": "GENERAL ACUTE CARE", "STATUS": "OPEN", "POPULATION": 61, "COUNTY": "BULLOCK", "COUNTYFIPS": "01011", "COUNTRY": "USA", "LATITUDE": 32.146635109000002, "LONGITUDE": -85.717009325999996, "NAICS_CODE": "622110", "NAICS_DESC": "GENERAL MEDICAL AND SURGICAL HOSPITALS", "SOURCE": "http://dph1.adph.state.al.us/FacilitiesDirectory", "SOURCEDATE": "2018-08-09T00:00:00.000Z", "VAL_METHOD": "IMAGERY", "VAL_DATE": "2014-02-10T00:00:00.000Z", "WEBSITE": "NOT AVAILABLE", "STATE_ID": "H0601", "ALT_NAME": "NOT AVAILABLE", "ST_FIPS": "01", "OWNER": "PROPRIETARY", "TTL_STAFF": -999, "BEDS": 61, "TRAUMA": "NOT AVAILABLE", "HELIPAD": "N" }, "geometry": { "type": "Polygon", "coordinates": [ [ [ -85.771213050412015, 32.062517028032708 ], [ -85.808869168093025, 32.09962905955669 ], [ -85.817050306730664, 32.17813410383615 ], [ -85.709480063429439, 32.247433046627066 ], [ -85.598741, 32.137537 ], [ -85.59733, 32.134935 ], [ -85.671531983543119, 32.066823018696724 ], [ -85.771213050412015, 32.062517028032708 ] ] ] } },
{ "type": "Feature", "properties": { "OBJECTID": 1317, "ID": "0004536092", "NAME": "ELMORE COMMUNITY HOSPITAL", "ADDRESS": "500 HOSPITAL DRIVE", "CITY": "WETUMPKA", "STATE": "AL", "ZIP": "36092", "ZIP4": "NOT AVAILABLE", "TELEPHONE": "(334) 567-4311", "TYPE": "GENERAL ACUTE CARE", "STATUS": "OPEN", "POPULATION": 69, "COUNTY": "ELMORE", "COUNTYFIPS": "01051", "COUNTRY": "USA", "LATITUDE": 32.552266971999998, "LONGITUDE": -86.186396445999904, "NAICS_CODE": "622110", "NAICS_DESC": "GENERAL MEDICAL AND SURGICAL HOSPITALS", "SOURCE": "http://dph1.adph.state.al.us/FacilitiesDirectory", "SOURCEDATE": "2018-08-09T00:00:00.000Z", "VAL_METHOD": "IMAGERY/OTHER", "VAL_DATE": "2013-09-06T00:00:00.000Z", "WEBSITE": "http://www.elmorehospital.com/", "STATE_ID": "H2601", "ALT_NAME": "NOT AVAILABLE", "ST_FIPS": "01", "OWNER": "PROPRIETARY", "TTL_STAFF": -999, "BEDS": 69, "TRAUMA": "NOT AVAILABLE", "HELIPAD": "Y" }, "geometry": { "type": "Polygon", "coordinates": [ [ [ -86.173707, 32.456034 ], [ -86.196882, 32.459349 ], [ -86.198642, 32.460462 ], [ -86.295526, 32.546025 ], [ -86.276347, 32.615627 ], [ -86.253843, 32.66044 ], [ -86.251454, 32.663902 ], [ -86.127483, 32.638226 ], [ -86.070438, 32.579279 ], [ -86.173707, 32.456034 ] ] ] } },
{ "type": "Feature", "properties": { "OBJECTID": 1860, "ID": "0003735055", "NAME": "CULLMAN REGIONAL MEDICAL CENTER", "ADDRESS": "1912 ALABAMA HIGHWAY 157", "CITY": "CULLMAN", "STATE": "AL", "ZIP": "35055", "ZIP4": "NOT AVAILABLE", "TELEPHONE": "(256) 737-2598", "TYPE": "GENERAL ACUTE CARE", "STATUS": "OPEN", "POPULATION": 145, "COUNTY": "CULLMAN", "COUNTYFIPS": "01043", "COUNTRY": "USA", "LATITUDE": 34.201327197000097, "LONGITUDE": -86.805729571000001, "NAICS_CODE": "622110", "NAICS_DESC": "GENERAL MEDICAL AND SURGICAL HOSPITALS", "SOURCE": "http://dph1.adph.state.al.us/FacilitiesDirectory", "SOURCEDATE": "2018-08-09T00:00:00.000Z", "VAL_METHOD": "IMAGERY", "VAL_DATE": "2014-02-10T00:00:00.000Z", "WEBSITE": "http://www.crmchospital.com", "STATE_ID": "H2201", "ALT_NAME": "NOT AVAILABLE", "ST_FIPS": "01", "OWNER": "NON-PROFIT", "TTL_STAFF": -999, "BEDS": 145, "TRAUMA": "LEVEL III", "HELIPAD": "Y" }, "geometry": { "type": "Polygon", "coordinates": [ [ [ -86.868057, 34.134246200000021 ], [ -86.903355, 34.176259 ], [ -86.948569, 34.239402599999984 ], [ -86.948544, 34.239646699999966 ], [ -86.8914286, 34.2802447 ], [ -86.8913564, 34.280276600000029 ], [ -86.812199, 34.272621 ], [ -86.686831, 34.245778 ], [ -86.665336, 34.174992 ], [ -86.679412, 34.166398 ], [ -86.737987, 34.137924 ], [ -86.8167489, 34.13305220000003 ], [ -86.817441, 34.133051 ], [ -86.853975, 34.133354 ], [ -86.868057, 34.134246200000021 ] ] ] } },
{ "type": "Feature", "properties": { "OBJECTID": 1861, "ID": "0091535007", "NAME": "NOLAND HOSPITAL SHELBY, LLC", "ADDRESS": "1000 FIRST STREET NORTH", "CITY": "ALABASTER", "STATE": "AL", "ZIP": "35007", "ZIP4": "NOT AVAILABLE", "TELEPHONE": "(205) 783-8440", "TYPE": "LONG TERM CARE", "STATUS": "OPEN", "POPULATION": 52, "COUNTY": "SHELBY", "COUNTYFIPS": "01117", "COUNTRY": "USA", "LATITUDE": 33.253385520999998, "LONGITUDE": -86.812987092, "NAICS_CODE": "622310", "NAICS_DESC": "SPECIALTY (EXCEPT PSYCHIATRIC AND SUBSTANCE ABUSE) HOSPITALS", "SOURCE": "http://dph1.adph.state.al.us/FacilitiesDirectory", "SOURCEDATE": "2018-08-09T00:00:00.000Z", "VAL_METHOD": "IMAGERY/OTHER", "VAL_DATE": "2015-02-03T00:00:00.000Z", "WEBSITE": "NOT AVAILABLE", "STATE_ID": "H5902", "ALT_NAME": "NOT AVAILABLE", "ST_FIPS": "01", "OWNER": "PROPRIETARY", "TTL_STAFF": -999, "BEDS": 52, "TRAUMA": "NOT AVAILABLE", "HELIPAD": "Y" }, "geometry": { "type": "Polygon", "coordinates": [ [ [ -86.752396, 33.127173 ], [ -86.822521, 33.150098 ], [ -86.861646, 33.189394 ], [ -86.878805, 33.21351 ], [ -86.879706, 33.215795 ], [ -86.88067, 33.221077 ], [ -86.889061, 33.28412 ], [ -86.8760524, 33.298368899999986 ], [ -86.796479, 33.364283500000035 ], [ -86.7963084, 33.364330899999963 ], [ -86.796155, 33.364373 ], [ -86.765897, 33.363373 ], [ -86.724608, 33.315747 ], [ -86.729287, 33.207318 ], [ -86.7432804, 33.1466547 ], [ -86.74912, 33.131406 ], [ -86.7493605, 33.130969500000013 ], [ -86.752396, 33.127173 ] ] ] } },
{ "type": "Feature", "properties": { "OBJECTID": 1862, "ID": "0004435631", "NAME": "ELIZA COFFEE MEMORIAL HOSPITAL", "ADDRESS": "205 MARENGO STREET", "CITY": "FLORENCE", "STATE": "AL", "ZIP": "35631", "ZIP4": "NOT AVAILABLE", "TELEPHONE": "(256) 768-8400", "TYPE": "GENERAL ACUTE CARE", "STATUS": "OPEN", "POPULATION": 358, "COUNTY": "LAUDERDALE", "COUNTYFIPS": "01077", "COUNTRY": "USA", "LATITUDE": 34.793858034000003, "LONGITUDE": -87.682850173999995, "NAICS_CODE": "622110", "NAICS_DESC": "GENERAL MEDICAL AND SURGICAL HOSPITALS", "SOURCE": "http://dph1.adph.state.al.us/FacilitiesDirectory", "SOURCEDATE": "2018-08-09T00:00:00.000Z", "VAL_METHOD": "IMAGERY/OTHER", "VAL_DATE": "2014-03-12T00:00:00.000Z", "WEBSITE": "http://www.chgroup.org/ecm/", "STATE_ID": "H3902", "ALT_NAME": "NOT AVAILABLE", "ST_FIPS": "01", "OWNER": "PROPRIETARY", "TTL_STAFF": -999, "BEDS": 358, "TRAUMA": "LEVEL III", "HELIPAD": "Y" }, "geometry": { "type": "Polygon", "coordinates": [ [ [ -87.746829603567292, 34.775787897294535 ], [ -87.747341602306179, 34.775848896932608 ], [ -87.773863649456757, 34.785919908900226 ], [ -87.771446759503846, 34.858806935374162 ], [ -87.763648759551344, 34.863947934892458 ], [ -87.671583897350146, 34.891623972764343 ], [ -87.5782649, 34.8467943 ], [ -87.5781647, 34.846649800000016 ], [ -87.59561, 34.826077499999968 ], [ -87.624574434357172, 34.795447089802579 ], [ -87.693457749526615, 34.779417938381918 ], [ -87.746829603567292, 34.775787897294535 ] ] ] } },
{ "type": "Feature", "properties": { "OBJECTID": 1863, "ID": "0005435021", "NAME": "MEDICAL WEST, AN AFFILIATE OF UAB HEALTH SYSTEM", "ADDRESS": "995 NINTH AVENUE SOUTHWEST", "CITY": "BESSEMER", "STATE": "AL", "ZIP": "35021", "ZIP4": "NOT AVAILABLE", "TELEPHONE": "(205) 481-7118", "TYPE": "GENERAL ACUTE CARE", "STATUS": "OPEN", "POPULATION": 310, "COUNTY": "JEFFERSON", "COUNTYFIPS": "01073", "COUNTRY": "USA", "LATITUDE": 33.373404477000101, "LONGITUDE": -86.993289749, "NAICS_CODE": "622110", "NAICS_DESC": "GENERAL MEDICAL AND SURGICAL HOSPITALS", "SOURCE": "http://dph1.adph.state.al.us/FacilitiesDirectory", "SOURCEDATE": "2018-08-09T00:00:00.000Z", "VAL_METHOD": "IMAGERY/OTHER", "VAL_DATE": "2013-09-05T00:00:00.000Z", "WEBSITE": "http://www.medicalwesthospital.org", "STATE_ID": "01-0114", "ALT_NAME": "NOT AVAILABLE", "ST_FIPS": "01", "OWNER": "GOVERNMENT - DISTRICT/AUTHORITY", "TTL_STAFF": -999, "BEDS": 310, "TRAUMA": "LEVEL III", "HELIPAD": "Y" }, "geometry": { "type": "Polygon", "coordinates": [ [ [ -87.043589, 33.288756 ], [ -87.0662908, 33.290662499999989 ], [ -87.0713441, 33.31686590000001 ], [ -87.0741803, 33.333077300000021 ], [ -87.067958, 33.387576 ], [ -87.051568, 33.407721 ], [ -87.005786, 33.45124 ], [ -87.004249, 33.45268 ], [ -86.963807, 33.473315 ], [ -86.9179132, 33.4884596 ], [ -86.914866, 33.487782 ], [ -86.909175, 33.465556 ], [ -86.9083961, 33.461179899999962 ], [ -86.9008307, 33.389733400000033 ], [ -86.9007275, 33.388188 ], [ -86.901357, 33.366387 ], [ -86.9151248, 33.340479499999965 ], [ -86.9184021, 33.337957500000023 ], [ -86.9830535, 33.3024333 ], [ -87.043589, 33.288756 ] ] ] } },
{ "type": "Feature", "properties": { "OBJECTID": 1864, "ID": "0007335976", "NAME": "MARSHALL MEDICAL CENTER NORTH", "ADDRESS": "8000 ALABAMA HIGHWAY 69", "CITY": "GUNTERSVILLE", "STATE": "AL", "ZIP": "35976", "ZIP4": "NOT AVAILABLE", "TELEPHONE": "(256) 894-6712", "TYPE": "GENERAL ACUTE CARE", "STATUS": "OPEN", "POPULATION": 90, "COUNTY": "MARSHALL", "COUNTYFIPS": "01095", "COUNTRY": "USA", "LATITUDE": 34.364913348000101, "LONGITUDE": -86.421351527, "NAICS_CODE": "622110", "NAICS_DESC": "GENERAL MEDICAL AND SURGICAL HOSPITALS", "SOURCE": "http://dph1.adph.state.al.us/FacilitiesDirectory", "SOURCEDATE": "2018-08-09T00:00:00.000Z", "VAL_METHOD": "IMAGERY/OTHER", "VAL_DATE": "2013-10-02T00:00:00.000Z", "WEBSITE": "http://www.mmcenters.com", "STATE_ID": "H4804", "ALT_NAME": "NOT AVAILABLE", "ST_FIPS": "01", "OWNER": "GOVERNMENT - DISTRICT/AUTHORITY", "TTL_STAFF": -999, "BEDS": 90, "TRAUMA": "LEVEL III", "HELIPAD": "Y" }, "geometry": { "type": "Polygon", "coordinates": [ [ [ -86.4971695, 34.2954277 ], [ -86.530529, 34.31623 ], [ -86.526163, 34.340343 ], [ -86.518147, 34.372284 ], [ -86.515125, 34.381344 ], [ -86.475715, 34.414689 ], [ -86.460664, 34.419495 ], [ -86.449333, 34.421132 ], [ -86.3953157, 34.422121400000044 ], [ -86.301859, 34.361439 ], [ -86.29654, 34.34892 ], [ -86.297614, 34.347425 ], [ -86.304579, 34.3421254 ], [ -86.442232, 34.302626 ], [ -86.4971695, 34.2954277 ] ] ] } },
{ "type": "Feature", "properties": { "OBJECTID": 1865, "ID": "0001436109", "NAME": "CAVHCS WEST CAMPUS", "ADDRESS": "215 PERRY HILL RD", "CITY": "MONTGOMERY", "STATE": "AL", "ZIP": "36109", "ZIP4": "NOT AVAILABLE", "TELEPHONE": "(334) 272-4670", "TYPE": "MILITARY", "STATUS": "OPEN", "POPULATION": -999, "COUNTY": "MONTGOMERY", "COUNTYFIPS": "01101", "COUNTRY": "USA", "LATITUDE": 32.3769911360001, "LONGITUDE": -86.243685217999897, "NAICS_CODE": "622110", "NAICS_DESC": "GENERAL MEDICAL AND SURGICAL HOSPITALS", "SOURCE": "https://www.va.gov/directory/guide/allstate.asp", "SOURCEDATE": "2018-09-26T00:00:00.000Z", "VAL_METHOD": "IMAGERY/OTHER", "VAL_DATE": "2015-05-13T00:00:00.000Z", "WEBSITE": "http://www.centralalabama.va.gov/", "STATE_ID": "H5110", "ALT_NAME": "NOT AVAILABLE", "ST_FIPS": "01", "OWNER": "GOVERNMENT - FEDERAL", "TTL_STAFF": -999, "BEDS": -999, "TRAUMA": "NOT AVAILABLE", "HELIPAD": "N" }, "geometry": { "type": "Polygon", "coordinates": [ [ [ -86.194361, 32.295521899999983 ], [ -86.2390145, 32.301841399999972 ], [ -86.261498, 32.307067 ], [ -86.283636, 32.312596 ], [ -86.3350477, 32.328136 ], [ -86.3560789, 32.3685979 ], [ -86.3221772, 32.4064242 ], [ -86.321881, 32.406723 ], [ -86.28313, 32.439351 ], [ -86.2062443, 32.454607400000043 ], [ -86.1190154, 32.369636200000045 ], [ -86.118078, 32.367792 ], [ -86.1217823, 32.352677800000016 ], [ -86.12185, 32.352471 ], [ -86.194361, 32.295521899999983 ] ] ] } },
{ "type": "Feature", "properties": { "OBJECTID": 1866, "ID": "0001035601", "NAME": "DECATUR MORGAN HOSPITAL - PARKWAY CAMPUS", "ADDRESS": "1874 BELTLINE ROAD, S.W.", "CITY": "DECATUR", "STATE": "AL", "ZIP": "35601", "ZIP4": "NOT AVAILABLE", "TELEPHONE": "(256) 350-2211", "TYPE": "GENERAL ACUTE CARE", "STATUS": "OPEN", "POPULATION": 108, "COUNTY": "MORGAN", "COUNTYFIPS": "01103", "COUNTRY": "USA", "LATITUDE": 34.576896786000098, "LONGITUDE": -87.015808659999905, "NAICS_CODE": "622110", "NAICS_DESC": "GENERAL MEDICAL AND SURGICAL HOSPITALS", "SOURCE": "http://dph1.adph.state.al.us/FacilitiesDirectory", "SOURCEDATE": "2018-08-09T00:00:00.000Z", "VAL_METHOD": "IMAGERY/OTHER", "VAL_DATE": "2013-10-02T00:00:00.000Z", "WEBSITE": "http://www.decaturgeneral.org/", "STATE_ID": "01-0054", "ALT_NAME": "NOT AVAILABLE", "ST_FIPS": "01", "OWNER": "PROPRIETARY", "TTL_STAFF": -999, "BEDS": 108, "TRAUMA": "NOT AVAILABLE", "HELIPAD": "N" }, "geometry": { "type": "Polygon", "coordinates": [ [ [ -87.026516, 34.493453 ], [ -87.091066, 34.525167 ], [ -87.134359, 34.548182 ], [ -87.1134763, 34.6348009 ], [ -87.075573, 34.641322 ], [ -87.0520994, 34.6445221 ], [ -87.0353173, 34.639576800000071 ], [ -86.9922731, 34.623486399999969 ], [ -86.9473214, 34.5952797 ], [ -86.903341, 34.544221 ], [ -86.9006209, 34.529490599999946 ], [ -86.964844, 34.505099 ], [ -87.026516, 34.493453 ] ] ] } },
{ "type": "Feature", "properties": { "OBJECTID": 1867, "ID": "0005935903", "NAME": "HEALTHSOUTH REHABILITATION HOSPITAL OF GADSDEN", "ADDRESS": "801 GOODYEAR AVENUE", "CITY": "GADSDEN", "STATE": "AL", "ZIP": "35903", "ZIP4": "NOT AVAILABLE", "TELEPHONE": "(256) 439-5000", "TYPE": "REHABILITATION", "STATUS": "OPEN", "POPULATION": 44, "COUNTY": "ETOWAH", "COUNTYFIPS": "01055", "COUNTRY": "USA", "LATITUDE": 34.006741223000098, "LONGITUDE": -85.968488437999994, "NAICS_CODE": "622310", "NAICS_DESC": "REHABILITATION HOSPITALS (EXCEPT ALCOHOLISM, DRUG ADDICTION)", "SOURCE": "http://dph1.adph.state.al.us/FacilitiesDirectory", "SOURCEDATE": "2018-08-09T00:00:00.000Z", "VAL_METHOD": "IMAGERY/OTHER", "VAL_DATE": "2013-09-06T00:00:00.000Z", "WEBSITE": "http://www.healthsouthgadsden.com/", "STATE_ID": "H2804", "ALT_NAME": "NOT AVAILABLE", "ST_FIPS": "01", "OWNER": "PROPRIETARY", "TTL_STAFF": -999, "BEDS": 44, "TRAUMA": "NOT AVAILABLE", "HELIPAD": "Y" }, "geometry": { "type": "Polygon", "coordinates": [ [ [ -85.91119, 33.906368 ], [ -85.960067, 33.921316 ], [ -86.0504886, 33.949541600000039 ], [ -86.09069, 33.9961781 ], [ -86.0906788, 33.9969838 ], [ -86.0827093, 34.019019200000017 ], [ -86.029972, 34.067196 ], [ -86.028172, 34.067396 ], [ -86.0106519, 34.067761199999985 ], [ -85.9183102, 34.0683405 ], [ -85.9180342, 34.068229300000013 ], [ -85.8430956, 33.9844356 ], [ -85.8433823, 33.981210900000043 ], [ -85.91119, 33.906368 ] ] ] } },
{ "type": "Feature", "properties": { "OBJECTID": 1870, "ID": "0010435010", "NAME": "RUSSELL HOSPITAL", "ADDRESS": "3316 HIGHWAY 280", "CITY": "ALEXANDER CITY", "STATE": "AL", "ZIP": "35010", "ZIP4": "NOT AVAILABLE", "TELEPHONE": "(256) 329-7146", "TYPE": "GENERAL ACUTE CARE", "STATUS": "OPEN", "POPULATION": 81, "COUNTY": "TALLAPOOSA", "COUNTYFIPS": "01123", "COUNTRY": "USA", "LATITUDE": 32.930213272000103, "LONGITUDE": -85.969566147999998, "NAICS_CODE": "622110", "NAICS_DESC": "GENERAL MEDICAL AND SURGICAL HOSPITALS", "SOURCE": "http://dph1.adph.state.al.us/FacilitiesDirectory", "SOURCEDATE": "2018-08-09T00:00:00.000Z", "VAL_METHOD": "IMAGERY/OTHER", "VAL_DATE": "2014-02-10T00:00:00.000Z", "WEBSITE": "http://www.russellmedcenter.com/index.aspx", "STATE_ID": "H6203", "ALT_NAME": "NOT AVAILABLE", "ST_FIPS": "01", "OWNER": "NON-PROFIT", "TTL_STAFF": -999, "BEDS": 81, "TRAUMA": "LEVEL III", "HELIPAD": "Y" }, "geometry": { "type": "Polygon", "coordinates": [ [ [ -86.030949, 32.849576 ], [ -86.065778, 32.879893 ], [ -86.086698, 33.003627 ], [ -86.086378, 33.004671 ], [ -85.942465, 33.012127 ], [ -85.875203931038186, 32.979296963550837 ], [ -85.84186712870752, 32.881224944702907 ], [ -85.842454729899217, 32.880196142392286 ], [ -85.850250037089822, 32.876859825087031 ], [ -85.950063, 32.856097 ], [ -86.030949, 32.849576 ] ] ] } },
{ "type": "Feature", "properties": { "OBJECTID": 1871, "ID": "0013535243", "NAME": "GRANDVIEW MEDICAL CENTER", "ADDRESS": "3690 GRANDVIEW PARKWAY", "CITY": "BIRMINGHAM", "STATE": "AL", "ZIP": "35243", "ZIP4": "NOT AVAILABLE", "TELEPHONE": "(205) 592-1000", "TYPE": "GENERAL ACUTE CARE", "STATUS": "OPEN", "POPULATION": 372, "COUNTY": "JEFFERSON", "COUNTYFIPS": "01073", "COUNTRY": "USA", "LATITUDE": 33.43293355, "LONGITUDE": -86.717441464000004, "NAICS_CODE": "622110", "NAICS_DESC": "GENERAL MEDICAL AND SURGICAL HOSPITALS", "SOURCE": "http://dph1.adph.state.al.us/FacilitiesDirectory", "SOURCEDATE": "2018-08-09T00:00:00.000Z", "VAL_METHOD": "IMAGERY/OTHER", "VAL_DATE": "2016-03-08T00:00:00.000Z", "WEBSITE": "http://www.grandviewhealth.com/grandview/default.aspx", "STATE_ID": "NOT AVAILABLE", "ALT_NAME": "NOT AVAILABLE", "ST_FIPS": "01", "OWNER": "PROPRIETARY", "TTL_STAFF": -999, "BEDS": 372, "TRAUMA": "LEVEL III", "HELIPAD": "Y" }, "geometry": { "type": "Polygon", "coordinates": [ [ [ -86.8559543, 33.3531839 ], [ -86.8563004, 33.3573276 ], [ -86.824516, 33.470957 ], [ -86.805054, 33.529612 ], [ -86.6413445, 33.55202009999995 ], [ -86.6354265, 33.546357600000015 ], [ -86.6246706, 33.4754565 ], [ -86.6363338, 33.348083400000029 ], [ -86.636477, 33.347807 ], [ -86.636589, 33.347614 ], [ -86.6367411, 33.347382400000036 ], [ -86.63718, 33.346883 ], [ -86.8559543, 33.3531839 ] ] ] } },
{ "type": "Feature", "properties": { "OBJECTID": 2117, "ID": "0001838851", "NAME": "TRACE REGIONAL HOSPITAL", "ADDRESS": "1002 EAST MADISON STREET", "CITY": "HOUSTON", "STATE": "MS", "ZIP": "38851", "ZIP4": "NOT AVAILABLE", "TELEPHONE": "(662) 456-3700", "TYPE": "GENERAL ACUTE CARE", "STATUS": "OPEN", "POPULATION": 84, "COUNTY": "CHICKASAW", "COUNTYFIPS": "28017", "COUNTRY": "USA", "LATITUDE": 33.894226601000099, "LONGITUDE": -88.985327587, "NAICS_CODE": "622110", "NAICS_DESC": "GENERAL MEDICAL AND SURGICAL HOSPITALS", "SOURCE": "https://msdh.ms.gov/msdhsite/_static/resources/7660.pdf", "SOURCEDATE": "2018-08-09T00:00:00.000Z", "VAL_METHOD": "IMAGERY", "VAL_DATE": "2013-10-02T00:00:00.000Z", "WEBSITE": "http://www.traceregional.com", "STATE_ID": "LICENSE #12-296", "ALT_NAME": "NOT AVAILABLE", "ST_FIPS": "28", "OWNER": "PROPRIETARY", "TTL_STAFF": -999, "BEDS": 84, "TRAUMA": "NOT AVAILABLE", "HELIPAD": "Y" }, "geometry": { "type": "Polygon", "coordinates": [ [ [ -89.0354827, 33.802212199999971 ], [ -89.1100442, 33.883679500000021 ], [ -89.1087108, 33.8875637 ], [ -89.0683118, 33.927327299999973 ], [ -88.992042, 33.991030100000046 ], [ -88.977554, 33.975824 ], [ -88.875994, 33.840888 ], [ -88.975123, 33.805149200000024 ], [ -89.0354827, 33.802212199999971 ] ] ] } },
{ "type": "Feature", "properties": { "OBJECTID": 2152, "ID": "0007839759", "NAME": "OCH REGIONAL MEDICAL CENTER", "ADDRESS": "400 HOSPITAL ROAD", "CITY": "STARKVILLE", "STATE": "MS", "ZIP": "39759", "ZIP4": "NOT AVAILABLE", "TELEPHONE": "(662) 323-4320", "TYPE": "GENERAL ACUTE CARE", "STATUS": "OPEN", "POPULATION": 96, "COUNTY": "OKTIBBEHA", "COUNTYFIPS": "28105", "COUNTRY": "USA", "LATITUDE": 33.476173861000099, "LONGITUDE": -88.820605440999898, "NAICS_CODE": "622110", "NAICS_DESC": "GENERAL MEDICAL AND SURGICAL HOSPITALS", "SOURCE": "https://msdh.ms.gov/msdhsite/_static/resources/7660.pdf", "SOURCEDATE": "2018-08-09T00:00:00.000Z", "VAL_METHOD": "IMAGERY", "VAL_DATE": "2013-10-02T00:00:00.000Z", "WEBSITE": "http://www.och.org/", "STATE_ID": "LICENSE #11-269", "ALT_NAME": "NOT AVAILABLE", "ST_FIPS": "28", "OWNER": "GOVERNMENT - LOCAL", "TTL_STAFF": -999, "BEDS": 96, "TRAUMA": "LEVEL III", "HELIPAD": "Y" }, "geometry": { "type": "Polygon", "coordinates": [ [ [ -88.8544934, 33.392221300000024 ], [ -88.9006077, 33.4154852 ], [ -88.9315087, 33.496792 ], [ -88.9312632, 33.4981732 ], [ -88.8882623, 33.543292400000013 ], [ -88.8547258, 33.543207799999983 ], [ -88.7695975, 33.519401599999966 ], [ -88.7417604, 33.510200600000019 ], [ -88.706629, 33.488778 ], [ -88.7034664, 33.476147 ], [ -88.756084, 33.423956 ], [ -88.7738804, 33.411097400000038 ], [ -88.7883468, 33.403285799999964 ], [ -88.8544934, 33.392221300000024 ] ] ] } },
{ "type": "Feature", "properties": { "OBJECTID": 2161, "ID": "0010338852", "NAME": "TISHOMINGO HEALTH SERVICES, INC", "ADDRESS": "1777 CURTIS DRIVE", "CITY": "IUKA", "STATE": "MS", "ZIP": "38852", "ZIP4": "NOT AVAILABLE", "TELEPHONE": "(662) 423-6051", "TYPE": "GENERAL ACUTE CARE", "STATUS": "OPEN", "POPULATION": 48, "COUNTY": "TISHOMINGO", "COUNTYFIPS": "28141", "COUNTRY": "USA", "LATITUDE": 34.801820118000101, "LONGITUDE": -88.208287709000004, "NAICS_CODE": "622110", "NAICS_DESC": "GENERAL MEDICAL AND SURGICAL HOSPITALS", "SOURCE": "https://msdh.ms.gov/msdhsite/_static/resources/7660.pdf", "SOURCEDATE": "2018-08-09T00:00:00.000Z", "VAL_METHOD": "IMAGERY/OTHER", "VAL_DATE": "2014-02-10T00:00:00.000Z", "WEBSITE": "http://www.nmhs.net/iuka/", "STATE_ID": "LICENSE #13-221", "ALT_NAME": "NORTH MISSISSIPPI MEDICAL CENTER - IUKA", "ST_FIPS": "28", "OWNER": "NON-PROFIT", "TTL_STAFF": -999, "BEDS": 48, "TRAUMA": "NOT AVAILABLE", "HELIPAD": "Y" }, "geometry": { "type": "Polygon", "coordinates": [ [ [ -88.218064, 34.686383 ], [ -88.2214401, 34.686723700000023 ], [ -88.263783, 34.725434 ], [ -88.3407533, 34.85039470000001 ], [ -88.2452183, 34.908094599999984 ], [ -88.2333659, 34.9063458 ], [ -88.1389962, 34.828521099999982 ], [ -88.069789060944913, 34.762699922397566 ], [ -88.069739061545036, 34.759997921477279 ], [ -88.089289081257661, 34.748127895280803 ], [ -88.218064, 34.686383 ] ] ] } },
{ "type": "Feature", "properties": { "OBJECTID": 2164, "ID": "0008638863", "NAME": "PONTOTOC HEALTH SERVICES", "ADDRESS": "176 SOUTH MAIN STREET", "CITY": "PONTOTOC", "STATE": "MS", "ZIP": "38863", "ZIP4": "NOT AVAILABLE", "TELEPHONE": "(662) 489-5510", "TYPE": "CRITICAL ACCESS", "STATUS": "OPEN", "POPULATION": 25, "COUNTY": "PONTOTOC", "COUNTYFIPS": "28115", "COUNTRY": "USA", "LATITUDE": 34.2429604370001, "LONGITUDE": -88.996179607000002, "NAICS_CODE": "622110", "NAICS_DESC": "GENERAL MEDICAL AND SURGICAL HOSPITALS", "SOURCE": "https://msdh.ms.gov/msdhsite/_static/resources/7660.pdf", "SOURCEDATE": "2018-08-09T00:00:00.000Z", "VAL_METHOD": "IMAGERY", "VAL_DATE": "2014-02-10T00:00:00.000Z", "WEBSITE": "http://www.nmhs.net/pontotoc/", "STATE_ID": "LICENSE #16-091", "ALT_NAME": "NORTH MISSISSIPPI MEDICAL CENTER - PONTOTOC", "ST_FIPS": "28", "OWNER": "NON-PROFIT", "TTL_STAFF": -999, "BEDS": 25, "TRAUMA": "LEVEL IV", "HELIPAD": "Y" }, "geometry": { "type": "Polygon", "coordinates": [ [ [ -89.0038118, 34.131968299999969 ], [ -89.0522176, 34.17626639999996 ], [ -89.1036351, 34.23179039999998 ], [ -89.1053147, 34.2838414 ], [ -89.1050476, 34.284411800000022 ], [ -89.0379745, 34.341956199999984 ], [ -88.9833055, 34.3388536 ], [ -88.9185333, 34.32985 ], [ -88.8978727, 34.308954599999979 ], [ -88.8964131, 34.30628659999995 ], [ -88.8863666, 34.235068699999985 ], [ -88.8864148, 34.226016799999982 ], [ -88.8864258, 34.225145 ], [ -88.930922, 34.167640300000016 ], [ -89.0038118, 34.131968299999969 ] ] ] } },
{ "type": "Feature", "properties": { "OBJECTID": 2175, "ID": "0006339705", "NAME": "BAPTIST MEMORIAL HOSPITAL - GOLDEN TRIANGLE", "ADDRESS": "2520 5TH STREET NORTH", "CITY": "COLUMBUS", "STATE": "MS", "ZIP": "39705", "ZIP4": "NOT AVAILABLE", "TELEPHONE": "(662) 244-1500", "TYPE": "GENERAL ACUTE CARE", "STATUS": "OPEN", "POPULATION": 315, "COUNTY": "LOWNDES", "COUNTYFIPS": "28087", "COUNTRY": "USA", "LATITUDE": 33.525284909000099, "LONGITUDE": -88.427823793999906, "NAICS_CODE": "622110", "NAICS_DESC": "GENERAL MEDICAL AND SURGICAL HOSPITALS", "SOURCE": "https://msdh.ms.gov/msdhsite/_static/resources/7660.pdf", "SOURCEDATE": "2018-08-09T00:00:00.000Z", "VAL_METHOD": "IMAGERY", "VAL_DATE": "2014-03-12T00:00:00.000Z", "WEBSITE": "http://www.baptistonline.org/golden-triangle/", "STATE_ID": "LICENSE #13-253", "ALT_NAME": "NOT AVAILABLE", "ST_FIPS": "28", "OWNER": "NON-PROFIT", "TTL_STAFF": -999, "BEDS": 315, "TRAUMA": "LEVEL III", "HELIPAD": "Y" }, "geometry": { "type": "Polygon", "coordinates": [ [ [ -88.5076525, 33.435553900000023 ], [ -88.5080685, 33.435654 ], [ -88.5171072, 33.474208899999979 ], [ -88.491162, 33.577656 ], [ -88.4890374, 33.58567610000005 ], [ -88.4524149, 33.623837300000027 ], [ -88.4378177, 33.6257874 ], [ -88.4134261, 33.623587299999983 ], [ -88.3207579, 33.528993599999978 ], [ -88.3011738, 33.49864190000001 ], [ -88.3885479, 33.462385 ], [ -88.4000846, 33.4577151 ], [ -88.5076525, 33.435553900000023 ] ] ] } },
{ "type": "Feature", "properties": { "OBJECTID": 2179, "ID": "0012339735", "NAME": "CHOCTAW REGIONAL MEDICAL CENTER", "ADDRESS": "8613 MS HIGHWAY 12", "CITY": "ACKERMAN", "STATE": "MS", "ZIP": "39735", "ZIP4": "NOT AVAILABLE", "TELEPHONE": "(662) 285-4400", "TYPE": "CRITICAL ACCESS", "STATUS": "OPEN", "POPULATION": 25, "COUNTY": "CHOCTAW", "COUNTYFIPS": "28019", "COUNTRY": "USA", "LATITUDE": 33.3199442700001, "LONGITUDE": -89.182683341000001, "NAICS_CODE": "622110", "NAICS_DESC": "GENERAL MEDICAL AND SURGICAL HOSPITALS", "SOURCE": "https://msdh.ms.gov/msdhsite/_static/resources/7660.pdf", "SOURCEDATE": "2018-08-09T00:00:00.000Z", "VAL_METHOD": "IMAGERY/OTHER", "VAL_DATE": "2016-08-17T00:00:00.000Z", "WEBSITE": "http://www.choctawregional.com/", "STATE_ID": "LICENSE #13-191", "ALT_NAME": "NOT AVAILABLE", "ST_FIPS": "28", "OWNER": "NON-PROFIT", "TTL_STAFF": -999, "BEDS": 25, "TRAUMA": "LEVEL IV", "HELIPAD": "Y" }, "geometry": { "type": "Polygon", "coordinates": [ [ [ -89.147244, 33.213017 ], [ -89.290508, 33.263823 ], [ -89.294295, 33.265364 ], [ -89.2998438, 33.273359600000013 ], [ -89.271284, 33.381451 ], [ -89.233716, 33.412841 ], [ -89.155777, 33.430773 ], [ -89.066017, 33.3484709 ], [ -89.147244, 33.213017 ] ] ] } },
{ "type": "Feature", "properties": { "OBJECTID": 2295, "ID": "0011336201", "NAME": "STRINGFELLOW MEMORIAL HOSPITAL", "ADDRESS": "301 EAST 18TH STREET", "CITY": "ANNISTON", "STATE": "AL", "ZIP": "36201", "ZIP4": "NOT AVAILABLE", "TELEPHONE": "(256) 235-8900", "TYPE": "GENERAL ACUTE CARE", "STATUS": "OPEN", "POPULATION": 125, "COUNTY": "CALHOUN", "COUNTYFIPS": "01015", "COUNTRY": "USA", "LATITUDE": 33.668235903000003, "LONGITUDE": -85.823712725999897, "NAICS_CODE": "622110", "NAICS_DESC": "GENERAL MEDICAL AND SURGICAL HOSPITALS", "SOURCE": "http://dph1.adph.state.al.us/FacilitiesDirectory", "SOURCEDATE": "2018-08-09T00:00:00.000Z", "VAL_METHOD": "IMAGERY/OTHER", "VAL_DATE": "2013-09-10T00:00:00.000Z", "WEBSITE": "http://www.stringfellowhealth.com", "STATE_ID": "H0803", "ALT_NAME": "NOT AVAILABLE", "ST_FIPS": "01", "OWNER": "PROPRIETARY", "TTL_STAFF": -999, "BEDS": 125, "TRAUMA": "LEVEL III", "HELIPAD": "N" }, "geometry": { "type": "Polygon", "coordinates": [ [ [ -85.876257, 33.585995 ], [ -85.9337245, 33.622085500000018 ], [ -85.933902, 33.623214 ], [ -85.933796, 33.623745 ], [ -85.8909334, 33.76143010000002 ], [ -85.768295856990136, 33.770170076922923 ], [ -85.768070857037955, 33.77008807726093 ], [ -85.736110896739163, 33.650178067551259 ], [ -85.751416935312278, 33.62727206285188 ], [ -85.768277933393975, 33.613109041858571 ], [ -85.786104629890147, 33.600683921862327 ], [ -85.820761, 33.582558 ], [ -85.876257, 33.585995 ] ] ] } },
{ "type": "Feature", "properties": { "OBJECTID": 2296, "ID": "0003236251", "NAME": "CLAY COUNTY HOSPITAL", "ADDRESS": "83825 HIGHWAY 9", "CITY": "ASHLAND", "STATE": "AL", "ZIP": "36251", "ZIP4": "NOT AVAILABLE", "TELEPHONE": "(256) 354-2131", "TYPE": "GENERAL ACUTE CARE", "STATUS": "OPEN", "POPULATION": 45, "COUNTY": "CLAY", "COUNTYFIPS": "01027", "COUNTRY": "USA", "LATITUDE": 33.2775639400001, "LONGITUDE": -85.823982780999998, "NAICS_CODE": "622110", "NAICS_DESC": "GENERAL MEDICAL AND SURGICAL HOSPITALS", "SOURCE": "http://dph1.adph.state.al.us/FacilitiesDirectory", "SOURCEDATE": "2018-08-09T00:00:00.000Z", "VAL_METHOD": "IMAGERY/OTHER", "VAL_DATE": "2013-09-09T00:00:00.000Z", "WEBSITE": "http://www.claycountyhospital.com", "STATE_ID": "01-0073", "ALT_NAME": "NOT AVAILABLE", "ST_FIPS": "01", "OWNER": "GOVERNMENT - LOCAL", "TTL_STAFF": -999, "BEDS": 45, "TRAUMA": "NOT AVAILABLE", "HELIPAD": "Y" }, "geometry": { "type": "Polygon", "coordinates": [ [ [ -85.909589, 33.195338 ], [ -85.950781, 33.273111 ], [ -85.950341, 33.275413 ], [ -85.927722, 33.307985 ], [ -85.923137, 33.312672 ], [ -85.917916, 33.315908 ], [ -85.840982, 33.341552 ], [ -85.753171981047899, 33.349344036193102 ], [ -85.725868966911122, 33.337224034280922 ], [ -85.71559295275614, 33.31433403334298 ], [ -85.716343952076087, 33.311003033383145 ], [ -85.737398949131318, 33.255496034035311 ], [ -85.753302955700548, 33.221994032370262 ], [ -85.802241893417758, 33.212010040571265 ], [ -85.909589, 33.195338 ] ] ] } },
{ "type": "Feature", "properties": { "OBJECTID": 2298, "ID": "0009635447", "NAME": "PICKENS COUNTY MEDICAL CENTER", "ADDRESS": "241 ROBERT K. WILSON DRIVE", "CITY": "CARROLLTON", "STATE": "AL", "ZIP": "35447", "ZIP4": "NOT AVAILABLE", "TELEPHONE": "(205) 367-2426", "TYPE": "GENERAL ACUTE CARE", "STATUS": "OPEN", "POPULATION": 56, "COUNTY": "PICKENS", "COUNTYFIPS": "01107", "COUNTRY": "USA", "LATITUDE": 33.274475670000101, "LONGITUDE": -88.088635747999902, "NAICS_CODE": "622110", "NAICS_DESC": "GENERAL MEDICAL AND SURGICAL HOSPITALS", "SOURCE": "http://dph1.adph.state.al.us/FacilitiesDirectory", "SOURCEDATE": "2018-08-09T00:00:00.000Z", "VAL_METHOD": "IMAGERY", "VAL_DATE": "2014-02-10T00:00:00.000Z", "WEBSITE": "http://www.dchsystem.com", "STATE_ID": "H5401", "ALT_NAME": "NOT AVAILABLE", "ST_FIPS": "01", "OWNER": "GOVERNMENT - DISTRICT/AUTHORITY", "TTL_STAFF": -999, "BEDS": 56, "TRAUMA": "NOT AVAILABLE", "HELIPAD": "Y" }, "geometry": { "type": "Polygon", "coordinates": [ [ [ -88.112949, 33.157586 ], [ -88.17291, 33.231293 ], [ -88.182202, 33.245179 ], [ -88.182478, 33.24597 ], [ -88.179803, 33.257095 ], [ -88.150184, 33.301609 ], [ -88.145671, 33.306939 ], [ -88.022531989128041, 33.376700025647601 ], [ -88.018431588592961, 33.376549526643686 ], [ -88.018273088557592, 33.37638872670658 ], [ -88.016395988013173, 33.37314802765998 ], [ -87.986277979429232, 33.288072042312244 ], [ -88.107124, 33.163451 ], [ -88.112949, 33.157586 ] ] ] } },
{ "type": "Feature", "properties": { "OBJECTID": 2299, "ID": "0001135601", "NAME": "DECATUR MORGAN WEST", "ADDRESS": "2205 BELTLINE ROAD, S.W.", "CITY": "DECATUR", "STATE": "AL", "ZIP": "35601", "ZIP4": "NOT AVAILABLE", "TELEPHONE": "(256) 341-2000", "TYPE": "GENERAL ACUTE CARE", "STATUS": "OPEN", "POPULATION": 64, "COUNTY": "MORGAN", "COUNTYFIPS": "01103", "COUNTRY": "USA", "LATITUDE": 34.58368232, "LONGITUDE": -87.0254165919999, "NAICS_CODE": "622110", "NAICS_DESC": "GENERAL MEDICAL AND SURGICAL HOSPITALS", "SOURCE": "http://dph1.adph.state.al.us/FacilitiesDirectory", "SOURCEDATE": "2018-08-09T00:00:00.000Z", "VAL_METHOD": "IMAGERY", "VAL_DATE": "2013-09-03T00:00:00.000Z", "WEBSITE": "http://www.decaturgeneral.org/", "STATE_ID": "H5206", "ALT_NAME": "NOT AVAILABLE", "ST_FIPS": "01", "OWNER": "PROPRIETARY", "TTL_STAFF": -999, "BEDS": 64, "TRAUMA": "NOT AVAILABLE", "HELIPAD": "N" }, "geometry": { "type": "Polygon", "coordinates": [ [ [ -87.031508, 34.499223 ], [ -87.14361940000002, 34.5442531 ], [ -87.143735, 34.544432 ], [ -87.1377048, 34.64023150000002 ], [ -87.137616, 34.640368 ], [ -87.10541, 34.647451 ], [ -87.06815, 34.655387 ], [ -86.9922731, 34.623486399999969 ], [ -86.9473214, 34.5952797 ], [ -86.9356994, 34.5793797 ], [ -86.9334747, 34.57632 ], [ -86.911962, 34.544405 ], [ -86.9069791, 34.534263399999965 ], [ -86.907397, 34.53403680000001 ], [ -86.969482, 34.508354 ], [ -86.998686, 34.503776 ], [ -87.031508, 34.499223 ] ] ] } },
{ "type": "Feature", "properties": { "OBJECTID": 2307, "ID": "0000236124", "NAME": "BAPTIST MEDICAL CENTER EAST", "ADDRESS": "400 TAYLOR ROAD", "CITY": "MONTGOMERY", "STATE": "AL", "ZIP": "36124", "ZIP4": "1267", "TELEPHONE": "(334) 273-4410", "TYPE": "GENERAL ACUTE CARE", "STATUS": "OPEN", "POPULATION": 150, "COUNTY": "MONTGOMERY", "COUNTYFIPS": "01101", "COUNTRY": "USA", "LATITUDE": 32.376399501000002, "LONGITUDE": -86.174930021999998, "NAICS_CODE": "622110", "NAICS_DESC": "GENERAL MEDICAL AND SURGICAL HOSPITALS", "SOURCE": "http://dph1.adph.state.al.us/FacilitiesDirectory", "SOURCEDATE": "2018-08-09T00:00:00.000Z", "VAL_METHOD": "IMAGERY/OTHER", "VAL_DATE": "2013-09-03T00:00:00.000Z", "WEBSITE": "http://www.baptistfirst.org", "STATE_ID": "01-0149", "ALT_NAME": "NOT AVAILABLE", "ST_FIPS": "01", "OWNER": "GOVERNMENT - DISTRICT/AUTHORITY", "TTL_STAFF": -999, "BEDS": 150, "TRAUMA": "NOT AVAILABLE", "HELIPAD": "Y" }, "geometry": { "type": "Polygon", "coordinates": [ [ [ -86.1731609, 32.2741548 ], [ -86.2821127, 32.326923700000052 ], [ -86.3116385, 32.3677826 ], [ -86.311883, 32.36817 ], [ -86.2805741, 32.424054099999971 ], [ -86.270536, 32.429577 ], [ -86.2075301, 32.454192300000017 ], [ -86.2062443, 32.454607400000043 ], [ -86.1241366, 32.433697299999977 ], [ -86.036913, 32.367241 ], [ -86.037384, 32.362867 ], [ -86.0584612, 32.334271 ], [ -86.0587456, 32.334089700000042 ], [ -86.1731609, 32.2741548 ] ] ] } },
{ "type": "Feature", "properties": { "OBJECTID": 2308, "ID": "0091036116", "NAME": "CROSSBRIDGE BEHAVIORAL HEALTH A BAPTIST SOUTH FACILITY", "ADDRESS": "4385 NARROW LANE ROAD", "CITY": "MONTGOMERY", "STATE": "AL", "ZIP": "36116", "ZIP4": "NOT AVAILABLE", "TELEPHONE": "(334) 286-3116", "TYPE": "PSYCHIATRIC", "STATUS": "OPEN", "POPULATION": 60, "COUNTY": "MONTGOMERY", "COUNTYFIPS": "01101", "COUNTRY": "USA", "LATITUDE": 32.323463268000097, "LONGITUDE": -86.281344833999995, "NAICS_CODE": "622210", "NAICS_DESC": "PSYCHIATRIC AND SUBSTANCE ABUSE HOSPITALS", "SOURCE": "http://dph1.adph.state.al.us/FacilitiesDirectory", "SOURCEDATE": "2018-08-09T00:00:00.000Z", "VAL_METHOD": "IMAGERY/OTHER", "VAL_DATE": "2015-02-03T00:00:00.000Z", "WEBSITE": "NOT AVAILABLE", "STATE_ID": "H5111", "ALT_NAME": "NOT AVAILABLE", "ST_FIPS": "01", "OWNER": "GOVERNMENT - DISTRICT/AUTHORITY", "TTL_STAFF": -999, "BEDS": 60, "TRAUMA": "NOT AVAILABLE", "HELIPAD": "N" }, "geometry": { "type": "Polygon", "coordinates": [ [ [ -86.2947391, 32.2392032 ], [ -86.356789, 32.25726 ], [ -86.374852, 32.269937 ], [ -86.4197465, 32.303325800000017 ], [ -86.4197773, 32.303491799999975 ], [ -86.383264, 32.365229 ], [ -86.3752102, 32.3716254 ], [ -86.3028991, 32.411190400000024 ], [ -86.286049, 32.414166 ], [ -86.2140233, 32.405002900000021 ], [ -86.1710768, 32.3704306 ], [ -86.1692062, 32.3682494 ], [ -86.1691242, 32.368069300000037 ], [ -86.167572800000016, 32.364657 ], [ -86.1586964, 32.338813200000011 ], [ -86.166378, 32.27281 ], [ -86.2945372, 32.2392447 ], [ -86.2947391, 32.2392032 ] ] ] } },
{ "type": "Feature", "properties": { "OBJECTID": 2311, "ID": "0011235121", "NAME": "ST. VINCENT'S BLOUNT", "ADDRESS": "150 GILBREATH DRIVE", "CITY": "ONEONTA", "STATE": "AL", "ZIP": "35121", "ZIP4": "NOT AVAILABLE", "TELEPHONE": "(205) 274-3000", "TYPE": "CRITICAL ACCESS", "STATUS": "OPEN", "POPULATION": 40, "COUNTY": "BLOUNT", "COUNTYFIPS": "01009", "COUNTRY": "USA", "LATITUDE": 33.929650729000102, "LONGITUDE": -86.494118629, "NAICS_CODE": "622110", "NAICS_DESC": "GENERAL MEDICAL AND SURGICAL HOSPITALS", "SOURCE": "http://dph1.adph.state.al.us/FacilitiesDirectory", "SOURCEDATE": "2018-08-09T00:00:00.000Z", "VAL_METHOD": "IMAGERY", "VAL_DATE": "2014-02-10T00:00:00.000Z", "WEBSITE": "http://www.stvhs.com", "STATE_ID": "H0501", "ALT_NAME": "NOT AVAILABLE", "ST_FIPS": "01", "OWNER": "NON-PROFIT", "TTL_STAFF": -999, "BEDS": 40, "TRAUMA": "NOT AVAILABLE", "HELIPAD": "Y" }, "geometry": { "type": "Polygon", "coordinates": [ [ [ -86.570247, 33.848 ], [ -86.570495, 33.848054 ], [ -86.563087, 33.96094 ], [ -86.522677, 33.999835 ], [ -86.449119, 34.011098 ], [ -86.427447, 33.998781 ], [ -86.393332, 33.97651 ], [ -86.380976, 33.931888 ], [ -86.481351, 33.874496 ], [ -86.570247, 33.848 ] ] ] } },
{ "type": "Feature", "properties": { "OBJECTID": 2313, "ID": "0007636067", "NAME": "PRATTVILLE BAPTIST HOSPITAL", "ADDRESS": "124 SOUTH MEMORIAL DRIVE", "CITY": "PRATTVILLE", "STATE": "AL", "ZIP": "36067", "ZIP4": "NOT AVAILABLE", "TELEPHONE": "(334) 361-4267", "TYPE": "GENERAL ACUTE CARE", "STATUS": "OPEN", "POPULATION": 85, "COUNTY": "AUTAUGA", "COUNTYFIPS": "01001", "COUNTRY": "USA", "LATITUDE": 32.463891723000103, "LONGITUDE": -86.45225293, "NAICS_CODE": "622110", "NAICS_DESC": "GENERAL MEDICAL AND SURGICAL HOSPITALS", "SOURCE": "http://dph1.adph.state.al.us/FacilitiesDirectory", "SOURCEDATE": "2018-08-09T00:00:00.000Z", "VAL_METHOD": "IMAGERY/OTHER", "VAL_DATE": "2014-02-10T00:00:00.000Z", "WEBSITE": "http://www.baptistfirst.org/facilities/prattville-baptisthospital/ default.aspx", "STATE_ID": "H0101", "ALT_NAME": "NOT AVAILABLE", "ST_FIPS": "01", "OWNER": "GOVERNMENT - DISTRICT/AUTHORITY", "TTL_STAFF": -999, "BEDS": 85, "TRAUMA": "NOT AVAILABLE", "HELIPAD": "N" }, "geometry": { "type": "Polygon", "coordinates": [ [ [ -86.440056, 32.408304 ], [ -86.4956198, 32.415189199999972 ], [ -86.509947, 32.417095 ], [ -86.538, 32.424529 ], [ -86.553241, 32.430982 ], [ -86.573453, 32.491948 ], [ -86.460158, 32.573106 ], [ -86.3487906, 32.5290946 ], [ -86.3517103, 32.456283 ], [ -86.360156, 32.444502 ], [ -86.4005295, 32.421563 ], [ -86.440056, 32.408304 ] ] ] } },
{ "type": "Feature", "properties": { "OBJECTID": 2314, "ID": "0009936701", "NAME": "VAUGHAN REGIONAL MEDICAL CENTER-PARKWAY CAMPUS", "ADDRESS": "1015 MEDICAL CENTER PARKWAY", "CITY": "SELMA", "STATE": "AL", "ZIP": "36701", "ZIP4": "NOT AVAILABLE", "TELEPHONE": "(334) 418-4190", "TYPE": "GENERAL ACUTE CARE", "STATUS": "OPEN", "POPULATION": 175, "COUNTY": "DALLAS", "COUNTYFIPS": "01047", "COUNTRY": "USA", "LATITUDE": 32.4294652130001, "LONGITUDE": -87.055973046000005, "NAICS_CODE": "622110", "NAICS_DESC": "GENERAL MEDICAL AND SURGICAL HOSPITALS", "SOURCE": "http://dph1.adph.state.al.us/FacilitiesDirectory", "SOURCEDATE": "2018-08-09T00:00:00.000Z", "VAL_METHOD": "IMAGERY/OTHER", "VAL_DATE": "2014-02-10T00:00:00.000Z", "WEBSITE": "http://www.vaughanregional.com", "STATE_ID": "H2403", "ALT_NAME": "NOT AVAILABLE", "ST_FIPS": "01", "OWNER": "PROPRIETARY", "TTL_STAFF": -999, "BEDS": 175, "TRAUMA": "NOT AVAILABLE", "HELIPAD": "Y" }, "geometry": { "type": "Polygon", "coordinates": [ [ [ -87.121308, 32.361902 ], [ -87.215804, 32.443167 ], [ -87.215879, 32.443396 ], [ -87.088566, 32.528464 ], [ -86.989576, 32.505046 ], [ -86.928533, 32.437784 ], [ -86.951089, 32.379865 ], [ -86.9772099, 32.357897300000019 ], [ -86.986471, 32.35689 ], [ -87.121308, 32.361902 ] ] ] } },
{ "type": "Feature", "properties": { "OBJECTID": 2315, "ID": "0006236925", "NAME": "HILL HOSPITAL OF SUMTER COUNTY", "ADDRESS": "751 DERBY DRIVE", "CITY": "YORK", "STATE": "AL", "ZIP": "36925", "ZIP4": "NOT AVAILABLE", "TELEPHONE": "(205) 392-5263", "TYPE": "GENERAL ACUTE CARE", "STATUS": "OPEN", "POPULATION": 33, "COUNTY": "SUMTER", "COUNTYFIPS": "01119", "COUNTRY": "USA", "LATITUDE": 32.491994222000102, "LONGITUDE": -88.295523760999998, "NAICS_CODE": "622110", "NAICS_DESC": "GENERAL MEDICAL AND SURGICAL HOSPITALS", "SOURCE": "http://dph1.adph.state.al.us/FacilitiesDirectory", "SOURCEDATE": "2018-08-09T00:00:00.000Z", "VAL_METHOD": "IMAGERY", "VAL_DATE": "2014-02-10T00:00:00.000Z", "WEBSITE": "NOT AVAILABLE", "STATE_ID": "H6002", "ALT_NAME": "NOT AVAILABLE", "ST_FIPS": "01", "OWNER": "NON-PROFIT", "TTL_STAFF": -999, "BEDS": 33, "TRAUMA": "NOT AVAILABLE", "HELIPAD": "N" }, "geometry": { "type": "Polygon", "coordinates": [ [ [ -88.388401, 32.415761 ], [ -88.3981, 32.428882699999967 ], [ -88.3977721, 32.455208600000041 ], [ -88.387348, 32.491815 ], [ -88.353424, 32.553944 ], [ -88.3141387, 32.5935282 ], [ -88.3058074, 32.593933 ], [ -88.195556, 32.573378 ], [ -88.19458, 32.572901 ], [ -88.1944977, 32.456852 ], [ -88.1945033, 32.4566045 ], [ -88.22065, 32.405636 ], [ -88.388401, 32.415761 ] ] ] } },
{ "type": "Feature", "properties": { "OBJECTID": 2956, "ID": "0001939735", "NAME": "CHOCTAW COUNTY MEDICAL CENTER", "ADDRESS": "148 WEST CHERRY STREET", "CITY": "ACKERMAN", "STATE": "MS", "ZIP": "39735", "ZIP4": "NOT AVAILABLE", "TELEPHONE": "(662) 285-6235", "TYPE": "GENERAL ACUTE CARE", "STATUS": "CLOSED", "POPULATION": 25, "COUNTY": "CHOCTAW", "COUNTYFIPS": "28019", "COUNTRY": "USA", "LATITUDE": 33.313127114000103, "LONGITUDE": -89.174605071000002, "NAICS_CODE": "622110", "NAICS_DESC": "GENERAL MEDICAL AND SURGICAL HOSPITALS", "SOURCE": "https://msdh.ms.gov/msdhsite/_static/resources/7660.pdf", "SOURCEDATE": "2018-08-09T00:00:00.000Z", "VAL_METHOD": "IMAGERY", "VAL_DATE": "2013-10-02T00:00:00.000Z", "WEBSITE": "http://choctawcountyms.com/our-community/county-profile/health-care/", "STATE_ID": "LICENSE #11-191", "ALT_NAME": "NOT AVAILABLE", "ST_FIPS": "28", "OWNER": "GOVERNMENT - LOCAL", "TTL_STAFF": -999, "BEDS": 25, "TRAUMA": "LEVEL IV", "HELIPAD": "N" }, "geometry": { "type": "Polygon", "coordinates": [ [ [ -89.146706, 33.210464 ], [ -89.2879967, 33.26806450000003 ], [ -89.288116, 33.26907 ], [ -89.286432, 33.277755 ], [ -89.262785, 33.373831 ], [ -89.210413, 33.39596 ], [ -89.160579, 33.410544 ], [ -89.066017, 33.3484709 ], [ -89.146706, 33.210464 ] ] ] } },
{ "type": "Feature", "properties": { "OBJECTID": 2957, "ID": "0011439339", "NAME": "WINSTON MEDICAL CENTER", "ADDRESS": "562 EAST MAIN", "CITY": "LOUISVILLE", "STATE": "MS", "ZIP": "39339", "ZIP4": "NOT AVAILABLE", "TELEPHONE": "(662) 773-6211", "TYPE": "GENERAL ACUTE CARE", "STATUS": "CLOSED", "POPULATION": 27, "COUNTY": "WINSTON", "COUNTYFIPS": "28159", "COUNTRY": "USA", "LATITUDE": 33.12302393, "LONGITUDE": -89.035854654999994, "NAICS_CODE": "622110", "NAICS_DESC": "GENERAL MEDICAL AND SURGICAL HOSPITALS", "SOURCE": "https://msdh.ms.gov/msdhsite/_static/resources/7660.pdf", "SOURCEDATE": "2018-08-09T00:00:00.000Z", "VAL_METHOD": "IMAGERY", "VAL_DATE": "2014-02-10T00:00:00.000Z", "WEBSITE": "http://www.winstonmedical.org", "STATE_ID": "LICENSE #16-208", "ALT_NAME": "NOT AVAILABLE", "ST_FIPS": "28", "OWNER": "NON-PROFIT", "TTL_STAFF": -999, "BEDS": 27, "TRAUMA": "LEVEL IV", "HELIPAD": "N" }, "geometry": { "type": "Polygon", "coordinates": [ [ [ -89.058658, 33.0248202 ], [ -89.1440339, 33.061517 ], [ -89.1441157, 33.0618058 ], [ -89.15476, 33.111131 ], [ -89.129734, 33.17544 ], [ -89.1216944, 33.1890557 ], [ -89.0062956, 33.186554599999987 ], [ -88.975404, 33.157903 ], [ -88.934409, 33.109101 ], [ -88.9306528, 33.103475900000049 ], [ -88.952756, 33.087378 ], [ -89.008282, 33.050128 ], [ -89.058658, 33.0248202 ] ] ] } },
{ "type": "Feature", "properties": { "OBJECTID": 2958, "ID": "0002239773", "NAME": "CLAY COUNTY MEDICAL CORPORATION", "ADDRESS": "835 MEDICAL CENTER DRIVE", "CITY": "WEST POINT", "STATE": "MS", "ZIP": "39773", "ZIP4": "NOT AVAILABLE", "TELEPHONE": "(662) 495-2300", "TYPE": "GENERAL ACUTE CARE", "STATUS": "OPEN", "POPULATION": 60, "COUNTY": "CLAY", "COUNTYFIPS": "28025", "COUNTRY": "USA", "LATITUDE": 33.619396387000101, "LONGITUDE": -88.662377835000001, "NAICS_CODE": "622110", "NAICS_DESC": "GENERAL MEDICAL AND SURGICAL HOSPITALS", "SOURCE": "https://msdh.ms.gov/msdhsite/_static/resources/7660.pdf", "SOURCEDATE": "2018-08-09T00:00:00.000Z", "VAL_METHOD": "IMAGERY", "VAL_DATE": "2014-02-10T00:00:00.000Z", "WEBSITE": "http://www.nmhs.net/westpoint/", "STATE_ID": "LICENSE #13-312", "ALT_NAME": "NORTH MISSISSIPPI MEDICAL CENTER", "ST_FIPS": "28", "OWNER": "NON-PROFIT", "TTL_STAFF": -999, "BEDS": 60, "TRAUMA": "NOT AVAILABLE", "HELIPAD": "Y" }, "geometry": { "type": "Polygon", "coordinates": [ [ [ -88.6596973, 33.527705799999957 ], [ -88.6722009, 33.528972 ], [ -88.7751082, 33.610206799999986 ], [ -88.6966674, 33.680142 ], [ -88.6326232, 33.6687886 ], [ -88.6169122, 33.6658978 ], [ -88.5966688, 33.65134530000001 ], [ -88.5447246, 33.607068100000014 ], [ -88.630948, 33.526840300000025 ], [ -88.6550471, 33.52746 ], [ -88.6596973, 33.527705799999957 ] ] ] } },
{ "type": "Feature", "properties": { "OBJECTID": 2959, "ID": "0006938821", "NAME": "MERIT HEALTH GILMORE MEMORIAL", "ADDRESS": "1105 EARL FRYE BOULEVARD", "CITY": "AMORY", "STATE": "MS", "ZIP": "38821", "ZIP4": "NOT AVAILABLE", "TELEPHONE": "(662) 256-7111", "TYPE": "GENERAL ACUTE CARE", "STATUS": "OPEN", "POPULATION": 95, "COUNTY": "MONROE", "COUNTYFIPS": "28095", "COUNTRY": "USA", "LATITUDE": 33.977729253000099, "LONGITUDE": -88.476604472000005, "NAICS_CODE": "622110", "NAICS_DESC": "GENERAL MEDICAL AND SURGICAL HOSPITALS", "SOURCE": "https://msdh.ms.gov/msdhsite/_static/resources/7660.pdf", "SOURCEDATE": "2018-08-09T00:00:00.000Z", "VAL_METHOD": "IMAGERY", "VAL_DATE": "2014-03-12T00:00:00.000Z", "WEBSITE": "http://www.merithealthgilmore.com/", "STATE_ID": "LICENSE #12-074", "ALT_NAME": "GILMORE MEMORIAL REGIONAL MEDICAL CENTER", "ST_FIPS": "28", "OWNER": "PROPRIETARY", "TTL_STAFF": -999, "BEDS": 95, "TRAUMA": "LEVEL IV", "HELIPAD": "Y" }, "geometry": { "type": "Polygon", "coordinates": [ [ [ -88.4766616, 33.8870978 ], [ -88.5823977, 33.9719757 ], [ -88.6102743, 33.994467199999939 ], [ -88.551706, 34.044211 ], [ -88.5079784, 34.062537300000031 ], [ -88.423572100000015, 34.0518743 ], [ -88.390249, 33.992375 ], [ -88.388867, 33.988865 ], [ -88.368228, 33.919124 ], [ -88.474041, 33.88708 ], [ -88.4766616, 33.8870978 ] ] ] } },
{ "type": "Feature", "properties": { "OBJECTID": 2961, "ID": "0011538965", "NAME": "YALOBUSHA GENERAL HOSPITAL", "ADDRESS": "630 S. MAIN STREET", "CITY": "WATER VALLEY", "STATE": "MS", "ZIP": "38965", "ZIP4": "NOT AVAILABLE", "TELEPHONE": "(662) 473-1411", "TYPE": "GENERAL ACUTE CARE", "STATUS": "OPEN", "POPULATION": 26, "COUNTY": "YALOBUSHA", "COUNTYFIPS": "28161", "COUNTRY": "USA", "LATITUDE": 34.131255612000103, "LONGITUDE": -89.642088701999995, "NAICS_CODE": "622110", "NAICS_DESC": "GENERAL MEDICAL AND SURGICAL HOSPITALS", "SOURCE": "https://msdh.ms.gov/msdhsite/_static/resources/7660.pdf", "SOURCEDATE": "2018-08-09T00:00:00.000Z", "VAL_METHOD": "IMAGERY", "VAL_DATE": "2013-08-30T00:00:00.000Z", "WEBSITE": "http://yalobushageneral.com/", "STATE_ID": "LICENSE #11-223", "ALT_NAME": "NOT AVAILABLE", "ST_FIPS": "28", "OWNER": "GOVERNMENT - LOCAL", "TTL_STAFF": -999, "BEDS": 26, "TRAUMA": "NOT AVAILABLE", "HELIPAD": "Y" }, "geometry": { "type": "Polygon", "coordinates": [ [ [ -89.671886, 34.030893 ], [ -89.675139, 34.031308 ], [ -89.7556957, 34.113135 ], [ -89.756528700000018, 34.120231 ], [ -89.669187100000016, 34.1940187 ], [ -89.618166400000021, 34.204750299999965 ], [ -89.539063, 34.160977 ], [ -89.556787, 34.06837279999997 ], [ -89.671886, 34.030893 ] ] ] } },
{ "type": "Feature", "properties": { "OBJECTID": 6207, "ID": "0008538375", "NAME": "TENNOVA HEALTHCARE - MCNAIRY REGIONAL", "ADDRESS": "705 EAST POPLAR AVENUE", "CITY": "SELMER", "STATE": "TN", "ZIP": "38375", "ZIP4": "NOT AVAILABLE", "TELEPHONE": "(731) 645-3221", "TYPE": "GENERAL ACUTE CARE", "STATUS": "CLOSED", "POPULATION": 45, "COUNTY": "MCNAIRY", "COUNTYFIPS": "47109", "COUNTRY": "USA", "LATITUDE": 35.162263551000002, "LONGITUDE": -88.574259690999995, "NAICS_CODE": "622110", "NAICS_DESC": "GENERAL MEDICAL AND SURGICAL HOSPITALS", "SOURCE": "http://tnmap.state.tn.us/portal/metadata.asp", "SOURCEDATE": "2012-06-11T00:00:00.000Z", "VAL_METHOD": "IMAGERY/OTHER", "VAL_DATE": "2014-02-10T00:00:00.000Z", "WEBSITE": "http://www.mcnairyregionalhospital.com", "STATE_ID": "899929", "ALT_NAME": "NOT AVAILABLE", "ST_FIPS": "47", "OWNER": "PROPRIETARY", "TTL_STAFF": -999, "BEDS": 45, "TRAUMA": "NOT AVAILABLE", "HELIPAD": "Y" }, "geometry": { "type": "Polygon", "coordinates": [ [ [ -88.527385267732043, 35.031358377437464 ], [ -88.5845241, 35.072892199999984 ], [ -88.653963, 35.132893 ], [ -88.7083983, 35.208209599999989 ], [ -88.7083463, 35.208418200000011 ], [ -88.6294755, 35.2574515 ], [ -88.6292453, 35.257558699999969 ], [ -88.437982946773687, 35.213746330830979 ], [ -88.437784046966087, 35.213546830506104 ], [ -88.436874349852076, 35.210307224060053 ], [ -88.527385267732043, 35.031358377437464 ] ] ] } },
{ "type": "Feature", "properties": { "OBJECTID": 6460, "ID": "0011139744", "NAME": "WEBSTER HEALTH SERVICES, INC", "ADDRESS": "70 MEDICAL PLAZA", "CITY": "EUPORA", "STATE": "MS", "ZIP": "39744", "ZIP4": "NOT AVAILABLE", "TELEPHONE": "(662) 258-6221", "TYPE": "GENERAL ACUTE CARE", "STATUS": "OPEN", "POPULATION": 38, "COUNTY": "WEBSTER", "COUNTYFIPS": "28155", "COUNTRY": "USA", "LATITUDE": 33.5338297220001, "LONGITUDE": -89.266252942999998, "NAICS_CODE": "622110", "NAICS_DESC": "GENERAL MEDICAL AND SURGICAL HOSPITALS", "SOURCE": "https://msdh.ms.gov/msdhsite/_static/resources/7660.pdf", "SOURCEDATE": "2018-08-09T00:00:00.000Z", "VAL_METHOD": "IMAGERY", "VAL_DATE": "2014-02-10T00:00:00.000Z", "WEBSITE": "http://www.nmhs.net/eupora/", "STATE_ID": "LICENSE #13-225", "ALT_NAME": "NORTH MISSISSIPPI MEDICAL CENTER - EUPORA", "ST_FIPS": "28", "OWNER": "NON-PROFIT", "TTL_STAFF": -999, "BEDS": 38, "TRAUMA": "NOT AVAILABLE", "HELIPAD": "Y" }, "geometry": { "type": "Polygon", "coordinates": [ [ [ -89.376101, 33.476744499999988 ], [ -89.3762505, 33.476957500000019 ], [ -89.325103, 33.577831 ], [ -89.2922061, 33.629916 ], [ -89.2866181, 33.632391 ], [ -89.277168, 33.629754 ], [ -89.162474, 33.566243 ], [ -89.1276021, 33.540428299999959 ], [ -89.127591, 33.539675 ], [ -89.131932, 33.538472 ], [ -89.1535276, 33.532588 ], [ -89.376101, 33.476744499999988 ] ] ] } },
{ "type": "Feature", "properties": { "OBJECTID": 6734, "ID": "0007639341", "NAME": "NOXUBEE GENERAL CRITICAL ACCESS HOSPITAL", "ADDRESS": "78 HOSPITAL ROAD", "CITY": "MACON", "STATE": "MS", "ZIP": "39341", "ZIP4": "NOT AVAILABLE", "TELEPHONE": "(662) 726-4231", "TYPE": "CRITICAL ACCESS", "STATUS": "OPEN", "POPULATION": 25, "COUNTY": "NOXUBEE", "COUNTYFIPS": "28103", "COUNTRY": "USA", "LATITUDE": 33.122232797000002, "LONGITUDE": -88.558605384000003, "NAICS_CODE": "622110", "NAICS_DESC": "GENERAL MEDICAL AND SURGICAL HOSPITALS", "SOURCE": "https://msdh.ms.gov/msdhsite/_static/resources/7660.pdf", "SOURCEDATE": "2018-08-09T00:00:00.000Z", "VAL_METHOD": "IMAGERY/OTHER", "VAL_DATE": "2016-08-17T00:00:00.000Z", "WEBSITE": "http://www.ngcah.com/", "STATE_ID": "LICENSE #11-081", "ALT_NAME": "NOT AVAILABLE", "ST_FIPS": "28", "OWNER": "GOVERNMENT - LOCAL", "TTL_STAFF": -999, "BEDS": 25, "TRAUMA": "LEVEL IV", "HELIPAD": "Y" }, "geometry": { "type": "Polygon", "coordinates": [ [ [ -88.563556159695864, 33.010936078640789 ], [ -88.648269, 33.099997 ], [ -88.648516, 33.101896 ], [ -88.587049, 33.234479 ], [ -88.5783306, 33.2465616 ], [ -88.5781177, 33.246776800000042 ], [ -88.5703088, 33.245723299999945 ], [ -88.451499, 33.092374 ], [ -88.563556159695864, 33.010936078640789 ] ] ] } },
{ "type": "Feature", "properties": { "OBJECTID": 6780, "ID": "0010238663", "NAME": "TIPPAH COUNTY HOSPITAL", "ADDRESS": "1005 CITY AVENUE NORTH", "CITY": "RIPLEY", "STATE": "MS", "ZIP": "38663", "ZIP4": "NOT AVAILABLE", "TELEPHONE": "(662) 837-9221", "TYPE": "GENERAL ACUTE CARE", "STATUS": "OPEN", "POPULATION": 25, "COUNTY": "TIPPAH", "COUNTYFIPS": "28139", "COUNTRY": "USA", "LATITUDE": 34.739389814, "LONGITUDE": -88.950247335, "NAICS_CODE": "622110", "NAICS_DESC": "GENERAL MEDICAL AND SURGICAL HOSPITALS", "SOURCE": "https://msdh.ms.gov/msdhsite/_static/resources/7660.pdf", "SOURCEDATE": "2018-08-09T00:00:00.000Z", "VAL_METHOD": "IMAGERY", "VAL_DATE": "2013-10-02T00:00:00.000Z", "WEBSITE": "http://www.tippahcounty.ripley.ms/hospital.html", "STATE_ID": "LICENSE #11-159", "ALT_NAME": "NOT AVAILABLE", "ST_FIPS": "28", "OWNER": "GOVERNMENT - LOCAL", "TTL_STAFF": -999, "BEDS": 25, "TRAUMA": "LEVEL IV", "HELIPAD": "Y" }, "geometry": { "type": "Polygon", "coordinates": [ [ [ -89.0266021, 34.6595104 ], [ -89.0373361, 34.668852 ], [ -89.0661455, 34.7416553 ], [ -88.93717, 34.84247 ], [ -88.9346828, 34.841921600000028 ], [ -88.8383752, 34.749048399999985 ], [ -88.8353117, 34.713187600000019 ], [ -88.870071, 34.678255 ], [ -88.972169, 34.656559 ], [ -89.0266021, 34.6595104 ] ] ] } },
{ "type": "Feature", "properties": { "OBJECTID": 4023, "ID": "0176936109", "NAME": "CAVHCS EAST CAMPUS", "ADDRESS": "8105 VETERANS WAY", "CITY": "MONTGOMERY", "STATE": "AL", "ZIP": "36109", "ZIP4": "NOT AVAILABLE", "TELEPHONE": "(800) 214-8387", "TYPE": "MILITARY", "STATUS": "OPEN", "POPULATION": -999, "COUNTY": "MONGOMERY", "COUNTYFIPS": "01101", "COUNTRY": "USA", "LATITUDE": 32.35771, "LONGITUDE": -86.129219, "NAICS_CODE": "622110", "NAICS_DESC": "GENERAL MEDICAL AND SURGICAL HOSPITALS", "SOURCE": "http://dph1.adph.state.al.us/FacilitiesDirectory", "SOURCEDATE": "2018-08-09T00:00:00.000Z", "VAL_METHOD": "IMAGERY", "VAL_DATE": "2019-05-09T00:00:00.000Z", "WEBSITE": "https://www.centralalabama.va.gov/", "STATE_ID": "NOT AVAILABLE", "ALT_NAME": "NOT AVAILABLE", "ST_FIPS": "01", "OWNER": "GOVERNMENT - FEDERAL", "TTL_STAFF": -999, "BEDS": -999, "TRAUMA": "NOT AVAILABLE", "HELIPAD": "N" }, "geometry": { "type": "Polygon", "coordinates": [ [ [ -86.1961052, 32.293169600000013 ], [ -86.2547655, 32.327091 ], [ -86.2846766, 32.364561300000041 ], [ -86.284397, 32.36657 ], [ -86.2832274, 32.368635600000012 ], [ -86.2171684, 32.410189600000031 ], [ -86.2169736, 32.410263099999966 ], [ -86.2167794, 32.4103363 ], [ -86.212161, 32.411039 ], [ -86.111556, 32.414923 ], [ -86.0043947, 32.3730754 ], [ -86.039997, 32.315467 ], [ -86.0468332, 32.3143882 ], [ -86.1961052, 32.293169600000013 ] ] ] } },
{ "type": "Feature", "properties": { "OBJECTID": 4026, "ID": "0172435046", "NAME": "ST VINCENTS CHILTON", "ADDRESS": "2030 LAY DAM ROAD", "CITY": "CLANTON", "STATE": "AL", "ZIP": "35046", "ZIP4": "NOT AVAILABLE", "TELEPHONE": "(205) 258-4400", "TYPE": "GENERAL ACUTE CARE", "STATUS": "OPEN", "POPULATION": 26, "COUNTY": "CHILTON", "COUNTYFIPS": "01021", "COUNTRY": "USA", "LATITUDE": 32.880286, "LONGITUDE": -86.62279, "NAICS_CODE": "622110", "NAICS_DESC": "GENERAL MEDICAL AND SURGICAL HOSPITALS", "SOURCE": "http://dph1.adph.state.al.us/FacilitiesDirectory", "SOURCEDATE": "2018-08-09T00:00:00.000Z", "VAL_METHOD": "IMAGERY", "VAL_DATE": "2019-05-09T00:00:00.000Z", "WEBSITE": "http://www.stvhs.com/", "STATE_ID": "H1102", "ALT_NAME": "NOT AVAILABLE", "ST_FIPS": "01", "OWNER": "PROPRIETARY", "TTL_STAFF": -999, "BEDS": 26, "TRAUMA": "NOT AVAILABLE", "HELIPAD": "Y" }, "geometry": { "type": "Polygon", "coordinates": [ [ [ -86.622433, 32.793776 ], [ -86.652989, 32.806814 ], [ -86.700856, 32.830925 ], [ -86.708853, 32.907063 ], [ -86.709043, 32.97328 ], [ -86.702269, 32.98236 ], [ -86.691529, 32.993257 ], [ -86.613627, 32.998724 ], [ -86.558415, 32.942068 ], [ -86.541205, 32.854534 ], [ -86.557727, 32.801658 ], [ -86.568053, 32.795302 ], [ -86.594986, 32.792363 ], [ -86.622433, 32.793776 ] ] ] } },
{ "type": "Feature", "properties": { "OBJECTID": 4088, "ID": "0001539301", "NAME": "REGENCY HOSPITAL OF MERIDIAN", "ADDRESS": "1102 CONSTITUTION AVE., 2ND FLOOR", "CITY": "MERIDIAN", "STATE": "MS", "ZIP": "39301", "ZIP4": "NOT AVAILABLE", "TELEPHONE": "(601) 484-7900", "TYPE": "LONG TERM CARE", "STATUS": "OPEN", "POPULATION": 40, "COUNTY": "LAUDERDALE", "COUNTYFIPS": "28075", "COUNTRY": "USA", "LATITUDE": 32.368068261000097, "LONGITUDE": -88.69906394, "NAICS_CODE": "622310", "NAICS_DESC": "SPECIALTY (EXCEPT PSYCHIATRIC AND SUBSTANCE ABUSE) HOSPITALS", "SOURCE": "https://msdh.ms.gov/msdhsite/_static/resources/7660.pdf", "SOURCEDATE": "2018-08-09T00:00:00.000Z", "VAL_METHOD": "IMAGERY", "VAL_DATE": "2014-03-12T00:00:00.000Z", "WEBSITE": "http://www.regencyhospital.com", "STATE_ID": "LICENSE #22-332", "ALT_NAME": "NOT AVAILABLE", "ST_FIPS": "28", "OWNER": "PROPRIETARY", "TTL_STAFF": -999, "BEDS": 40, "TRAUMA": "NOT AVAILABLE", "HELIPAD": "N" }, "geometry": { "type": "Polygon", "coordinates": [ [ [ -88.705060919683888, 32.268605993360353 ], [ -88.7685877, 32.2830586 ], [ -88.825205, 32.34617 ], [ -88.7904821, 32.431703200000022 ], [ -88.7902371, 32.431847499999989 ], [ -88.722974599722022, 32.467531382444974 ], [ -88.627762105386353, 32.450260208730548 ], [ -88.57272316166609, 32.39273146784371 ], [ -88.572837160506367, 32.391193467108707 ], [ -88.591111135134682, 32.342650483008967 ], [ -88.692397804851097, 32.269200054460882 ], [ -88.705060919683888, 32.268605993360353 ] ] ] } },
{ "type": "Feature", "properties": { "OBJECTID": 4090, "ID": "0091436106", "NAME": "NOLAND HOSPITAL MONTGOMERY, LLC", "ADDRESS": "1725 PINE STREET, 5TH FLOOR, NORTH WING", "CITY": "MONTGOMERY", "STATE": "AL", "ZIP": "36106", "ZIP4": "NOT AVAILABLE", "TELEPHONE": "(334) 240-0532", "TYPE": "LONG TERM CARE", "STATUS": "OPEN", "POPULATION": 65, "COUNTY": "MONTGOMERY", "COUNTYFIPS": "01101", "COUNTRY": "USA", "LATITUDE": 32.366969330000103, "LONGITUDE": -86.285790053, "NAICS_CODE": "622310", "NAICS_DESC": "SPECIALTY (EXCEPT PSYCHIATRIC AND SUBSTANCE ABUSE) HOSPITALS", "SOURCE": "http://dph1.adph.state.al.us/FacilitiesDirectory", "SOURCEDATE": "2018-08-09T00:00:00.000Z", "VAL_METHOD": "IMAGERY/OTHER", "VAL_DATE": "2015-02-03T00:00:00.000Z", "WEBSITE": "NOT AVAILABLE", "STATE_ID": "H5109", "ALT_NAME": "NOT AVAILABLE", "ST_FIPS": "01", "OWNER": "PROPRIETARY", "TTL_STAFF": -999, "BEDS": 65, "TRAUMA": "LEVEL III", "HELIPAD": "Y" }, "geometry": { "type": "Polygon", "coordinates": [ [ [ -86.26455, 32.283628 ], [ -86.308919, 32.288897 ], [ -86.349672, 32.294108 ], [ -86.3796831, 32.308863699999961 ], [ -86.3887167, 32.390953599999989 ], [ -86.36058, 32.43103 ], [ -86.356998, 32.433846 ], [ -86.261733, 32.44567 ], [ -86.218758, 32.43537 ], [ -86.135823, 32.37509 ], [ -86.128545, 32.368397899999984 ], [ -86.1309953, 32.355533900000033 ], [ -86.2064165, 32.302063500000017 ], [ -86.26455, 32.283628 ] ] ] } },
{ "type": "Feature", "properties": { "OBJECTID": 4179, "ID": "0013735611", "NAME": "NORTH ALABAMA SPECIALTY HOSPITAL", "ADDRESS": "700 WEST MARKET ST, 2ND FLOOR", "CITY": "ATHENS", "STATE": "AL", "ZIP": "35611", "ZIP4": "NOT AVAILABLE", "TELEPHONE": "(256) 262-6767", "TYPE": "LONG TERM CARE", "STATUS": "OPEN", "POPULATION": 31, "COUNTY": "LIMESTONE", "COUNTYFIPS": "01083", "COUNTRY": "USA", "LATITUDE": 34.804245578000099, "LONGITUDE": -86.978872603, "NAICS_CODE": "622310", "NAICS_DESC": "SPECIALTY (EXCEPT PSYCHIATRIC AND SUBSTANCE ABUSE) HOSPITALS", "SOURCE": "http://dph1.adph.state.al.us/FacilitiesDirectory", "SOURCEDATE": "2018-08-09T00:00:00.000Z", "VAL_METHOD": "IMAGERY/OTHER", "VAL_DATE": "2016-03-08T00:00:00.000Z", "WEBSITE": "NOT AVAILABLE", "STATE_ID": "H4203", "ALT_NAME": "NOT AVAILABLE", "ST_FIPS": "01", "OWNER": "PROPRIETARY", "TTL_STAFF": -999, "BEDS": 31, "TRAUMA": "NOT AVAILABLE", "HELIPAD": "Y" }, "geometry": { "type": "Polygon", "coordinates": [ [ [ -86.955967, 34.698573 ], [ -87.045807, 34.744567 ], [ -87.115964, 34.795343 ], [ -87.099851, 34.821169 ], [ -87.061911, 34.871012 ], [ -86.9951383, 34.8999036 ], [ -86.9926021, 34.899878899999983 ], [ -86.989652, 34.899792 ], [ -86.871727, 34.846597 ], [ -86.859256, 34.763736 ], [ -86.859249, 34.763597 ], [ -86.954727, 34.698542 ], [ -86.955967, 34.698573 ] ] ] } },
{ "type": "Feature", "properties": { "OBJECTID": 4196, "ID": "0090535401", "NAME": "NOLAND HOSPITAL TUSCALOOSA, LLC", "ADDRESS": "809 UNIVERSITY BLVD EAST, 4TH FLOOR", "CITY": "TUSCALOOSA", "STATE": "AL", "ZIP": "35401", "ZIP4": "NOT AVAILABLE", "TELEPHONE": "(205) 759-7241", "TYPE": "LONG TERM CARE", "STATUS": "OPEN", "POPULATION": -999, "COUNTY": "TUSCALOOSA", "COUNTYFIPS": "01125", "COUNTRY": "USA", "LATITUDE": 33.205174448000001, "LONGITUDE": -87.526364376999894, "NAICS_CODE": "622310", "NAICS_DESC": "SPECIALTY (EXCEPT PSYCHIATRIC AND SUBSTANCE ABUSE) HOSPITALS", "SOURCE": "http://dph1.adph.state.al.us/FacilitiesDirectory", "SOURCEDATE": "2018-08-09T00:00:00.000Z", "VAL_METHOD": "IMAGERY/OTHER", "VAL_DATE": "2015-02-03T00:00:00.000Z", "WEBSITE": "NOT AVAILABLE", "STATE_ID": "H6308", "ALT_NAME": "NOT AVAILABLE", "ST_FIPS": "01", "OWNER": "PROPRIETARY", "TTL_STAFF": -999, "BEDS": 32, "TRAUMA": "NOT AVAILABLE", "HELIPAD": "Y" }, "geometry": { "type": "Polygon", "coordinates": [ [ [ -87.460509, 33.095467 ], [ -87.551633, 33.104177 ], [ -87.552488, 33.10427 ], [ -87.552741, 33.104317 ], [ -87.616102, 33.149728 ], [ -87.627908, 33.159919 ], [ -87.631474, 33.181354 ], [ -87.6385714, 33.234197700000017 ], [ -87.6385473, 33.234373099999985 ], [ -87.616293, 33.270826 ], [ -87.5998223, 33.2781488 ], [ -87.570982, 33.285063 ], [ -87.533485, 33.288804 ], [ -87.490164, 33.284598 ], [ -87.4135582, 33.2348554 ], [ -87.405075, 33.171549 ], [ -87.4049974, 33.17093430000002 ], [ -87.460289, 33.095585 ], [ -87.460509, 33.095467 ] ] ] } },
{ "type": "Feature", "properties": { "OBJECTID": 4524, "ID": "0005235462", "NAME": "GREENE COUNTY HOSPITAL", "ADDRESS": "509 WILSON AVENUE", "CITY": "EUTAW", "STATE": "AL", "ZIP": "35462", "ZIP4": "NOT AVAILABLE", "TELEPHONE": "(205) 931-6814", "TYPE": "GENERAL ACUTE CARE", "STATUS": "OPEN", "POPULATION": 20, "COUNTY": "GREENE", "COUNTYFIPS": "01063", "COUNTRY": "USA", "LATITUDE": 32.84324894, "LONGITUDE": -87.890483476, "NAICS_CODE": "622110", "NAICS_DESC": "GENERAL MEDICAL AND SURGICAL HOSPITALS", "SOURCE": "http://dph1.adph.state.al.us/FacilitiesDirectory", "SOURCEDATE": "2018-08-09T00:00:00.000Z", "VAL_METHOD": "IMAGERY/OTHER", "VAL_DATE": "2014-02-10T00:00:00.000Z", "WEBSITE": "NOT AVAILABLE", "STATE_ID": "01-0051", "ALT_NAME": "NOT AVAILABLE", "ST_FIPS": "01", "OWNER": "GOVERNMENT - LOCAL", "TTL_STAFF": -999, "BEDS": 20, "TRAUMA": "NOT AVAILABLE", "HELIPAD": "Y" }, "geometry": { "type": "Polygon", "coordinates": [ [ [ -87.907337826016104, 32.741603795260417 ], [ -87.976353765052878, 32.787015767029111 ], [ -87.983516759588753, 32.80333378120023 ], [ -87.998825749276492, 32.914168915925046 ], [ -87.993079754761965, 32.918037922744581 ], [ -87.831175908260533, 32.929804976782272 ], [ -87.829377909624327, 32.927480975916474 ], [ -87.810067410417801, 32.81755122909621 ], [ -87.907337826016104, 32.741603795260417 ] ] ] } },
{ "type": "Feature", "properties": { "OBJECTID": 4525, "ID": "0009735609", "NAME": "NORTH ALABAMA REGIONAL HOSPITAL", "ADDRESS": "4218 HWY 31 S", "CITY": "DECATUR", "STATE": "AL", "ZIP": "35609", "ZIP4": "NOT AVAILABLE", "TELEPHONE": "(256) 560-2200", "TYPE": "PSYCHIATRIC", "STATUS": "CLOSED", "POPULATION": 74, "COUNTY": "MORGAN", "COUNTYFIPS": "01103", "COUNTRY": "USA", "LATITUDE": 34.521616698000102, "LONGITUDE": -86.967029009000001, "NAICS_CODE": "622210", "NAICS_DESC": "HOSPITALS, PSYCHIATRIC (EXCEPT CONVALESCENT)", "SOURCE": "http://ph.state.al.us/facilitiesdirectory/%28S%28ydsic2jp55v0jj45incw4e33%29%29/Default.aspx", "SOURCEDATE": "2012-06-05T00:00:00.000Z", "VAL_METHOD": "IMAGERY", "VAL_DATE": "2014-02-10T00:00:00.000Z", "WEBSITE": "http://www.narh.mh.alabama.gov", "STATE_ID": "01-4009", "ALT_NAME": "NOT AVAILABLE", "ST_FIPS": "01", "OWNER": "GOVERNMENT - STATE", "TTL_STAFF": -999, "BEDS": 74, "TRAUMA": "NOT AVAILABLE", "HELIPAD": "N" }, "geometry": { "type": "Polygon", "coordinates": [ [ [ -86.929995, 34.42598 ], [ -86.9477532, 34.4300348 ], [ -86.964638, 34.440463 ], [ -87.025236, 34.50901 ], [ -87.0398075, 34.5609736 ], [ -87.029095, 34.589446500000037 ], [ -87.0288982, 34.5895799 ], [ -86.9883571, 34.611536 ], [ -86.9811899, 34.612724600000014 ], [ -86.9793854, 34.6126513 ], [ -86.9622566, 34.6015505 ], [ -86.9456166, 34.587184599999972 ], [ -86.9009323, 34.544171 ], [ -86.9006209, 34.529490599999946 ], [ -86.929834, 34.426066 ], [ -86.929995, 34.42598 ] ] ] } },
{ "type": "Feature", "properties": { "OBJECTID": 4526, "ID": "0000335211", "NAME": "BAPTIST MEDICAL CENTER - PRINCETON", "ADDRESS": "701 PRINCETON AVENUE, S.W.", "CITY": "BIRMINGHAM", "STATE": "AL", "ZIP": "35211", "ZIP4": "NOT AVAILABLE", "TELEPHONE": "(205) 715-5309", "TYPE": "GENERAL ACUTE CARE", "STATUS": "OPEN", "POPULATION": 505, "COUNTY": "JEFFERSON", "COUNTYFIPS": "01073", "COUNTRY": "USA", "LATITUDE": 33.498006531999998, "LONGITUDE": -86.847187775999899, "NAICS_CODE": "622110", "NAICS_DESC": "GENERAL MEDICAL AND SURGICAL HOSPITALS", "SOURCE": "http://dph1.adph.state.al.us/FacilitiesDirectory", "SOURCEDATE": "2018-08-09T00:00:00.000Z", "VAL_METHOD": "IMAGERY/OTHER", "VAL_DATE": "2014-03-12T00:00:00.000Z", "WEBSITE": "http://www.bhsala.com/princeton/Home.aspx", "STATE_ID": "H6101", "ALT_NAME": "NOT AVAILABLE", "ST_FIPS": "01", "OWNER": "PROPRIETARY", "TTL_STAFF": -999, "BEDS": 505, "TRAUMA": "NOT AVAILABLE", "HELIPAD": "Y" }, "geometry": { "type": "Polygon", "coordinates": [ [ [ -86.8061264, 33.402795399999967 ], [ -86.8561221, 33.4123934 ], [ -86.936832, 33.432774 ], [ -86.937467, 33.433205 ], [ -86.9398767, 33.4357444 ], [ -86.9404343, 33.436925499999987 ], [ -86.9490411, 33.458611899999987 ], [ -86.9480083, 33.491830899999968 ], [ -86.943599, 33.535534 ], [ -86.9224313, 33.581787499999983 ], [ -86.9223224, 33.581971799999984 ], [ -86.9222277, 33.582127 ], [ -86.922098, 33.582315 ], [ -86.8080881, 33.604252200000019 ], [ -86.7369912, 33.5531104 ], [ -86.7355689, 33.5320057 ], [ -86.757374, 33.466842 ], [ -86.804237, 33.402833 ], [ -86.805972, 33.402794800000031 ], [ -86.8061264, 33.402795399999967 ] ] ] } },
{ "type": "Feature", "properties": { "OBJECTID": 4527, "ID": "0008736033", "NAME": "GEORGIANA MEDICAL CENTER", "ADDRESS": "515 MIRANDA STREET", "CITY": "GEORGIANA", "STATE": "AL", "ZIP": "36033", "ZIP4": "NOT AVAILABLE", "TELEPHONE": "(334) 376-2205", "TYPE": "GENERAL ACUTE CARE", "STATUS": "OPEN", "POPULATION": 22, "COUNTY": "BUTLER", "COUNTYFIPS": "01013", "COUNTRY": "USA", "LATITUDE": 31.636321588000001, "LONGITUDE": -86.743075051999895, "NAICS_CODE": "622110", "NAICS_DESC": "GENERAL MEDICAL AND SURGICAL HOSPITALS", "SOURCE": "http://dph1.adph.state.al.us/FacilitiesDirectory", "SOURCEDATE": "2018-08-09T00:00:00.000Z", "VAL_METHOD": "IMAGERY/OTHER", "VAL_DATE": "2014-02-10T00:00:00.000Z", "WEBSITE": "NOT AVAILABLE", "STATE_ID": "H0701", "ALT_NAME": "NOT AVAILABLE", "ST_FIPS": "01", "OWNER": "PROPRIETARY", "TTL_STAFF": -999, "BEDS": 22, "TRAUMA": "NOT AVAILABLE", "HELIPAD": "N" }, "geometry": { "type": "Polygon", "coordinates": [ [ [ -86.706413534886906, 31.516257312892193 ], [ -86.749026223033255, 31.523799704232598 ], [ -86.843833346009646, 31.574040608196604 ], [ -86.845024348451958, 31.575179610651293 ], [ -86.845816349800401, 31.576179613965117 ], [ -86.847249352120613, 31.578165621197332 ], [ -86.842790202647834, 31.676070316718995 ], [ -86.68062758540502, 31.730785027955775 ], [ -86.678800591594921, 31.729898021097977 ], [ -86.626884923641157, 31.633426335854445 ], [ -86.706413534886906, 31.516257312892193 ] ] ] } },
{ "type": "Feature", "properties": { "OBJECTID": 914, "ID": "0010735007", "NAME": "SHELBY BAPTIST MEDICAL CENTER", "ADDRESS": "1000 FIRST STREET, NORTH", "CITY": "ALABASTER", "STATE": "AL", "ZIP": "35007", "ZIP4": "NOT AVAILABLE", "TELEPHONE": "(205) 715-5309", "TYPE": "GENERAL ACUTE CARE", "STATUS": "OPEN", "POPULATION": 252, "COUNTY": "SHELBY", "COUNTYFIPS": "01117", "COUNTRY": "USA", "LATITUDE": 33.252364866999997, "LONGITUDE": -86.813043014999906, "NAICS_CODE": "622110", "NAICS_DESC": "GENERAL MEDICAL AND SURGICAL HOSPITALS", "SOURCE": "http://dph1.adph.state.al.us/FacilitiesDirectory", "SOURCEDATE": "2018-08-09T00:00:00.000Z", "VAL_METHOD": "IMAGERY/OTHER", "VAL_DATE": "2014-03-12T00:00:00.000Z", "WEBSITE": "http://www.bhsala.com/shelby/Home.aspx", "STATE_ID": "H6101", "ALT_NAME": "NOT AVAILABLE", "ST_FIPS": "01", "OWNER": "PROPRIETARY", "TTL_STAFF": -999, "BEDS": 252, "TRAUMA": "LEVEL III", "HELIPAD": "Y" }, "geometry": { "type": "Polygon", "coordinates": [ [ [ -86.752396, 33.127173 ], [ -86.822521, 33.150098 ], [ -86.861646, 33.189394 ], [ -86.878805, 33.21351 ], [ -86.879706, 33.215795 ], [ -86.88067, 33.221077 ], [ -86.889061, 33.28412 ], [ -86.8780927, 33.295942400000058 ], [ -86.804635, 33.35472 ], [ -86.7955611, 33.3584794 ], [ -86.7921508, 33.3592171 ], [ -86.77169, 33.359567 ], [ -86.758289, 33.349749 ], [ -86.737773, 33.307234 ], [ -86.729287, 33.207318 ], [ -86.7432804, 33.1466547 ], [ -86.74912, 33.131406 ], [ -86.7493605, 33.130969500000013 ], [ -86.752396, 33.127173 ] ] ] } },
{ "type": "Feature", "properties": { "OBJECTID": 919, "ID": "0004735570", "NAME": "NORTH MISSISSIPPI MEDICAL CENTER - HAMILTON", "ADDRESS": "1256 MILITARY STREET SOUTH", "CITY": "HAMILTON", "STATE": "AL", "ZIP": "35570", "ZIP4": "NOT AVAILABLE", "TELEPHONE": "(205) 921-6202", "TYPE": "GENERAL ACUTE CARE", "STATUS": "OPEN", "POPULATION": 49, "COUNTY": "MARION", "COUNTYFIPS": "01093", "COUNTRY": "USA", "LATITUDE": 34.125977180000099, "LONGITUDE": -87.990768777, "NAICS_CODE": "622110", "NAICS_DESC": "GENERAL MEDICAL AND SURGICAL HOSPITALS", "SOURCE": "http://dph1.adph.state.al.us/FacilitiesDirectory", "SOURCEDATE": "2018-08-09T00:00:00.000Z", "VAL_METHOD": "IMAGERY/OTHER", "VAL_DATE": "2014-02-10T00:00:00.000Z", "WEBSITE": "http://www.nmhs.net/hamilton/", "STATE_ID": "H4703", "ALT_NAME": "NOT AVAILABLE", "ST_FIPS": "01", "OWNER": "NON-PROFIT", "TTL_STAFF": -999, "BEDS": 49, "TRAUMA": "NOT AVAILABLE", "HELIPAD": "Y" }, "geometry": { "type": "Polygon", "coordinates": [ [ [ -87.939475990347646, 34.022806033087328 ], [ -88.033308998150716, 34.053922008290385 ], [ -88.082183009918609, 34.083419956215891 ], [ -88.085576002917279, 34.141271946180773 ], [ -88.085136999250452, 34.167540943728334 ], [ -88.06894799419743, 34.191688960121347 ], [ -87.931010991023271, 34.222214028856868 ], [ -87.908724992485631, 34.226229024719267 ], [ -87.87442399404938, 34.133148020938123 ], [ -87.883883092926112, 34.038896024830578 ], [ -87.939475990347646, 34.022806033087328 ] ] ] } },
{ "type": "Feature", "properties": { "OBJECTID": 920, "ID": "0003935601", "NAME": "DECATUR MORGAN HOSPITAL - DECATUR CAMPUS", "ADDRESS": "1201 SEVENTH STREET, SOUTHEAST", "CITY": "DECATUR", "STATE": "AL", "ZIP": "35601", "ZIP4": "NOT AVAILABLE", "TELEPHONE": "(256) 341-2000", "TYPE": "GENERAL ACUTE CARE", "STATUS": "OPEN", "POPULATION": 230, "COUNTY": "MORGAN", "COUNTYFIPS": "01103", "COUNTRY": "USA", "LATITUDE": 34.590344091000098, "LONGITUDE": -86.971481526000005, "NAICS_CODE": "622110", "NAICS_DESC": "GENERAL MEDICAL AND SURGICAL HOSPITALS", "SOURCE": "http://dph1.adph.state.al.us/FacilitiesDirectory", "SOURCEDATE": "2018-08-09T00:00:00.000Z", "VAL_METHOD": "IMAGERY/OTHER", "VAL_DATE": "2014-03-12T00:00:00.000Z", "WEBSITE": "http://www.decaturgeneral.org/", "STATE_ID": "H5206", "ALT_NAME": "NOT AVAILABLE", "ST_FIPS": "01", "OWNER": "PROPRIETARY", "TTL_STAFF": -999, "BEDS": 230, "TRAUMA": "LEVEL III", "HELIPAD": "Y" }, "geometry": { "type": "Polygon", "coordinates": [ [ [ -86.963318, 34.483442 ], [ -87.061015, 34.561368 ], [ -87.0797248, 34.578075700000035 ], [ -87.0787193, 34.6217507 ], [ -87.0786263, 34.621863100000013 ], [ -87.03839, 34.639771 ], [ -87.0353173, 34.639576800000071 ], [ -86.9922731, 34.623486399999969 ], [ -86.9473214, 34.5952797 ], [ -86.886077, 34.543782 ], [ -86.881133, 34.514931 ], [ -86.963318, 34.483442 ] ] ] } },
{ "type": "Feature", "properties": { "OBJECTID": 921, "ID": "0004935903", "NAME": "GADSDEN REGIONAL MEDICAL CENTER", "ADDRESS": "1007 GOODYEAR AVENUE", "CITY": "GADSDEN", "STATE": "AL", "ZIP": "35903", "ZIP4": "NOT AVAILABLE", "TELEPHONE": "(256) 494-4000", "TYPE": "GENERAL ACUTE CARE", "STATUS": "OPEN", "POPULATION": 346, "COUNTY": "ETOWAH", "COUNTYFIPS": "01055", "COUNTRY": "USA", "LATITUDE": 34.007736282000103, "LONGITUDE": -85.965982140999998, "NAICS_CODE": "622110", "NAICS_DESC": "GENERAL MEDICAL AND SURGICAL HOSPITALS", "SOURCE": "http://dph1.adph.state.al.us/FacilitiesDirectory", "SOURCEDATE": "2018-08-09T00:00:00.000Z", "VAL_METHOD": "IMAGERY/OTHER", "VAL_DATE": "2014-02-10T00:00:00.000Z", "WEBSITE": "http://www.gadsdenregional.com", "STATE_ID": "H2801", "ALT_NAME": "NOT AVAILABLE", "ST_FIPS": "01", "OWNER": "PROPRIETARY", "TTL_STAFF": -999, "BEDS": 346, "TRAUMA": "LEVEL III", "HELIPAD": "Y" }, "geometry": { "type": "Polygon", "coordinates": [ [ [ -85.91119, 33.906368 ], [ -85.960067, 33.921316 ], [ -86.0448257, 33.951165400000015 ], [ -86.087877300000017, 33.9967369 ], [ -86.078945200000021, 34.01906 ], [ -86.0757768, 34.022933299999977 ], [ -86.028172, 34.067396 ], [ -85.9183102, 34.0683405 ], [ -85.9180342, 34.068229300000013 ], [ -85.8324873, 33.983756100000029 ], [ -85.91119, 33.906368 ] ] ] } },
{ "type": "Feature", "properties": { "OBJECTID": 7041, "ID": "0006938372", "NAME": "HARDIN MEDICAL CENTER", "ADDRESS": "935 WAYNE RD.", "CITY": "SAVANNAH", "STATE": "TN", "ZIP": "38372", "ZIP4": "NOT AVAILABLE", "TELEPHONE": "(731) 926-8121", "TYPE": "GENERAL ACUTE CARE", "STATUS": "OPEN", "POPULATION": 58, "COUNTY": "HARDIN", "COUNTYFIPS": "47071", "COUNTRY": "USA", "LATITUDE": 35.227931123000097, "LONGITUDE": -88.230347084999906, "NAICS_CODE": "622110", "NAICS_DESC": "GENERAL MEDICAL AND SURGICAL HOSPITALS", "SOURCE": "https://apps.health.tn.gov/FacilityListings", "SOURCEDATE": "2018-08-10T00:00:00.000Z", "VAL_METHOD": "IMAGERY/OTHER", "VAL_DATE": "2013-09-10T00:00:00.000Z", "WEBSITE": "http://www.hardinmedicalcenter.org", "STATE_ID": "869405", "ALT_NAME": "NOT AVAILABLE", "ST_FIPS": "47", "OWNER": "GOVERNMENT - LOCAL", "TTL_STAFF": -999, "BEDS": 58, "TRAUMA": "NOT AVAILABLE", "HELIPAD": "Y" }, "geometry": { "type": "Polygon", "coordinates": [ [ [ -88.254251227819651, 35.133077301209823 ], [ -88.342029179717088, 35.185361452900111 ], [ -88.365674048554411, 35.220521090734408 ], [ -88.370092138180624, 35.232469131997661 ], [ -88.35388542799933, 35.260483846278831 ], [ -88.228464, 35.290439 ], [ -88.128705, 35.298955 ], [ -88.079469004919957, 35.253356171948724 ], [ -88.079351804802556, 35.253173071670162 ], [ -88.124604916419571, 35.185115665253022 ], [ -88.129024119238025, 35.181706941022242 ], [ -88.196821083557765, 35.129949549004195 ], [ -88.254251227819651, 35.133077301209823 ] ] ] } },
{ "type": "Feature", "properties": { "OBJECTID": 7511, "ID": "0001836049", "NAME": "BEACON CHILDREN'S HOSPITAL", "ADDRESS": "150 HOSPITAL DRIVE", "CITY": "LUVERNE", "STATE": "AL", "ZIP": "36049", "ZIP4": "NOT AVAILABLE", "TELEPHONE": "(334) 213-0504", "TYPE": "PSYCHIATRIC", "STATUS": "OPEN", "POPULATION": 28, "COUNTY": "CRENSHAW", "COUNTYFIPS": "01041", "COUNTRY": "USA", "LATITUDE": 31.694588547, "LONGITUDE": -86.26319151, "NAICS_CODE": "622210", "NAICS_DESC": "PSYCHIATRIC AND SUBSTANCE ABUSE HOSPITALS", "SOURCE": "http://dph1.adph.state.al.us/FacilitiesDirectory", "SOURCEDATE": "2018-08-09T00:00:00.000Z", "VAL_METHOD": "IMAGERY/OTHER", "VAL_DATE": "2014-02-10T00:00:00.000Z", "WEBSITE": "http://beaconchildrenshospital.com/", "STATE_ID": "H2102", "ALT_NAME": "NOT AVAILABLE", "ST_FIPS": "01", "OWNER": "PROPRIETARY", "TTL_STAFF": -999, "BEDS": 28, "TRAUMA": "NOT AVAILABLE", "HELIPAD": "Y" }, "geometry": { "type": "Polygon", "coordinates": [ [ [ -86.256744657951231, 31.580735215714679 ], [ -86.259698638945267, 31.581933227351573 ], [ -86.278338517322453, 31.606677361936033 ], [ -86.347355026308776, 31.714705070174247 ], [ -86.348734009185236, 31.735208170956437 ], [ -86.305714, 31.789917 ], [ -86.305589, 31.790025 ], [ -86.179217, 31.760722 ], [ -86.187636622822609, 31.671785418702772 ], [ -86.18846762467571, 31.666650404207711 ], [ -86.24869370051357, 31.58861521964139 ], [ -86.256744657951231, 31.580735215714679 ] ] ] } },
{ "type": "Feature", "properties": { "OBJECTID": 7513, "ID": "0006936853", "NAME": "LAKE MARTIN COMMUNITY HOSPITAL", "ADDRESS": "201 MARIARDEN ROAD", "CITY": "DADEVILLE", "STATE": "AL", "ZIP": "36853", "ZIP4": "NOT AVAILABLE", "TELEPHONE": "(256) 827-0800", "TYPE": "GENERAL ACUTE CARE", "STATUS": "OPEN", "POPULATION": 46, "COUNTY": "TALLAPOOSA", "COUNTYFIPS": "01123", "COUNTRY": "USA", "LATITUDE": 32.818598569000102, "LONGITUDE": -85.741139905999901, "NAICS_CODE": "622110", "NAICS_DESC": "GENERAL MEDICAL AND SURGICAL HOSPITALS", "SOURCE": "http://dph1.adph.state.al.us/FacilitiesDirectory", "SOURCEDATE": "2018-08-09T00:00:00.000Z", "VAL_METHOD": "IMAGERY", "VAL_DATE": "2014-02-10T00:00:00.000Z", "WEBSITE": "http://www.lakemartincommunityhospital.com", "STATE_ID": "H6202", "ALT_NAME": "NOT AVAILABLE", "ST_FIPS": "01", "OWNER": "PROPRIETARY", "TTL_STAFF": -999, "BEDS": 46, "TRAUMA": "NOT AVAILABLE", "HELIPAD": "Y" }, "geometry": { "type": "Polygon", "coordinates": [ [ [ -85.692667971886735, 32.74665398614178 ], [ -85.786934043163413, 32.760406856070233 ], [ -85.795995355322574, 32.766400032176861 ], [ -85.821602077125434, 32.793912783454843 ], [ -85.832918073318055, 32.818004782136363 ], [ -85.862778035170919, 32.885232817796407 ], [ -85.862733634843096, 32.885523818328792 ], [ -85.764246985878216, 32.903403975877573 ], [ -85.728231969160333, 32.884947995577562 ], [ -85.618455932245666, 32.816968011001073 ], [ -85.611784955726989, 32.753000008432117 ], [ -85.612009955895701, 32.752694008350609 ], [ -85.692667971886735, 32.74665398614178 ] ] ] } },
{ "type": "Feature", "properties": { "OBJECTID": 5056, "ID": "0005538804", "NAME": "NORTH MS STATE HOSPITAL", "ADDRESS": "1937 BRIAR RIDGE ROAD", "CITY": "TUPELO", "STATE": "MS", "ZIP": "38804", "ZIP4": "NOT AVAILABLE", "TELEPHONE": "(662) 690-4200", "TYPE": "PSYCHIATRIC", "STATUS": "OPEN", "POPULATION": 50, "COUNTY": "LEE", "COUNTYFIPS": "28081", "COUNTRY": "USA", "LATITUDE": 34.237606566000103, "LONGITUDE": -88.671827508000007, "NAICS_CODE": "622210", "NAICS_DESC": "PSYCHIATRIC AND SUBSTANCE ABUSE HOSPITALS", "SOURCE": "https://msdh.ms.gov/msdhsite/_static/resources/7660.pdf", "SOURCEDATE": "2018-08-09T00:00:00.000Z", "VAL_METHOD": "IMAGERY", "VAL_DATE": "2013-08-30T00:00:00.000Z", "WEBSITE": "http://www.nmsh.state.ms.us", "STATE_ID": "LICENSE #31-328", "ALT_NAME": "NOT AVAILABLE", "ST_FIPS": "28", "OWNER": "GOVERNMENT - STATE", "TTL_STAFF": -999, "BEDS": 50, "TRAUMA": "NOT AVAILABLE", "HELIPAD": "N" }, "geometry": { "type": "Polygon", "coordinates": [ [ [ -88.700917600000011, 34.1479445 ], [ -88.7194296, 34.151523499999968 ], [ -88.7858643, 34.2124903 ], [ -88.7730175, 34.29851840000002 ], [ -88.7652025, 34.305576599999952 ], [ -88.7060844, 34.3259126 ], [ -88.680474, 34.32347 ], [ -88.6261494, 34.314404799999984 ], [ -88.5630582, 34.2904906 ], [ -88.563012, 34.266877 ], [ -88.5974041, 34.185987799999985 ], [ -88.623652, 34.151461 ], [ -88.624081, 34.151107 ], [ -88.700917600000011, 34.1479445 ] ] ] } },
{ "type": "Feature", "properties": { "OBJECTID": 5624, "ID": "0001338834", "NAME": "MAGNOLIA REGIONAL HEALTH CENTER", "ADDRESS": "611 ALCORN DRIVE", "CITY": "CORINTH", "STATE": "MS", "ZIP": "38834", "ZIP4": "NOT AVAILABLE", "TELEPHONE": "(662) 293-1000", "TYPE": "GENERAL ACUTE CARE", "STATUS": "OPEN", "POPULATION": 200, "COUNTY": "ALCORN", "COUNTYFIPS": "28003", "COUNTRY": "USA", "LATITUDE": 34.935313098000101, "LONGITUDE": -88.559823406000007, "NAICS_CODE": "622110", "NAICS_DESC": "GENERAL MEDICAL AND SURGICAL HOSPITALS", "SOURCE": "https://msdh.ms.gov/msdhsite/_static/resources/7660.pdf", "SOURCEDATE": "2018-08-09T00:00:00.000Z", "VAL_METHOD": "IMAGERY", "VAL_DATE": "2014-02-10T00:00:00.000Z", "WEBSITE": "http://www.mrhc.org", "STATE_ID": "LICENSE #11-248", "ALT_NAME": "NOT AVAILABLE", "ST_FIPS": "28", "OWNER": "GOVERNMENT - LOCAL", "TTL_STAFF": -999, "BEDS": 200, "TRAUMA": "LEVEL III", "HELIPAD": "Y" }, "geometry": { "type": "Polygon", "coordinates": [ [ [ -88.559695300000016, 34.8107651 ], [ -88.6532055, 34.872715199999973 ], [ -88.7334476, 34.936402200000011 ], [ -88.7334112, 34.936775 ], [ -88.5340029, 35.048061600000018 ], [ -88.462617, 34.988918 ], [ -88.455917, 34.983087 ], [ -88.4409226, 34.878935700000014 ], [ -88.4410612, 34.8786559 ], [ -88.4413059, 34.878452399999979 ], [ -88.559695300000016, 34.8107651 ] ] ] } },
{ "type": "Feature", "properties": { "OBJECTID": 5672, "ID": "0004938916", "NAME": "BAPTIST MEMORIAL HOSPITAL - CALHOUN", "ADDRESS": "140 BURKE", "CITY": "CALHOUN CITY", "STATE": "MS", "ZIP": "38916", "ZIP4": "NOT AVAILABLE", "TELEPHONE": "(662) 628-6611", "TYPE": "GENERAL ACUTE CARE", "STATUS": "OPEN", "POPULATION": 25, "COUNTY": "CALHOUN", "COUNTYFIPS": "28013", "COUNTRY": "USA", "LATITUDE": 33.870853198000098, "LONGITUDE": -89.318373288999993, "NAICS_CODE": "622110", "NAICS_DESC": "GENERAL MEDICAL AND SURGICAL HOSPITALS", "SOURCE": "https://msdh.ms.gov/msdhsite/_static/resources/7660.pdf", "SOURCEDATE": "2018-08-09T00:00:00.000Z", "VAL_METHOD": "IMAGERY", "VAL_DATE": "2013-10-02T00:00:00.000Z", "WEBSITE": "http://www.nmhs.net/calhoun_city", "STATE_ID": "LICENSE #11-259", "ALT_NAME": "CALHOUN HEALTH SERVICES", "ST_FIPS": "28", "OWNER": "GOVERNMENT - LOCAL", "TTL_STAFF": -999, "BEDS": 25, "TRAUMA": "LEVEL IV", "HELIPAD": "N" }, "geometry": { "type": "Polygon", "coordinates": [ [ [ -89.360168, 33.786609 ], [ -89.3641973, 33.787318699999979 ], [ -89.3852821, 33.7945773 ], [ -89.399435, 33.85299 ], [ -89.358247, 33.94289 ], [ -89.3453263, 33.965782899999958 ], [ -89.332422, 33.960146 ], [ -89.201393, 33.872927299999972 ], [ -89.265072, 33.827344 ], [ -89.269497, 33.824437 ], [ -89.315673, 33.803466 ], [ -89.360168, 33.786609 ] ] ] } },
{ "type": "Feature", "properties": { "OBJECTID": 5675, "ID": "0011339339", "NAME": "DIAMOND GROVE CENTER", "ADDRESS": "2311 HIGHWAY 15 SOUTH", "CITY": "LOUISVILLE", "STATE": "MS", "ZIP": "39339", "ZIP4": "NOT AVAILABLE", "TELEPHONE": "(662) 779-0119", "TYPE": "PSYCHIATRIC", "STATUS": "OPEN", "POPULATION": 25, "COUNTY": "WINSTON", "COUNTYFIPS": "28159", "COUNTRY": "USA", "LATITUDE": 33.097468612999997, "LONGITUDE": -89.067311156000002, "NAICS_CODE": "622210", "NAICS_DESC": "HOSPITALS, PSYCHIATRIC PEDIATRIC", "SOURCE": "https://msdh.ms.gov/msdhsite/_static/resources/7660.pdf", "SOURCEDATE": "2018-08-09T00:00:00.000Z", "VAL_METHOD": "IMAGERY", "VAL_DATE": "2014-02-10T00:00:00.000Z", "WEBSITE": "http://www.diamondgrovecenter.com", "STATE_ID": "LICENSE #32-325", "ALT_NAME": "NOT AVAILABLE", "ST_FIPS": "28", "OWNER": "PROPRIETARY", "TTL_STAFF": -999, "BEDS": 25, "TRAUMA": "NOT AVAILABLE", "HELIPAD": "N" }, "geometry": { "type": "Polygon", "coordinates": [ [ [ -89.0645193, 32.9871302 ], [ -89.157467554832238, 33.039487477786906 ], [ -89.158567751305384, 33.042426084559381 ], [ -89.1746712, 33.1061159 ], [ -89.1289218, 33.197734699999941 ], [ -89.054639, 33.181637199999976 ], [ -89.0193253, 33.163238699999972 ], [ -88.993098, 33.114135 ], [ -88.98821, 33.104274 ], [ -89.0083706, 33.0647541 ], [ -89.0581674, 32.992065100000026 ], [ -89.0645193, 32.9871302 ] ] ] } },
{ "type": "Feature", "properties": { "OBJECTID": 5677, "ID": "0002139355", "NAME": "H. C. WATKINS MEMORIAL HOSPITAL", "ADDRESS": "605 SOUTH ARCHUSA AVENUE", "CITY": "QUITMAN", "STATE": "MS", "ZIP": "39355", "ZIP4": "NOT AVAILABLE", "TELEPHONE": "(601) 776-6925", "TYPE": "CRITICAL ACCESS", "STATUS": "OPEN", "POPULATION": 25, "COUNTY": "CLARKE", "COUNTYFIPS": "28023", "COUNTRY": "USA", "LATITUDE": 32.030533611000102, "LONGITUDE": -88.725958958999996, "NAICS_CODE": "622110", "NAICS_DESC": "GENERAL MEDICAL AND SURGICAL HOSPITALS", "SOURCE": "https://msdh.ms.gov/msdhsite/_static/resources/7660.pdf", "SOURCEDATE": "2018-08-09T00:00:00.000Z", "VAL_METHOD": "IMAGERY", "VAL_DATE": "2014-02-10T00:00:00.000Z", "WEBSITE": "http://www.watkinsmemorialhospital.com/hcwmh/", "STATE_ID": "LICENSE #13-282", "ALT_NAME": "NOT AVAILABLE", "ST_FIPS": "28", "OWNER": "NON-PROFIT", "TTL_STAFF": -999, "BEDS": 25, "TRAUMA": "LEVEL IV", "HELIPAD": "N" }, "geometry": { "type": "Polygon", "coordinates": [ [ [ -88.717221602496124, 31.935535847673865 ], [ -88.727507023881984, 31.939109499804129 ], [ -88.8012272, 31.984520299999961 ], [ -88.820855, 32.029564 ], [ -88.762666, 32.118897 ], [ -88.714075540117904, 32.143748433315785 ], [ -88.713793539609043, 32.143811932287591 ], [ -88.631011258017836, 32.081486327788681 ], [ -88.629801293282782, 32.03374325613521 ], [ -88.681476688557467, 31.972055722166509 ], [ -88.71682970203878, 31.935653545984515 ], [ -88.717221602496124, 31.935535847673865 ] ] ] } },
{ "type": "Feature", "properties": { "OBJECTID": 5680, "ID": "0007139747", "NAME": "KILMICHAEL HOSPITAL", "ADDRESS": "301 LAMAR STREET", "CITY": "KILMICHAEL", "STATE": "MS", "ZIP": "39747", "ZIP4": "NOT AVAILABLE", "TELEPHONE": "(662) 262-4311", "TYPE": "GENERAL ACUTE CARE", "STATUS": "CLOSED", "POPULATION": 19, "COUNTY": "MONTGOMERY", "COUNTYFIPS": "28097", "COUNTRY": "USA", "LATITUDE": 33.4413818720001, "LONGITUDE": -89.572817885999896, "NAICS_CODE": "622110", "NAICS_DESC": "GENERAL MEDICAL AND SURGICAL HOSPITALS", "SOURCE": "https://msdh.ms.gov/msdhsite/_static/resources/7660.pdf", "SOURCEDATE": "2018-08-09T00:00:00.000Z", "VAL_METHOD": "IMAGERY", "VAL_DATE": "2014-02-11T00:00:00.000Z", "WEBSITE": "NOT AVAILABLE", "STATE_ID": "LICENSE #21-183", "ALT_NAME": "NOT AVAILABLE", "ST_FIPS": "28", "OWNER": "GOVERNMENT - LOCAL", "TTL_STAFF": -999, "BEDS": 19, "TRAUMA": "NOT AVAILABLE", "HELIPAD": "N" }, "geometry": { "type": "Polygon", "coordinates": [ [ [ -89.49891, 33.361919 ], [ -89.628851, 33.417086 ], [ -89.696812, 33.483586 ], [ -89.6999858, 33.488279500000012 ], [ -89.6997159, 33.488623200000035 ], [ -89.662692, 33.493337 ], [ -89.617169, 33.498038 ], [ -89.566083, 33.49612 ], [ -89.43241, 33.454147 ], [ -89.4306936, 33.44993540000003 ], [ -89.498337, 33.362125 ], [ -89.49891, 33.361919 ] ] ] } },
{ "type": "Feature", "properties": { "OBJECTID": 5681, "ID": "0007238967", "NAME": "TYLER HOLMES MEMORIAL HOSPITAL", "ADDRESS": "409 TYLER HOLMES DRIVE", "CITY": "WINONA", "STATE": "MS", "ZIP": "38967", "ZIP4": "NOT AVAILABLE", "TELEPHONE": "(662) 283-4114", "TYPE": "CRITICAL ACCESS", "STATUS": "OPEN", "POPULATION": 25, "COUNTY": "MONTGOMERY", "COUNTYFIPS": "28097", "COUNTRY": "USA", "LATITUDE": 33.4909255970001, "LONGITUDE": -89.738551661000002, "NAICS_CODE": "622110", "NAICS_DESC": "GENERAL MEDICAL AND SURGICAL HOSPITALS", "SOURCE": "https://msdh.ms.gov/msdhsite/_static/resources/7660.pdf", "SOURCEDATE": "2018-08-09T00:00:00.000Z", "VAL_METHOD": "IMAGERY", "VAL_DATE": "2013-10-02T00:00:00.000Z", "WEBSITE": "http://www.thmh.org/", "STATE_ID": "LICENSE #11-209", "ALT_NAME": "NOT AVAILABLE", "ST_FIPS": "28", "OWNER": "GOVERNMENT - LOCAL", "TTL_STAFF": -999, "BEDS": 25, "TRAUMA": "LEVEL IV", "HELIPAD": "Y" }, "geometry": { "type": "Polygon", "coordinates": [ [ [ -89.7573269, 33.416354900000059 ], [ -89.864005, 33.481729 ], [ -89.871489, 33.487508 ], [ -89.8763393, 33.493091 ], [ -89.8762453, 33.493647400000036 ], [ -89.865913, 33.502537 ], [ -89.6990908, 33.5914969 ], [ -89.6014122, 33.462812 ], [ -89.6642456, 33.4168741 ], [ -89.7573269, 33.416354900000059 ] ] ] } },
{ "type": "Feature", "properties": { "OBJECTID": 5682, "ID": "0005438801", "NAME": "NORTH MS MEDICAL CENTER", "ADDRESS": "830 SOUTH GLOSTER", "CITY": "TUPELO", "STATE": "MS", "ZIP": "38801", "ZIP4": "NOT AVAILABLE", "TELEPHONE": "(662) 377-3000", "TYPE": "GENERAL ACUTE CARE", "STATUS": "OPEN", "POPULATION": 650, "COUNTY": "LEE", "COUNTYFIPS": "28081", "COUNTRY": "USA", "LATITUDE": 34.241959339000097, "LONGITUDE": -88.716448111999995, "NAICS_CODE": "622110", "NAICS_DESC": "GENERAL MEDICAL AND SURGICAL HOSPITALS", "SOURCE": "https://msdh.ms.gov/msdhsite/_static/resources/7660.pdf", "SOURCEDATE": "2018-08-09T00:00:00.000Z", "VAL_METHOD": "IMAGERY", "VAL_DATE": "2014-02-10T00:00:00.000Z", "WEBSITE": "http://www.nmhs.net", "STATE_ID": "LICENSE #13-063", "ALT_NAME": "NOT AVAILABLE", "ST_FIPS": "28", "OWNER": "NON-PROFIT", "TTL_STAFF": -999, "BEDS": 650, "TRAUMA": "LEVEL II", "HELIPAD": "Y" }, "geometry": { "type": "Polygon", "coordinates": [ [ [ -88.7014697, 34.116439400000012 ], [ -88.7038276, 34.117943400000044 ], [ -88.7932257, 34.189708600000053 ], [ -88.8236408, 34.214491099999975 ], [ -88.8236609, 34.2152457 ], [ -88.799688500000016, 34.308324899999974 ], [ -88.7930148, 34.324535 ], [ -88.705057, 34.342618 ], [ -88.704031, 34.342793 ], [ -88.6735224, 34.320329 ], [ -88.632119, 34.2850139 ], [ -88.615274, 34.266875 ], [ -88.615016, 34.265864 ], [ -88.634397, 34.20433 ], [ -88.7014697, 34.116439400000012 ] ] ] } },
{ "type": "Feature", "properties": { "OBJECTID": 5685, "ID": "0008738829", "NAME": "BAPTIST MEMORIAL HOSPITAL-BOONEVILLE", "ADDRESS": "100 HOSPITAL STREET", "CITY": "BOONEVILLE", "STATE": "MS", "ZIP": "38829", "ZIP4": "NOT AVAILABLE", "TELEPHONE": "(662) 720-5000", "TYPE": "GENERAL ACUTE CARE", "STATUS": "OPEN", "POPULATION": 114, "COUNTY": "PRENTISS", "COUNTYFIPS": "28117", "COUNTRY": "USA", "LATITUDE": 34.65778485, "LONGITUDE": -88.56613194000001, "NAICS_CODE": "622110", "NAICS_DESC": "GENERAL MEDICAL AND SURGICAL HOSPITALS", "SOURCE": "https://msdh.ms.gov/msdhsite/_static/resources/7660.pdf", "SOURCEDATE": "2018-08-09T00:00:00.000Z", "VAL_METHOD": "IMAGERY", "VAL_DATE": "2014-02-10T00:00:00.000Z", "WEBSITE": "http://www.bmhcc.org/booneville", "STATE_ID": "LICENSE #16-161", "ALT_NAME": "NOT AVAILABLE", "ST_FIPS": "28", "OWNER": "NON-PROFIT", "TTL_STAFF": -999, "BEDS": 114, "TRAUMA": "LEVEL IV", "HELIPAD": "Y" }, "geometry": { "type": "Polygon", "coordinates": [ [ [ -88.6308507, 34.565317599999979 ], [ -88.648933, 34.574546 ], [ -88.6745517, 34.7076953 ], [ -88.669368, 34.711859 ], [ -88.668075, 34.712652 ], [ -88.572395, 34.763154 ], [ -88.5597759, 34.7676687 ], [ -88.5445422, 34.763355700000041 ], [ -88.4431436, 34.668847900000017 ], [ -88.4433786, 34.667412 ], [ -88.453892, 34.629051 ], [ -88.491321, 34.584012 ], [ -88.6308507, 34.565317599999979 ] ] ] } },
{ "type": "Feature", "properties": { "OBJECTID": 5697, "ID": "0001639301", "NAME": "ANDERSON REGIONAL MEDICAL CENTER SOUTH", "ADDRESS": "1102 CONSTITUTION AVENUE", "CITY": "MERIDIAN", "STATE": "MS", "ZIP": "39301", "ZIP4": "NOT AVAILABLE", "TELEPHONE": "(601) 484-3590", "TYPE": "GENERAL ACUTE CARE", "STATUS": "OPEN", "POPULATION": 69, "COUNTY": "LAUDERDALE", "COUNTYFIPS": "28075", "COUNTRY": "USA", "LATITUDE": 32.368437642000103, "LONGITUDE": -88.699035418999998, "NAICS_CODE": "622110", "NAICS_DESC": "GENERAL MEDICAL AND SURGICAL HOSPITALS", "SOURCE": "https://msdh.ms.gov/msdhsite/_static/resources/7660.pdf", "SOURCEDATE": "2018-08-09T00:00:00.000Z", "VAL_METHOD": "IMAGERY", "VAL_DATE": "2014-03-12T00:00:00.000Z", "WEBSITE": "www.andersonregional.org", "STATE_ID": "LICENSE #13-237", "ALT_NAME": "RILEY HOSPITAL", "ST_FIPS": "28", "OWNER": "NON-PROFIT", "TTL_STAFF": -999, "BEDS": 69, "TRAUMA": "NOT AVAILABLE", "HELIPAD": "N" }, "geometry": { "type": "Polygon", "coordinates": [ [ [ -88.705060919683888, 32.268605993360353 ], [ -88.7685877, 32.2830586 ], [ -88.825205, 32.34617 ], [ -88.7889066, 32.429689 ], [ -88.723678099376841, 32.468718383293449 ], [ -88.672080105653151, 32.45997799224866 ], [ -88.627762105386353, 32.450260208730548 ], [ -88.57272316166609, 32.39273146784371 ], [ -88.572837160506367, 32.391193467108707 ], [ -88.591111135134682, 32.342650483008967 ], [ -88.692397804851097, 32.269200054460882 ], [ -88.705060919683888, 32.268605993360353 ] ] ] } },
{ "type": "Feature", "properties": { "OBJECTID": 5698, "ID": "0004539304", "NAME": "EAST MS STATE HOSPITAL", "ADDRESS": "1818 COLLEGE DRIVE", "CITY": "MERIDIAN", "STATE": "MS", "ZIP": "39304", "ZIP4": "NOT AVAILABLE", "TELEPHONE": "(601) 581-7600", "TYPE": "PSYCHIATRIC", "STATUS": "OPEN", "POPULATION": 201, "COUNTY": "LAUDERDALE", "COUNTYFIPS": "28075", "COUNTRY": "USA", "LATITUDE": 32.376057285000101, "LONGITUDE": -88.726461969, "NAICS_CODE": "622210", "NAICS_DESC": "PSYCHIATRIC AND SUBSTANCE ABUSE HOSPITALS", "SOURCE": "https://msdh.ms.gov/msdhsite/_static/resources/7660.pdf", "SOURCEDATE": "2018-08-09T00:00:00.000Z", "VAL_METHOD": "IMAGERY", "VAL_DATE": "2013-08-30T00:00:00.000Z", "WEBSITE": "http://www.emsh.state.ms.us", "STATE_ID": "LICENSE #31-136", "ALT_NAME": "NOT AVAILABLE", "ST_FIPS": "28", "OWNER": "GOVERNMENT - STATE", "TTL_STAFF": -999, "BEDS": 201, "TRAUMA": "NOT AVAILABLE", "HELIPAD": "N" }, "geometry": { "type": "Polygon", "coordinates": [ [ [ -88.7701192, 32.283079 ], [ -88.8307426, 32.347481500000022 ], [ -88.8148928, 32.4399177 ], [ -88.8105611, 32.456077600000022 ], [ -88.8103289, 32.4562229 ], [ -88.714602602675271, 32.45547747094087 ], [ -88.671112104048959, 32.447466390407065 ], [ -88.646705197769265, 32.42587864040685 ], [ -88.639615592258437, 32.412616723123179 ], [ -88.631323683058042, 32.394108100562732 ], [ -88.617656862423189, 32.3613996582434 ], [ -88.651796172523504, 32.326745637735058 ], [ -88.689634702036756, 32.300326442447371 ], [ -88.766329, 32.283239 ], [ -88.7685877, 32.2830586 ], [ -88.7701192, 32.283079 ] ] ] } },
{ "type": "Feature", "properties": { "OBJECTID": 5699, "ID": "0004639301", "NAME": "ANDERSON REGIONAL MEDICAL CENTER", "ADDRESS": "2124 14TH STREET", "CITY": "MERIDIAN", "STATE": "MS", "ZIP": "39301", "ZIP4": "NOT AVAILABLE", "TELEPHONE": "(601) 553-6000", "TYPE": "GENERAL ACUTE CARE", "STATUS": "OPEN", "POPULATION": 260, "COUNTY": "LAUDERDALE", "COUNTYFIPS": "28075", "COUNTRY": "USA", "LATITUDE": 32.371154739000097, "LONGITUDE": -88.700070038000007, "NAICS_CODE": "622110", "NAICS_DESC": "GENERAL MEDICAL AND SURGICAL HOSPITALS", "SOURCE": "https://msdh.ms.gov/msdhsite/_static/resources/7660.pdf", "SOURCEDATE": "2018-08-09T00:00:00.000Z", "VAL_METHOD": "IMAGERY/OTHER", "VAL_DATE": "2014-02-10T00:00:00.000Z", "WEBSITE": "http://www.jarmc.org", "STATE_ID": "LICENSE #13-237", "ALT_NAME": "NOT AVAILABLE", "ST_FIPS": "28", "OWNER": "NON-PROFIT", "TTL_STAFF": -999, "BEDS": 260, "TRAUMA": "LEVEL III", "HELIPAD": "N" }, "geometry": { "type": "Polygon", "coordinates": [ [ [ -88.705060919683888, 32.268605993360353 ], [ -88.7685877, 32.2830586 ], [ -88.825205, 32.34617 ], [ -88.7902371, 32.431847499999989 ], [ -88.726429199027351, 32.468521288217438 ], [ -88.723678099376841, 32.468718383293449 ], [ -88.672080105653151, 32.45997799224866 ], [ -88.627762105386353, 32.450260208730548 ], [ -88.57272316166609, 32.39273146784371 ], [ -88.572837160506367, 32.391193467108707 ], [ -88.591111135134682, 32.342650483008967 ], [ -88.692397804851097, 32.269200054460882 ], [ -88.705060919683888, 32.268605993360353 ] ] ] } },
{ "type": "Feature", "properties": { "OBJECTID": 5700, "ID": "0004739301", "NAME": "RUSH FOUNDATION HOSPITAL", "ADDRESS": "1314 19TH AVENUE", "CITY": "MERIDIAN", "STATE": "MS", "ZIP": "39301", "ZIP4": "NOT AVAILABLE", "TELEPHONE": "(601) 483-0011", "TYPE": "GENERAL ACUTE CARE", "STATUS": "OPEN", "POPULATION": 215, "COUNTY": "LAUDERDALE", "COUNTYFIPS": "28075", "COUNTRY": "USA", "LATITUDE": 32.370037892, "LONGITUDE": -88.697530111999995, "NAICS_CODE": "622110", "NAICS_DESC": "GENERAL MEDICAL AND SURGICAL HOSPITALS", "SOURCE": "https://msdh.ms.gov/msdhsite/_static/resources/7660.pdf", "SOURCEDATE": "2018-08-09T00:00:00.000Z", "VAL_METHOD": "IMAGERY", "VAL_DATE": "2014-03-12T00:00:00.000Z", "WEBSITE": "http://www.rushhealthsystems.org/rfh/", "STATE_ID": "LICENSE #13-059", "ALT_NAME": "NOT AVAILABLE", "ST_FIPS": "28", "OWNER": "NON-PROFIT", "TTL_STAFF": -999, "BEDS": 215, "TRAUMA": "LEVEL III", "HELIPAD": "N" }, "geometry": { "type": "Polygon", "coordinates": [ [ [ -88.705060919683888, 32.268605993360353 ], [ -88.774049, 32.304956499999975 ], [ -88.8173696, 32.343809300000025 ], [ -88.7870001, 32.4273283 ], [ -88.722974599722022, 32.467531382444974 ], [ -88.672976206067403, 32.46398469385732 ], [ -88.627762105386353, 32.450260208730548 ], [ -88.57272316166609, 32.39273146784371 ], [ -88.572837160506367, 32.391193467108707 ], [ -88.591111135134682, 32.342650483008967 ], [ -88.692397804851097, 32.269200054460882 ], [ -88.705060919683888, 32.268605993360353 ] ] ] } },
{ "type": "Feature", "properties": { "OBJECTID": 5717, "ID": "0003336078", "NAME": "COMMUNITY HOSPITAL", "ADDRESS": "805 FRIENDSHIP ROAD", "CITY": "TALLASSEE", "STATE": "AL", "ZIP": "36078", "ZIP4": "1225", "TELEPHONE": "(334) 283-6541", "TYPE": "GENERAL ACUTE CARE", "STATUS": "OPEN", "POPULATION": 69, "COUNTY": "ELMORE", "COUNTYFIPS": "01051", "COUNTRY": "USA", "LATITUDE": 32.533909832000099, "LONGITUDE": -85.912246612999994, "NAICS_CODE": "622110", "NAICS_DESC": "GENERAL MEDICAL AND SURGICAL HOSPITALS", "SOURCE": "http://dph1.adph.state.al.us/FacilitiesDirectory", "SOURCEDATE": "2018-08-09T00:00:00.000Z", "VAL_METHOD": "IMAGERY/OTHER", "VAL_DATE": "2014-03-12T00:00:00.000Z", "WEBSITE": "http://chal.org/", "STATE_ID": "H2602", "ALT_NAME": "NOT AVAILABLE", "ST_FIPS": "01", "OWNER": "PROPRIETARY", "TTL_STAFF": -999, "BEDS": 69, "TRAUMA": "LEVEL III", "HELIPAD": "Y" }, "geometry": { "type": "Polygon", "coordinates": [ [ [ -85.898575536873707, 32.448901158456749 ], [ -86.014534, 32.525592 ], [ -85.989993, 32.580137 ], [ -85.946987, 32.614901 ], [ -85.913659333960538, 32.605380687498538 ], [ -85.89515839976066, 32.58880294709963 ], [ -85.887921504781588, 32.533110541739674 ], [ -85.88408336401605, 32.466439939491245 ], [ -85.898575536873707, 32.448901158456749 ] ] ] } },
{ "type": "Feature", "properties": { "OBJECTID": 5731, "ID": "0002135401", "NAME": "BRYCE HOSPITAL", "ADDRESS": "200 UNIVERSITY BOULEVARD", "CITY": "TUSCALOOSA", "STATE": "AL", "ZIP": "35401", "ZIP4": "NOT AVAILABLE", "TELEPHONE": "(205) 759-0750", "TYPE": "PSYCHIATRIC", "STATUS": "OPEN", "POPULATION": -999, "COUNTY": "TUSCALOOSA", "COUNTYFIPS": "01125", "COUNTRY": "USA", "LATITUDE": 33.216303090000103, "LONGITUDE": -87.53815802, "NAICS_CODE": "622210", "NAICS_DESC": "PSYCHIATRIC AND SUBSTANCE ABUSE HOSPITALS", "SOURCE": "http://dph1.adph.state.al.us/FacilitiesDirectory", "SOURCEDATE": "2018-08-09T00:00:00.000Z", "VAL_METHOD": "IMAGERY", "VAL_DATE": "2014-02-10T00:00:00.000Z", "WEBSITE": "NOT AVAILABLE", "STATE_ID": "H6304", "ALT_NAME": "NOT AVAILABLE", "ST_FIPS": "01", "OWNER": "GOVERNMENT - STATE", "TTL_STAFF": -999, "BEDS": -999, "TRAUMA": "NOT AVAILABLE", "HELIPAD": "N" }, "geometry": { "type": "Polygon", "coordinates": [ [ [ -87.551333, 33.118516 ], [ -87.627908, 33.159919 ], [ -87.631474, 33.181354 ], [ -87.625579699999989, 33.232361200000035 ], [ -87.625487, 33.2328751 ], [ -87.625378, 33.233257 ], [ -87.6095947, 33.260788199999936 ], [ -87.6029757, 33.265668500000068 ], [ -87.601733400000015, 33.266164499999988 ], [ -87.523121, 33.283431 ], [ -87.499566, 33.274234 ], [ -87.4961786, 33.271977100000036 ], [ -87.4717407, 33.2507313 ], [ -87.458435, 33.23787 ], [ -87.440891, 33.219659 ], [ -87.437964, 33.190582 ], [ -87.441968, 33.182398 ], [ -87.483573, 33.125588 ], [ -87.551333, 33.118516 ] ] ] } },
{ "type": "Feature", "properties": { "OBJECTID": 5858, "ID": "0005835209", "NAME": "HEALTHSOUTH LAKESHORE REHABILITATION HOSPITAL", "ADDRESS": "3800 RIDGEWAY DRIVE", "CITY": "BIRMINGHAM", "STATE": "AL", "ZIP": "35209", "ZIP4": "NOT AVAILABLE", "TELEPHONE": "(205) 868-2000", "TYPE": "REHABILITATION", "STATUS": "OPEN", "POPULATION": 100, "COUNTY": "JEFFERSON", "COUNTYFIPS": "01073", "COUNTRY": "USA", "LATITUDE": 33.469115848999998, "LONGITUDE": -86.788334989000006, "NAICS_CODE": "622310", "NAICS_DESC": "REHABILITATION HOSPITALS (EXCEPT ALCOHOLISM, DRUG ADDICTION)", "SOURCE": "http://dph1.adph.state.al.us/FacilitiesDirectory", "SOURCEDATE": "2018-08-09T00:00:00.000Z", "VAL_METHOD": "IMAGERY/OTHER", "VAL_DATE": "2013-09-05T00:00:00.000Z", "WEBSITE": "http://www.healthsouthlakeshorerehab.com", "STATE_ID": "H3709", "ALT_NAME": "NOT AVAILABLE", "ST_FIPS": "01", "OWNER": "PROPRIETARY", "TTL_STAFF": -999, "BEDS": 100, "TRAUMA": "NOT AVAILABLE", "HELIPAD": "N" }, "geometry": { "type": "Polygon", "coordinates": [ [ [ -86.8045807, 33.394405399999968 ], [ -86.8507683, 33.414124 ], [ -86.8783695, 33.429922500000032 ], [ -86.865714, 33.504967 ], [ -86.8549073, 33.531911399999984 ], [ -86.8301435, 33.5584599 ], [ -86.818305, 33.564737199999982 ], [ -86.784048, 33.569392 ], [ -86.7363206, 33.553801699999987 ], [ -86.7026621, 33.533422100000031 ], [ -86.68723, 33.418492 ], [ -86.687331, 33.417928 ], [ -86.6993977, 33.415176500000022 ], [ -86.7767543, 33.398801599999963 ], [ -86.7863759, 33.3969926 ], [ -86.8045807, 33.394405399999968 ] ] ] } },
{ "type": "Feature", "properties": { "OBJECTID": 5864, "ID": "0002935212", "NAME": "HILL CREST BEHAVIORAL HEALTH SERVICES", "ADDRESS": "6869 FIFTH AVENUE, SOUTH", "CITY": "BIRMINGHAM", "STATE": "AL", "ZIP": "35212", "ZIP4": "NOT AVAILABLE", "TELEPHONE": "(205) 833-9000", "TYPE": "PSYCHIATRIC", "STATUS": "OPEN", "POPULATION": 94, "COUNTY": "JEFFERSON", "COUNTYFIPS": "01073", "COUNTRY": "USA", "LATITUDE": 33.548834284000101, "LONGITUDE": -86.730183296000007, "NAICS_CODE": "622210", "NAICS_DESC": "PSYCHIATRIC AND SUBSTANCE ABUSE HOSPITALS", "SOURCE": "http://dph1.adph.state.al.us/FacilitiesDirectory", "SOURCEDATE": "2018-08-09T00:00:00.000Z", "VAL_METHOD": "IMAGERY/OTHER", "VAL_DATE": "2014-02-10T00:00:00.000Z", "WEBSITE": "http://www.hillcrestbhs.com", "STATE_ID": "H3707", "ALT_NAME": "NOT AVAILABLE", "ST_FIPS": "01", "OWNER": "PROPRIETARY", "TTL_STAFF": -999, "BEDS": 94, "TRAUMA": "NOT AVAILABLE", "HELIPAD": "N" }, "geometry": { "type": "Polygon", "coordinates": [ [ [ -86.768857, 33.47298 ], [ -86.787805, 33.474721 ], [ -86.8226668, 33.490674100000014 ], [ -86.83773, 33.499283 ], [ -86.847247, 33.505316 ], [ -86.85284, 33.520907 ], [ -86.8503009, 33.5271997 ], [ -86.818305, 33.564737199999982 ], [ -86.769924, 33.597599 ], [ -86.768722, 33.598229 ], [ -86.6837612, 33.642082300000027 ], [ -86.664129, 33.632076 ], [ -86.6287393, 33.608464899999944 ], [ -86.594417099999987, 33.544344900000013 ], [ -86.6645363, 33.5148034 ], [ -86.763562, 33.474508 ], [ -86.767891, 33.47292 ], [ -86.768857, 33.47298 ] ] ] } },
{ "type": "Feature", "properties": { "OBJECTID": 5866, "ID": "0008935205", "NAME": "ST. VINCENT'S BIRMINGHAM", "ADDRESS": "810 ST. VINCENT'S DRIVE", "CITY": "BIRMINGHAM", "STATE": "AL", "ZIP": "35205", "ZIP4": "NOT AVAILABLE", "TELEPHONE": "(205) 939-7000", "TYPE": "GENERAL ACUTE CARE", "STATUS": "OPEN", "POPULATION": 409, "COUNTY": "JEFFERSON", "COUNTYFIPS": "01073", "COUNTRY": "USA", "LATITUDE": 33.507477168999998, "LONGITUDE": -86.789121531000006, "NAICS_CODE": "622110", "NAICS_DESC": "GENERAL MEDICAL AND SURGICAL HOSPITALS", "SOURCE": "http://dph1.adph.state.al.us/FacilitiesDirectory", "SOURCEDATE": "2018-08-09T00:00:00.000Z", "VAL_METHOD": "IMAGERY/OTHER", "VAL_DATE": "2014-02-10T00:00:00.000Z", "WEBSITE": "http://www.stvhs.com", "STATE_ID": "H3714", "ALT_NAME": "NOT AVAILABLE", "ST_FIPS": "01", "OWNER": "NON-PROFIT", "TTL_STAFF": -999, "BEDS": 409, "TRAUMA": "LEVEL III", "HELIPAD": "N" }, "geometry": { "type": "Polygon", "coordinates": [ [ [ -86.805348, 33.406982 ], [ -86.8404046, 33.423802 ], [ -86.8476418, 33.429609199999966 ], [ -86.8483927, 33.4303104 ], [ -86.912771, 33.494394 ], [ -86.9129994, 33.495762100000015 ], [ -86.907302, 33.518751 ], [ -86.8867895, 33.5544872 ], [ -86.802717, 33.592544 ], [ -86.761532, 33.59478 ], [ -86.700817, 33.584871299999989 ], [ -86.6834482, 33.545887600000043 ], [ -86.6838565, 33.53222880000002 ], [ -86.7024847, 33.424109300000012 ], [ -86.805348, 33.406982 ] ] ] } },
{ "type": "Feature", "properties": { "OBJECTID": 5867, "ID": "0009035235", "NAME": "ST. VINCENT'S EAST", "ADDRESS": "50 MEDICAL PARK EAST DRIVE", "CITY": "BIRMINGHAM", "STATE": "AL", "ZIP": "35235", "ZIP4": "NOT AVAILABLE", "TELEPHONE": "(205) 838-3000", "TYPE": "GENERAL ACUTE CARE", "STATUS": "OPEN", "POPULATION": 362, "COUNTY": "JEFFERSON", "COUNTYFIPS": "01073", "COUNTRY": "USA", "LATITUDE": 33.596154515000002, "LONGITUDE": -86.667611018999906, "NAICS_CODE": "622110", "NAICS_DESC": "GENERAL MEDICAL AND SURGICAL HOSPITALS", "SOURCE": "http://dph1.adph.state.al.us/FacilitiesDirectory", "SOURCEDATE": "2018-08-09T00:00:00.000Z", "VAL_METHOD": "IMAGERY/OTHER", "VAL_DATE": "2014-02-10T00:00:00.000Z", "WEBSITE": "http://www.stvhs.com/east/", "STATE_ID": "H3705", "ALT_NAME": "NOT AVAILABLE", "ST_FIPS": "01", "OWNER": "NON-PROFIT", "TTL_STAFF": -999, "BEDS": 362, "TRAUMA": "LEVEL III", "HELIPAD": "Y" }, "geometry": { "type": "Polygon", "coordinates": [ [ [ -86.6619391, 33.519905799999982 ], [ -86.760989, 33.535615 ], [ -86.765229, 33.537712 ], [ -86.774601, 33.550196 ], [ -86.752771, 33.591705 ], [ -86.693052, 33.645559 ], [ -86.6828584, 33.6530482 ], [ -86.641483, 33.661245 ], [ -86.580895, 33.642601 ], [ -86.579342, 33.637366 ], [ -86.580218, 33.629591 ], [ -86.58385650000001, 33.61426130000001 ], [ -86.5843973, 33.613176300000021 ], [ -86.6125276, 33.557831299999982 ], [ -86.618761, 33.552422 ], [ -86.656557, 33.519622 ], [ -86.6619391, 33.519905799999982 ] ] ] } },
{ "type": "Feature", "properties": { "OBJECTID": 5868, "ID": "0090635213", "NAME": "TRINITY MEDICAL CENTER", "ADDRESS": "800 MONTCLAIR ROAD", "CITY": "BIRMINGHAM", "STATE": "AL", "ZIP": "35213", "ZIP4": "NOT AVAILABLE", "TELEPHONE": "(205) 592-1000", "TYPE": "GENERAL ACUTE CARE", "STATUS": "CLOSED", "POPULATION": -999, "COUNTY": "JEFFERSON", "COUNTYFIPS": "01073", "COUNTRY": "USA", "LATITUDE": 33.5170941760001, "LONGITUDE": -86.749442907999907, "NAICS_CODE": "622110", "NAICS_DESC": "GENERAL MEDICAL AND SURGICAL HOSPITALS", "SOURCE": "http://dph1.adph.state.al.us", "SOURCEDATE": "2014-09-18T00:00:00.000Z", "VAL_METHOD": "IMAGERY/OTHER", "VAL_DATE": "2015-02-03T00:00:00.000Z", "WEBSITE": "NOT AVAILABLE", "STATE_ID": "NOT AVAILABLE", "ALT_NAME": "NOT AVAILABLE", "ST_FIPS": "01", "OWNER": "NOT AVAILABLE", "TTL_STAFF": -999, "BEDS": 534, "TRAUMA": "NOT AVAILABLE", "HELIPAD": "Y" }, "geometry": { "type": "Polygon", "coordinates": [ [ [ -86.7848227, 33.4591089 ], [ -86.8241132, 33.4635342 ], [ -86.839511, 33.478828 ], [ -86.849003, 33.504361 ], [ -86.849125, 33.505349 ], [ -86.849137, 33.506324 ], [ -86.845064, 33.52109610000003 ], [ -86.8207057, 33.554294899999988 ], [ -86.8196571, 33.555711500000022 ], [ -86.783039, 33.574975 ], [ -86.718276, 33.583088 ], [ -86.707194, 33.583168 ], [ -86.6471784, 33.544356 ], [ -86.7567037, 33.46197 ], [ -86.7848227, 33.4591089 ] ] ] } },
{ "type": "Feature", "properties": { "OBJECTID": 5873, "ID": "0002836904", "NAME": "CHOCTAW GENERAL HOSPITAL", "ADDRESS": "401 VANITY FAIR DRIVE", "CITY": "BUTLER", "STATE": "AL", "ZIP": "36904", "ZIP4": "NOT AVAILABLE", "TELEPHONE": "(205) 459-9100", "TYPE": "CRITICAL ACCESS", "STATUS": "OPEN", "POPULATION": 25, "COUNTY": "CHOCTAW", "COUNTYFIPS": "01023", "COUNTRY": "USA", "LATITUDE": 32.093105337000097, "LONGITUDE": -88.209492435000001, "NAICS_CODE": "622110", "NAICS_DESC": "GENERAL MEDICAL AND SURGICAL HOSPITALS", "SOURCE": "http://dph1.adph.state.al.us/FacilitiesDirectory", "SOURCEDATE": "2018-08-09T00:00:00.000Z", "VAL_METHOD": "IMAGERY", "VAL_DATE": "2013-09-09T00:00:00.000Z", "WEBSITE": "http://www.choctawgeneral.com/cgh/", "STATE_ID": "H1201", "ALT_NAME": "NOT AVAILABLE", "ST_FIPS": "01", "OWNER": "NON-PROFIT", "TTL_STAFF": -999, "BEDS": 25, "TRAUMA": "NOT AVAILABLE", "HELIPAD": "Y" }, "geometry": { "type": "Polygon", "coordinates": [ [ [ -88.280052, 32.022157 ], [ -88.296466, 32.10656 ], [ -88.272662, 32.153343 ], [ -88.1692, 32.198513 ], [ -88.098326, 32.125051 ], [ -88.098164, 32.124819 ], [ -88.161923, 32.061356 ], [ -88.20385, 32.028129 ], [ -88.206542, 32.027586 ], [ -88.280052, 32.022157 ] ] ] } },
{ "type": "Feature", "properties": { "OBJECTID": 5886, "ID": "0004036037", "NAME": "L. V. STABLER MEMORIAL HOSPITAL", "ADDRESS": "29 L. V. STABLER DRIVE", "CITY": "GREENVILLE", "STATE": "AL", "ZIP": "36037", "ZIP4": "NOT AVAILABLE", "TELEPHONE": "(334) 383-2200", "TYPE": "GENERAL ACUTE CARE", "STATUS": "OPEN", "POPULATION": 72, "COUNTY": "BUTLER", "COUNTYFIPS": "01013", "COUNTRY": "USA", "LATITUDE": 31.829034402000001, "LONGITUDE": -86.646364202000001, "NAICS_CODE": "622110", "NAICS_DESC": "GENERAL MEDICAL AND SURGICAL HOSPITALS", "SOURCE": "http://dph1.adph.state.al.us/FacilitiesDirectory", "SOURCEDATE": "2018-08-09T00:00:00.000Z", "VAL_METHOD": "IMAGERY/OTHER", "VAL_DATE": "2014-02-10T00:00:00.000Z", "WEBSITE": "http://www.lvstabler.com", "STATE_ID": "H0702", "ALT_NAME": "NOT AVAILABLE", "ST_FIPS": "01", "OWNER": "PROPRIETARY", "TTL_STAFF": -999, "BEDS": 72, "TRAUMA": "LEVEL III", "HELIPAD": "Y" }, "geometry": { "type": "Polygon", "coordinates": [ [ [ -86.678117573846492, 31.736354064145644 ], [ -86.737115, 31.790136 ], [ -86.760776, 31.821739 ], [ -86.752853, 31.847842 ], [ -86.665537, 31.892292 ], [ -86.5604656, 31.895251199999983 ], [ -86.534342, 31.830469 ], [ -86.527334, 31.802783 ], [ -86.573392, 31.774668 ], [ -86.575328, 31.773517 ], [ -86.678117573846492, 31.736354064145644 ] ] ] } },
{ "type": "Feature", "properties": { "OBJECTID": 5887, "ID": "0005736744", "NAME": "HALE COUNTY HOSPITAL", "ADDRESS": "508 GREENE STREET", "CITY": "GREENSBORO", "STATE": "AL", "ZIP": "36744", "ZIP4": "NOT AVAILABLE", "TELEPHONE": "(334) 624-3024", "TYPE": "GENERAL ACUTE CARE", "STATUS": "OPEN", "POPULATION": 39, "COUNTY": "HALE", "COUNTYFIPS": "01065", "COUNTRY": "USA", "LATITUDE": 32.695372235999997, "LONGITUDE": -87.586934193999994, "NAICS_CODE": "622110", "NAICS_DESC": "GENERAL MEDICAL AND SURGICAL HOSPITALS", "SOURCE": "http://dph1.adph.state.al.us/FacilitiesDirectory", "SOURCEDATE": "2018-08-09T00:00:00.000Z", "VAL_METHOD": "IMAGERY/OTHER", "VAL_DATE": "2013-09-06T00:00:00.000Z", "WEBSITE": "http://www.halecountyhospital.com", "STATE_ID": "H3301", "ALT_NAME": "NOT AVAILABLE", "ST_FIPS": "01", "OWNER": "GOVERNMENT - LOCAL", "TTL_STAFF": -999, "BEDS": 39, "TRAUMA": "NOT AVAILABLE", "HELIPAD": "N" }, "geometry": { "type": "Polygon", "coordinates": [ [ [ -87.5923, 32.600934 ], [ -87.669536, 32.612426 ], [ -87.699176, 32.73991 ], [ -87.698326, 32.744101 ], [ -87.650606, 32.769516 ], [ -87.587212, 32.77904 ], [ -87.544388, 32.772368 ], [ -87.4737514, 32.689608700000029 ], [ -87.5330607, 32.598507400000017 ], [ -87.5923, 32.600934 ] ] ] } },
{ "type": "Feature", "properties": { "OBJECTID": 5896, "ID": "0090235801", "NAME": "HEALTHSOUTH REHABILITATION HOSPITAL OF NORTH ALABAMA", "ADDRESS": "107 GOVERNORS DRIVE", "CITY": "HUNTSVILLE", "STATE": "AL", "ZIP": "35801", "ZIP4": "NOT AVAILABLE", "TELEPHONE": "(256) 535-2300", "TYPE": "REHABILITATION", "STATUS": "OPEN", "POPULATION": -999, "COUNTY": "MADISON", "COUNTYFIPS": "01089", "COUNTRY": "USA", "LATITUDE": 34.719209428000099, "LONGITUDE": -86.579868864999995, "NAICS_CODE": "622310", "NAICS_DESC": "REHABILITATION HOSPITALS (EXCEPT ALCOHOLISM, DRUG ADDICTION)", "SOURCE": "http://dph1.adph.state.al.us/FacilitiesDirectory", "SOURCEDATE": "2018-08-09T00:00:00.000Z", "VAL_METHOD": "IMAGERY/OTHER", "VAL_DATE": "2015-02-03T00:00:00.000Z", "WEBSITE": "NOT AVAILABLE", "STATE_ID": "H4502", "ALT_NAME": "NOT AVAILABLE", "ST_FIPS": "01", "OWNER": "PROPRIETARY", "TTL_STAFF": -999, "BEDS": 70, "TRAUMA": "NOT AVAILABLE", "HELIPAD": "Y" }, "geometry": { "type": "Polygon", "coordinates": [ [ [ -86.564838, 34.606518 ], [ -86.7273151, 34.686530200000014 ], [ -86.6998221, 34.7522077 ], [ -86.672669, 34.77571 ], [ -86.6616616, 34.78439419999998 ], [ -86.625776, 34.805077 ], [ -86.571476, 34.829314 ], [ -86.571296, 34.829303 ], [ -86.536025, 34.814359 ], [ -86.5185895, 34.806258399999948 ], [ -86.4837773, 34.769948899999982 ], [ -86.4744244, 34.7591096 ], [ -86.4741255, 34.758388099999962 ], [ -86.4738379, 34.660284400000016 ], [ -86.4738378, 34.660080200000031 ], [ -86.477954, 34.649613 ], [ -86.564618, 34.60658 ], [ -86.564838, 34.606518 ] ] ] } },
{ "type": "Feature", "properties": { "OBJECTID": 5898, "ID": "0000000130", "NAME": "HUNTSVILLE HOSPITAL WOMEN & CHILDREN-ER", "ADDRESS": "245 GOVERNORS DR SE", "CITY": "HUNTSVILLE", "STATE": "AL", "ZIP": "35801", "ZIP4": "NOT AVAILABLE", "TELEPHONE": "(256) 265-8133", "TYPE": "CHILDREN", "STATUS": "OPEN", "POPULATION": -999, "COUNTY": "MADISON", "COUNTYFIPS": "01089", "COUNTRY": "USA", "LATITUDE": 34.720051517000101, "LONGITUDE": -86.574688699000006, "NAICS_CODE": "622110", "NAICS_DESC": "CHILDREN'S HOSPITALS, GENERAL", "SOURCE": "http://dph1.adph.state.al.us/FacilitiesDirectory", "SOURCEDATE": "2018-08-09T00:00:00.000Z", "VAL_METHOD": "IMAGERY/OTHER", "VAL_DATE": "2015-10-21T00:00:00.000Z", "WEBSITE": "http://www.huntsvillehospital.org/womenchildren/", "STATE_ID": "NOT AVAILABLE", "ALT_NAME": "NOT AVAILABLE", "ST_FIPS": "01", "OWNER": "NOT AVAILABLE", "TTL_STAFF": -999, "BEDS": -999, "TRAUMA": "NOT AVAILABLE", "HELIPAD": "Y" }, "geometry": { "type": "Polygon", "coordinates": [ [ [ -86.565049, 34.607102 ], [ -86.7194889, 34.6895039 ], [ -86.7195759, 34.68963670000003 ], [ -86.6983751, 34.7504646 ], [ -86.6589494, 34.7811251 ], [ -86.619812, 34.801163 ], [ -86.571511, 34.824749 ], [ -86.571337, 34.824749 ], [ -86.520219, 34.805466 ], [ -86.4837773, 34.769948899999982 ], [ -86.4748126, 34.7587589 ], [ -86.4694803, 34.6599704 ], [ -86.4753569, 34.6454581 ], [ -86.565049, 34.607102 ] ] ] } },
{ "type": "Feature", "properties": { "OBJECTID": 5899, "ID": "0006335801", "NAME": "HUNTSVILLE HOSPITAL, THE", "ADDRESS": "101 SIVLEY ROAD", "CITY": "HUNTSVILLE", "STATE": "AL", "ZIP": "35801", "ZIP4": "NOT AVAILABLE", "TELEPHONE": "(256) 265-1000", "TYPE": "GENERAL ACUTE CARE", "STATUS": "OPEN", "POPULATION": 881, "COUNTY": "MADISON", "COUNTYFIPS": "01089", "COUNTRY": "USA", "LATITUDE": 34.721433099000002, "LONGITUDE": -86.580805509000001, "NAICS_CODE": "622110", "NAICS_DESC": "GENERAL MEDICAL AND SURGICAL HOSPITALS", "SOURCE": "http://dph1.adph.state.al.us/FacilitiesDirectory", "SOURCEDATE": "2018-08-09T00:00:00.000Z", "VAL_METHOD": "IMAGERY/OTHER", "VAL_DATE": "2014-02-10T00:00:00.000Z", "WEBSITE": "http://www.huntsvillehospital.org", "STATE_ID": "H4503", "ALT_NAME": "NOT AVAILABLE", "ST_FIPS": "01", "OWNER": "GOVERNMENT - DISTRICT/AUTHORITY", "TTL_STAFF": -999, "BEDS": 881, "TRAUMA": "LEVEL I", "HELIPAD": "Y" }, "geometry": { "type": "Polygon", "coordinates": [ [ [ -86.565529, 34.608345 ], [ -86.724613, 34.68744420000003 ], [ -86.7247022, 34.687579 ], [ -86.6998221, 34.7522077 ], [ -86.6724384, 34.7776623 ], [ -86.663087, 34.786116 ], [ -86.625776, 34.805077 ], [ -86.571476, 34.829314 ], [ -86.571296, 34.829303 ], [ -86.517298, 34.80689 ], [ -86.472069, 34.757287 ], [ -86.4753884, 34.674454299999937 ], [ -86.479467, 34.651966 ], [ -86.565529, 34.608345 ] ] ] } },
{ "type": "Feature", "properties": { "OBJECTID": 5901, "ID": "0007135758", "NAME": "MADISON HOSPITAL", "ADDRESS": "8375 HIGHWAY 72 WEST", "CITY": "MADISON", "STATE": "AL", "ZIP": "35758", "ZIP4": "NOT AVAILABLE", "TELEPHONE": "(256) 265-5010", "TYPE": "GENERAL ACUTE CARE", "STATUS": "OPEN", "POPULATION": 60, "COUNTY": "MADISON", "COUNTYFIPS": "01089", "COUNTRY": "USA", "LATITUDE": 34.747060042999998, "LONGITUDE": -86.764527877000006, "NAICS_CODE": "622110", "NAICS_DESC": "GENERAL MEDICAL AND SURGICAL HOSPITALS", "SOURCE": "http://dph1.adph.state.al.us/FacilitiesDirectory", "SOURCEDATE": "2018-08-09T00:00:00.000Z", "VAL_METHOD": "IMAGERY/OTHER", "VAL_DATE": "2014-02-10T00:00:00.000Z", "WEBSITE": "http://madisonalhospital.org/", "STATE_ID": "NOT AVAILABLE", "ALT_NAME": "NOT AVAILABLE", "ST_FIPS": "01", "OWNER": "NON-PROFIT", "TTL_STAFF": -999, "BEDS": 60, "TRAUMA": "NOT AVAILABLE", "HELIPAD": "N" }, "geometry": { "type": "Polygon", "coordinates": [ [ [ -86.7521899, 34.671417300000023 ], [ -86.7589695, 34.6738286 ], [ -86.7981882, 34.689619800000024 ], [ -86.8156326, 34.7003872 ], [ -86.859824, 34.729673 ], [ -86.89507, 34.767388 ], [ -86.895073, 34.767554 ], [ -86.749554, 34.832676 ], [ -86.7491398, 34.8326793 ], [ -86.7135213, 34.8126923 ], [ -86.672191900000016, 34.778951 ], [ -86.6353046, 34.735001700000041 ], [ -86.643893, 34.728510700000015 ], [ -86.6713175, 34.708189800000028 ], [ -86.7521899, 34.671417300000023 ] ] ] } },
{ "type": "Feature", "properties": { "OBJECTID": 5907, "ID": "0010935661", "NAME": "SHOALS HOSPITAL", "ADDRESS": "201 W. AVALON AVENUE", "CITY": "MUSCLE SHOALS", "STATE": "AL", "ZIP": "35661", "ZIP4": "NOT AVAILABLE", "TELEPHONE": "(256) 386-1600", "TYPE": "GENERAL ACUTE CARE", "STATUS": "OPEN", "POPULATION": 178, "COUNTY": "COLBERT", "COUNTYFIPS": "01033", "COUNTRY": "USA", "LATITUDE": 34.747192958, "LONGITUDE": -87.67621342, "NAICS_CODE": "622110", "NAICS_DESC": "GENERAL MEDICAL AND SURGICAL HOSPITALS", "SOURCE": "http://dph1.adph.state.al.us/FacilitiesDirectory", "SOURCEDATE": "2018-08-09T00:00:00.000Z", "VAL_METHOD": "IMAGERY/OTHER", "VAL_DATE": "2014-02-10T00:00:00.000Z", "WEBSITE": "http://www.shoalshospital.com", "STATE_ID": "01-0157", "ALT_NAME": "NOT AVAILABLE", "ST_FIPS": "01", "OWNER": "GOVERNMENT - DISTRICT/AUTHORITY", "TTL_STAFF": -999, "BEDS": 178, "TRAUMA": "NOT AVAILABLE", "HELIPAD": "Y" }, "geometry": { "type": "Polygon", "coordinates": [ [ [ -87.647975914395502, 34.634038974119136 ], [ -87.737715688441313, 34.688539919971447 ], [ -87.778775660883312, 34.713437912928107 ], [ -87.778513659641433, 34.713965912603136 ], [ -87.707663698940223, 34.768480924832936 ], [ -87.703839711575924, 34.770292928278657 ], [ -87.698399628510501, 34.772182332937554 ], [ -87.696262335096648, 34.7729223347499 ], [ -87.62486463396246, 34.796604189620226 ], [ -87.590327, 34.78723 ], [ -87.5729375, 34.7575574 ], [ -87.5687108, 34.674000100000036 ], [ -87.5687899, 34.673873400000033 ], [ -87.647908914486777, 34.6340589741421 ], [ -87.647975914395502, 34.634038974119136 ] ] ] } },
{ "type": "Feature", "properties": { "OBJECTID": 5908, "ID": "0001236801", "NAME": "EAST ALABAMA MEDICAL CENTER", "ADDRESS": "2000 PEPPERELL PARKWAY", "CITY": "OPELIKA", "STATE": "AL", "ZIP": "36801", "ZIP4": "NOT AVAILABLE", "TELEPHONE": "(334) 749-3411", "TYPE": "GENERAL ACUTE CARE", "STATUS": "OPEN", "POPULATION": 314, "COUNTY": "LEE", "COUNTYFIPS": "01081", "COUNTRY": "USA", "LATITUDE": 32.638524869000001, "LONGITUDE": -85.404474789999895, "NAICS_CODE": "622110", "NAICS_DESC": "GENERAL MEDICAL AND SURGICAL HOSPITALS", "SOURCE": "http://dph1.adph.state.al.us/FacilitiesDirectory", "SOURCEDATE": "2018-08-09T00:00:00.000Z", "VAL_METHOD": "IMAGERY/OTHER", "VAL_DATE": "2014-02-10T00:00:00.000Z", "WEBSITE": "http://www.eamc.org", "STATE_ID": "H4101", "ALT_NAME": "NOT AVAILABLE", "ST_FIPS": "01", "OWNER": "GOVERNMENT - DISTRICT/AUTHORITY", "TTL_STAFF": -999, "BEDS": 314, "TRAUMA": "LEVEL III", "HELIPAD": "Y" }, "geometry": { "type": "Polygon", "coordinates": [ [ [ -85.50649, 32.553669 ], [ -85.5107463, 32.5561368 ], [ -85.534432, 32.65598 ], [ -85.543389, 32.715012 ], [ -85.543076, 32.715096 ], [ -85.507824, 32.723934 ], [ -85.386617, 32.722662 ], [ -85.3117847, 32.6998849 ], [ -85.3109165, 32.6994654 ], [ -85.284404, 32.633601 ], [ -85.283217, 32.630378 ], [ -85.331975, 32.583627 ], [ -85.368522, 32.566342 ], [ -85.397653, 32.558267 ], [ -85.50649, 32.553669 ] ] ] } },
{ "type": "Feature", "properties": { "OBJECTID": 5911, "ID": "0010535653", "NAME": "RUSSELLVILLE HOSPITAL", "ADDRESS": "15155 HIGHWAY 43", "CITY": "RUSSELLVILLE", "STATE": "AL", "ZIP": "35653", "ZIP4": "NOT AVAILABLE", "TELEPHONE": "(256) 332-1611", "TYPE": "GENERAL ACUTE CARE", "STATUS": "OPEN", "POPULATION": 100, "COUNTY": "FRANKLIN", "COUNTYFIPS": "01059", "COUNTRY": "USA", "LATITUDE": 34.510818119000099, "LONGITUDE": -87.718386066999997, "NAICS_CODE": "622110", "NAICS_DESC": "GENERAL MEDICAL AND SURGICAL HOSPITALS", "SOURCE": "http://dph1.adph.state.al.us/FacilitiesDirectory", "SOURCEDATE": "2018-08-09T00:00:00.000Z", "VAL_METHOD": "IMAGERY/OTHER", "VAL_DATE": "2013-09-06T00:00:00.000Z", "WEBSITE": "http://www.russellvillehospital.com", "STATE_ID": "H3001", "ALT_NAME": "NOT AVAILABLE", "ST_FIPS": "01", "OWNER": "PROPRIETARY", "TTL_STAFF": -999, "BEDS": 100, "TRAUMA": "LEVEL III", "HELIPAD": "Y" }, "geometry": { "type": "Polygon", "coordinates": [ [ [ -87.745509801899004, 34.394974594398043 ], [ -87.753460001279251, 34.397342998096597 ], [ -87.853319000020036, 34.479794006289438 ], [ -87.853366600023165, 34.47999580628592 ], [ -87.843932000179436, 34.490010005392485 ], [ -87.766334490491573, 34.565273772456457 ], [ -87.669048906375593, 34.603685970508721 ], [ -87.622273, 34.528839 ], [ -87.61835, 34.481339 ], [ -87.687602004000425, 34.42129796105737 ], [ -87.745509801899004, 34.394974594398043 ] ] ] } },
{ "type": "Feature", "properties": { "OBJECTID": 5913, "ID": "0011736081", "NAME": "TROY REGIONAL MEDICAL CENTER", "ADDRESS": "1330 HIGHWAY 231", "CITY": "TROY", "STATE": "AL", "ZIP": "36081", "ZIP4": "NOT AVAILABLE", "TELEPHONE": "(334) 670-5000", "TYPE": "GENERAL ACUTE CARE", "STATUS": "OPEN", "POPULATION": 97, "COUNTY": "PIKE", "COUNTYFIPS": "01109", "COUNTRY": "USA", "LATITUDE": 31.781515653, "LONGITUDE": -85.94556625, "NAICS_CODE": "622110", "NAICS_DESC": "GENERAL MEDICAL AND SURGICAL HOSPITALS", "SOURCE": "http://dph1.adph.state.al.us/FacilitiesDirectory", "SOURCEDATE": "2018-08-09T00:00:00.000Z", "VAL_METHOD": "IMAGERY/OTHER", "VAL_DATE": "2013-09-03T00:00:00.000Z", "WEBSITE": "http://www.troymedicalcenter.com", "STATE_ID": "01-0126", "ALT_NAME": "NOT AVAILABLE", "ST_FIPS": "01", "OWNER": "PROPRIETARY", "TTL_STAFF": -999, "BEDS": 97, "TRAUMA": "LEVEL III", "HELIPAD": "Y" }, "geometry": { "type": "Polygon", "coordinates": [ [ [ -85.964098088301, 31.689274187081562 ], [ -86.0326766, 31.73127479999998 ], [ -86.065892, 31.805287 ], [ -86.0088494, 31.8906696 ], [ -86.0085724, 31.89069510000003 ], [ -85.909053085482384, 31.845013009811982 ], [ -85.863911250364637, 31.807865703109364 ], [ -85.817329413033036, 31.730628194765266 ], [ -85.815804011782831, 31.726969894819682 ], [ -85.818205512665628, 31.720100895518453 ], [ -85.824993915853767, 31.709476096920788 ], [ -85.825150115942634, 31.709414196941641 ], [ -85.960427891410802, 31.689492682652467 ], [ -85.964098088301, 31.689274187081562 ] ] ] } },
{ "type": "Feature", "properties": { "OBJECTID": 5915, "ID": "0000935401", "NAME": "DCH REGIONAL MEDICAL CENTER", "ADDRESS": "809 UNIVERSITY BOULEVARD EAST", "CITY": "TUSCALOOSA", "STATE": "AL", "ZIP": "35401", "ZIP4": "NOT AVAILABLE", "TELEPHONE": "(205) 759-7111", "TYPE": "GENERAL ACUTE CARE", "STATUS": "OPEN", "POPULATION": 583, "COUNTY": "TUSCALOOSA", "COUNTYFIPS": "01125", "COUNTRY": "USA", "LATITUDE": 33.204820526, "LONGITUDE": -87.527419468999895, "NAICS_CODE": "622110", "NAICS_DESC": "GENERAL MEDICAL AND SURGICAL HOSPITALS", "SOURCE": "http://dph1.adph.state.al.us/FacilitiesDirectory", "SOURCEDATE": "2018-08-09T00:00:00.000Z", "VAL_METHOD": "IMAGERY/OTHER", "VAL_DATE": "2014-03-12T00:00:00.000Z", "WEBSITE": "http://www.dchsystem.com", "STATE_ID": "H6301", "ALT_NAME": "NOT AVAILABLE", "ST_FIPS": "01", "OWNER": "GOVERNMENT - DISTRICT/AUTHORITY", "TTL_STAFF": -999, "BEDS": 583, "TRAUMA": "LEVEL III", "HELIPAD": "Y" }, "geometry": { "type": "Polygon", "coordinates": [ [ [ -87.552741, 33.104317 ], [ -87.61516, 33.150126 ], [ -87.627908, 33.159919 ], [ -87.631474, 33.181354 ], [ -87.6385714, 33.234197700000017 ], [ -87.6385473, 33.234373099999985 ], [ -87.61226, 33.263337 ], [ -87.599415900000011, 33.2757893 ], [ -87.570982, 33.285063 ], [ -87.533485, 33.288804 ], [ -87.520272, 33.287041 ], [ -87.4920671, 33.280403199999967 ], [ -87.4135582, 33.2348554 ], [ -87.4070284, 33.174174299999969 ], [ -87.4624576, 33.099291099999967 ], [ -87.4626981, 33.099202299999988 ], [ -87.552741, 33.104317 ] ] ] } },
{ "type": "Feature", "properties": { "OBJECTID": 5917, "ID": "0011435404", "NAME": "TAYLOR HARDIN SECURE MEDICAL FACILITY", "ADDRESS": "1301 JACK WARNER PARKWAY N.E.", "CITY": "TUSCALOOSA", "STATE": "AL", "ZIP": "35404", "ZIP4": "NOT AVAILABLE", "TELEPHONE": "(205) 556-7060", "TYPE": "PSYCHIATRIC", "STATUS": "OPEN", "POPULATION": 114, "COUNTY": "TUSCALOOSA", "COUNTYFIPS": "01125", "COUNTRY": "USA", "LATITUDE": 33.218674398000097, "LONGITUDE": -87.517664706999895, "NAICS_CODE": "622210", "NAICS_DESC": "PSYCHIATRIC AND SUBSTANCE ABUSE HOSPITALS", "SOURCE": "http://dph1.adph.state.al.us/FacilitiesDirectory", "SOURCEDATE": "2018-08-09T00:00:00.000Z", "VAL_METHOD": "IMAGERY", "VAL_DATE": "2014-02-10T00:00:00.000Z", "WEBSITE": "http://mh.alabama.gov/", "STATE_ID": "01-4011", "ALT_NAME": "NOT AVAILABLE", "ST_FIPS": "01", "OWNER": "PROPRIETARY", "TTL_STAFF": -999, "BEDS": 114, "TRAUMA": "NOT AVAILABLE", "HELIPAD": "N" }, "geometry": { "type": "Polygon", "coordinates": [ [ [ -87.507266, 33.124772 ], [ -87.547955, 33.129764 ], [ -87.548205, 33.129816 ], [ -87.6015374, 33.1520747 ], [ -87.617269, 33.173513 ], [ -87.6441375, 33.234881599999966 ], [ -87.6440824, 33.2351152 ], [ -87.616293, 33.270826 ], [ -87.5994944, 33.282714600000041 ], [ -87.570197, 33.289645 ], [ -87.492049, 33.294743099999963 ], [ -87.491732, 33.294492 ], [ -87.491632, 33.29441 ], [ -87.423486, 33.235844 ], [ -87.422699, 33.232804 ], [ -87.412601, 33.181218 ], [ -87.4828054, 33.124954799999983 ], [ -87.48302, 33.124836899999977 ], [ -87.484465, 33.124623 ], [ -87.507266, 33.124772 ] ] ] } },
{ "type": "Feature", "properties": { "OBJECTID": 5919, "ID": "0010035594", "NAME": "NORTHWEST MEDICAL CENTER", "ADDRESS": "1530 U. S. HWY 43", "CITY": "WINFIELD", "STATE": "AL", "ZIP": "35594", "ZIP4": "NOT AVAILABLE", "TELEPHONE": "(205) 487-7736", "TYPE": "GENERAL ACUTE CARE", "STATUS": "OPEN", "POPULATION": 71, "COUNTY": "MARION", "COUNTYFIPS": "01093", "COUNTRY": "USA", "LATITUDE": 33.93053767, "LONGITUDE": -87.824524734999997, "NAICS_CODE": "622110", "NAICS_DESC": "GENERAL MEDICAL AND SURGICAL HOSPITALS", "SOURCE": "http://dph1.adph.state.al.us/FacilitiesDirectory", "SOURCEDATE": "2018-08-09T00:00:00.000Z", "VAL_METHOD": "IMAGERY/OTHER", "VAL_DATE": "2013-09-06T00:00:00.000Z", "WEBSITE": "http://www.northwestmedcenter.com", "STATE_ID": "01-0086", "ALT_NAME": "NOT AVAILABLE", "ST_FIPS": "01", "OWNER": "PROPRIETARY", "TTL_STAFF": -999, "BEDS": 71, "TRAUMA": "LEVEL III", "HELIPAD": "Y" }, "geometry": { "type": "Polygon", "coordinates": [ [ [ -87.822656998199534, 33.846004007228544 ], [ -87.884972996903372, 33.879383013747187 ], [ -87.954881992117564, 33.954678029142514 ], [ -87.94901099115458, 33.976544031484849 ], [ -87.934588990549997, 34.009205032593641 ], [ -87.849443994299364, 34.016752020556133 ], [ -87.777433297368006, 34.011220910725754 ], [ -87.700708000393277, 33.944380020139484 ], [ -87.69131, 33.930862 ], [ -87.691335, 33.930659 ], [ -87.742119998147672, 33.878150006172255 ], [ -87.822656998199534, 33.846004007228544 ] ] ] } },
{ "type": "Feature", "properties": { "OBJECTID": 3482, "ID": "0004839301", "NAME": "THE SPECIALTY HOSPITAL OF MERIDIAN", "ADDRESS": "1314 19TH AVENUE", "CITY": "MERIDIAN", "STATE": "MS", "ZIP": "39301", "ZIP4": "NOT AVAILABLE", "TELEPHONE": "(601) 486-4211", "TYPE": "GENERAL ACUTE CARE", "STATUS": "OPEN", "POPULATION": 49, "COUNTY": "LAUDERDALE", "COUNTYFIPS": "28075", "COUNTRY": "USA", "LATITUDE": 32.369612308999997, "LONGITUDE": -88.697254403000002, "NAICS_CODE": "622110", "NAICS_DESC": "GENERAL MEDICAL AND SURGICAL HOSPITALS", "SOURCE": "https://msdh.ms.gov/msdhsite/_static/resources/7660.pdf", "SOURCEDATE": "2018-08-09T00:00:00.000Z", "VAL_METHOD": "IMAGERY", "VAL_DATE": "2014-03-12T00:00:00.000Z", "WEBSITE": "http://www.specialtyhospitalofmeridian.com/shm/", "STATE_ID": "LICENSE #23-324", "ALT_NAME": "NOT AVAILABLE", "ST_FIPS": "28", "OWNER": "NON-PROFIT", "TTL_STAFF": -999, "BEDS": 49, "TRAUMA": "NOT AVAILABLE", "HELIPAD": "Y" }, "geometry": { "type": "Polygon", "coordinates": [ [ [ -88.705060919683888, 32.268605993360353 ], [ -88.774049, 32.304956499999975 ], [ -88.8173696, 32.343809300000025 ], [ -88.7870001, 32.4273283 ], [ -88.722974599722022, 32.467531382444974 ], [ -88.672976206067403, 32.46398469385732 ], [ -88.627762105386353, 32.450260208730548 ], [ -88.57272316166609, 32.39273146784371 ], [ -88.572837160506367, 32.391193467108707 ], [ -88.591111135134682, 32.342650483008967 ], [ -88.692397804851097, 32.269200054460882 ], [ -88.705060919683888, 32.268605993360353 ] ] ] } },
{ "type": "Feature", "properties": { "OBJECTID": 3483, "ID": "0004038655", "NAME": "BAPTIST MEMORIAL HOSPITAL - NORTH MS", "ADDRESS": "2301 SOUTH LAMAR BOULEVARD", "CITY": "OXFORD", "STATE": "MS", "ZIP": "38655", "ZIP4": "NOT AVAILABLE", "TELEPHONE": "(662) 232-8100", "TYPE": "GENERAL ACUTE CARE", "STATUS": "OPEN", "POPULATION": 217, "COUNTY": "LAFAYETTE", "COUNTYFIPS": "28071", "COUNTRY": "USA", "LATITUDE": 34.348820287000002, "LONGITUDE": -89.520198950999898, "NAICS_CODE": "622110", "NAICS_DESC": "GENERAL MEDICAL AND SURGICAL HOSPITALS", "SOURCE": "https://msdh.ms.gov/msdhsite/_static/resources/7660.pdf", "SOURCEDATE": "2018-08-09T00:00:00.000Z", "VAL_METHOD": "IMAGERY", "VAL_DATE": "2014-02-10T00:00:00.000Z", "WEBSITE": "http://www.baptistonline.org/north-mississippi/", "STATE_ID": "LICENSE #13-228", "ALT_NAME": "NOT AVAILABLE", "ST_FIPS": "28", "OWNER": "NON-PROFIT", "TTL_STAFF": -999, "BEDS": 217, "TRAUMA": "LEVEL III", "HELIPAD": "Y" }, "geometry": { "type": "Polygon", "coordinates": [ [ [ -89.511515, 34.24356540000003 ], [ -89.544251, 34.254613900000059 ], [ -89.658853400000012, 34.3544771 ], [ -89.6589475, 34.35522630000002 ], [ -89.5042621, 34.461394700000014 ], [ -89.4182706, 34.4027989 ], [ -89.3623794, 34.318725299999983 ], [ -89.5104342, 34.243631700000016 ], [ -89.511515, 34.24356540000003 ] ] ] } },
{ "type": "Feature", "properties": { "OBJECTID": 3484, "ID": "0010438652", "NAME": "BAPTIST MEMORIAL HOSPITAL - UNION COUNTY", "ADDRESS": "200 HIGHWAY 30 WEST", "CITY": "NEW ALBANY", "STATE": "MS", "ZIP": "38652", "ZIP4": "NOT AVAILABLE", "TELEPHONE": "(662) 538-7631", "TYPE": "GENERAL ACUTE CARE", "STATUS": "OPEN", "POPULATION": 153, "COUNTY": "UNION", "COUNTYFIPS": "28145", "COUNTRY": "USA", "LATITUDE": 34.497832214, "LONGITUDE": -89.028067431999901, "NAICS_CODE": "622110", "NAICS_DESC": "GENERAL MEDICAL AND SURGICAL HOSPITALS", "SOURCE": "https://msdh.ms.gov/msdhsite/_static/resources/7660.pdf", "SOURCEDATE": "2018-08-09T00:00:00.000Z", "VAL_METHOD": "IMAGERY", "VAL_DATE": "2014-02-10T00:00:00.000Z", "WEBSITE": "http://www.baptistonline.org/union-county/", "STATE_ID": "LICENSE #16-239", "ALT_NAME": "NOT AVAILABLE", "ST_FIPS": "28", "OWNER": "NON-PROFIT", "TTL_STAFF": -999, "BEDS": 153, "TRAUMA": "LEVEL IV", "HELIPAD": "Y" }, "geometry": { "type": "Polygon", "coordinates": [ [ [ -89.0234767, 34.378322700000027 ], [ -89.1311539, 34.458923399999975 ], [ -89.1376655, 34.569433 ], [ -89.133472, 34.586836699999978 ], [ -89.015233, 34.571331 ], [ -88.9909905, 34.56437139999997 ], [ -88.9161983, 34.512804 ], [ -88.9240561, 34.46116 ], [ -88.9465732, 34.423718900000033 ], [ -89.0234767, 34.378322700000027 ] ] ] } },
{ "type": "Feature", "properties": { "OBJECTID": 3592, "ID": "0008136202", "NAME": "NOLAND HOSPITAL ANNISTON", "ADDRESS": "400 EAST 10TH STREET", "CITY": "ANNISTON", "STATE": "AL", "ZIP": "36202", "ZIP4": "NOT AVAILABLE", "TELEPHONE": "(256) 741-6141", "TYPE": "LONG TERM CARE", "STATUS": "OPEN", "POPULATION": 38, "COUNTY": "CALHOUN", "COUNTYFIPS": "01015", "COUNTRY": "USA", "LATITUDE": 33.655655193000001, "LONGITUDE": -85.823239615999995, "NAICS_CODE": "622310", "NAICS_DESC": "SPECIALTY (EXCEPT PSYCHIATRIC AND SUBSTANCE ABUSE) HOSPITALS", "SOURCE": "http://dph1.adph.state.al.us/FacilitiesDirectory", "SOURCEDATE": "2018-08-09T00:00:00.000Z", "VAL_METHOD": "IMAGERY/OTHER", "VAL_DATE": "2014-03-12T00:00:00.000Z", "WEBSITE": "http://www.nolandhealth.com", "STATE_ID": "H0805", "ALT_NAME": "NOT AVAILABLE", "ST_FIPS": "01", "OWNER": "PROPRIETARY", "TTL_STAFF": -999, "BEDS": 38, "TRAUMA": "LEVEL III", "HELIPAD": "Y" }, "geometry": { "type": "Polygon", "coordinates": [ [ [ -85.82303, 33.57636 ], [ -85.8819433, 33.585898899999954 ], [ -85.925766, 33.594309 ], [ -85.954531, 33.615923 ], [ -85.883286, 33.740348 ], [ -85.883107, 33.740451 ], [ -85.846049, 33.74792 ], [ -85.78575, 33.753520700000024 ], [ -85.719313468879761, 33.649591965769503 ], [ -85.739903926029115, 33.621607062242333 ], [ -85.785447941398658, 33.585480021735442 ], [ -85.821183, 33.576366 ], [ -85.822063, 33.576359 ], [ -85.82303, 33.57636 ] ] ] } },
{ "type": "Feature", "properties": { "OBJECTID": 3593, "ID": "0091636202", "NAME": "NORTHEAST ALABAMA REGIONAL MEDICAL CENTER", "ADDRESS": "400 EAST TENTH STREET", "CITY": "ANNISTON", "STATE": "AL", "ZIP": "36202", "ZIP4": "2208", "TELEPHONE": "(256) 235-5121", "TYPE": "GENERAL ACUTE CARE", "STATUS": "OPEN", "POPULATION": 323, "COUNTY": "CALHOUN", "COUNTYFIPS": "01015", "COUNTRY": "USA", "LATITUDE": 33.655575256000098, "LONGITUDE": -85.823242138999902, "NAICS_CODE": "622110", "NAICS_DESC": "GENERAL MEDICAL AND SURGICAL HOSPITALS", "SOURCE": "http://dph1.adph.state.al.us/FacilitiesDirectory", "SOURCEDATE": "2018-08-09T00:00:00.000Z", "VAL_METHOD": "IMAGERY/OTHER", "VAL_DATE": "2015-02-03T00:00:00.000Z", "WEBSITE": "NOT AVAILABLE", "STATE_ID": "H0801", "ALT_NAME": "NOT AVAILABLE", "ST_FIPS": "01", "OWNER": "NOT AVAILABLE", "TTL_STAFF": -999, "BEDS": 323, "TRAUMA": "LEVEL III", "HELIPAD": "Y" }, "geometry": { "type": "Polygon", "coordinates": [ [ [ -85.82303, 33.57636 ], [ -85.8819433, 33.585898899999954 ], [ -85.925766, 33.594309 ], [ -85.954531, 33.615923 ], [ -85.883286, 33.740348 ], [ -85.883107, 33.740451 ], [ -85.846049, 33.74792 ], [ -85.78575, 33.753520700000024 ], [ -85.719313468879761, 33.649591965769503 ], [ -85.739903926029115, 33.621607062242333 ], [ -85.785447941398658, 33.585480021735442 ], [ -85.821183, 33.576366 ], [ -85.822063, 33.576359 ], [ -85.82303, 33.57636 ] ] ] } },
{ "type": "Feature", "properties": { "OBJECTID": 3594, "ID": "0000635233", "NAME": "CALLAHAN EYE HOSPITAL", "ADDRESS": "1720 UNIVERSITY BOULEVARD", "CITY": "BIRMINGHAM", "STATE": "AL", "ZIP": "35233", "ZIP4": "NOT AVAILABLE", "TELEPHONE": "(205) 325-8100", "TYPE": "GENERAL ACUTE CARE", "STATUS": "OPEN", "POPULATION": 106, "COUNTY": "JEFFERSON", "COUNTYFIPS": "01073", "COUNTRY": "USA", "LATITUDE": 33.504006103000101, "LONGITUDE": -86.802891908999996, "NAICS_CODE": "622110", "NAICS_DESC": "GENERAL MEDICAL AND SURGICAL HOSPITALS", "SOURCE": "http://dph1.adph.state.al.us/FacilitiesDirectory", "SOURCEDATE": "2018-08-09T00:00:00.000Z", "VAL_METHOD": "IMAGERY", "VAL_DATE": "2014-03-12T00:00:00.000Z", "WEBSITE": "http://www.uabmedicine.org/eye#/1213770818351/?keyword=&submit=Submit&reset=Reset&page=1&articles=true", "STATE_ID": "01-0018", "ALT_NAME": "NOT AVAILABLE", "ST_FIPS": "01", "OWNER": "GOVERNMENT - DISTRICT/AUTHORITY", "TTL_STAFF": -999, "BEDS": 106, "TRAUMA": "LEVEL I", "HELIPAD": "Y" }, "geometry": { "type": "Polygon", "coordinates": [ [ [ -86.7882321, 33.3929376 ], [ -86.8037697, 33.3942078 ], [ -86.8045807, 33.394405399999968 ], [ -86.807817, 33.395535 ], [ -86.8507683, 33.414124 ], [ -86.8746056, 33.4325364 ], [ -86.926006, 33.4769557 ], [ -86.9265689, 33.4774419 ], [ -86.9246795, 33.523568400000016 ], [ -86.8988391, 33.568849199999988 ], [ -86.8550433, 33.5906762 ], [ -86.8106591, 33.612369 ], [ -86.70718020000001, 33.5822192 ], [ -86.6866115, 33.5436253 ], [ -86.707266, 33.428241 ], [ -86.707411, 33.428111 ], [ -86.7076113, 33.427936199999976 ], [ -86.7882321, 33.3929376 ] ] ] } },
{ "type": "Feature", "properties": { "OBJECTID": 3596, "ID": "0009135957", "NAME": "MARSHALL MEDICAL CENTER SOUTH", "ADDRESS": "2505 U.S. HIGHWAY 431, SOUTH", "CITY": "BOAZ", "STATE": "AL", "ZIP": "35957", "ZIP4": "NOT AVAILABLE", "TELEPHONE": "(256) 894-6712", "TYPE": "GENERAL ACUTE CARE", "STATUS": "OPEN", "POPULATION": 150, "COUNTY": "MARSHALL", "COUNTYFIPS": "01095", "COUNTRY": "USA", "LATITUDE": 34.221465850000101, "LONGITUDE": -86.160628168000002, "NAICS_CODE": "622110", "NAICS_DESC": "GENERAL MEDICAL AND SURGICAL HOSPITALS", "SOURCE": "http://dph1.adph.state.al.us/FacilitiesDirectory", "SOURCEDATE": "2018-08-09T00:00:00.000Z", "VAL_METHOD": "IMAGERY/OTHER", "VAL_DATE": "2014-03-12T00:00:00.000Z", "WEBSITE": "http://www.mmcenters.com//index.php/facilities/marshall_south", "STATE_ID": "H4804", "ALT_NAME": "NOT AVAILABLE", "ST_FIPS": "01", "OWNER": "GOVERNMENT - DISTRICT/AUTHORITY", "TTL_STAFF": -999, "BEDS": 150, "TRAUMA": "LEVEL III", "HELIPAD": "Y" }, "geometry": { "type": "Polygon", "coordinates": [ [ [ -86.1201648, 34.1269944 ], [ -86.165809, 34.146009 ], [ -86.229605, 34.179765 ], [ -86.244363, 34.191949 ], [ -86.261935, 34.296135 ], [ -86.261895, 34.296282 ], [ -86.211742, 34.311591 ], [ -86.152875, 34.298095 ], [ -86.123392, 34.291243 ], [ -86.075993, 34.267412 ], [ -86.0995806, 34.191195199999989 ], [ -86.1201648, 34.1269944 ] ] ] } },
{ "type": "Feature", "properties": { "OBJECTID": 3598, "ID": "0002035042", "NAME": "BIBB MEDICAL CENTER", "ADDRESS": "208 PIERSON AVENUE", "CITY": "CENTREVILLE", "STATE": "AL", "ZIP": "35042", "ZIP4": "NOT AVAILABLE", "TELEPHONE": "(205) 926-4881", "TYPE": "GENERAL ACUTE CARE", "STATUS": "OPEN", "POPULATION": 35, "COUNTY": "BIBB", "COUNTYFIPS": "01007", "COUNTRY": "USA", "LATITUDE": 32.9513583660001, "LONGITUDE": -87.148311233999905, "NAICS_CODE": "622110", "NAICS_DESC": "GENERAL MEDICAL AND SURGICAL HOSPITALS", "SOURCE": "http://dph1.adph.state.al.us/FacilitiesDirectory", "SOURCEDATE": "2018-08-09T00:00:00.000Z", "VAL_METHOD": "IMAGERY", "VAL_DATE": "2014-02-10T00:00:00.000Z", "WEBSITE": "http://www.bibbmedicalcenter.com", "STATE_ID": "H0401", "ALT_NAME": "NOT AVAILABLE", "ST_FIPS": "01", "OWNER": "GOVERNMENT - DISTRICT/AUTHORITY", "TTL_STAFF": -999, "BEDS": 35, "TRAUMA": "NOT AVAILABLE", "HELIPAD": "Y" }, "geometry": { "type": "Polygon", "coordinates": [ [ [ -87.229869, 32.870066 ], [ -87.2688376, 33.029706899999979 ], [ -87.2686316, 33.029886699999942 ], [ -87.137772, 33.062424 ], [ -87.136528, 33.062525 ], [ -87.036879, 32.999786 ], [ -87.024776, 32.912582 ], [ -87.109706, 32.864642 ], [ -87.229869, 32.870066 ] ] ] } },
{ "type": "Feature", "properties": { "OBJECTID": 3599, "ID": "0010635055", "NAME": "SANCTUARY AT THE WOODLANDS, THE", "ADDRESS": "1910 CHEROKEE AVENUE, SW", "CITY": "CULLMAN", "STATE": "AL", "ZIP": "35055", "ZIP4": "NOT AVAILABLE", "TELEPHONE": "(256) 739-1239", "TYPE": "PSYCHIATRIC", "STATUS": "OPEN", "POPULATION": 40, "COUNTY": "CULLMAN", "COUNTYFIPS": "01043", "COUNTRY": "USA", "LATITUDE": 34.150921316999998, "LONGITUDE": -86.845984864999906, "NAICS_CODE": "622210", "NAICS_DESC": "PSYCHIATRIC AND SUBSTANCE ABUSE HOSPITALS", "SOURCE": "http://dph1.adph.state.al.us/FacilitiesDirectory", "SOURCEDATE": "2018-08-09T00:00:00.000Z", "VAL_METHOD": "IMAGERY/OTHER", "VAL_DATE": "2014-02-10T00:00:00.000Z", "WEBSITE": "NOT AVAILABLE", "STATE_ID": "H2203", "ALT_NAME": "NOT AVAILABLE", "ST_FIPS": "01", "OWNER": "PROPRIETARY", "TTL_STAFF": -999, "BEDS": 40, "TRAUMA": "NOT AVAILABLE", "HELIPAD": "Y" }, "geometry": { "type": "Polygon", "coordinates": [ [ [ -86.892746, 34.036102 ], [ -86.910494, 34.071597 ], [ -86.928002, 34.107167 ], [ -86.955386, 34.194586 ], [ -86.926229, 34.234783199999981 ], [ -86.876149, 34.257372 ], [ -86.7602, 34.214822 ], [ -86.7388306, 34.178040699999961 ], [ -86.770433, 34.061211299999954 ], [ -86.877653, 34.037991 ], [ -86.892746, 34.036102 ] ] ] } },
{ "type": "Feature", "properties": { "OBJECTID": 3604, "ID": "0010335999", "NAME": "RIVERVIEW REGIONAL MEDICAL CENTER", "ADDRESS": "600 SOUTH THIRD STREET", "CITY": "GADSDEN", "STATE": "AL", "ZIP": "35999", "ZIP4": "0268", "TELEPHONE": "(256) 543-5200", "TYPE": "GENERAL ACUTE CARE", "STATUS": "OPEN", "POPULATION": 281, "COUNTY": "ETOWAH", "COUNTYFIPS": "01055", "COUNTRY": "USA", "LATITUDE": 34.0043255430001, "LONGITUDE": -86.00342706000001, "NAICS_CODE": "622110", "NAICS_DESC": "GENERAL MEDICAL AND SURGICAL HOSPITALS", "SOURCE": "http://dph1.adph.state.al.us/FacilitiesDirectory", "SOURCEDATE": "2018-08-09T00:00:00.000Z", "VAL_METHOD": "IMAGERY/OTHER", "VAL_DATE": "2014-02-10T00:00:00.000Z", "WEBSITE": "http://www.riverviewregional.com", "STATE_ID": "H2803", "ALT_NAME": "NOT AVAILABLE", "ST_FIPS": "01", "OWNER": "PROPRIETARY", "TTL_STAFF": -999, "BEDS": 281, "TRAUMA": "LEVEL III", "HELIPAD": "N" }, "geometry": { "type": "Polygon", "coordinates": [ [ [ -86.023859400000021, 33.909880799999982 ], [ -86.0927444, 33.923358599999943 ], [ -86.131613200000018, 33.995893599999967 ], [ -86.1110478, 34.034611600000012 ], [ -86.0372198, 34.084954799999956 ], [ -85.9846385, 34.082454 ], [ -85.913969, 34.078196 ], [ -85.9054604, 34.077048699999963 ], [ -85.9020296, 34.075716499999963 ], [ -85.8879968, 33.9853866 ], [ -85.8883054, 33.9846687 ], [ -85.8884931, 33.984265900000025 ], [ -85.888803900000013, 33.983655099999929 ], [ -85.9257327, 33.946394899999987 ], [ -86.023859400000021, 33.909880799999982 ] ] ] } },
{ "type": "Feature", "properties": { "OBJECTID": 3605, "ID": "0007035565", "NAME": "LAKELAND COMMUNITY HOSPITAL", "ADDRESS": "42024 HIGHWAY 195", "CITY": "HALEYVILLE", "STATE": "AL", "ZIP": "35565", "ZIP4": "NOT AVAILABLE", "TELEPHONE": "(205) 485-7113", "TYPE": "GENERAL ACUTE CARE", "STATUS": "OPEN", "POPULATION": 59, "COUNTY": "WINSTON", "COUNTYFIPS": "01133", "COUNTRY": "USA", "LATITUDE": 34.241911866000102, "LONGITUDE": -87.591365799000002, "NAICS_CODE": "622110", "NAICS_DESC": "GENERAL MEDICAL AND SURGICAL HOSPITALS", "SOURCE": "http://dph1.adph.state.al.us/FacilitiesDirectory", "SOURCEDATE": "2018-08-09T00:00:00.000Z", "VAL_METHOD": "IMAGERY/OTHER", "VAL_DATE": "2013-09-03T00:00:00.000Z", "WEBSITE": "http://www.lifepointhospitals.com/serving-communities/community/lakeland-community-hospital/", "STATE_ID": "NOT AVAILABLE", "ALT_NAME": "NOT AVAILABLE", "ST_FIPS": "01", "OWNER": "NON-PROFIT", "TTL_STAFF": -999, "BEDS": 59, "TRAUMA": "NOT AVAILABLE", "HELIPAD": "Y" }, "geometry": { "type": "Polygon", "coordinates": [ [ [ -87.60857, 34.151402 ], [ -87.666582034086986, 34.195028908870789 ], [ -87.63108, 34.276888 ], [ -87.609529, 34.299231 ], [ -87.590711, 34.305903 ], [ -87.573549, 34.30564 ], [ -87.532218, 34.304626 ], [ -87.494682, 34.266391 ], [ -87.485197, 34.256589 ], [ -87.484844, 34.254133 ], [ -87.521513, 34.19195 ], [ -87.60857, 34.151402 ] ] ] } },
{ "type": "Feature", "properties": { "OBJECTID": 3613, "ID": "0003536049", "NAME": "CRENSHAW COMMUNITY HOSPITAL", "ADDRESS": "101 HOSPITAL CIRCLE", "CITY": "LUVERNE", "STATE": "AL", "ZIP": "36049", "ZIP4": "NOT AVAILABLE", "TELEPHONE": "(334) 335-3374", "TYPE": "GENERAL ACUTE CARE", "STATUS": "OPEN", "POPULATION": 65, "COUNTY": "CRENSHAW", "COUNTYFIPS": "01041", "COUNTRY": "USA", "LATITUDE": 31.693544069000001, "LONGITUDE": -86.265045701000005, "NAICS_CODE": "622110", "NAICS_DESC": "GENERAL MEDICAL AND SURGICAL HOSPITALS", "SOURCE": "http://dph1.adph.state.al.us/FacilitiesDirectory", "SOURCEDATE": "2018-08-09T00:00:00.000Z", "VAL_METHOD": "IMAGERY/OTHER", "VAL_DATE": "2014-02-10T00:00:00.000Z", "WEBSITE": "NOT AVAILABLE", "STATE_ID": "H2101", "ALT_NAME": "NOT AVAILABLE", "ST_FIPS": "01", "OWNER": "PROPRIETARY", "TTL_STAFF": -999, "BEDS": 65, "TRAUMA": "NOT AVAILABLE", "HELIPAD": "Y" }, "geometry": { "type": "Polygon", "coordinates": [ [ [ -86.256744657951231, 31.580735215714679 ], [ -86.259698638945267, 31.581933227351573 ], [ -86.278338517322453, 31.606677361936033 ], [ -86.344448044159847, 31.722172089492258 ], [ -86.348734009185236, 31.735208170956437 ], [ -86.305714, 31.789917 ], [ -86.305589, 31.790025 ], [ -86.183243, 31.755408 ], [ -86.187636622822609, 31.671785418702772 ], [ -86.24869370051357, 31.58861521964139 ], [ -86.256744657951231, 31.580735215714679 ] ] ] } },
{ "type": "Feature", "properties": { "OBJECTID": 3619, "ID": "0001736111", "NAME": "BAPTIST MEDICAL CENTER SOUTH", "ADDRESS": "2105 EAST SOUTH BOULEVARD", "CITY": "MONTGOMERY", "STATE": "AL", "ZIP": "36111", "ZIP4": "0010", "TELEPHONE": "(334) 286-2987", "TYPE": "GENERAL ACUTE CARE", "STATUS": "OPEN", "POPULATION": 454, "COUNTY": "MONTGOMERY", "COUNTYFIPS": "01101", "COUNTRY": "USA", "LATITUDE": 32.3281539480001, "LONGITUDE": -86.27754935, "NAICS_CODE": "622110", "NAICS_DESC": "GENERAL MEDICAL AND SURGICAL HOSPITALS", "SOURCE": "http://dph1.adph.state.al.us/FacilitiesDirectory", "SOURCEDATE": "2018-08-09T00:00:00.000Z", "VAL_METHOD": "IMAGERY/OTHER", "VAL_DATE": "2014-03-12T00:00:00.000Z", "WEBSITE": "http://www.baptistfirst.org", "STATE_ID": "H5102", "ALT_NAME": "NOT AVAILABLE", "ST_FIPS": "01", "OWNER": "GOVERNMENT - DISTRICT/AUTHORITY", "TTL_STAFF": -999, "BEDS": 454, "TRAUMA": "LEVEL II", "HELIPAD": "Y" }, "geometry": { "type": "Polygon", "coordinates": [ [ [ -86.2947391, 32.2392032 ], [ -86.356789, 32.25726 ], [ -86.4197465, 32.303325800000017 ], [ -86.4197773, 32.303491799999975 ], [ -86.383264, 32.365229 ], [ -86.3752102, 32.3716254 ], [ -86.312212, 32.406022 ], [ -86.3028828, 32.410993800000014 ], [ -86.286049, 32.414166 ], [ -86.2167794, 32.4103363 ], [ -86.2121384, 32.40783980000004 ], [ -86.14311, 32.367053 ], [ -86.1558813, 32.25867 ], [ -86.2947391, 32.2392032 ] ] ] } },
{ "type": "Feature", "properties": { "OBJECTID": 3756, "ID": "0012739339", "NAME": "WINSTON MEDICAL CETNER", "ADDRESS": "923 SOUTH CHURCH STREET", "CITY": "LOUSVILLE", "STATE": "MS", "ZIP": "39339", "ZIP4": "NOT AVAILABLE", "TELEPHONE": "(662) 773-6211", "TYPE": "GENERAL ACUTE CARE", "STATUS": "OPEN", "POPULATION": 41, "COUNTY": "WINSTON", "COUNTYFIPS": "28159", "COUNTRY": "USA", "LATITUDE": 33.098005086999997, "LONGITUDE": -89.06011088, "NAICS_CODE": "622110", "NAICS_DESC": "GENERAL MEDICAL AND SURGICAL HOSPITALS", "SOURCE": "https://msdh.ms.gov/msdhsite/_static/resources/7660.pdf", "SOURCEDATE": "2018-08-09T00:00:00.000Z", "VAL_METHOD": "IMAGERY/OTHER", "VAL_DATE": "2016-08-18T00:00:00.000Z", "WEBSITE": "http://www.winstonmedical.org/", "STATE_ID": "LICENSE #16-208", "ALT_NAME": "NOT AVAILABLE", "ST_FIPS": "28", "OWNER": "NON-PROFIT", "TTL_STAFF": -999, "BEDS": 41, "TRAUMA": "LEVEL IV", "HELIPAD": "N" }, "geometry": { "type": "Polygon", "coordinates": [ [ [ -89.0645193, 32.9871302 ], [ -89.158408750798017, 33.043425284972187 ], [ -89.15476, 33.111131 ], [ -89.1216944, 33.1890557 ], [ -89.018918, 33.1789724 ], [ -89.007848, 33.175598 ], [ -88.963019, 33.10041 ], [ -88.9996856, 33.0588556 ], [ -89.0594451, 32.9922293 ], [ -89.0645193, 32.9871302 ] ] ] } },
{ "type": "Feature", "properties": { "OBJECTID": 3936, "ID": "0171539328", "NAME": "JOHN C STENNIS MEMORIAL HOSPITAL", "ADDRESS": "14365 HIGHWAY 16 WEST", "CITY": "DEKALB", "STATE": "MS", "ZIP": "39328", "ZIP4": "NOT AVAILABLE", "TELEPHONE": "(769) 486-1000", "TYPE": "CRITICAL ACCESS", "STATUS": "OPEN", "POPULATION": 25, "COUNTY": "KEMPER", "COUNTYFIPS": "28067", "COUNTRY": "USA", "LATITUDE": 32.777822286000102, "LONGITUDE": -88.679621971000003, "NAICS_CODE": "622110", "NAICS_DESC": "GENERAL MEDICAL AND SURGICAL HOSPITALS", "SOURCE": "https://msdh.ms.gov/msdhsite/_static/resources/7660.pdf", "SOURCEDATE": "2018-08-09T00:00:00.000Z", "VAL_METHOD": "IMAGERY/OTHER", "VAL_DATE": "2019-05-09T00:00:00.000Z", "WEBSITE": "http://www.johncstennismemorialhospital.com/jcsmh/", "STATE_ID": "LICENSE #13-347", "ALT_NAME": "NOT AVAILABLE", "ST_FIPS": "28", "OWNER": "NON-PROFIT", "TTL_STAFF": -999, "BEDS": 25, "TRAUMA": "LEVEL IV", "HELIPAD": "Y" }, "geometry": { "type": "Polygon", "coordinates": [ [ [ -88.674251151154436, 32.694018300941444 ], [ -88.8026482, 32.7550344 ], [ -88.7807154, 32.8242051 ], [ -88.656659013132639, 32.85501578520411 ], [ -88.570458044500384, 32.802600888298855 ], [ -88.566581044554482, 32.799477881279081 ], [ -88.582358066145247, 32.763465956485888 ], [ -88.674251151154436, 32.694018300941444 ] ] ] } }
]
}
