{
"type": "FeatureCollection",
"crs": { "type": "name", "properties": { "name": "urn:ogc:def:crs:OGC:1.3:CRS84" } },
"features": [
{ "type": "Feature", "properties": { "OBJECTID": 465, "ID": "0010460134", "NAME": "DELNOR COMMUNITY HOSPITAL", "ADDRESS": "300 RANDALL RD", "CITY": "GENEVA", "STATE": "IL", "ZIP": "60134", "ZIP4": "NOT AVAILABLE", "TELEPHONE": "(630) 208-3000", "TYPE": "GENERAL ACUTE CARE", "STATUS": "OPEN", "POPULATION": 159, "COUNTY": "KANE", "COUNTYFIPS": "17089", "COUNTRY": "USA", "LATITUDE": 41.886614965, "LONGITUDE": -88.343450363000002, "NAICS_CODE": "622110", "NAICS_DESC": "GENERAL MEDICAL AND SURGICAL HOSPITALS", "SOURCE": "https://data.illinois.gov/", "SOURCEDATE": "2018-08-09T00:00:00.000Z", "VAL_METHOD": "IMAGERY", "VAL_DATE": "2014-03-12T00:00:00.000Z", "WEBSITE": "http://www.delnor.com", "STATE_ID": "140211", "ALT_NAME": "NOT AVAILABLE", "ST_FIPS": "17", "OWNER": "NON-PROFIT", "TTL_STAFF": -999, "BEDS": 159, "TRAUMA": "LEVEL II", "HELIPAD": "Y" }, "geometry": { "type": "Polygon", "coordinates": [ [ [ -88.3756083, 41.787212 ], [ -88.419017, 41.821278 ], [ -88.4561934, 41.881581800000021 ], [ -88.416485, 41.958244 ], [ -88.3386776, 41.995786299999985 ], [ -88.3372826, 41.99640129999996 ], [ -88.3357641, 41.995857200000025 ], [ -88.2722323, 41.9474682 ], [ -88.2538521, 41.928781400000041 ], [ -88.2478959, 41.921285800000035 ], [ -88.218984, 41.881305 ], [ -88.2190761, 41.8689365 ], [ -88.3468344, 41.786272 ], [ -88.3756083, 41.787212 ] ] ] } },
{ "type": "Feature", "properties": { "OBJECTID": 7204, "ID": "0012460115", "NAME": "KISHWAUKEE COMMUNITY HOSPITAL", "ADDRESS": "ONE KISH HOSPITAL DRIVE", "CITY": "DEKALB", "STATE": "IL", "ZIP": "60115", "ZIP4": "NOT AVAILABLE", "TELEPHONE": "(815) 756-1521", "TYPE": "GENERAL ACUTE CARE", "STATUS": "OPEN", "POPULATION": 98, "COUNTY": "DEKALB", "COUNTYFIPS": "17037", "COUNTRY": "USA", "LATITUDE": 41.9613962110001, "LONGITUDE": -88.722891548999897, "NAICS_CODE": "622110", "NAICS_DESC": "GENERAL MEDICAL AND SURGICAL HOSPITALS", "SOURCE": "https://data.illinois.gov/", "SOURCEDATE": "2018-08-09T00:00:00.000Z", "VAL_METHOD": "IMAGERY", "VAL_DATE": "2014-03-12T00:00:00.000Z", "WEBSITE": "http://www.kishhospital.org", "STATE_ID": "140286", "ALT_NAME": "NOT AVAILABLE", "ST_FIPS": "17", "OWNER": "NON-PROFIT", "TTL_STAFF": -999, "BEDS": 98, "TRAUMA": "NOT AVAILABLE", "HELIPAD": "Y" }, "geometry": { "type": "Polygon", "coordinates": [ [ [ -88.755698, 41.892784 ], [ -88.7738427, 41.906699400000036 ], [ -88.798081, 41.933373 ], [ -88.7972364, 41.95084989999998 ], [ -88.782887, 42.0016179 ], [ -88.763567, 42.012436 ], [ -88.743313, 42.019975 ], [ -88.709505, 42.025849 ], [ -88.704432, 42.025576 ], [ -88.673054, 42.022358900000022 ], [ -88.6646916, 42.021155099999973 ], [ -88.6568652, 42.01737420000002 ], [ -88.628891, 41.976774 ], [ -88.63001, 41.967658 ], [ -88.643324, 41.949744 ], [ -88.6848872, 41.91364660000005 ], [ -88.7237971, 41.892674300000031 ], [ -88.755698, 41.892784 ] ] ] } },
{ "type": "Feature", "properties": { "OBJECTID": 5245, "ID": "0011161108", "NAME": "SAINT ANTHONY MEDICAL CENTER", "ADDRESS": "5666 EAST STATE STREET", "CITY": "ROCKFORD", "STATE": "IL", "ZIP": "61107", "ZIP4": "NOT AVAILABLE", "TELEPHONE": "(815) 226-2000", "TYPE": "GENERAL ACUTE CARE", "STATUS": "OPEN", "POPULATION": 235, "COUNTY": "WINNEBAGO", "COUNTYFIPS": "17201", "COUNTRY": "USA", "LATITUDE": 42.269886013000097, "LONGITUDE": -89.007721583000006, "NAICS_CODE": "622110", "NAICS_DESC": "GENERAL MEDICAL AND SURGICAL HOSPITALS", "SOURCE": "https://data.illinois.gov/", "SOURCEDATE": "2018-08-09T00:00:00.000Z", "VAL_METHOD": "IMAGERY", "VAL_DATE": "2014-02-10T00:00:00.000Z", "WEBSITE": "http://www.osfhealth.com", "STATE_ID": "140233", "ALT_NAME": "NOT AVAILABLE", "ST_FIPS": "17", "OWNER": "NON-PROFIT", "TTL_STAFF": -999, "BEDS": 235, "TRAUMA": "LEVEL I, LEVEL II PEDIATRIC", "HELIPAD": "Y" }, "geometry": { "type": "Polygon", "coordinates": [ [ [ -89.0342396, 42.2005364 ], [ -89.0550542, 42.20897389999994 ], [ -89.0778377, 42.219604100000041 ], [ -89.1058286, 42.24879 ], [ -89.1160769, 42.2632768 ], [ -89.1238619, 42.2765422 ], [ -89.0289263, 42.3515533 ], [ -88.9645199, 42.364835200000016 ], [ -88.927331, 42.319766 ], [ -88.914762, 42.290668 ], [ -88.91439, 42.28963 ], [ -88.9396487, 42.221942800000022 ], [ -88.9793119, 42.211555299999958 ], [ -89.0332971, 42.200657200000016 ], [ -89.0342396, 42.2005364 ] ] ] } },
{ "type": "Feature", "properties": { "OBJECTID": 5440, "ID": "0001460123", "NAME": "ADVOCATE SHERMAN HOSPITAL", "ADDRESS": "1425 NORTH RANDALL ROAD", "CITY": "ELGIN", "STATE": "IL", "ZIP": "60123", "ZIP4": "NOT AVAILABLE", "TELEPHONE": "(847) 742-9800", "TYPE": "GENERAL ACUTE CARE", "STATUS": "OPEN", "POPULATION": 255, "COUNTY": "KANE", "COUNTYFIPS": "17089", "COUNTRY": "USA", "LATITUDE": 42.070587424000102, "LONGITUDE": -88.330702301000002, "NAICS_CODE": "622110", "NAICS_DESC": "GENERAL MEDICAL AND SURGICAL HOSPITALS", "SOURCE": "https://data.illinois.gov/", "SOURCEDATE": "2018-08-09T00:00:00.000Z", "VAL_METHOD": "IMAGERY", "VAL_DATE": "2016-04-25T00:00:00.000Z", "WEBSITE": "http://www.advocatehealth.com/sherman", "STATE_ID": "140030", "ALT_NAME": "NOT AVAILABLE", "ST_FIPS": "17", "OWNER": "NON-PROFIT", "TTL_STAFF": -999, "BEDS": 255, "TRAUMA": "LEVEL II", "HELIPAD": "Y" }, "geometry": { "type": "Polygon", "coordinates": [ [ [ -88.313017, 41.992182 ], [ -88.335699, 41.994155 ], [ -88.3384603, 41.995449899999976 ], [ -88.382814, 42.0211742 ], [ -88.4652711, 42.132407099999988 ], [ -88.4326624, 42.144795299999934 ], [ -88.33533, 42.172042500000011 ], [ -88.3351772, 42.172045299999972 ], [ -88.2956197, 42.154016799999987 ], [ -88.255038, 42.124965 ], [ -88.244768, 42.116763 ], [ -88.235567800000013, 42.107256 ], [ -88.2201439, 42.081087 ], [ -88.2201774, 42.0808714 ], [ -88.2519829, 42.0238796 ], [ -88.2632414, 42.015452899999971 ], [ -88.307497, 41.994695 ], [ -88.313017, 41.992182 ] ] ] } },
{ "type": "Feature", "properties": { "OBJECTID": 5441, "ID": "0010660123", "NAME": "PRESENCE SAINT JOSEPH HOSPITAL", "ADDRESS": "77 N AIRLITE STREET", "CITY": "ELGIN", "STATE": "IL", "ZIP": "60123", "ZIP4": "NOT AVAILABLE", "TELEPHONE": "(847) 695-3200", "TYPE": "GENERAL ACUTE CARE", "STATUS": "OPEN", "POPULATION": 184, "COUNTY": "KANE", "COUNTYFIPS": "17089", "COUNTRY": "USA", "LATITUDE": 42.035269532000001, "LONGITUDE": -88.326947130999898, "NAICS_CODE": "622110", "NAICS_DESC": "GENERAL MEDICAL AND SURGICAL HOSPITALS", "SOURCE": "https://data.illinois.gov/", "SOURCEDATE": "2018-08-09T00:00:00.000Z", "VAL_METHOD": "IMAGERY", "VAL_DATE": "2014-03-12T00:00:00.000Z", "WEBSITE": "http://www.presencehealth.org/presence-saint-joseph-hospital-elgin", "STATE_ID": "140217", "ALT_NAME": "NOT AVAILABLE", "ST_FIPS": "17", "OWNER": "NON-PROFIT", "TTL_STAFF": -999, "BEDS": 184, "TRAUMA": "LEVEL II", "HELIPAD": "Y" }, "geometry": { "type": "Polygon", "coordinates": [ [ [ -88.3402865, 41.9437529 ], [ -88.3549663, 41.95409469999997 ], [ -88.4011825, 41.992609 ], [ -88.4201502, 42.010342 ], [ -88.450865, 42.052839 ], [ -88.421238, 42.116755299999973 ], [ -88.3354066, 42.1325775 ], [ -88.3332469, 42.132387199999954 ], [ -88.313784, 42.120276200000021 ], [ -88.2552678, 42.08171789999998 ], [ -88.2525739, 42.0792926 ], [ -88.2211745, 42.0471983 ], [ -88.2139909, 42.030190600000047 ], [ -88.2138399, 42.029420299999963 ], [ -88.2132507, 42.021839299999989 ], [ -88.2155188, 42.014515500000023 ], [ -88.2181191, 42.009490300000053 ], [ -88.2684795, 41.977680499999984 ], [ -88.3384952, 41.943659800000013 ], [ -88.3402865, 41.9437529 ] ] ] } },
{ "type": "Feature", "properties": { "OBJECTID": 3376, "ID": "0003561108", "NAME": "VAN MATRE REHABILITATION HOSPITAL", "ADDRESS": "950 S. MULFORD ROAD", "CITY": "ROCKFORD", "STATE": "IL", "ZIP": "61108", "ZIP4": "NOT AVAILABLE", "TELEPHONE": "(815) 381-8548", "TYPE": "REHABILITATION", "STATUS": "OPEN", "POPULATION": 50, "COUNTY": "WINNEBAGO", "COUNTYFIPS": "17201", "COUNTRY": "USA", "LATITUDE": 42.258548542, "LONGITUDE": -88.997155597999907, "NAICS_CODE": "622310", "NAICS_DESC": "REHABILITATION HOSPITALS (EXCEPT ALCOHOLISM, DRUG ADDICTION)", "SOURCE": "https://data.illinois.gov/", "SOURCEDATE": "2018-08-09T00:00:00.000Z", "VAL_METHOD": "IMAGERY", "VAL_DATE": "2014-01-21T00:00:00.000Z", "WEBSITE": "http://www.healthsouth.com", "STATE_ID": "0005215", "ALT_NAME": "NOT AVAILABLE", "ST_FIPS": "17", "OWNER": "PROPRIETARY", "TTL_STAFF": -999, "BEDS": 50, "TRAUMA": "NOT AVAILABLE", "HELIPAD": "N" }, "geometry": { "type": "Polygon", "coordinates": [ [ [ -89.0018239, 42.1900664 ], [ -89.025464, 42.1948955 ], [ -89.0723275, 42.208961300000013 ], [ -89.1090615, 42.2457668 ], [ -89.1136884, 42.252081200000013 ], [ -89.1108922, 42.277004800000022 ], [ -89.0285674, 42.333263400000021 ], [ -88.9647768, 42.370554599999956 ], [ -88.919597, 42.31972 ], [ -88.91439, 42.28963 ], [ -88.915154, 42.28638 ], [ -88.9396487, 42.221942800000022 ], [ -88.9791547, 42.1901814 ], [ -88.993639, 42.1899285 ], [ -89.0018239, 42.1900664 ] ] ] } },
{ "type": "Feature", "properties": { "OBJECTID": 3428, "ID": "0014561068", "NAME": "ROCHELLE COMMUNITY HOSPITAL", "ADDRESS": "900 N 2ND ST", "CITY": "ROCHELLE", "STATE": "IL", "ZIP": "61068", "ZIP4": "NOT AVAILABLE", "TELEPHONE": "(815) 562-2181", "TYPE": "CRITICAL ACCESS", "STATUS": "OPEN", "POPULATION": 16, "COUNTY": "OGLE", "COUNTYFIPS": "17141", "COUNTRY": "USA", "LATITUDE": 41.928314448999998, "LONGITUDE": -89.063429739, "NAICS_CODE": "622110", "NAICS_DESC": "GENERAL MEDICAL AND SURGICAL HOSPITALS", "SOURCE": "https://data.illinois.gov/", "SOURCEDATE": "2018-08-09T00:00:00.000Z", "VAL_METHOD": "IMAGERY", "VAL_DATE": "2014-03-12T00:00:00.000Z", "WEBSITE": "http://www.rcha.net", "STATE_ID": "141312", "ALT_NAME": "NOT AVAILABLE", "ST_FIPS": "17", "OWNER": "NON-PROFIT", "TTL_STAFF": -999, "BEDS": 16, "TRAUMA": "NOT AVAILABLE", "HELIPAD": "Y" }, "geometry": { "type": "Polygon", "coordinates": [ [ [ -89.081515100000018, 41.839529599999985 ], [ -89.1690631, 41.911230899999964 ], [ -89.1581091, 41.937103 ], [ -89.065886, 42.035879 ], [ -89.000634, 42.007373700000016 ], [ -88.9605586, 41.93520560000001 ], [ -88.961087, 41.928885 ], [ -89.076985, 41.840056 ], [ -89.081515100000018, 41.839529599999985 ] ] ] } },
{ "type": "Feature", "properties": { "OBJECTID": 3443, "ID": "0003060178", "NAME": "THC CHICAGO, INC. - DBA KINDRED HOSPITAL - SYCAMORE", "ADDRESS": "225 EDWARD STREET", "CITY": "SYCAMORE", "STATE": "IL", "ZIP": "60178", "ZIP4": "NOT AVAILABLE", "TELEPHONE": "(815) 895-2144", "TYPE": "LONG TERM CARE", "STATUS": "OPEN", "POPULATION": 69, "COUNTY": "DEKALB", "COUNTYFIPS": "17037", "COUNTRY": "USA", "LATITUDE": 41.9829476990001, "LONGITUDE": -88.688958788999997, "NAICS_CODE": "622110", "NAICS_DESC": "GENERAL MEDICAL AND SURGICAL HOSPITALS", "SOURCE": "https://data.illinois.gov/", "SOURCEDATE": "2018-08-09T00:00:00.000Z", "VAL_METHOD": "IMAGERY/OTHER", "VAL_DATE": "2014-02-10T00:00:00.000Z", "WEBSITE": "http://www.kindredhospitalsyc.com/", "STATE_ID": "0004945", "ALT_NAME": "NOT AVAILABLE", "ST_FIPS": "17", "OWNER": "PROPRIETARY", "TTL_STAFF": -999, "BEDS": 69, "TRAUMA": "NOT AVAILABLE", "HELIPAD": "N" }, "geometry": { "type": "Polygon", "coordinates": [ [ [ -88.688889, 41.893019 ], [ -88.7239952, 41.902068900000017 ], [ -88.753474, 41.918244 ], [ -88.7671961, 41.9311133 ], [ -88.829403, 42.001410100000015 ], [ -88.693273, 42.06645 ], [ -88.68999, 42.066463 ], [ -88.683862, 42.066474 ], [ -88.6410599, 42.066494499999969 ], [ -88.6369581, 42.066481399999958 ], [ -88.601709, 42.041473 ], [ -88.571421, 41.958941 ], [ -88.688889, 41.893019 ] ] ] } }
]
}
