{
"type": "FeatureCollection",
"crs": { "type": "name", "properties": { "name": "urn:ogc:def:crs:OGC:1.3:CRS84" } },
"features": [
{ "type": "Feature", "properties": { "OBJECTID": 1136, "ID": "0015763670", "NAME": "STE GENEVIEVE COUNTY MEMORIAL HOSPITAL", "ADDRESS": "800 STE. GENEVIEVE DRIVE", "CITY": "STE GENEVIEVE", "STATE": "MO", "ZIP": "63670", "ZIP4": "NOT AVAILABLE", "TELEPHONE": "(573) 883-2751", "TYPE": "CRITICAL ACCESS", "STATUS": "OPEN", "POPULATION": 47, "COUNTY": "STE. GENEVIEVE", "COUNTYFIPS": "29186", "COUNTRY": "USA", "LATITUDE": 37.969342224999998, "LONGITUDE": -90.054654905999897, "NAICS_CODE": "622110", "NAICS_DESC": "GENERAL MEDICAL AND SURGICAL HOSPITALS", "SOURCE": "http://health.mo.gov/safety/healthservregs/directories.php", "SOURCEDATE": "2018-08-09T00:00:00.000Z", "VAL_METHOD": "IMAGERY/OTHER", "VAL_DATE": "2014-02-10T00:00:00.000Z", "WEBSITE": "http://www.stegenevievehospital.org", "STATE_ID": "H131", "ALT_NAME": "NOT AVAILABLE", "ST_FIPS": "29", "OWNER": "GOVERNMENT - LOCAL", "TTL_STAFF": -999, "BEDS": 47, "TRAUMA": "LEVEL III", "HELIPAD": "Y" }, "geometry": { "type": "Polygon", "coordinates": [ [ [ -90.050725, 37.90501 ], [ -90.113202, 37.922564 ], [ -90.153722, 37.93556 ], [ -90.164958, 37.965712 ], [ -90.095052, 38.009707 ], [ -90.073573, 38.008025 ], [ -90.0581452, 38.004564399999971 ], [ -90.055125, 38.002485 ], [ -90.0333368, 37.975347799999987 ], [ -89.9786284, 37.90247 ], [ -90.050725, 37.90501 ] ] ] } },
{ "type": "Feature", "properties": { "OBJECTID": 1138, "ID": "0010863935", "NAME": "SOUTHEASTHEALTH CENTER OF RIPLEY COUNTY", "ADDRESS": "109 PLUM STREET", "CITY": "DONIPHAN", "STATE": "MO", "ZIP": "63935", "ZIP4": "NOT AVAILABLE", "TELEPHONE": "(573) 996-2141", "TYPE": "GENERAL ACUTE CARE", "STATUS": "OPEN", "POPULATION": 21, "COUNTY": "RIPLEY", "COUNTYFIPS": "29181", "COUNTRY": "USA", "LATITUDE": 36.621297374999997, "LONGITUDE": -90.825819571999901, "NAICS_CODE": "622110", "NAICS_DESC": "GENERAL MEDICAL AND SURGICAL HOSPITALS", "SOURCE": "http://health.mo.gov/safety/healthservregs/directories.php", "SOURCEDATE": "2018-08-09T00:00:00.000Z", "VAL_METHOD": "IMAGERY", "VAL_DATE": "2013-09-23T00:00:00.000Z", "WEBSITE": "https://www.sehealth.org/locations/health-center-ripley-county", "STATE_ID": "H092", "ALT_NAME": "NOT AVAILABLE", "ST_FIPS": "29", "OWNER": "PROPRIETARY", "TTL_STAFF": -999, "BEDS": 21, "TRAUMA": "NOT AVAILABLE", "HELIPAD": "N" }, "geometry": { "type": "Polygon", "coordinates": [ [ [ -90.828934, 36.556075 ], [ -90.8777494, 36.566062299999963 ], [ -90.889068, 36.578335 ], [ -90.9041367, 36.5993104 ], [ -90.9048587, 36.6357312 ], [ -90.875801, 36.668719 ], [ -90.8669042, 36.678142799999975 ], [ -90.7937384, 36.698420200000029 ], [ -90.740199, 36.659206 ], [ -90.7375076, 36.5935381 ], [ -90.7727914, 36.574068800000013 ], [ -90.806833, 36.55992 ], [ -90.828934, 36.556075 ] ] ] } },
{ "type": "Feature", "properties": { "OBJECTID": 1149, "ID": "0007663663", "NAME": "IRON COUNTY HOSPITAL", "ADDRESS": "301 NORTH HIGHWAY 21", "CITY": "PILOT KNOB", "STATE": "MO", "ZIP": "63663", "ZIP4": "NOT AVAILABLE", "TELEPHONE": "(573) 546-1260", "TYPE": "CRITICAL ACCESS", "STATUS": "OPEN", "POPULATION": 15, "COUNTY": "IRON", "COUNTYFIPS": "29093", "COUNTRY": "USA", "LATITUDE": 37.623123891, "LONGITUDE": -90.644717948999997, "NAICS_CODE": "622110", "NAICS_DESC": "GENERAL MEDICAL AND SURGICAL HOSPITALS", "SOURCE": "http://health.mo.gov/safety/healthservregs/directories.php", "SOURCEDATE": "2018-08-09T00:00:00.000Z", "VAL_METHOD": "IMAGERY/OTHER", "VAL_DATE": "2014-02-10T00:00:00.000Z", "WEBSITE": "http://www.icmedcenter.org/", "STATE_ID": "H160", "ALT_NAME": "NOT AVAILABLE", "ST_FIPS": "29", "OWNER": "GOVERNMENT - DISTRICT/AUTHORITY", "TTL_STAFF": -999, "BEDS": 15, "TRAUMA": "NOT AVAILABLE", "HELIPAD": "Y" }, "geometry": { "type": "Polygon", "coordinates": [ [ [ -90.637864799999988, 37.5539556 ], [ -90.6696937, 37.558854100000012 ], [ -90.7046924, 37.6355589 ], [ -90.71833, 37.667305 ], [ -90.6442573, 37.675923799999985 ], [ -90.6289402, 37.6756242 ], [ -90.5897569, 37.643023400000033 ], [ -90.56502660000001, 37.5953441 ], [ -90.5724049, 37.574443900000027 ], [ -90.6286067, 37.555374300000011 ], [ -90.637864799999988, 37.5539556 ] ] ] } },
{ "type": "Feature", "properties": { "OBJECTID": 1156, "ID": "0003363703", "NAME": "SAINT FRANCIS MEDICAL CENTER", "ADDRESS": "211 SAINT FRANCIS DRIVE", "CITY": "CAPE GIRARDEAU", "STATE": "MO", "ZIP": "63703", "ZIP4": "NOT AVAILABLE", "TELEPHONE": "(573) 331-3000", "TYPE": "GENERAL ACUTE CARE", "STATUS": "OPEN", "POPULATION": 308, "COUNTY": "CAPE GIRARDEAU", "COUNTYFIPS": "29031", "COUNTRY": "USA", "LATITUDE": 37.3035819400001, "LONGITUDE": -89.571144976, "NAICS_CODE": "622110", "NAICS_DESC": "GENERAL MEDICAL AND SURGICAL HOSPITALS", "SOURCE": "http://health.mo.gov/safety/healthservregs/directories.php", "SOURCEDATE": "2018-08-09T00:00:00.000Z", "VAL_METHOD": "IMAGERY/OTHER", "VAL_DATE": "2014-02-10T00:00:00.000Z", "WEBSITE": "http://www.sfmc.net", "STATE_ID": "H111", "ALT_NAME": "NOT AVAILABLE", "ST_FIPS": "29", "OWNER": "NON-PROFIT", "TTL_STAFF": -999, "BEDS": 308, "TRAUMA": "LEVEL III", "HELIPAD": "Y" }, "geometry": { "type": "Polygon", "coordinates": [ [ [ -89.532488, 37.177351 ], [ -89.5527618, 37.186398 ], [ -89.639072699999986, 37.2306969 ], [ -89.656732800000015, 37.247702 ], [ -89.6979526, 37.312788 ], [ -89.6760634, 37.379442300000029 ], [ -89.6426697, 37.4338022 ], [ -89.6365787, 37.441098 ], [ -89.5102091, 37.3429702 ], [ -89.508855400000016, 37.3417671 ], [ -89.5022585, 37.327183500000032 ], [ -89.4888256, 37.247184799999957 ], [ -89.532488, 37.177351 ] ] ] } },
{ "type": "Feature", "properties": { "OBJECTID": 1157, "ID": "0009763775", "NAME": "PERRY COUNTY MEMORIAL HOSPITAL", "ADDRESS": "434 NORTH WEST STREET", "CITY": "PERRYVILLE", "STATE": "MO", "ZIP": "63775", "ZIP4": "NOT AVAILABLE", "TELEPHONE": "(573) 547-2530", "TYPE": "CRITICAL ACCESS", "STATUS": "OPEN", "POPULATION": 25, "COUNTY": "PERRY", "COUNTYFIPS": "29157", "COUNTRY": "USA", "LATITUDE": 37.7308824240001, "LONGITUDE": -89.865630150999905, "NAICS_CODE": "622110", "NAICS_DESC": "GENERAL MEDICAL AND SURGICAL HOSPITALS", "SOURCE": "http://health.mo.gov/safety/healthservregs/directories.php", "SOURCEDATE": "2018-08-09T00:00:00.000Z", "VAL_METHOD": "IMAGERY", "VAL_DATE": "2014-03-12T00:00:00.000Z", "WEBSITE": "http://www.pchmo.org", "STATE_ID": "H080", "ALT_NAME": "NOT AVAILABLE", "ST_FIPS": "29", "OWNER": "NON-PROFIT", "TTL_STAFF": -999, "BEDS": 25, "TRAUMA": "LEVEL III", "HELIPAD": "Y" }, "geometry": { "type": "Polygon", "coordinates": [ [ [ -89.833803, 37.636002 ], [ -89.8374359, 37.636271100000044 ], [ -89.93637, 37.668424 ], [ -89.949641, 37.735585 ], [ -89.9496101, 37.737251700000023 ], [ -89.949511, 37.739657 ], [ -89.9381045, 37.799669800000032 ], [ -89.849427, 37.800742800000044 ], [ -89.79847, 37.76874 ], [ -89.7902384, 37.73156180000003 ], [ -89.786469, 37.676929 ], [ -89.833803, 37.636002 ] ] ] } },
{ "type": "Feature", "properties": { "OBJECTID": 1166, "ID": "0018363901", "NAME": "POPLAR BLUFF REGIONAL MEDICAL CENTER", "ADDRESS": "2620 N WESTWOOD BLVD", "CITY": "POPLAR BLUFF", "STATE": "MO", "ZIP": "63901", "ZIP4": "NOT AVAILABLE", "TELEPHONE": "(573) 785-7721", "TYPE": "GENERAL ACUTE CARE", "STATUS": "OPEN", "POPULATION": 38, "COUNTY": "BUTLER", "COUNTYFIPS": "29023", "COUNTRY": "USA", "LATITUDE": 36.786910606, "LONGITUDE": -90.4432518899999, "NAICS_CODE": "622110", "NAICS_DESC": "GENERAL MEDICAL AND SURGICAL HOSPITALS", "SOURCE": "http://health.mo.gov/safety/healthservregs/directories.php", "SOURCEDATE": "2018-08-09T00:00:00.000Z", "VAL_METHOD": "IMAGERY/OTHER", "VAL_DATE": "2016-08-15T00:00:00.000Z", "WEBSITE": "http://www.poplarbluffregional.com/locations/poplar-bluff-rmc-oak-grove", "STATE_ID": "H180", "ALT_NAME": "NOT AVAILABLE", "ST_FIPS": "29", "OWNER": "PROPRIETARY", "TTL_STAFF": -999, "BEDS": 38, "TRAUMA": "NOT AVAILABLE", "HELIPAD": "Y" }, "geometry": { "type": "Polygon", "coordinates": [ [ [ -90.494611, 36.675805 ], [ -90.5497081, 36.845631 ], [ -90.5497164, 36.845878599999978 ], [ -90.502629, 36.878075 ], [ -90.502283, 36.878027 ], [ -90.32378, 36.816911 ], [ -90.307676, 36.792975 ], [ -90.307674, 36.792742 ], [ -90.307679, 36.786136 ], [ -90.30771, 36.782506 ], [ -90.372835, 36.713079 ], [ -90.494611, 36.675805 ] ] ] } },
{ "type": "Feature", "properties": { "OBJECTID": 1541, "ID": "0016662966", "NAME": "ST JOSEPH MEMORIAL HOSPITAL", "ADDRESS": "2 SOUTH HOSPITAL DRIVE", "CITY": "MURPHYSBORO", "STATE": "IL", "ZIP": "62966", "ZIP4": "NOT AVAILABLE", "TELEPHONE": "(618) 684-3156", "TYPE": "CRITICAL ACCESS", "STATUS": "OPEN", "POPULATION": 25, "COUNTY": "JACKSON", "COUNTYFIPS": "17077", "COUNTRY": "USA", "LATITUDE": 37.773712337000099, "LONGITUDE": -89.324755013999905, "NAICS_CODE": "622110", "NAICS_DESC": "GENERAL MEDICAL AND SURGICAL HOSPITALS", "SOURCE": "https://data.illinois.gov/", "SOURCEDATE": "2018-08-09T00:00:00.000Z", "VAL_METHOD": "IMAGERY", "VAL_DATE": "2014-02-10T00:00:00.000Z", "WEBSITE": "http://www.sih.net", "STATE_ID": "141334", "ALT_NAME": "NOT AVAILABLE", "ST_FIPS": "17", "OWNER": "NON-PROFIT", "TTL_STAFF": -999, "BEDS": 25, "TRAUMA": "NOT AVAILABLE", "HELIPAD": "Y" }, "geometry": { "type": "Polygon", "coordinates": [ [ [ -89.319867, 37.687619 ], [ -89.3740694, 37.7259665 ], [ -89.4053349, 37.7482705 ], [ -89.431445, 37.768556 ], [ -89.431057, 37.769938 ], [ -89.391778, 37.815762 ], [ -89.326046, 37.877829 ], [ -89.189407, 37.829957 ], [ -89.188984, 37.829542 ], [ -89.211937, 37.725655 ], [ -89.216479, 37.719753 ], [ -89.2283023, 37.712904199999983 ], [ -89.319867, 37.687619 ] ] ] } },
{ "type": "Feature", "properties": { "OBJECTID": 2939, "ID": "0001263857", "NAME": "TWIN RIVERS REGIONAL MEDICAL CENTER", "ADDRESS": "1301 FIRST STREET", "CITY": "KENNETT", "STATE": "MO", "ZIP": "63857", "ZIP4": "NOT AVAILABLE", "TELEPHONE": "(573) 888-8522", "TYPE": "GENERAL ACUTE CARE", "STATUS": "OPEN", "POPULATION": 116, "COUNTY": "DUNKLIN", "COUNTYFIPS": "29069", "COUNTRY": "USA", "LATITUDE": 36.235403298999998, "LONGITUDE": -90.041166989000004, "NAICS_CODE": "622110", "NAICS_DESC": "GENERAL MEDICAL AND SURGICAL HOSPITALS", "SOURCE": "http://health.mo.gov/safety/healthservregs/directories.php", "SOURCEDATE": "2018-08-09T00:00:00.000Z", "VAL_METHOD": "IMAGERY", "VAL_DATE": "2014-03-12T00:00:00.000Z", "WEBSITE": "http://www.twinriversregional.com/", "STATE_ID": "H140", "ALT_NAME": "NOT AVAILABLE", "ST_FIPS": "29", "OWNER": "PROPRIETARY", "TTL_STAFF": -999, "BEDS": 116, "TRAUMA": "NOT AVAILABLE", "HELIPAD": "Y" }, "geometry": { "type": "Polygon", "coordinates": [ [ [ -90.1300895, 36.1634134 ], [ -90.1306153, 36.1634579 ], [ -90.1407888, 36.207277199999986 ], [ -90.12717, 36.2365226 ], [ -90.110226, 36.254522 ], [ -90.0596667, 36.294744100000031 ], [ -90.028836, 36.308785 ], [ -90.027935, 36.308911 ], [ -90.009401, 36.309374 ], [ -89.9066717, 36.234273100000024 ], [ -89.9066834, 36.233799900000015 ], [ -90.073622, 36.16166 ], [ -90.1300895, 36.1634134 ] ] ] } },
{ "type": "Feature", "properties": { "OBJECTID": 6180, "ID": "0010763638", "NAME": "SOUTHEASTHEALTH CENTER OF REYNOLDS COUNTY", "ADDRESS": "100 HIGHWAY 21 SOUTH", "CITY": "ELLINGTON", "STATE": "MO", "ZIP": "63638", "ZIP4": "NOT AVAILABLE", "TELEPHONE": "(573) 663-2511", "TYPE": "GENERAL ACUTE CARE", "STATUS": "CLOSED", "POPULATION": -999, "COUNTY": "REYNOLDS", "COUNTYFIPS": "29179", "COUNTRY": "USA", "LATITUDE": 37.241654435000001, "LONGITUDE": -90.961493615999998, "NAICS_CODE": "622110", "NAICS_DESC": "GENERAL MEDICAL AND SURGICAL HOSPITALS", "SOURCE": "http://gis.dhss.mo.gov/Website/AGS_healthFacility/healthFacility.html", "SOURCEDATE": "2013-02-15T00:00:00.000Z", "VAL_METHOD": "IMAGERY", "VAL_DATE": "2014-02-10T00:00:00.000Z", "WEBSITE": "https://www.sehealth.org", "STATE_ID": "H091", "ALT_NAME": "NOT AVAILABLE", "ST_FIPS": "29", "OWNER": "PROPRIETARY", "TTL_STAFF": -999, "BEDS": -999, "TRAUMA": "NOT AVAILABLE", "HELIPAD": "Y" }, "geometry": { "type": "Polygon", "coordinates": [ [ [ -90.967626, 37.173692 ], [ -91.060821, 37.226367500000016 ], [ -91.0605944, 37.227029499999986 ], [ -90.977369, 37.318989 ], [ -90.913472, 37.275888 ], [ -90.9123017, 37.274792699999949 ], [ -90.909639, 37.230819 ], [ -90.9096018, 37.203231900000013 ], [ -90.945405, 37.180996 ], [ -90.960648, 37.173739 ], [ -90.967626, 37.173692 ] ] ] } },
{ "type": "Feature", "properties": { "OBJECTID": 4298, "ID": "0016362832", "NAME": "MARSHALL BROWNING HOSPITAL", "ADDRESS": "900 NORTH WASHINGTON STREET", "CITY": "DU QUOIN", "STATE": "IL", "ZIP": "62832", "ZIP4": "NOT AVAILABLE", "TELEPHONE": "(618) 542-2146", "TYPE": "CRITICAL ACCESS", "STATUS": "OPEN", "POPULATION": 25, "COUNTY": "PERRY", "COUNTYFIPS": "17145", "COUNTRY": "USA", "LATITUDE": 38.025268461000103, "LONGITUDE": -89.236474973, "NAICS_CODE": "622110", "NAICS_DESC": "GENERAL MEDICAL AND SURGICAL HOSPITALS", "SOURCE": "https://data.illinois.gov/", "SOURCEDATE": "2018-08-09T00:00:00.000Z", "VAL_METHOD": "IMAGERY", "VAL_DATE": "2014-03-12T00:00:00.000Z", "WEBSITE": "http://www.mbhdq.com", "STATE_ID": "141331", "ALT_NAME": "NOT AVAILABLE", "ST_FIPS": "17", "OWNER": "NON-PROFIT", "TTL_STAFF": -999, "BEDS": 25, "TRAUMA": "NOT AVAILABLE", "HELIPAD": "Y" }, "geometry": { "type": "Polygon", "coordinates": [ [ [ -89.2340419, 37.9356172 ], [ -89.2895922, 37.987193 ], [ -89.2881296, 38.001967400000019 ], [ -89.2737719, 38.082447 ], [ -89.2512199, 38.097812199999943 ], [ -89.242108, 38.097721099999987 ], [ -89.2096348, 38.082831699999957 ], [ -89.1870265, 38.0384774 ], [ -89.1784251, 38.016480600000015 ], [ -89.192183900000018, 37.970694400000042 ], [ -89.233025, 37.935619 ], [ -89.2340419, 37.9356172 ] ] ] } },
{ "type": "Feature", "properties": { "OBJECTID": 4302, "ID": "0018162286", "NAME": "SPARTA COMMUNITY HOSPITAL", "ADDRESS": "818 E BROADWAY", "CITY": "SPARTA", "STATE": "IL", "ZIP": "62286", "ZIP4": "NOT AVAILABLE", "TELEPHONE": "(618) 443-2177", "TYPE": "CRITICAL ACCESS", "STATUS": "OPEN", "POPULATION": 25, "COUNTY": "RANDOLPH", "COUNTYFIPS": "17157", "COUNTRY": "USA", "LATITUDE": 38.124114993, "LONGITUDE": -89.691538529999903, "NAICS_CODE": "622110", "NAICS_DESC": "GENERAL MEDICAL AND SURGICAL HOSPITALS", "SOURCE": "https://data.illinois.gov/", "SOURCEDATE": "2018-08-09T00:00:00.000Z", "VAL_METHOD": "IMAGERY", "VAL_DATE": "2014-01-21T00:00:00.000Z", "WEBSITE": "http://www.spartahospital.com", "STATE_ID": "141349", "ALT_NAME": "NOT AVAILABLE", "ST_FIPS": "17", "OWNER": "GOVERNMENT - DISTRICT/AUTHORITY", "TTL_STAFF": -999, "BEDS": 25, "TRAUMA": "NOT AVAILABLE", "HELIPAD": "N" }, "geometry": { "type": "Polygon", "coordinates": [ [ [ -89.70221, 38.044525 ], [ -89.782981, 38.124736 ], [ -89.78144, 38.161616 ], [ -89.775657, 38.165051 ], [ -89.703282, 38.20489 ], [ -89.608635, 38.176693 ], [ -89.600283, 38.089624 ], [ -89.6999399, 38.044521200000041 ], [ -89.70221, 38.044525 ] ] ] } },
{ "type": "Feature", "properties": { "OBJECTID": 7238, "ID": "0018062278", "NAME": "RED BUD REGIONAL HOSPITAL", "ADDRESS": "325 SPRING STREET", "CITY": "RED BUD", "STATE": "IL", "ZIP": "62278", "ZIP4": "NOT AVAILABLE", "TELEPHONE": "(618) 282-3831", "TYPE": "CRITICAL ACCESS", "STATUS": "OPEN", "POPULATION": 140, "COUNTY": "RANDOLPH", "COUNTYFIPS": "17157", "COUNTRY": "USA", "LATITUDE": 38.209037213000002, "LONGITUDE": -89.996853051999906, "NAICS_CODE": "622110", "NAICS_DESC": "GENERAL MEDICAL AND SURGICAL HOSPITALS", "SOURCE": "https://data.illinois.gov/", "SOURCEDATE": "2018-08-09T00:00:00.000Z", "VAL_METHOD": "IMAGERY", "VAL_DATE": "2014-03-12T00:00:00.000Z", "WEBSITE": "http://www.redbudhospital.com", "STATE_ID": "141348", "ALT_NAME": "NOT AVAILABLE", "ST_FIPS": "17", "OWNER": "PROPRIETARY", "TTL_STAFF": -999, "BEDS": 140, "TRAUMA": "NOT AVAILABLE", "HELIPAD": "Y" }, "geometry": { "type": "Polygon", "coordinates": [ [ [ -89.985273, 38.119642 ], [ -90.011169, 38.127377 ], [ -90.0168529, 38.130530500000027 ], [ -90.025693, 38.149945 ], [ -90.036191, 38.179121 ], [ -90.036304, 38.193645 ], [ -90.036385, 38.212235 ], [ -90.016642, 38.21958 ], [ -90.0084785, 38.222548599999989 ], [ -89.943372, 38.228381 ], [ -89.943266, 38.228378 ], [ -89.892729, 38.190562 ], [ -89.892991, 38.189841 ], [ -89.985273, 38.119642 ] ] ] } },
{ "type": "Feature", "properties": { "OBJECTID": 7408, "ID": "0098662233", "NAME": "MEMORIAL HOSPITAL", "ADDRESS": "1900 STATE STREET", "CITY": "CHESTER", "STATE": "IL", "ZIP": "62233", "ZIP4": "NOT AVAILABLE", "TELEPHONE": "(618) 826-4581", "TYPE": "CRITICAL ACCESS", "STATUS": "OPEN", "POPULATION": -999, "COUNTY": "RANDOLPH", "COUNTYFIPS": "17157", "COUNTRY": "USA", "LATITUDE": 37.917707923000101, "LONGITUDE": -89.813132691000007, "NAICS_CODE": "622110", "NAICS_DESC": "GENERAL MEDICAL AND SURGICAL HOSPITALS", "SOURCE": "https://data.illinois.gov/", "SOURCEDATE": "2018-08-09T00:00:00.000Z", "VAL_METHOD": "IMAGERY/OTHER", "VAL_DATE": "2015-02-21T00:00:00.000Z", "WEBSITE": "NOT AVAILABLE", "STATE_ID": "NOT AVAILABLE", "ALT_NAME": "NOT AVAILABLE", "ST_FIPS": "17", "OWNER": "NOT AVAILABLE", "TTL_STAFF": -999, "BEDS": -999, "TRAUMA": "NOT AVAILABLE", "HELIPAD": "Y" }, "geometry": { "type": "Polygon", "coordinates": [ [ [ -89.771256, 37.877172 ], [ -89.802666, 37.885879 ], [ -89.805038, 37.886675 ], [ -89.837200700000011, 37.902270800000011 ], [ -89.880442, 37.938507500000043 ], [ -89.891158, 37.948306 ], [ -89.892801, 37.954877 ], [ -89.880417, 37.976281 ], [ -89.748343, 37.971686 ], [ -89.747282, 37.97123 ], [ -89.742525, 37.960597 ], [ -89.729763, 37.917624 ], [ -89.729715, 37.91633 ], [ -89.740361, 37.905618 ], [ -89.771256, 37.877172 ] ] ] } },
{ "type": "Feature", "properties": { "OBJECTID": 5050, "ID": "0000663701", "NAME": "SOUTHEASTHEALTH", "ADDRESS": "1701 LACEY STREET", "CITY": "CAPE GIRARDEAU", "STATE": "MO", "ZIP": "63701", "ZIP4": "NOT AVAILABLE", "TELEPHONE": "(573) 334-4822", "TYPE": "GENERAL ACUTE CARE", "STATUS": "OPEN", "POPULATION": 263, "COUNTY": "CAPE GIRARDEAU", "COUNTYFIPS": "29031", "COUNTRY": "USA", "LATITUDE": 37.310734340000103, "LONGITUDE": -89.539845818999893, "NAICS_CODE": "622110", "NAICS_DESC": "GENERAL MEDICAL AND SURGICAL HOSPITALS", "SOURCE": "http://health.mo.gov/safety/healthservregs/directories.php", "SOURCEDATE": "2018-08-09T00:00:00.000Z", "VAL_METHOD": "IMAGERY/OTHER", "VAL_DATE": "2014-02-10T00:00:00.000Z", "WEBSITE": "http://www.sehealth.org/", "STATE_ID": "H103", "ALT_NAME": "NOT AVAILABLE", "ST_FIPS": "29", "OWNER": "NON-PROFIT", "TTL_STAFF": -999, "BEDS": 263, "TRAUMA": "NOT AVAILABLE", "HELIPAD": "Y" }, "geometry": { "type": "Polygon", "coordinates": [ [ [ -89.54645, 37.213362 ], [ -89.5930389, 37.235864200000016 ], [ -89.6011954, 37.2405036 ], [ -89.6213481, 37.259366900000046 ], [ -89.661935, 37.317521 ], [ -89.6449143, 37.369876199999979 ], [ -89.632645200000013, 37.379411699999963 ], [ -89.61886130000002, 37.385307699999977 ], [ -89.6052233, 37.3842013 ], [ -89.6023505, 37.383947499999984 ], [ -89.479357, 37.355943 ], [ -89.47912, 37.354478 ], [ -89.542646, 37.214002 ], [ -89.5441805, 37.213678200000011 ], [ -89.5459708, 37.213422299999969 ], [ -89.54645, 37.213362 ] ] ] } },
{ "type": "Feature", "properties": { "OBJECTID": 5051, "ID": "0005263703", "NAME": "LANDMARK HOSPITAL OF CAPE GIRARDEAU", "ADDRESS": "3255 INDEPENDENCE STREET", "CITY": "CAPE GIRARDEAU", "STATE": "MO", "ZIP": "63703", "ZIP4": "NOT AVAILABLE", "TELEPHONE": "(573) 335-1091", "TYPE": "LONG TERM CARE", "STATUS": "OPEN", "POPULATION": 30, "COUNTY": "CAPE GIRARDEAU", "COUNTYFIPS": "29031", "COUNTRY": "USA", "LATITUDE": 37.307879462000102, "LONGITUDE": -89.575839168999906, "NAICS_CODE": "622310", "NAICS_DESC": "SPECIALTY (EXCEPT PSYCHIATRIC AND SUBSTANCE ABUSE) HOSPITALS", "SOURCE": "http://health.mo.gov/safety/healthservregs/directories.php", "SOURCEDATE": "2018-08-09T00:00:00.000Z", "VAL_METHOD": "IMAGERY", "VAL_DATE": "2014-03-12T00:00:00.000Z", "WEBSITE": "http://www.landmarkhospitals.com", "STATE_ID": "H158", "ALT_NAME": "NOT AVAILABLE", "ST_FIPS": "29", "OWNER": "PROPRIETARY", "TTL_STAFF": -999, "BEDS": 30, "TRAUMA": "NOT AVAILABLE", "HELIPAD": "Y" }, "geometry": { "type": "Polygon", "coordinates": [ [ [ -89.537754, 37.180445 ], [ -89.6573722, 37.250011099999981 ], [ -89.6907239, 37.312087700000014 ], [ -89.669712, 37.37763149999995 ], [ -89.6433973, 37.427530199999964 ], [ -89.640787500000016, 37.431472 ], [ -89.6379059, 37.4324311 ], [ -89.5102091, 37.3429702 ], [ -89.508855400000016, 37.3417671 ], [ -89.505344, 37.330197 ], [ -89.504709, 37.324926 ], [ -89.4970702, 37.244503300000034 ], [ -89.5330694, 37.181075100000015 ], [ -89.537754, 37.180445 ] ] ] } },
{ "type": "Feature", "properties": { "OBJECTID": 5053, "ID": "0002663901", "NAME": "BLACK RIVER COMMUNITY MEDICAL CENTER", "ADDRESS": "217 PHYSICIANS PARK DRIVE", "CITY": "POPLAR BLUFF", "STATE": "MO", "ZIP": "63901", "ZIP4": "NOT AVAILABLE", "TELEPHONE": "(573) 727-9080", "TYPE": "GENERAL ACUTE CARE", "STATUS": "OPEN", "POPULATION": 8, "COUNTY": "BUTLER", "COUNTYFIPS": "29023", "COUNTRY": "USA", "LATITUDE": 36.772145623, "LONGITUDE": -90.457551323000004, "NAICS_CODE": "622110", "NAICS_DESC": "GENERAL MEDICAL AND SURGICAL HOSPITALS", "SOURCE": "http://health.mo.gov/safety/healthservregs/directories.php", "SOURCEDATE": "2018-08-09T00:00:00.000Z", "VAL_METHOD": "IMAGERY/OTHER", "VAL_DATE": "2013-09-25T00:00:00.000Z", "WEBSITE": "http://blackrivermedical.com/", "STATE_ID": "H178", "ALT_NAME": "NOT AVAILABLE", "ST_FIPS": "29", "OWNER": "PROPRIETARY", "TTL_STAFF": -999, "BEDS": 8, "TRAUMA": "NOT AVAILABLE", "HELIPAD": "N" }, "geometry": { "type": "Polygon", "coordinates": [ [ [ -90.48816, 36.683571 ], [ -90.535854, 36.845118 ], [ -90.508701, 36.862889 ], [ -90.326068, 36.810006 ], [ -90.307676, 36.792975 ], [ -90.307674, 36.792742 ], [ -90.387481, 36.729143 ], [ -90.48816, 36.683571 ] ] ] } },
{ "type": "Feature", "properties": { "OBJECTID": 5054, "ID": "0002963901", "NAME": "POPLAR BLUFF REGIONAL MEDICAL CENTER - WESTWOOD", "ADDRESS": "2620 NORTH WESTWOOD BOULEVARD", "CITY": "POPLAR BLUFF", "STATE": "MO", "ZIP": "63901", "ZIP4": "NOT AVAILABLE", "TELEPHONE": "(573) 785-7721", "TYPE": "GENERAL ACUTE CARE", "STATUS": "OPEN", "POPULATION": 38, "COUNTY": "BUTLER", "COUNTYFIPS": "29023", "COUNTRY": "USA", "LATITUDE": 36.78558106, "LONGITUDE": -90.426125502999994, "NAICS_CODE": "622110", "NAICS_DESC": "GENERAL MEDICAL AND SURGICAL HOSPITALS", "SOURCE": "http://health.mo.gov/safety/healthservregs/directories.php", "SOURCEDATE": "2018-08-09T00:00:00.000Z", "VAL_METHOD": "IMAGERY/OTHER", "VAL_DATE": "2013-09-25T00:00:00.000Z", "WEBSITE": "http://www.poplarbluffregional.com/locations/poplar-bluff-rmc-westwood", "STATE_ID": "H134", "ALT_NAME": "POPLAR BLUFF REGIONAL MEDICAL CENTER - NORTH", "ST_FIPS": "29", "OWNER": "PROPRIETARY", "TTL_STAFF": -999, "BEDS": 38, "TRAUMA": "NOT AVAILABLE", "HELIPAD": "Y" }, "geometry": { "type": "Polygon", "coordinates": [ [ [ -90.48087, 36.691696 ], [ -90.4811119, 36.6918405 ], [ -90.537463, 36.845502 ], [ -90.537366, 36.845686 ], [ -90.508701, 36.862889 ], [ -90.421235, 36.84287 ], [ -90.326068, 36.810006 ], [ -90.307676, 36.792975 ], [ -90.307674, 36.792742 ], [ -90.373066, 36.712106 ], [ -90.48087, 36.691696 ] ] ] } },
{ "type": "Feature", "properties": { "OBJECTID": 5645, "ID": "0012263640", "NAME": "MINERAL AREA REGIONAL MEDICAL CENTER", "ADDRESS": "1212 WEBER ROAD", "CITY": "FARMINGTON", "STATE": "MO", "ZIP": "63640", "ZIP4": "NOT AVAILABLE", "TELEPHONE": "(573) 756-4581", "TYPE": "GENERAL ACUTE CARE", "STATUS": "CLOSED", "POPULATION": 98, "COUNTY": "ST. FRANCOIS", "COUNTYFIPS": "29187", "COUNTRY": "USA", "LATITUDE": 37.800254371000101, "LONGITUDE": -90.439886085999902, "NAICS_CODE": "622110", "NAICS_DESC": "GENERAL MEDICAL AND SURGICAL HOSPITALS", "SOURCE": "http://gis.dhss.mo.gov/Website/AGS_healthFacility/healthFacility.html", "SOURCEDATE": "2013-02-15T00:00:00.000Z", "VAL_METHOD": "IMAGERY/OTHER", "VAL_DATE": "2014-02-10T00:00:00.000Z", "WEBSITE": "http://www.marmc.net", "STATE_ID": "H065", "ALT_NAME": "NOT AVAILABLE", "ST_FIPS": "29", "OWNER": "PROPRIETARY", "TTL_STAFF": -999, "BEDS": 98, "TRAUMA": "NOT AVAILABLE", "HELIPAD": "Y" }, "geometry": { "type": "Polygon", "coordinates": [ [ [ -90.422702, 37.711869 ], [ -90.505194, 37.737762399999987 ], [ -90.549211, 37.824938400000022 ], [ -90.516781, 37.905850900000026 ], [ -90.5164545, 37.906395799999984 ], [ -90.423005, 37.851595 ], [ -90.41037, 37.843099 ], [ -90.34719, 37.793865 ], [ -90.355329, 37.766662 ], [ -90.3651466, 37.7445374 ], [ -90.422177, 37.711915 ], [ -90.422702, 37.711869 ] ] ] } },
{ "type": "Feature", "properties": { "OBJECTID": 5652, "ID": "0009063645", "NAME": "MADISON MEDICAL CENTER", "ADDRESS": "611 WEST MAIN STREET", "CITY": "FREDERICKTOWN", "STATE": "MO", "ZIP": "63645", "ZIP4": "NOT AVAILABLE", "TELEPHONE": "(573) 783-3341", "TYPE": "CRITICAL ACCESS", "STATUS": "OPEN", "POPULATION": 144, "COUNTY": "MADISON", "COUNTYFIPS": "29123", "COUNTRY": "USA", "LATITUDE": 37.558874136999997, "LONGITUDE": -90.302931376999894, "NAICS_CODE": "622110", "NAICS_DESC": "GENERAL MEDICAL AND SURGICAL HOSPITALS", "SOURCE": "http://health.mo.gov/safety/healthservregs/directories.php", "SOURCEDATE": "2018-08-09T00:00:00.000Z", "VAL_METHOD": "IMAGERY/OTHER", "VAL_DATE": "2014-02-10T00:00:00.000Z", "WEBSITE": "http://www.madisonmedicalcenter.net", "STATE_ID": "H062", "ALT_NAME": "NOT AVAILABLE", "ST_FIPS": "29", "OWNER": "GOVERNMENT - LOCAL", "TTL_STAFF": -999, "BEDS": 144, "TRAUMA": "NOT AVAILABLE", "HELIPAD": "Y" }, "geometry": { "type": "Polygon", "coordinates": [ [ [ -90.297233399999982, 37.4559614 ], [ -90.4003296, 37.564224 ], [ -90.4141868, 37.5799868 ], [ -90.373205, 37.613853 ], [ -90.2938865, 37.625292300000027 ], [ -90.2881932, 37.6235172 ], [ -90.2004632, 37.568289200000017 ], [ -90.1833431, 37.5319252 ], [ -90.2969308, 37.4559844 ], [ -90.297233399999982, 37.4559614 ] ] ] } },
{ "type": "Feature", "properties": { "OBJECTID": 5658, "ID": "0015863841", "NAME": "SOUTHEASTHEALTH CENTER OF STODDARD COUNTY", "ADDRESS": "1200 NORTH ONE MILE ROAD", "CITY": "DEXTER", "STATE": "MO", "ZIP": "63841", "ZIP4": "NOT AVAILABLE", "TELEPHONE": "(573) 624-5566", "TYPE": "GENERAL ACUTE CARE", "STATUS": "OPEN", "POPULATION": 48, "COUNTY": "STODDARD", "COUNTYFIPS": "29207", "COUNTRY": "USA", "LATITUDE": 36.807479592000099, "LONGITUDE": -89.968323743, "NAICS_CODE": "622110", "NAICS_DESC": "GENERAL MEDICAL AND SURGICAL HOSPITALS", "SOURCE": "http://health.mo.gov/safety/healthservregs/directories.php", "SOURCEDATE": "2018-08-09T00:00:00.000Z", "VAL_METHOD": "IMAGERY/OTHER", "VAL_DATE": "2014-03-12T00:00:00.000Z", "WEBSITE": "https://www.sehealth.org/locations/health-center-stoddard-county", "STATE_ID": "H069", "ALT_NAME": "NOT AVAILABLE", "ST_FIPS": "29", "OWNER": "PROPRIETARY", "TTL_STAFF": -999, "BEDS": 48, "TRAUMA": "NOT AVAILABLE", "HELIPAD": "Y" }, "geometry": { "type": "Polygon", "coordinates": [ [ [ -89.965134, 36.730876 ], [ -90.03572, 36.76098 ], [ -90.093594, 36.787277 ], [ -90.096465, 36.788581 ], [ -90.098493, 36.790141 ], [ -90.097506, 36.805422 ], [ -90.097318, 36.806387 ], [ -90.042567, 36.844715 ], [ -89.964476, 36.887633 ], [ -89.9261369, 36.900405800000016 ], [ -89.922728, 36.900309 ], [ -89.825635, 36.828263 ], [ -89.825637, 36.828019 ], [ -89.86182, 36.798801 ], [ -89.965134, 36.730876 ] ] ] } },
{ "type": "Feature", "properties": { "OBJECTID": 5659, "ID": "0011363801", "NAME": "MISSOURI DELTA MEDICAL CENTER", "ADDRESS": "1008 NORTH MAIN STREET", "CITY": "SIKESTON", "STATE": "MO", "ZIP": "63801", "ZIP4": "NOT AVAILABLE", "TELEPHONE": "(573) 471-1600", "TYPE": "GENERAL ACUTE CARE", "STATUS": "OPEN", "POPULATION": 144, "COUNTY": "SCOTT", "COUNTYFIPS": "29201", "COUNTRY": "USA", "LATITUDE": 36.88984248, "LONGITUDE": -89.583462685000001, "NAICS_CODE": "622110", "NAICS_DESC": "GENERAL MEDICAL AND SURGICAL HOSPITALS", "SOURCE": "http://health.mo.gov/safety/healthservregs/directories.php", "SOURCEDATE": "2018-08-09T00:00:00.000Z", "VAL_METHOD": "IMAGERY/OTHER", "VAL_DATE": "2014-02-10T00:00:00.000Z", "WEBSITE": "http://www.missouridelta.com", "STATE_ID": "H068", "ALT_NAME": "NOT AVAILABLE", "ST_FIPS": "29", "OWNER": "NON-PROFIT", "TTL_STAFF": -999, "BEDS": 144, "TRAUMA": "NOT AVAILABLE", "HELIPAD": "Y" }, "geometry": { "type": "Polygon", "coordinates": [ [ [ -89.573537, 36.803601 ], [ -89.635294, 36.837558 ], [ -89.6888351, 36.8888156 ], [ -89.620804, 36.975105 ], [ -89.499385, 36.917425 ], [ -89.497941, 36.913502 ], [ -89.500719, 36.902175 ], [ -89.506593, 36.884772 ], [ -89.573025, 36.803809 ], [ -89.573537, 36.803601 ] ] ] } },
{ "type": "Feature", "properties": { "OBJECTID": 5661, "ID": "0002863901", "NAME": "POPLAR BLUFF REGIONAL MEDICAL CENTER - SOUTH", "ADDRESS": "621 WEST PINE STREET", "CITY": "POPLAR BLUFF", "STATE": "MO", "ZIP": "63901", "ZIP4": "NOT AVAILABLE", "TELEPHONE": "(573) 686-4111", "TYPE": "GENERAL ACUTE CARE", "STATUS": "CLOSED", "POPULATION": -999, "COUNTY": "BUTLER", "COUNTYFIPS": "29023", "COUNTRY": "USA", "LATITUDE": 36.757972791, "LONGITUDE": -90.397319964000005, "NAICS_CODE": "622110", "NAICS_DESC": "GENERAL MEDICAL AND SURGICAL HOSPITALS", "SOURCE": "http://gis.dhss.mo.gov/Website/AGS_healthFacility/healthFacility.html", "SOURCEDATE": "2013-02-15T00:00:00.000Z", "VAL_METHOD": "IMAGERY/OTHER", "VAL_DATE": "2013-09-25T00:00:00.000Z", "WEBSITE": "http://www.poplarbluffregional.com", "STATE_ID": "H135", "ALT_NAME": "NOT AVAILABLE", "ST_FIPS": "29", "OWNER": "PROPRIETARY", "TTL_STAFF": -999, "BEDS": -999, "TRAUMA": "NOT AVAILABLE", "HELIPAD": "N" }, "geometry": { "type": "Polygon", "coordinates": [ [ [ -90.419735, 36.678987 ], [ -90.48087, 36.691696 ], [ -90.4811119, 36.6918405 ], [ -90.493011, 36.72864 ], [ -90.493309, 36.72957 ], [ -90.489043, 36.823867 ], [ -90.488718, 36.823994 ], [ -90.325145, 36.825157 ], [ -90.307382, 36.807911 ], [ -90.287369, 36.767687 ], [ -90.344531, 36.685228 ], [ -90.344797, 36.684977 ], [ -90.374612, 36.678708 ], [ -90.419735, 36.678987 ] ] ] } },
{ "type": "Feature", "properties": { "OBJECTID": 5663, "ID": "0009663851", "NAME": "PEMISCOT COUNTY HEALTH CENTER", "ADDRESS": "810 EAST REED", "CITY": "HAYTI", "STATE": "MO", "ZIP": "63851", "ZIP4": "NOT AVAILABLE", "TELEPHONE": "(573) 359-1656", "TYPE": "GENERAL ACUTE CARE", "STATUS": "OPEN", "POPULATION": 167, "COUNTY": "PEMISCOT", "COUNTYFIPS": "29155", "COUNTRY": "USA", "LATITUDE": 36.237307471000101, "LONGITUDE": -89.740709830999904, "NAICS_CODE": "622110", "NAICS_DESC": "GENERAL MEDICAL AND SURGICAL HOSPITALS", "SOURCE": "http://health.mo.gov/safety/healthservregs/directories.php", "SOURCEDATE": "2018-08-09T00:00:00.000Z", "VAL_METHOD": "IMAGERY/OTHER", "VAL_DATE": "2014-02-10T00:00:00.000Z", "WEBSITE": "https://www.pemiscothealth.com/", "STATE_ID": "H079", "ALT_NAME": "NOT AVAILABLE", "ST_FIPS": "29", "OWNER": "PROPRIETARY", "TTL_STAFF": -999, "BEDS": 167, "TRAUMA": "NOT AVAILABLE", "HELIPAD": "Y" }, "geometry": { "type": "Polygon", "coordinates": [ [ [ -89.752672500000017, 36.146893 ], [ -89.798289, 36.175649 ], [ -89.8618853, 36.2333911 ], [ -89.8619, 36.233666 ], [ -89.861905, 36.23389 ], [ -89.702899, 36.349774 ], [ -89.7006408, 36.349802 ], [ -89.69903650000002, 36.349816599999947 ], [ -89.654161, 36.192417 ], [ -89.66351, 36.147334 ], [ -89.752672500000017, 36.146893 ] ] ] } },
{ "type": "Feature", "properties": { "OBJECTID": 5667, "ID": "0008063901", "NAME": "JOHN J. PERSHING VA MEDICAL CENTER", "ADDRESS": "1500 N WESTWOOD BLVD", "CITY": "POPLAR BLUFF", "STATE": "MO", "ZIP": "63901", "ZIP4": "NOT AVAILABLE", "TELEPHONE": "(573) 686-4151", "TYPE": "GENERAL ACUTE CARE", "STATUS": "OPEN", "POPULATION": 58, "COUNTY": "BUTLER", "COUNTYFIPS": "29023", "COUNTRY": "USA", "LATITUDE": 36.772368033000099, "LONGITUDE": -90.416556268999997, "NAICS_CODE": "622110", "NAICS_DESC": "GENERAL MEDICAL AND SURGICAL HOSPITALS", "SOURCE": "https://www.va.gov/directory/guide/allstate.asp", "SOURCEDATE": "2018-09-26T00:00:00.000Z", "VAL_METHOD": "IMAGERY/OTHER", "VAL_DATE": "2015-05-22T00:00:00.000Z", "WEBSITE": "http://www.poplarbluff.va.gov/", "STATE_ID": "NOT AVAILABLE", "ALT_NAME": "NOT AVAILABLE", "ST_FIPS": "29", "OWNER": "GOVERNMENT - FEDERAL", "TTL_STAFF": -999, "BEDS": 58, "TRAUMA": "NOT AVAILABLE", "HELIPAD": "Y" }, "geometry": { "type": "Polygon", "coordinates": [ [ [ -90.475768500000015, 36.6974146 ], [ -90.4762402, 36.697679299999976 ], [ -90.497698, 36.767308 ], [ -90.501681, 36.791342 ], [ -90.5013584, 36.842056399999983 ], [ -90.415522, 36.827735 ], [ -90.3165063, 36.793343400000019 ], [ -90.3165099, 36.793104499999949 ], [ -90.321412, 36.764778 ], [ -90.35972, 36.707541 ], [ -90.363103, 36.703312 ], [ -90.364642, 36.702447 ], [ -90.410174, 36.698104 ], [ -90.475768500000015, 36.6974146 ] ] ] } },
{ "type": "Feature", "properties": { "OBJECTID": 3426, "ID": "0014162274", "NAME": "PINCKNEYVILLE COMMUNITY HOSPITAL", "ADDRESS": "101 N WALNUT", "CITY": "PINCKNEYVILLE", "STATE": "IL", "ZIP": "62274", "ZIP4": "NOT AVAILABLE", "TELEPHONE": "(618) 357-2187", "TYPE": "CRITICAL ACCESS", "STATUS": "OPEN", "POPULATION": 25, "COUNTY": "PERRY", "COUNTYFIPS": "17145", "COUNTRY": "USA", "LATITUDE": 38.081069737000099, "LONGITUDE": -89.383319384999893, "NAICS_CODE": "622110", "NAICS_DESC": "GENERAL MEDICAL AND SURGICAL HOSPITALS", "SOURCE": "https://data.illinois.gov/", "SOURCEDATE": "2018-08-09T00:00:00.000Z", "VAL_METHOD": "IMAGERY", "VAL_DATE": "2014-01-21T00:00:00.000Z", "WEBSITE": "http://pvillehosp.org/", "STATE_ID": "141307", "ALT_NAME": "NOT AVAILABLE", "ST_FIPS": "17", "OWNER": "GOVERNMENT - DISTRICT/AUTHORITY", "TTL_STAFF": -999, "BEDS": 25, "TRAUMA": "NOT AVAILABLE", "HELIPAD": "Y" }, "geometry": { "type": "Polygon", "coordinates": [ [ [ -89.364273900000015, 37.966594500000028 ], [ -89.4083698, 38.003932199999966 ], [ -89.4818252, 38.080864399999989 ], [ -89.4650924, 38.132598700000052 ], [ -89.383975, 38.200534699999984 ], [ -89.3800689, 38.203145300000038 ], [ -89.2691309, 38.0825485 ], [ -89.3458151, 37.966368900000042 ], [ -89.364273900000015, 37.966594500000028 ] ] ] } },
{ "type": "Feature", "properties": { "OBJECTID": 3846, "ID": "0012463640", "NAME": "SOUTHEAST MISSOURI MENTAL HEALTH CENTER", "ADDRESS": "1010 WEST COLUMBIA STREET", "CITY": "FARMINGTON", "STATE": "MO", "ZIP": "63640", "ZIP4": "NOT AVAILABLE", "TELEPHONE": "(573) 218-6792", "TYPE": "PSYCHIATRIC", "STATUS": "OPEN", "POPULATION": -999, "COUNTY": "ST. FRANCOIS", "COUNTYFIPS": "29187", "COUNTRY": "USA", "LATITUDE": 37.773753983000098, "LONGITUDE": -90.437093559999894, "NAICS_CODE": "622210", "NAICS_DESC": "PSYCHIATRIC AND SUBSTANCE ABUSE HOSPITALS", "SOURCE": "http://health.mo.gov/safety/healthservregs/directories.php", "SOURCEDATE": "2018-08-09T00:00:00.000Z", "VAL_METHOD": "IMAGERY/OTHER", "VAL_DATE": "2014-02-10T00:00:00.000Z", "WEBSITE": "https://dmh.mo.gov/smmhc/", "STATE_ID": "P003", "ALT_NAME": "NOT AVAILABLE", "ST_FIPS": "29", "OWNER": "GOVERNMENT - STATE", "TTL_STAFF": -999, "BEDS": -999, "TRAUMA": "NOT AVAILABLE", "HELIPAD": "N" }, "geometry": { "type": "Polygon", "coordinates": [ [ [ -90.4119915, 37.6940831 ], [ -90.4385315, 37.6967577 ], [ -90.525751, 37.723689 ], [ -90.5326737, 37.835562099999983 ], [ -90.5326738, 37.83586659999996 ], [ -90.5326422, 37.836123200000031 ], [ -90.5325792, 37.836537300000018 ], [ -90.515691, 37.8806508 ], [ -90.5107684, 37.88484169999996 ], [ -90.4215469, 37.8454291 ], [ -90.37888, 37.81761 ], [ -90.34719, 37.793865 ], [ -90.355329, 37.766662 ], [ -90.3619775, 37.744624400000021 ], [ -90.4119915, 37.6940831 ] ] ] } },
{ "type": "Feature", "properties": { "OBJECTID": 3847, "ID": "0012363640", "NAME": "PARKLAND HEALTH CENTER-FARMINGTON", "ADDRESS": "1101 WEST LIBERTY STREET", "CITY": "FARMINGTON", "STATE": "MO", "ZIP": "63640", "ZIP4": "NOT AVAILABLE", "TELEPHONE": "(573) 756-6451", "TYPE": "GENERAL ACUTE CARE", "STATUS": "OPEN", "POPULATION": 130, "COUNTY": "ST. FRANCOIS", "COUNTYFIPS": "29187", "COUNTRY": "USA", "LATITUDE": 37.781365924000099, "LONGITUDE": -90.438244735999902, "NAICS_CODE": "622110", "NAICS_DESC": "GENERAL MEDICAL AND SURGICAL HOSPITALS", "SOURCE": "http://health.mo.gov/safety/healthservregs/directories.php", "SOURCEDATE": "2018-08-09T00:00:00.000Z", "VAL_METHOD": "IMAGERY", "VAL_DATE": "2014-02-10T00:00:00.000Z", "WEBSITE": "http://www.parklandhealthcenter.org", "STATE_ID": "H078", "ALT_NAME": "NOT AVAILABLE", "ST_FIPS": "29", "OWNER": "NON-PROFIT", "TTL_STAFF": -999, "BEDS": 130, "TRAUMA": "LEVEL III", "HELIPAD": "Y" }, "geometry": { "type": "Polygon", "coordinates": [ [ [ -90.4339627, 37.702277 ], [ -90.5146681, 37.731540499999987 ], [ -90.5163804, 37.732965 ], [ -90.5376967, 37.826271600000048 ], [ -90.5340956, 37.836629800000061 ], [ -90.5185283, 37.8804048 ], [ -90.5111028, 37.896546800000024 ], [ -90.5108262, 37.8964236 ], [ -90.37888, 37.81761 ], [ -90.34719, 37.793865 ], [ -90.355329, 37.766662 ], [ -90.3651466, 37.7445374 ], [ -90.4141999, 37.70332919999997 ], [ -90.4339627, 37.702277 ] ] ] } }
]
}
