{
"type": "FeatureCollection",
"crs": { "type": "name", "properties": { "name": "urn:ogc:def:crs:OGC:1.3:CRS84" } },
"features": [
{ "type": "Feature", "properties": { "OBJECTID": 1983, "ID": "0004753538", "NAME": "FORT HEALTHCARE", "ADDRESS": "611 SHERMAN AVE E", "CITY": "FORT ATKINSON", "STATE": "WI", "ZIP": "53538", "ZIP4": "NOT AVAILABLE", "TELEPHONE": "(920) 568-5000", "TYPE": "GENERAL ACUTE CARE", "STATUS": "OPEN", "POPULATION": 82, "COUNTY": "JEFFERSON", "COUNTYFIPS": "55055", "COUNTRY": "USA", "LATITUDE": 42.931103930000099, "LONGITUDE": -88.827976809999896, "NAICS_CODE": "622110", "NAICS_DESC": "GENERAL MEDICAL AND SURGICAL HOSPITALS", "SOURCE": "https://www.dhs.wisconsin.gov/guide/hospital.htm", "SOURCEDATE": "2018-08-13T00:00:00.000Z", "VAL_METHOD": "IMAGERY", "VAL_DATE": "2014-03-12T00:00:00.000Z", "WEBSITE": "http://www.forthealthcare.com", "STATE_ID": "133", "ALT_NAME": "NOT AVAILABLE", "ST_FIPS": "55", "OWNER": "NON-PROFIT", "TTL_STAFF": -999, "BEDS": 82, "TRAUMA": "NOT AVAILABLE", "HELIPAD": "Y" }, "geometry": { "type": "Polygon", "coordinates": [ [ [ -88.9174844, 42.847076699999953 ], [ -88.9186908, 42.847936100000027 ], [ -88.928153, 42.926546 ], [ -88.9334144, 42.9715581 ], [ -88.9333393, 42.973563300000023 ], [ -88.858546, 43.012941 ], [ -88.8063531, 43.0367134 ], [ -88.8036466, 43.03726080000007 ], [ -88.7143421, 42.934877800000045 ], [ -88.714344, 42.93134 ], [ -88.794905, 42.854433 ], [ -88.796526, 42.853255 ], [ -88.9174844, 42.847076699999953 ] ] ] } },
{ "type": "Feature", "properties": { "OBJECTID": 1995, "ID": "0013253121", "NAME": "AURORA LAKELAND MED CTR", "ADDRESS": "W3985 CTY RD NN", "CITY": "ELKHORN", "STATE": "WI", "ZIP": "53121", "ZIP4": "NOT AVAILABLE", "TELEPHONE": "(262) 741-2000", "TYPE": "GENERAL ACUTE CARE", "STATUS": "OPEN", "POPULATION": 109, "COUNTY": "WALWORTH", "COUNTYFIPS": "55127", "COUNTRY": "USA", "LATITUDE": 42.661895027000099, "LONGITUDE": -88.496191992999997, "NAICS_CODE": "622110", "NAICS_DESC": "GENERAL MEDICAL AND SURGICAL HOSPITALS", "SOURCE": "https://www.dhs.wisconsin.gov/guide/hospital.htm", "SOURCEDATE": "2018-08-13T00:00:00.000Z", "VAL_METHOD": "IMAGERY", "VAL_DATE": "2014-03-12T00:00:00.000Z", "WEBSITE": "http://www.aurorahealthcare.org", "STATE_ID": "132", "ALT_NAME": "NOT AVAILABLE", "ST_FIPS": "55", "OWNER": "NON-PROFIT", "TTL_STAFF": -999, "BEDS": 109, "TRAUMA": "LEVEL III", "HELIPAD": "Y" }, "geometry": { "type": "Polygon", "coordinates": [ [ [ -88.5415141, 42.58013619999997 ], [ -88.634575, 42.627516499999977 ], [ -88.610238, 42.676635 ], [ -88.5776211, 42.733166800000063 ], [ -88.5541283, 42.7643518 ], [ -88.4453467, 42.751272800000017 ], [ -88.4412726, 42.7503683 ], [ -88.4009598, 42.6912281 ], [ -88.4040324, 42.594827800000012 ], [ -88.4059521, 42.59057329999996 ], [ -88.4136361, 42.587968600000032 ], [ -88.5409184, 42.5801422 ], [ -88.5415141, 42.58013619999997 ] ] ] } },
{ "type": "Feature", "properties": { "OBJECTID": 2780, "ID": "0010753403", "NAME": "WHEAT FRAN HLTHCARE-ALL SAINTS INC", "ADDRESS": "1320 WISCONSIN AVE", "CITY": "RACINE", "STATE": "WI", "ZIP": "53403", "ZIP4": "NOT AVAILABLE", "TELEPHONE": "(262) 687-2011", "TYPE": "GENERAL ACUTE CARE", "STATUS": "OPEN", "POPULATION": 239, "COUNTY": "RACINE", "COUNTYFIPS": "55101", "COUNTRY": "USA", "LATITUDE": 42.715875632000099, "LONGITUDE": -87.784203369999901, "NAICS_CODE": "622110", "NAICS_DESC": "GENERAL MEDICAL AND SURGICAL HOSPITALS", "SOURCE": "https://www.dhs.wisconsin.gov/guide/hospital.htm", "SOURCEDATE": "2018-08-13T00:00:00.000Z", "VAL_METHOD": "IMAGERY", "VAL_DATE": "2014-02-10T00:00:00.000Z", "WEBSITE": "http://www.allsaintshealth.com", "STATE_ID": "154", "ALT_NAME": "NOT AVAILABLE", "ST_FIPS": "55", "OWNER": "NON-PROFIT", "TTL_STAFF": -999, "BEDS": 239, "TRAUMA": "NOT AVAILABLE", "HELIPAD": "N" }, "geometry": { "type": "Polygon", "coordinates": [ [ [ -87.8196055, 42.6352282 ], [ -87.862139, 42.67262019999994 ], [ -87.8884076, 42.697878 ], [ -87.9048237, 42.719039899999949 ], [ -87.9051588, 42.719956100000019 ], [ -87.9048322, 42.722272799999985 ], [ -87.86921, 42.767043 ], [ -87.822647, 42.799096 ], [ -87.7862414, 42.793944 ], [ -87.77746, 42.791737 ], [ -87.773475, 42.790519 ], [ -87.7627638, 42.7844716 ], [ -87.7592575, 42.781960199999965 ], [ -87.7733694, 42.731860200000028 ], [ -87.7836384, 42.707624299999985 ], [ -87.8196055, 42.6352282 ] ] ] } },
{ "type": "Feature", "properties": { "OBJECTID": 4648, "ID": "0010953185", "NAME": "LAKEVIEW SPECIALTY HOSPITAL & REHAB CENTER", "ADDRESS": "1701 SHARP RD", "CITY": "WATERFORD", "STATE": "WI", "ZIP": "53185", "ZIP4": "NOT AVAILABLE", "TELEPHONE": "(262) 534-7297", "TYPE": "LONG TERM CARE", "STATUS": "OPEN", "POPULATION": 39, "COUNTY": "RACINE", "COUNTYFIPS": "55101", "COUNTRY": "USA", "LATITUDE": 42.737756302999998, "LONGITUDE": -88.167979724999995, "NAICS_CODE": "622310", "NAICS_DESC": "SPECIALTY (EXCEPT PSYCHIATRIC AND SUBSTANCE ABUSE) HOSPITALS", "SOURCE": "https://www.dhs.wisconsin.gov/guide/hospital.htm", "SOURCEDATE": "2018-08-13T00:00:00.000Z", "VAL_METHOD": "IMAGERY", "VAL_DATE": "2014-02-10T00:00:00.000Z", "WEBSITE": "http://www.lakeviewsystem.com", "STATE_ID": "272", "ALT_NAME": "NOT AVAILABLE", "ST_FIPS": "55", "OWNER": "PROPRIETARY", "TTL_STAFF": -999, "BEDS": 39, "TRAUMA": "NOT AVAILABLE", "HELIPAD": "N" }, "geometry": { "type": "Polygon", "coordinates": [ [ [ -88.2195691, 42.683076199999974 ], [ -88.2216075, 42.6833165 ], [ -88.26281280000002, 42.694674500000012 ], [ -88.2645834, 42.695369600000014 ], [ -88.279327, 42.745664 ], [ -88.26828, 42.770255 ], [ -88.251285, 42.785031 ], [ -88.200299, 42.803554 ], [ -88.163184, 42.811411400000011 ], [ -88.0717369, 42.757055199999982 ], [ -88.0521136, 42.742916 ], [ -88.0519834, 42.742263900000026 ], [ -88.0521108, 42.740803499999984 ], [ -88.1104734, 42.6883648 ], [ -88.1498162, 42.684104499999982 ], [ -88.2195691, 42.683076199999974 ] ] ] } },
{ "type": "Feature", "properties": { "OBJECTID": 5500, "ID": "0010653105", "NAME": "AURORA MEMORIAL HSPTL BURLINGTON", "ADDRESS": "252 MCHENRY ST", "CITY": "BURLINGTON", "STATE": "WI", "ZIP": "53105", "ZIP4": "NOT AVAILABLE", "TELEPHONE": "(262) 767-6000", "TYPE": "GENERAL ACUTE CARE", "STATUS": "OPEN", "POPULATION": 123, "COUNTY": "RACINE", "COUNTYFIPS": "55101", "COUNTRY": "USA", "LATITUDE": 42.672823908000098, "LONGITUDE": -88.281186610999995, "NAICS_CODE": "622110", "NAICS_DESC": "GENERAL MEDICAL AND SURGICAL HOSPITALS", "SOURCE": "https://www.dhs.wisconsin.gov/guide/hospital.htm", "SOURCEDATE": "2018-08-13T00:00:00.000Z", "VAL_METHOD": "IMAGERY", "VAL_DATE": "2014-03-12T00:00:00.000Z", "WEBSITE": "http://www.aurorahealthcare.org", "STATE_ID": "14", "ALT_NAME": "NOT AVAILABLE", "ST_FIPS": "55", "OWNER": "NON-PROFIT", "TTL_STAFF": -999, "BEDS": 123, "TRAUMA": "LEVEL IV", "HELIPAD": "Y" }, "geometry": { "type": "Polygon", "coordinates": [ [ [ -88.300831, 42.596347200000039 ], [ -88.3081723, 42.6179967 ], [ -88.313848, 42.7170565 ], [ -88.3137311, 42.719442300000026 ], [ -88.3074936, 42.724359 ], [ -88.2084381, 42.7535564 ], [ -88.2081005, 42.753162399999965 ], [ -88.2079582, 42.752996099999976 ], [ -88.207261, 42.752181 ], [ -88.193413, 42.715502 ], [ -88.188602, 42.683756 ], [ -88.188295600000018, 42.651556299999989 ], [ -88.1882998, 42.644481600000034 ], [ -88.188304, 42.640418 ], [ -88.2231356, 42.601009199999972 ], [ -88.300831, 42.596347200000039 ] ] ] } }
]
}
