{
"type": "FeatureCollection",
"crs": { "type": "name", "properties": { "name": "urn:ogc:def:crs:OGC:1.3:CRS84" } },
"features": [
{ "type": "Feature", "properties": { "OBJECTID": 1412, "ID": "0002047501", "NAME": "DAVIESS COMMUNITY HOSPITAL", "ADDRESS": "1314 E WALNUT ST", "CITY": "WASHINGTON", "STATE": "IN", "ZIP": "47501", "ZIP4": "NOT AVAILABLE", "TELEPHONE": "(812) 254-2760", "TYPE": "GENERAL ACUTE CARE", "STATUS": "OPEN", "POPULATION": 80, "COUNTY": "DAVIESS", "COUNTYFIPS": "18027", "COUNTRY": "USA", "LATITUDE": 38.659613843000002, "LONGITUDE": -87.159752397999995, "NAICS_CODE": "622110", "NAICS_DESC": "GENERAL MEDICAL AND SURGICAL HOSPITALS", "SOURCE": "http://www.in.gov/isdh/reports/QAMIS/hosdir", "SOURCEDATE": "2018-08-16T00:00:00.000Z", "VAL_METHOD": "IMAGERY", "VAL_DATE": "2014-01-24T00:00:00.000Z", "WEBSITE": "http://www.dchosp.org", "STATE_ID": "17-005056-1", "ALT_NAME": "NOT AVAILABLE", "ST_FIPS": "18", "OWNER": "GOVERNMENT - LOCAL", "TTL_STAFF": -999, "BEDS": 80, "TRAUMA": "NOT AVAILABLE", "HELIPAD": "Y" }, "geometry": { "type": "Polygon", "coordinates": [ [ [ -87.20383, 38.590461 ], [ -87.2346813, 38.6333221 ], [ -87.2430669, 38.646380299999969 ], [ -87.2348356, 38.680239700000016 ], [ -87.166933, 38.740565 ], [ -87.053077, 38.661625 ], [ -87.054647, 38.655204 ], [ -87.112443, 38.592897 ], [ -87.175555, 38.590601 ], [ -87.20383, 38.590461 ] ] ] } },
{ "type": "Feature", "properties": { "OBJECTID": 1416, "ID": "0002147747", "NAME": "DEACONESS HOSPITAL INC", "ADDRESS": "600 MARY ST", "CITY": "EVANSVILLE", "STATE": "IN", "ZIP": "47747", "ZIP4": "NOT AVAILABLE", "TELEPHONE": "(812) 450-5000", "TYPE": "GENERAL ACUTE CARE", "STATUS": "OPEN", "POPULATION": 509, "COUNTY": "VANDERBURGH", "COUNTYFIPS": "18163", "COUNTRY": "USA", "LATITUDE": 37.983739540999998, "LONGITUDE": -87.571106775999993, "NAICS_CODE": "622110", "NAICS_DESC": "GENERAL MEDICAL AND SURGICAL HOSPITALS", "SOURCE": "http://www.in.gov/isdh/reports/QAMIS/hosdir", "SOURCEDATE": "2018-08-16T00:00:00.000Z", "VAL_METHOD": "IMAGERY", "VAL_DATE": "2014-03-12T00:00:00.000Z", "WEBSITE": "http://www.deaconess.com", "STATE_ID": "17-005074-1", "ALT_NAME": "NOT AVAILABLE", "ST_FIPS": "18", "OWNER": "NON-PROFIT", "TTL_STAFF": -999, "BEDS": 509, "TRAUMA": "LEVEL II", "HELIPAD": "Y" }, "geometry": { "type": "Polygon", "coordinates": [ [ [ -87.52791, 37.915163 ], [ -87.629378, 37.928282 ], [ -87.687088, 37.964574 ], [ -87.687123, 37.964794 ], [ -87.6750993, 38.0298221 ], [ -87.6723814, 38.038980200000054 ], [ -87.670451, 38.04418 ], [ -87.579188, 38.071477 ], [ -87.574354, 38.070447 ], [ -87.5452966, 38.060754 ], [ -87.4736594, 38.0127083 ], [ -87.456666, 37.982606 ], [ -87.4555233, 37.971977500000037 ], [ -87.456032, 37.969443 ], [ -87.4596706, 37.959410500000033 ], [ -87.492964, 37.927784 ], [ -87.52791, 37.915163 ] ] ] } },
{ "type": "Feature", "properties": { "OBJECTID": 1417, "ID": "0003147714", "NAME": "EVANSVILLE STATE HOSPITAL", "ADDRESS": "3400 LINCOLN AVENUE", "CITY": "EVANSVILLE", "STATE": "IN", "ZIP": "47714", "ZIP4": "NOT AVAILABLE", "TELEPHONE": "(812) 469-6800", "TYPE": "PSYCHIATRIC", "STATUS": "OPEN", "POPULATION": 168, "COUNTY": "VANDERBURGH", "COUNTYFIPS": "18163", "COUNTRY": "USA", "LATITUDE": 37.9728535570001, "LONGITUDE": -87.501553708000003, "NAICS_CODE": "622210", "NAICS_DESC": "PSYCHIATRIC AND SUBSTANCE ABUSE HOSPITALS", "SOURCE": "http://www.in.gov/isdh/reports/QAMIS/hosdir", "SOURCEDATE": "2018-08-16T00:00:00.000Z", "VAL_METHOD": "IMAGERY", "VAL_DATE": "2014-02-10T00:00:00.000Z", "WEBSITE": "www.IN.gov", "STATE_ID": "NOT AVAILABLE", "ALT_NAME": "NOT AVAILABLE", "ST_FIPS": "18", "OWNER": "GOVERNMENT - STATE", "TTL_STAFF": -999, "BEDS": 168, "TRAUMA": "NOT AVAILABLE", "HELIPAD": "N" }, "geometry": { "type": "Polygon", "coordinates": [ [ [ -87.5034305, 37.9101048 ], [ -87.5454846, 37.922239699999984 ], [ -87.6179368, 37.956832100000021 ], [ -87.624439, 37.960595699999956 ], [ -87.636901, 37.97518 ], [ -87.638023, 37.977205 ], [ -87.63331, 37.983169 ], [ -87.617537, 37.997085 ], [ -87.6084539, 38.004327499999981 ], [ -87.543136, 38.046701 ], [ -87.491343, 38.059158 ], [ -87.4012415, 38.0280267 ], [ -87.4000406, 38.027272 ], [ -87.3997736, 37.9758524 ], [ -87.4032911, 37.943765399999961 ], [ -87.5034305, 37.9101048 ] ] ] } },
{ "type": "Feature", "properties": { "OBJECTID": 1418, "ID": "0005047804", "NAME": "HAMILTON CENTER INC", "ADDRESS": "620 8TH AVE", "CITY": "TERRE HAUTE", "STATE": "IN", "ZIP": "47804", "ZIP4": "NOT AVAILABLE", "TELEPHONE": "(812) 231-8285", "TYPE": "PSYCHIATRIC", "STATUS": "OPEN", "POPULATION": 16, "COUNTY": "VIGO", "COUNTYFIPS": "18167", "COUNTRY": "USA", "LATITUDE": 39.485410862000002, "LONGITUDE": -87.409983622, "NAICS_CODE": "622210", "NAICS_DESC": "PSYCHIATRIC AND SUBSTANCE ABUSE HOSPITALS", "SOURCE": "http://www.in.gov/isdh/reports/QAMIS/hosdir", "SOURCEDATE": "2018-08-16T00:00:00.000Z", "VAL_METHOD": "IMAGERY", "VAL_DATE": "2014-03-12T00:00:00.000Z", "WEBSITE": "http://www.hamiltoncenter.org", "STATE_ID": "NOT AVAILABLE", "ALT_NAME": "NOT AVAILABLE", "ST_FIPS": "18", "OWNER": "GOVERNMENT - STATE", "TTL_STAFF": -999, "BEDS": 16, "TRAUMA": "NOT AVAILABLE", "HELIPAD": "Y" }, "geometry": { "type": "Polygon", "coordinates": [ [ [ -87.3980116, 39.393689099999939 ], [ -87.4516406, 39.3978476 ], [ -87.4977721, 39.4479852 ], [ -87.4978987, 39.448191800000018 ], [ -87.4800986, 39.521478799999976 ], [ -87.4623032, 39.5782391 ], [ -87.4464422, 39.6004183 ], [ -87.437286, 39.607636 ], [ -87.3704844, 39.587057200000032 ], [ -87.359985400000014, 39.571614500000017 ], [ -87.314182, 39.483085 ], [ -87.3440384, 39.430578 ], [ -87.3975729, 39.393733200000014 ], [ -87.3980116, 39.393689099999939 ] ] ] } },
{ "type": "Feature", "properties": { "OBJECTID": 1429, "ID": "0000647630", "NAME": "BRENTWOOD MEADOWS LLC", "ADDRESS": "4488 ROSLIN RD", "CITY": "NEWBURGH", "STATE": "IN", "ZIP": "47630", "ZIP4": "NOT AVAILABLE", "TELEPHONE": "(812) 858-7200", "TYPE": "PSYCHIATRIC", "STATUS": "OPEN", "POPULATION": 48, "COUNTY": "WARRICK", "COUNTYFIPS": "18173", "COUNTRY": "USA", "LATITUDE": 37.992909968, "LONGITUDE": -87.331528503000001, "NAICS_CODE": "622210", "NAICS_DESC": "PSYCHIATRIC AND SUBSTANCE ABUSE HOSPITALS", "SOURCE": "http://www.in.gov/isdh/reports/QAMIS/hosdir", "SOURCEDATE": "2018-08-16T00:00:00.000Z", "VAL_METHOD": "IMAGERY/OTHER", "VAL_DATE": "2014-02-10T00:00:00.000Z", "WEBSITE": "http://www.brentwoodmeadows.com", "STATE_ID": "NOT AVAILABLE", "ALT_NAME": "NOT AVAILABLE", "ST_FIPS": "18", "OWNER": "PROPRIETARY", "TTL_STAFF": -999, "BEDS": 48, "TRAUMA": "NOT AVAILABLE", "HELIPAD": "N" }, "geometry": { "type": "Polygon", "coordinates": [ [ [ -87.3154694, 37.922897 ], [ -87.4049718, 37.9591521 ], [ -87.4321076, 37.976697699999988 ], [ -87.43211, 37.976885599999967 ], [ -87.413768500000018, 37.9988033 ], [ -87.408582800000019, 38.0038797 ], [ -87.3818236, 38.027211099999974 ], [ -87.303441, 38.052552300000016 ], [ -87.3017408, 38.0525444 ], [ -87.2789846, 38.051029700000015 ], [ -87.275556, 38.04904979999997 ], [ -87.2428747, 37.989884400000044 ], [ -87.3154694, 37.922897 ] ] ] } },
{ "type": "Feature", "properties": { "OBJECTID": 1456, "ID": "0003447150", "NAME": "FLOYD MEMORIAL HOSPITAL AND HEALTH SERVICES", "ADDRESS": "1850 STATE ST", "CITY": "NEW ALBANY", "STATE": "IN", "ZIP": "47150", "ZIP4": "NOT AVAILABLE", "TELEPHONE": "(812) 949-5500", "TYPE": "GENERAL ACUTE CARE", "STATUS": "OPEN", "POPULATION": 225, "COUNTY": "FLOYD", "COUNTYFIPS": "18043", "COUNTRY": "USA", "LATITUDE": 38.301364386000003, "LONGITUDE": -85.834335191999998, "NAICS_CODE": "622110", "NAICS_DESC": "GENERAL MEDICAL AND SURGICAL HOSPITALS", "SOURCE": "http://www.in.gov/isdh/reports/QAMIS/hosdir", "SOURCEDATE": "2018-08-16T00:00:00.000Z", "VAL_METHOD": "IMAGERY", "VAL_DATE": "2014-03-12T00:00:00.000Z", "WEBSITE": "http://www.floydmemorial.com", "STATE_ID": "17-005040-1", "ALT_NAME": "NOT AVAILABLE", "ST_FIPS": "18", "OWNER": "GOVERNMENT - LOCAL", "TTL_STAFF": -999, "BEDS": 225, "TRAUMA": "NOT AVAILABLE", "HELIPAD": "Y" }, "geometry": { "type": "Polygon", "coordinates": [ [ [ -85.858206, 38.225384 ], [ -85.9563977, 38.277330100000036 ], [ -85.9280763, 38.3486856 ], [ -85.8098742, 38.389997199999989 ], [ -85.779015, 38.375484 ], [ -85.7688091, 38.3681059 ], [ -85.76812, 38.367535 ], [ -85.767654, 38.366726 ], [ -85.7673017, 38.357765300000011 ], [ -85.7685, 38.353154 ], [ -85.7912269, 38.301005399999951 ], [ -85.797009, 38.289605 ], [ -85.858206, 38.225384 ] ] ] } },
{ "type": "Feature", "properties": { "OBJECTID": 1457, "ID": "0011047150", "NAME": "PHYSICIANS' MEDICAL CENTER LLC", "ADDRESS": "4023 REAS LN", "CITY": "NEW ALBANY", "STATE": "IN", "ZIP": "47150", "ZIP4": "NOT AVAILABLE", "TELEPHONE": "(812) 206-7660", "TYPE": "SPECIAL", "STATUS": "OPEN", "POPULATION": 12, "COUNTY": "FLOYD", "COUNTYFIPS": "18043", "COUNTRY": "USA", "LATITUDE": 38.339954129, "LONGITUDE": -85.827989949, "NAICS_CODE": "622110", "NAICS_DESC": "GENERAL MEDICAL AND SURGICAL HOSPITALS", "SOURCE": "http://www.in.gov/isdh/reports/QAMIS/hosdir", "SOURCEDATE": "2018-08-16T00:00:00.000Z", "VAL_METHOD": "IMAGERY", "VAL_DATE": "2014-01-23T00:00:00.000Z", "WEBSITE": "http://www.pmcindiana.com", "STATE_ID": "17-011352-1", "ALT_NAME": "NOT AVAILABLE", "ST_FIPS": "18", "OWNER": "GOVERNMENT - STATE", "TTL_STAFF": -999, "BEDS": 12, "TRAUMA": "NOT AVAILABLE", "HELIPAD": "N" }, "geometry": { "type": "Polygon", "coordinates": [ [ [ -85.851071, 38.26809 ], [ -85.9107165, 38.280054500000013 ], [ -85.9162409, 38.284282099999977 ], [ -85.921695, 38.288898 ], [ -85.920763, 38.293269 ], [ -85.9096521, 38.320478800000018 ], [ -85.899454, 38.335157 ], [ -85.862053, 38.377319 ], [ -85.8201758, 38.4043007 ], [ -85.8076189, 38.404984900000038 ], [ -85.7707851, 38.382843100000031 ], [ -85.7556751, 38.3653007 ], [ -85.7558378, 38.363824400000013 ], [ -85.7607334, 38.350140400000015 ], [ -85.797009, 38.289605 ], [ -85.802816, 38.28642 ], [ -85.8352255, 38.268682 ], [ -85.844857, 38.268038 ], [ -85.851071, 38.26809 ] ] ] } },
{ "type": "Feature", "properties": { "OBJECTID": 1506, "ID": "0004140065", "NAME": "JEWISH HOSPITAL SHELBYVILLE", "ADDRESS": "727 HOSPITAL DRIVE", "CITY": "SHELBYVILLE", "STATE": "KY", "ZIP": "40065", "ZIP4": "NOT AVAILABLE", "TELEPHONE": "(502) 647-4300", "TYPE": "GENERAL ACUTE CARE", "STATUS": "OPEN", "POPULATION": 70, "COUNTY": "SHELBY", "COUNTYFIPS": "21211", "COUNTRY": "USA", "LATITUDE": 38.209027706000001, "LONGITUDE": -85.23592218, "NAICS_CODE": "622110", "NAICS_DESC": "GENERAL MEDICAL AND SURGICAL HOSPITALS", "SOURCE": "https://chfs.ky.gov/agencies/os/oig/dhc/Documents/Directories/Hospital_Directory.pdf", "SOURCEDATE": "2018-08-11T00:00:00.000Z", "VAL_METHOD": "IMAGERY", "VAL_DATE": "2014-02-10T00:00:00.000Z", "WEBSITE": "http://www.kentuckyonehealth.org/jewish-hospital-shelbyville", "STATE_ID": "100385", "ALT_NAME": "NOT AVAILABLE", "ST_FIPS": "21", "OWNER": "NON-PROFIT", "TTL_STAFF": -999, "BEDS": 70, "TRAUMA": "NOT AVAILABLE", "HELIPAD": "Y" }, "geometry": { "type": "Polygon", "coordinates": [ [ [ -85.247422, 38.139718 ], [ -85.318678, 38.148078 ], [ -85.3547724, 38.2068221 ], [ -85.355265, 38.222393 ], [ -85.266521, 38.295846 ], [ -85.205076, 38.280069 ], [ -85.144915, 38.239268 ], [ -85.125909, 38.19711 ], [ -85.126775, 38.1953 ], [ -85.14022, 38.181347 ], [ -85.151216, 38.170319 ], [ -85.247422, 38.139718 ] ] ] } },
{ "type": "Feature", "properties": { "OBJECTID": 1535, "ID": "0008543202", "NAME": "RIVER VALLEY BEHAVIORAL HEALTH", "ADDRESS": "1000 INDUSTRIAL DRIVE", "CITY": "OWENSBORO", "STATE": "KY", "ZIP": "43202", "ZIP4": "NOT AVAILABLE", "TELEPHONE": "(270) 689-6800", "TYPE": "PSYCHIATRIC", "STATUS": "OPEN", "POPULATION": 80, "COUNTY": "DAVIESS", "COUNTYFIPS": "21059", "COUNTRY": "USA", "LATITUDE": 37.784866924, "LONGITUDE": -87.157643566000004, "NAICS_CODE": "622110", "NAICS_DESC": "GENERAL MEDICAL AND SURGICAL HOSPITALS", "SOURCE": "https://chfs.ky.gov/agencies/os/oig/dhc/Documents/Directories/Hospital_Directory.pdf", "SOURCEDATE": "2018-08-11T00:00:00.000Z", "VAL_METHOD": "IMAGERY", "VAL_DATE": "2014-02-10T00:00:00.000Z", "WEBSITE": "http://www.rvbh.com", "STATE_ID": "100586", "ALT_NAME": "NOT AVAILABLE", "ST_FIPS": "21", "OWNER": "NON-PROFIT", "TTL_STAFF": -999, "BEDS": 80, "TRAUMA": "NOT AVAILABLE", "HELIPAD": "N" }, "geometry": { "type": "Polygon", "coordinates": [ [ [ -87.1332319, 37.692226499999983 ], [ -87.184804, 37.709723 ], [ -87.277477, 37.757546 ], [ -87.253862, 37.814946 ], [ -87.246551, 37.824254 ], [ -87.241781, 37.828809 ], [ -87.206391, 37.824376 ], [ -87.150634, 37.813819 ], [ -87.0538458, 37.793692300000018 ], [ -87.0536192, 37.7935215 ], [ -87.061122, 37.754031 ], [ -87.071385, 37.731742 ], [ -87.077307, 37.721815 ], [ -87.1332319, 37.692226499999983 ] ] ] } },
{ "type": "Feature", "properties": { "OBJECTID": 1542, "ID": "0015962863", "NAME": "WABASH GENERAL HOSPITAL", "ADDRESS": "1418 COLLEGE DRIVE", "CITY": "MOUNT CARMEL", "STATE": "IL", "ZIP": "62863", "ZIP4": "NOT AVAILABLE", "TELEPHONE": "(618) 262-8621", "TYPE": "CRITICAL ACCESS", "STATUS": "OPEN", "POPULATION": 25, "COUNTY": "WABASH", "COUNTYFIPS": "17185", "COUNTRY": "USA", "LATITUDE": 38.420606927000101, "LONGITUDE": -87.769388840999994, "NAICS_CODE": "622110", "NAICS_DESC": "GENERAL MEDICAL AND SURGICAL HOSPITALS", "SOURCE": "https://data.illinois.gov/", "SOURCEDATE": "2018-08-09T00:00:00.000Z", "VAL_METHOD": "IMAGERY", "VAL_DATE": "2014-03-12T00:00:00.000Z", "WEBSITE": "http://www.wabashgeneral.com", "STATE_ID": "141327", "ALT_NAME": "NOT AVAILABLE", "ST_FIPS": "17", "OWNER": "GOVERNMENT - LOCAL", "TTL_STAFF": -999, "BEDS": 25, "TRAUMA": "NOT AVAILABLE", "HELIPAD": "Y" }, "geometry": { "type": "Polygon", "coordinates": [ [ [ -87.849478, 38.366127 ], [ -87.878628, 38.40701 ], [ -87.878614, 38.407511 ], [ -87.878579, 38.408724 ], [ -87.815533, 38.480739 ], [ -87.760345, 38.497911 ], [ -87.742166, 38.500624 ], [ -87.741768, 38.500615 ], [ -87.733908, 38.498293 ], [ -87.731985, 38.487192 ], [ -87.7449842, 38.416717799999986 ], [ -87.7498414, 38.39506729999998 ], [ -87.791448, 38.379101 ], [ -87.809765, 38.372638 ], [ -87.826751, 38.369846 ], [ -87.849478, 38.366127 ] ] ] } },
{ "type": "Feature", "properties": { "OBJECTID": 1561, "ID": "0012540202", "NAME": "KOSAIR CHILDREN'S HOSPITAL", "ADDRESS": "231 EAST CHESTNUT STREET", "CITY": "LOUISVILLE", "STATE": "KY", "ZIP": "40202", "ZIP4": "NOT AVAILABLE", "TELEPHONE": "NOT AVAILABLE", "TYPE": "CHILDREN", "STATUS": "OPEN", "POPULATION": 271, "COUNTY": "JEFFERSON", "COUNTYFIPS": "21111", "COUNTRY": "USA", "LATITUDE": 38.248470296999997, "LONGITUDE": -85.74959418, "NAICS_CODE": "622110", "NAICS_DESC": "CHILDREN'S HOSPITALS, GENERAL", "SOURCE": "https://chfs.ky.gov/agencies/os/oig/dhc/Documents/Directories/Hospital_Directory.pdf", "SOURCEDATE": "2018-08-11T00:00:00.000Z", "VAL_METHOD": "IMAGERY/OTHER", "VAL_DATE": "2014-02-10T00:00:00.000Z", "WEBSITE": "http://www.kosairchildrenshospital.com/", "STATE_ID": "NOT AVAILABLE", "ALT_NAME": "NOT AVAILABLE", "ST_FIPS": "21", "OWNER": "NON-PROFIT", "TTL_STAFF": -999, "BEDS": 271, "TRAUMA": "LEVEL I PEDIATRIC", "HELIPAD": "Y" }, "geometry": { "type": "Polygon", "coordinates": [ [ [ -85.7034784, 38.1307332 ], [ -85.8143747, 38.183441600000016 ], [ -85.818057, 38.186016 ], [ -85.83013, 38.213602 ], [ -85.832464, 38.245216 ], [ -85.832365, 38.248701 ], [ -85.8323286, 38.249635599999976 ], [ -85.830927, 38.258951 ], [ -85.826288, 38.267497 ], [ -85.7566609, 38.373830300000023 ], [ -85.652324, 38.310456 ], [ -85.633029, 38.283197 ], [ -85.6223892, 38.23730089999998 ], [ -85.7034784, 38.1307332 ] ] ] } },
{ "type": "Feature", "properties": { "OBJECTID": 2080, "ID": "0003042701", "NAME": "HARDIN MEMORIAL HOSPITAL", "ADDRESS": "913 N DIXIE AVENUE", "CITY": "ELIZABETHTOWN", "STATE": "KY", "ZIP": "42701", "ZIP4": "NOT AVAILABLE", "TELEPHONE": "(270) 706-1212", "TYPE": "GENERAL ACUTE CARE", "STATUS": "OPEN", "POPULATION": 285, "COUNTY": "HARDIN", "COUNTYFIPS": "21093", "COUNTRY": "USA", "LATITUDE": 37.7099441, "LONGITUDE": -85.876296327999995, "NAICS_CODE": "622110", "NAICS_DESC": "GENERAL MEDICAL AND SURGICAL HOSPITALS", "SOURCE": "https://chfs.ky.gov/agencies/os/oig/dhc/Documents/Directories/Hospital_Directory.pdf", "SOURCEDATE": "2018-08-11T00:00:00.000Z", "VAL_METHOD": "IMAGERY/OTHER", "VAL_DATE": "2014-02-10T00:00:00.000Z", "WEBSITE": "http://www.hmh.net/HMHWebsite/Location.aspx?PageID=4", "STATE_ID": "100160", "ALT_NAME": "NOT AVAILABLE", "ST_FIPS": "21", "OWNER": "GOVERNMENT - LOCAL", "TTL_STAFF": -999, "BEDS": 285, "TRAUMA": "NOT AVAILABLE", "HELIPAD": "Y" }, "geometry": { "type": "Polygon", "coordinates": [ [ [ -85.8675, 37.602504 ], [ -85.94406, 37.655455 ], [ -85.973176, 37.698843 ], [ -85.978928, 37.754767 ], [ -85.9314786, 37.797966699999982 ], [ -85.920142, 37.806207 ], [ -85.919907, 37.80626 ], [ -85.9036233, 37.798613500000037 ], [ -85.831766, 37.764799 ], [ -85.7923897, 37.7361305 ], [ -85.786343599999981, 37.729647900000018 ], [ -85.7855014, 37.727866500000033 ], [ -85.803109, 37.626302 ], [ -85.811405, 37.613985 ], [ -85.820458, 37.608908 ], [ -85.8675, 37.602504 ] ] ] } },
{ "type": "Feature", "properties": { "OBJECTID": 2343, "ID": "0009347546", "NAME": "MEMORIAL HOSPITAL AND HEALTH CARE CENTER", "ADDRESS": "800 W 9TH ST", "CITY": "JASPER", "STATE": "IN", "ZIP": "47546", "ZIP4": "NOT AVAILABLE", "TELEPHONE": "(812) 996-2345", "TYPE": "GENERAL ACUTE CARE", "STATUS": "OPEN", "POPULATION": 123, "COUNTY": "DUBOIS", "COUNTYFIPS": "18037", "COUNTRY": "USA", "LATITUDE": 38.395012168999997, "LONGITUDE": -86.941229410999895, "NAICS_CODE": "622110", "NAICS_DESC": "GENERAL MEDICAL AND SURGICAL HOSPITALS", "SOURCE": "http://www.in.gov/isdh/reports/QAMIS/hosdir", "SOURCEDATE": "2018-08-16T00:00:00.000Z", "VAL_METHOD": "IMAGERY", "VAL_DATE": "2014-03-12T00:00:00.000Z", "WEBSITE": "http://www.mhhcc.org", "STATE_ID": "17-005102-1", "ALT_NAME": "NOT AVAILABLE", "ST_FIPS": "18", "OWNER": "NON-PROFIT", "TTL_STAFF": -999, "BEDS": 123, "TRAUMA": "LEVEL III", "HELIPAD": "Y" }, "geometry": { "type": "Polygon", "coordinates": [ [ [ -86.955403243324568, 38.303313930684304 ], [ -86.960894243078016, 38.307157918274996 ], [ -87.015926246359385, 38.379534717517032 ], [ -87.021683, 38.400544 ], [ -87.0241486, 38.4224348 ], [ -87.007631191285583, 38.440565589530408 ], [ -86.914555255440177, 38.471612473953563 ], [ -86.863001284171432, 38.40864364104263 ], [ -86.851758483074349, 38.393805686963958 ], [ -86.844185, 38.381417 ], [ -86.880668242827056, 38.32920888843352 ], [ -86.953759243103136, 38.303317931490724 ], [ -86.955403243324568, 38.303313930684304 ] ] ] } },
{ "type": "Feature", "properties": { "OBJECTID": 2351, "ID": "0008847250", "NAME": "MADISON STATE HOSPITAL", "ADDRESS": "711 GREEN RD", "CITY": "MADISON", "STATE": "IN", "ZIP": "47250", "ZIP4": "NOT AVAILABLE", "TELEPHONE": "(812) 265-2611", "TYPE": "PSYCHIATRIC", "STATUS": "OPEN", "POPULATION": 150, "COUNTY": "JEFFERSON", "COUNTYFIPS": "18077", "COUNTRY": "USA", "LATITUDE": 38.746061514000097, "LONGITUDE": -85.401992921000002, "NAICS_CODE": "622210", "NAICS_DESC": "PSYCHIATRIC AND SUBSTANCE ABUSE HOSPITALS", "SOURCE": "http://www.in.gov/isdh/reports/QAMIS/hosdir", "SOURCEDATE": "2018-08-16T00:00:00.000Z", "VAL_METHOD": "IMAGERY", "VAL_DATE": "2014-02-10T00:00:00.000Z", "WEBSITE": "http://www.in.gov/fssa/msh", "STATE_ID": "NOT AVAILABLE", "ALT_NAME": "NOT AVAILABLE", "ST_FIPS": "18", "OWNER": "GOVERNMENT - STATE", "TTL_STAFF": -999, "BEDS": 150, "TRAUMA": "NOT AVAILABLE", "HELIPAD": "N" }, "geometry": { "type": "Polygon", "coordinates": [ [ [ -85.467384, 38.723624 ], [ -85.470588, 38.738172 ], [ -85.469733, 38.78178 ], [ -85.462358, 38.816634 ], [ -85.383132, 38.818872 ], [ -85.382784, 38.818843 ], [ -85.350905, 38.807211 ], [ -85.33414, 38.748422 ], [ -85.335917, 38.736548 ], [ -85.33645, 38.736173 ], [ -85.370493, 38.724357500000032 ], [ -85.467384, 38.723624 ] ] ] } },
{ "type": "Feature", "properties": { "OBJECTID": 2388, "ID": "0012647111", "NAME": "SAINT CATHERINE REGIONAL HOSPITAL", "ADDRESS": "2200 MARKET ST", "CITY": "CHARLESTOWN", "STATE": "IN", "ZIP": "47111", "ZIP4": "NOT AVAILABLE", "TELEPHONE": "(812) 256-3301", "TYPE": "GENERAL ACUTE CARE", "STATUS": "CLOSED", "POPULATION": 64, "COUNTY": "CLARK", "COUNTYFIPS": "18019", "COUNTRY": "USA", "LATITUDE": 38.473937736000003, "LONGITUDE": -85.670036755999902, "NAICS_CODE": "622110", "NAICS_DESC": "GENERAL MEDICAL AND SURGICAL HOSPITALS", "SOURCE": "http://www.state.in.us/isdh/reports/QAMIS/hosdir/wdirhos.htm", "SOURCEDATE": "2012-11-06T00:00:00.000Z", "VAL_METHOD": "IMAGERY", "VAL_DATE": "2014-01-22T00:00:00.000Z", "WEBSITE": "http://www.saintcatherinehospital.com", "STATE_ID": "12-004975-1", "ALT_NAME": "NOT AVAILABLE", "ST_FIPS": "18", "OWNER": "PROPRIETARY", "TTL_STAFF": -999, "BEDS": 64, "TRAUMA": "NOT AVAILABLE", "HELIPAD": "N" }, "geometry": { "type": "Polygon", "coordinates": [ [ [ -85.688339, 38.382751 ], [ -85.745644, 38.410728 ], [ -85.721567, 38.489158 ], [ -85.707211, 38.516645 ], [ -85.66979, 38.559278 ], [ -85.6502374, 38.545322799999973 ], [ -85.5968973, 38.47732229999994 ], [ -85.626259, 38.418015 ], [ -85.629478, 38.41531 ], [ -85.6740877, 38.386471399999976 ], [ -85.688339, 38.382751 ] ] ] } },
{ "type": "Feature", "properties": { "OBJECTID": 2411, "ID": "0015147167", "NAME": "ST VINCENT SALEM HOSPITAL INC", "ADDRESS": "911 N SHELBY ST", "CITY": "SALEM", "STATE": "IN", "ZIP": "47167", "ZIP4": "NOT AVAILABLE", "TELEPHONE": "(812) 883-5881", "TYPE": "CRITICAL ACCESS", "STATUS": "OPEN", "POPULATION": 25, "COUNTY": "WASHINGTON", "COUNTYFIPS": "18175", "COUNTRY": "USA", "LATITUDE": 38.613268825, "LONGITUDE": -86.107079115000005, "NAICS_CODE": "622110", "NAICS_DESC": "GENERAL MEDICAL AND SURGICAL HOSPITALS", "SOURCE": "http://www.in.gov/isdh/reports/QAMIS/hosdir", "SOURCEDATE": "2018-08-16T00:00:00.000Z", "VAL_METHOD": "IMAGERY", "VAL_DATE": "2014-03-12T00:00:00.000Z", "WEBSITE": "http://www.stvincent.org/St-Vincent-Salem/Default.aspx", "STATE_ID": "17-005087-1", "ALT_NAME": "NOT AVAILABLE", "ST_FIPS": "18", "OWNER": "NON-PROFIT", "TTL_STAFF": -999, "BEDS": 25, "TRAUMA": "NOT AVAILABLE", "HELIPAD": "Y" }, "geometry": { "type": "Polygon", "coordinates": [ [ [ -86.100458, 38.528919 ], [ -86.187645, 38.570715 ], [ -86.206562, 38.628346 ], [ -86.206627, 38.631673 ], [ -86.140252, 38.670507 ], [ -86.101591, 38.6928 ], [ -86.00701, 38.642543 ], [ -86.024272, 38.588991 ], [ -86.039064, 38.551688 ], [ -86.099029, 38.528898 ], [ -86.100458, 38.528919 ] ] ] } },
{ "type": "Feature", "properties": { "OBJECTID": 2439, "ID": "0014847265", "NAME": "ST VINCENT JENNINGS HOSPITAL INC", "ADDRESS": "301 HENRY ST", "CITY": "NORTH VERNON", "STATE": "IN", "ZIP": "47265", "ZIP4": "NOT AVAILABLE", "TELEPHONE": "(812) 352-4200", "TYPE": "CRITICAL ACCESS", "STATUS": "OPEN", "POPULATION": 17, "COUNTY": "JENNINGS", "COUNTYFIPS": "18079", "COUNTRY": "USA", "LATITUDE": 39.011277161000102, "LONGITUDE": -85.641143039, "NAICS_CODE": "622110", "NAICS_DESC": "GENERAL MEDICAL AND SURGICAL HOSPITALS", "SOURCE": "http://www.in.gov/isdh/reports/QAMIS/hosdir", "SOURCEDATE": "2018-08-16T00:00:00.000Z", "VAL_METHOD": "IMAGERY", "VAL_DATE": "2014-03-12T00:00:00.000Z", "WEBSITE": "http://www.stvincent.org", "STATE_ID": "17-005108-1", "ALT_NAME": "NOT AVAILABLE", "ST_FIPS": "18", "OWNER": "NON-PROFIT", "TTL_STAFF": -999, "BEDS": 17, "TRAUMA": "NOT AVAILABLE", "HELIPAD": "Y" }, "geometry": { "type": "Polygon", "coordinates": [ [ [ -85.610062, 38.940705 ], [ -85.7197822, 38.977196600000035 ], [ -85.723273300000017, 39.028125199999984 ], [ -85.7178683, 39.0798144 ], [ -85.639926, 39.091495 ], [ -85.6070107, 39.0659993 ], [ -85.553538, 39.021953 ], [ -85.552295, 39.014692 ], [ -85.576579, 38.948077 ], [ -85.610062, 38.940705 ] ] ] } },
{ "type": "Feature", "properties": { "OBJECTID": 2501, "ID": "0000640143", "NAME": "BRECKINRIDGE MEMORIAL HOSPITAL", "ADDRESS": "1011 OLD HWY 60", "CITY": "HARDINSBURG", "STATE": "KY", "ZIP": "40143", "ZIP4": "NOT AVAILABLE", "TELEPHONE": "(270) 756-7000", "TYPE": "CRITICAL ACCESS", "STATUS": "OPEN", "POPULATION": 25, "COUNTY": "BRECKINRIDGE", "COUNTYFIPS": "21027", "COUNTRY": "USA", "LATITUDE": 37.766570137000002, "LONGITUDE": -86.440390448000002, "NAICS_CODE": "622110", "NAICS_DESC": "GENERAL MEDICAL AND SURGICAL HOSPITALS", "SOURCE": "https://chfs.ky.gov/agencies/os/oig/dhc/Documents/Directories/Hospital_Directory.pdf", "SOURCEDATE": "2018-08-11T00:00:00.000Z", "VAL_METHOD": "IMAGERY/OTHER", "VAL_DATE": "2014-02-10T00:00:00.000Z", "WEBSITE": "http://www.breckhealth.org", "STATE_ID": "600070", "ALT_NAME": "NOT AVAILABLE", "ST_FIPS": "21", "OWNER": "NON-PROFIT", "TTL_STAFF": -999, "BEDS": 25, "TRAUMA": "NOT AVAILABLE", "HELIPAD": "Y" }, "geometry": { "type": "Polygon", "coordinates": [ [ [ -86.500208, 37.692599 ], [ -86.53662, 37.707097 ], [ -86.539587, 37.825371 ], [ -86.503699, 37.829656 ], [ -86.451251, 37.834511 ], [ -86.332765, 37.796398 ], [ -86.356252, 37.726713 ], [ -86.400271, 37.69752 ], [ -86.404259, 37.695213 ], [ -86.407895, 37.694613 ], [ -86.490407, 37.692147 ], [ -86.500208, 37.692599 ] ] ] } },
{ "type": "Feature", "properties": { "OBJECTID": 2871, "ID": "0010840330", "NAME": "THE JAMES B. HAGGIN MEMORIAL HOSPITAL", "ADDRESS": "464 LINDEN AVE.", "CITY": "HARRODSBURG", "STATE": "KY", "ZIP": "40330", "ZIP4": "NOT AVAILABLE", "TELEPHONE": "(859) 734-5441", "TYPE": "CRITICAL ACCESS", "STATUS": "OPEN", "POPULATION": 25, "COUNTY": "MERCER", "COUNTYFIPS": "21167", "COUNTRY": "USA", "LATITUDE": 37.7570638770001, "LONGITUDE": -84.848739112999993, "NAICS_CODE": "622110", "NAICS_DESC": "GENERAL MEDICAL AND SURGICAL HOSPITALS", "SOURCE": "https://chfs.ky.gov/agencies/os/oig/dhc/Documents/Directories/Hospital_Directory.pdf", "SOURCEDATE": "2018-08-11T00:00:00.000Z", "VAL_METHOD": "IMAGERY", "VAL_DATE": "2014-02-10T00:00:00.000Z", "WEBSITE": "http://www.hagginhosp.org", "STATE_ID": "600053", "ALT_NAME": "NOT AVAILABLE", "ST_FIPS": "21", "OWNER": "NON-PROFIT", "TTL_STAFF": -999, "BEDS": 25, "TRAUMA": "NOT AVAILABLE", "HELIPAD": "Y" }, "geometry": { "type": "Polygon", "coordinates": [ [ [ -84.9102624, 37.695222 ], [ -84.910475, 37.695271 ], [ -84.939167, 37.747711 ], [ -84.914254, 37.80962 ], [ -84.85335, 37.864604 ], [ -84.853138, 37.864581 ], [ -84.770087, 37.809086 ], [ -84.765847, 37.804032 ], [ -84.747872, 37.76156 ], [ -84.744977, 37.746669 ], [ -84.754886, 37.737636 ], [ -84.807706699999983, 37.70543559999998 ], [ -84.807900300000014, 37.705392099999983 ], [ -84.850401, 37.699026 ], [ -84.854117, 37.698561 ], [ -84.9102624, 37.695222 ] ] ] } },
{ "type": "Feature", "properties": { "OBJECTID": 6032, "ID": "0000947130", "NAME": "CLARK MEMORIAL HOSPITAL", "ADDRESS": "1220 MISSOURI AVE", "CITY": "JEFFERSONVILLE", "STATE": "IN", "ZIP": "47130", "ZIP4": "NOT AVAILABLE", "TELEPHONE": "(812) 283-2142", "TYPE": "GENERAL ACUTE CARE", "STATUS": "OPEN", "POPULATION": 236, "COUNTY": "CLARK", "COUNTYFIPS": "18019", "COUNTRY": "USA", "LATITUDE": 38.282255723, "LONGITUDE": -85.748631848999906, "NAICS_CODE": "622110", "NAICS_DESC": "GENERAL MEDICAL AND SURGICAL HOSPITALS", "SOURCE": "http://www.in.gov/isdh/reports/QAMIS/hosdir", "SOURCEDATE": "2018-08-16T00:00:00.000Z", "VAL_METHOD": "IMAGERY", "VAL_DATE": "2014-01-22T00:00:00.000Z", "WEBSITE": "http://www.clarkmemorial.org", "STATE_ID": "17-005009-1", "ALT_NAME": "NOT AVAILABLE", "ST_FIPS": "18", "OWNER": "GOVERNMENT - LOCAL", "TTL_STAFF": -999, "BEDS": 236, "TRAUMA": "NOT AVAILABLE", "HELIPAD": "N" }, "geometry": { "type": "Polygon", "coordinates": [ [ [ -85.7200733, 38.174285899999987 ], [ -85.764877, 38.189162 ], [ -85.782645, 38.199725 ], [ -85.8166845, 38.2405335 ], [ -85.82194, 38.258296 ], [ -85.822924, 38.267966 ], [ -85.776077, 38.387325 ], [ -85.7743, 38.389931 ], [ -85.761543, 38.403809 ], [ -85.7507728, 38.407008699999984 ], [ -85.6674576, 38.35000729999998 ], [ -85.6421859, 38.290503800000025 ], [ -85.639457, 38.282513 ], [ -85.6339943, 38.236163699999977 ], [ -85.7200733, 38.174285899999987 ] ] ] } },
{ "type": "Feature", "properties": { "OBJECTID": 6054, "ID": "0003047715", "NAME": "EVANSVILLE PSYCHIATRIC CHILDREN'S CENTER", "ADDRESS": "3300 E MORGAN AVE", "CITY": "EVANSVILLE", "STATE": "IN", "ZIP": "47715", "ZIP4": "NOT AVAILABLE", "TELEPHONE": "(812) 477-6436", "TYPE": "PSYCHIATRIC", "STATUS": "OPEN", "POPULATION": -999, "COUNTY": "VANDERBURGH", "COUNTYFIPS": "18163", "COUNTRY": "USA", "LATITUDE": 37.993908018000099, "LONGITUDE": -87.50906592, "NAICS_CODE": "622210", "NAICS_DESC": "PSYCHIATRIC AND SUBSTANCE ABUSE HOSPITALS", "SOURCE": "http://www.in.gov/isdh/reports/QAMIS/hosdir", "SOURCEDATE": "2018-08-16T00:00:00.000Z", "VAL_METHOD": "IMAGERY", "VAL_DATE": "2014-02-10T00:00:00.000Z", "WEBSITE": "http://www.khrh.org", "STATE_ID": "NOT AVAILABLE", "ALT_NAME": "NOT AVAILABLE", "ST_FIPS": "18", "OWNER": "GOVERNMENT - STATE", "TTL_STAFF": -999, "BEDS": -999, "TRAUMA": "NOT AVAILABLE", "HELIPAD": "N" }, "geometry": { "type": "Polygon", "coordinates": [ [ [ -87.5454846, 37.922239699999984 ], [ -87.613949, 37.961583 ], [ -87.627872, 37.977609 ], [ -87.627883, 37.977755 ], [ -87.627861, 37.978525 ], [ -87.610299, 38.004729 ], [ -87.554222, 38.057734 ], [ -87.4765496, 38.084264 ], [ -87.3804833, 38.037412800000013 ], [ -87.434925, 37.952659300000043 ], [ -87.479669, 37.925748 ], [ -87.5454846, 37.922239699999984 ] ] ] } },
{ "type": "Feature", "properties": { "OBJECTID": 6092, "ID": "0008447250", "NAME": "KING'S DAUGHTERS' HOSPITAL AND HEALTH SERVICES,THE", "ADDRESS": "1 KINGS DAUGHTERS DR", "CITY": "MADISON", "STATE": "IN", "ZIP": "47250", "ZIP4": "NOT AVAILABLE", "TELEPHONE": "(812) 265-5211", "TYPE": "GENERAL ACUTE CARE", "STATUS": "CLOSED", "POPULATION": 77, "COUNTY": "JEFFERSON", "COUNTYFIPS": "18077", "COUNTRY": "USA", "LATITUDE": 38.73870715, "LONGITUDE": -85.381351085999896, "NAICS_CODE": "622110", "NAICS_DESC": "GENERAL MEDICAL AND SURGICAL HOSPITALS", "SOURCE": "http://www.state.in.us/isdh/reports/QAMIS/hosdir/wdirhos.htm", "SOURCEDATE": "2012-11-06T00:00:00.000Z", "VAL_METHOD": "IMAGERY", "VAL_DATE": "2014-03-12T00:00:00.000Z", "WEBSITE": "http://www.kdhhs.org", "STATE_ID": "12-055063-1", "ALT_NAME": "NOT AVAILABLE", "ST_FIPS": "18", "OWNER": "NON-PROFIT", "TTL_STAFF": -999, "BEDS": 77, "TRAUMA": "NOT AVAILABLE", "HELIPAD": "Y" }, "geometry": { "type": "Polygon", "coordinates": [ [ [ -85.474869, 38.706291 ], [ -85.486663, 38.712114 ], [ -85.498529, 38.737984 ], [ -85.442956, 38.796464 ], [ -85.383132, 38.818872 ], [ -85.382784, 38.818843 ], [ -85.341874, 38.804165 ], [ -85.29944, 38.755933 ], [ -85.2941488, 38.743548600000025 ], [ -85.370493, 38.724357500000032 ], [ -85.474869, 38.706291 ] ] ] } },
{ "type": "Feature", "properties": { "OBJECTID": 6103, "ID": "0005247112", "NAME": "HARRISON COUNTY HOSPITAL", "ADDRESS": "1141 HOSPITAL DR NW", "CITY": "CORYDON", "STATE": "IN", "ZIP": "47112", "ZIP4": "NOT AVAILABLE", "TELEPHONE": "(812) 738-4251", "TYPE": "CRITICAL ACCESS", "STATUS": "OPEN", "POPULATION": 25, "COUNTY": "HARRISON", "COUNTYFIPS": "18061", "COUNTRY": "USA", "LATITUDE": 38.237875285000001, "LONGITUDE": -86.147688988, "NAICS_CODE": "622110", "NAICS_DESC": "GENERAL MEDICAL AND SURGICAL HOSPITALS", "SOURCE": "http://www.in.gov/isdh/reports/QAMIS/hosdir", "SOURCEDATE": "2018-08-16T00:00:00.000Z", "VAL_METHOD": "IMAGERY", "VAL_DATE": "2014-01-22T00:00:00.000Z", "WEBSITE": "http://www.hchin.org", "STATE_ID": "17-004773-1", "ALT_NAME": "NOT AVAILABLE", "ST_FIPS": "18", "OWNER": "GOVERNMENT - LOCAL", "TTL_STAFF": -999, "BEDS": 25, "TRAUMA": "NOT AVAILABLE", "HELIPAD": "Y" }, "geometry": { "type": "Polygon", "coordinates": [ [ [ -86.14791, 38.139671600000014 ], [ -86.1792209, 38.169673800000055 ], [ -86.2065617, 38.2053322 ], [ -86.2266434, 38.234620199999966 ], [ -86.2158248, 38.274293200000024 ], [ -86.208909, 38.29081 ], [ -86.19671, 38.294314 ], [ -86.1858987, 38.295508700000028 ], [ -86.1532126, 38.298913300000052 ], [ -86.100181300000017, 38.303452399999983 ], [ -86.0017904, 38.271255200000013 ], [ -85.9973316, 38.2666084 ], [ -85.999564, 38.2546534 ], [ -86.0708069, 38.180061400000035 ], [ -86.14791, 38.139671600000014 ] ] ] } },
{ "type": "Feature", "properties": { "OBJECTID": 6164, "ID": "0017047630", "NAME": "WOMEN'S HOSPITAL THE", "ADDRESS": "4199 GATEWAY BLVD", "CITY": "NEWBURGH", "STATE": "IN", "ZIP": "47630", "ZIP4": "NOT AVAILABLE", "TELEPHONE": "(812) 842-4200", "TYPE": "SPECIAL", "STATUS": "OPEN", "POPULATION": 74, "COUNTY": "WARRICK", "COUNTYFIPS": "18173", "COUNTRY": "USA", "LATITUDE": 37.9737925270001, "LONGITUDE": -87.447302062999896, "NAICS_CODE": "622110", "NAICS_DESC": "GENERAL MEDICAL AND SURGICAL HOSPITALS", "SOURCE": "http://www.in.gov/isdh/reports/QAMIS/hosdir", "SOURCEDATE": "2018-08-16T00:00:00.000Z", "VAL_METHOD": "IMAGERY", "VAL_DATE": "2014-01-23T00:00:00.000Z", "WEBSITE": "http://www.deaconess.com", "STATE_ID": "17-002855-1", "ALT_NAME": "NOT AVAILABLE", "ST_FIPS": "18", "OWNER": "PROPRIETARY", "TTL_STAFF": -999, "BEDS": 74, "TRAUMA": "NOT AVAILABLE", "HELIPAD": "Y" }, "geometry": { "type": "Polygon", "coordinates": [ [ [ -87.492964, 37.927784 ], [ -87.497645, 37.928516 ], [ -87.5321545, 37.935950499999947 ], [ -87.5350704, 37.936693499999983 ], [ -87.6011887, 37.9757813 ], [ -87.604027, 37.97811610000003 ], [ -87.4753274, 38.089002 ], [ -87.3780107, 38.0389524 ], [ -87.3764228, 37.9662682 ], [ -87.3781502, 37.964461300000011 ], [ -87.3999, 37.944050100000013 ], [ -87.492964, 37.927784 ] ] ] } },
{ "type": "Feature", "properties": { "OBJECTID": 6199, "ID": "0013047274", "NAME": "SCHNECK MEDICAL CENTER", "ADDRESS": "411 W TIPTON ST", "CITY": "SEYMOUR", "STATE": "IN", "ZIP": "47274", "ZIP4": "NOT AVAILABLE", "TELEPHONE": "(812) 522-2349", "TYPE": "GENERAL ACUTE CARE", "STATUS": "OPEN", "POPULATION": 93, "COUNTY": "JACKSON", "COUNTYFIPS": "18071", "COUNTRY": "USA", "LATITUDE": 38.955740442, "LONGITUDE": -85.891833925, "NAICS_CODE": "622110", "NAICS_DESC": "GENERAL MEDICAL AND SURGICAL HOSPITALS", "SOURCE": "http://www.in.gov/isdh/reports/QAMIS/hosdir", "SOURCEDATE": "2018-08-16T00:00:00.000Z", "VAL_METHOD": "IMAGERY", "VAL_DATE": "2014-01-23T00:00:00.000Z", "WEBSITE": "http://www.schneckmed.org", "STATE_ID": "17-005060-1", "ALT_NAME": "NOT AVAILABLE", "ST_FIPS": "18", "OWNER": "GOVERNMENT - LOCAL", "TTL_STAFF": -999, "BEDS": 93, "TRAUMA": "NOT AVAILABLE", "HELIPAD": "Y" }, "geometry": { "type": "Polygon", "coordinates": [ [ [ -85.94345, 38.888761 ], [ -86.010799, 38.895831 ], [ -86.011995, 38.89803 ], [ -86.011422, 38.901354 ], [ -85.9945764, 38.97475630000001 ], [ -85.8831059, 39.056879899999942 ], [ -85.835585, 39.023403 ], [ -85.777448, 38.970777 ], [ -85.810854, 38.940613 ], [ -85.861008, 38.896052 ], [ -85.875105, 38.887419 ], [ -85.94345, 38.888761 ] ] ] } },
{ "type": "Feature", "properties": { "OBJECTID": 6201, "ID": "0013447150", "NAME": "SOUTHERN INDIANA REHABILITATION HOSPITAL", "ADDRESS": "3104 BLACKISTON BLVD", "CITY": "NEW ALBANY", "STATE": "IN", "ZIP": "47150", "ZIP4": "NOT AVAILABLE", "TELEPHONE": "(812) 941-6106", "TYPE": "REHABILITATION", "STATUS": "OPEN", "POPULATION": 60, "COUNTY": "FLOYD", "COUNTYFIPS": "18043", "COUNTRY": "USA", "LATITUDE": 38.336701324000003, "LONGITUDE": -85.794721706999994, "NAICS_CODE": "622310", "NAICS_DESC": "REHABILITATION HOSPITALS (EXCEPT ALCOHOLISM, DRUG ADDICTION)", "SOURCE": "http://www.in.gov/isdh/reports/QAMIS/hosdir", "SOURCEDATE": "2018-08-16T00:00:00.000Z", "VAL_METHOD": "IMAGERY", "VAL_DATE": "2014-02-10T00:00:00.000Z", "WEBSITE": "http://www.sirh.org", "STATE_ID": "17-006205-1", "ALT_NAME": "NOT AVAILABLE", "ST_FIPS": "18", "OWNER": "NON-PROFIT", "TTL_STAFF": -999, "BEDS": 60, "TRAUMA": "NOT AVAILABLE", "HELIPAD": "N" }, "geometry": { "type": "Polygon", "coordinates": [ [ [ -85.8381134, 38.2740835 ], [ -85.8384778, 38.274164300000031 ], [ -85.9075034, 38.291359800000031 ], [ -85.898771, 38.314297 ], [ -85.8116163, 38.3993975 ], [ -85.808219, 38.400707 ], [ -85.763145, 38.396511 ], [ -85.760216, 38.395256 ], [ -85.748039, 38.380814 ], [ -85.741104, 38.363987 ], [ -85.754238300000011, 38.3454247 ], [ -85.797009, 38.289605 ], [ -85.802816, 38.28642 ], [ -85.832431, 38.274945 ], [ -85.834328, 38.274391 ], [ -85.8381134, 38.2740835 ] ] ] } },
{ "type": "Feature", "properties": { "OBJECTID": 6309, "ID": "0017362557", "NAME": "PANA COMMUNITY HOSPITAL", "ADDRESS": "101 E NINTH STREET", "CITY": "PANA", "STATE": "IL", "ZIP": "62557", "ZIP4": "NOT AVAILABLE", "TELEPHONE": "(217) 562-2131", "TYPE": "CRITICAL ACCESS", "STATUS": "OPEN", "POPULATION": 22, "COUNTY": "CHRISTIAN", "COUNTYFIPS": "17021", "COUNTRY": "USA", "LATITUDE": 39.379701237000099, "LONGITUDE": -89.084404234000004, "NAICS_CODE": "622110", "NAICS_DESC": "GENERAL MEDICAL AND SURGICAL HOSPITALS", "SOURCE": "https://data.illinois.gov/", "SOURCEDATE": "2018-08-09T00:00:00.000Z", "VAL_METHOD": "IMAGERY", "VAL_DATE": "2014-03-12T00:00:00.000Z", "WEBSITE": "http://www.panahospital.com", "STATE_ID": "141341", "ALT_NAME": "NOT AVAILABLE", "ST_FIPS": "17", "OWNER": "NON-PROFIT", "TTL_STAFF": -999, "BEDS": 22, "TRAUMA": "NOT AVAILABLE", "HELIPAD": "Y" }, "geometry": { "type": "Polygon", "coordinates": [ [ [ -89.100019399999979, 39.290230499999957 ], [ -89.1396362, 39.3628551 ], [ -89.1577063, 39.399805300000025 ], [ -89.1410862, 39.436278399999964 ], [ -89.099990359736211, 39.436377943738222 ], [ -89.044372317920988, 39.435183266907011 ], [ -88.991146545856708, 39.390291498148926 ], [ -89.030097328268909, 39.34594329147609 ], [ -89.060342969178521, 39.314294861373661 ], [ -89.100019399999979, 39.290230499999957 ] ] ] } },
{ "type": "Feature", "properties": { "OBJECTID": 6409, "ID": "0011640536", "NAME": "UNIVERSITY OF KY HOSPITAL", "ADDRESS": "800 ROSE STREET", "CITY": "LEXINGTON", "STATE": "KY", "ZIP": "40536", "ZIP4": "NOT AVAILABLE", "TELEPHONE": "(859) 232-5445", "TYPE": "GENERAL ACUTE CARE", "STATUS": "OPEN", "POPULATION": 604, "COUNTY": "FAYETTE", "COUNTYFIPS": "21067", "COUNTRY": "USA", "LATITUDE": 38.030964611999998, "LONGITUDE": -84.507442990999905, "NAICS_CODE": "622110", "NAICS_DESC": "GENERAL MEDICAL AND SURGICAL HOSPITALS", "SOURCE": "https://chfs.ky.gov/agencies/os/oig/dhc/Documents/Directories/Hospital_Directory.pdf", "SOURCEDATE": "2018-08-11T00:00:00.000Z", "VAL_METHOD": "IMAGERY", "VAL_DATE": "2014-03-12T00:00:00.000Z", "WEBSITE": "http://www.ukhealthcare.uky.edu", "STATE_ID": "100121", "ALT_NAME": "ALBERT B. CHANDLER MEDICAL CENTER", "ST_FIPS": "21", "OWNER": "GOVERNMENT - STATE", "TTL_STAFF": -999, "BEDS": 604, "TRAUMA": "LEVEL I, LEVEL I PEDIATRIC", "HELIPAD": "Y" }, "geometry": { "type": "Polygon", "coordinates": [ [ [ -84.5174882, 37.956360400000015 ], [ -84.5197635, 37.956641299999987 ], [ -84.5724338, 37.9741142 ], [ -84.604675, 37.989523 ], [ -84.615391, 38.042724 ], [ -84.6142219, 38.045191599999953 ], [ -84.520567, 38.114839 ], [ -84.4263297, 38.094310800000038 ], [ -84.4117929, 38.040174799999974 ], [ -84.408036, 38.01754 ], [ -84.426387, 37.98345 ], [ -84.4873412, 37.95463 ], [ -84.5174882, 37.956360400000015 ] ] ] } },
{ "type": "Feature", "properties": { "OBJECTID": 6719, "ID": "0013347713", "NAME": "SELECT SPECIALTY HOSPITAL-EVANSVILLE", "ADDRESS": "400 SE 4TH ST", "CITY": "EVANSVILLE", "STATE": "IN", "ZIP": "47713", "ZIP4": "NOT AVAILABLE", "TELEPHONE": "(812) 421-2330", "TYPE": "LONG TERM CARE", "STATUS": "OPEN", "POPULATION": 60, "COUNTY": "VANDERBURGH", "COUNTYFIPS": "18163", "COUNTRY": "USA", "LATITUDE": 37.967988800999997, "LONGITUDE": -87.567291171999997, "NAICS_CODE": "622110", "NAICS_DESC": "GENERAL MEDICAL AND SURGICAL HOSPITALS", "SOURCE": "http://www.in.gov/isdh/reports/QAMIS/hosdir", "SOURCEDATE": "2018-08-16T00:00:00.000Z", "VAL_METHOD": "IMAGERY", "VAL_DATE": "2014-02-10T00:00:00.000Z", "WEBSITE": "http://www.selectspecialtyhospitals.com/company/locations/evansvill e.aspx", "STATE_ID": "12-009443-1", "ALT_NAME": "NOT AVAILABLE", "ST_FIPS": "18", "OWNER": "PROPRIETARY", "TTL_STAFF": -999, "BEDS": 60, "TRAUMA": "NOT AVAILABLE", "HELIPAD": "Y" }, "geometry": { "type": "Polygon", "coordinates": [ [ [ -87.512069, 37.906859 ], [ -87.6298, 37.929125 ], [ -87.6803948, 37.966380899999983 ], [ -87.667956, 37.997757 ], [ -87.653671, 38.029123 ], [ -87.582748, 38.051024 ], [ -87.574578, 38.052601 ], [ -87.541383, 38.04668 ], [ -87.473809, 38.006354 ], [ -87.463826800000021, 37.997456 ], [ -87.4394534, 37.953537499999968 ], [ -87.479669, 37.925748 ], [ -87.5065728, 37.90783889999998 ], [ -87.512069, 37.906859 ] ] ] } },
{ "type": "Feature", "properties": { "OBJECTID": 6720, "ID": "0015747802", "NAME": "TERRE HAUTE REGIONAL HOSPITAL", "ADDRESS": "3901 S SEVENTH ST", "CITY": "TERRE HAUTE", "STATE": "IN", "ZIP": "47802", "ZIP4": "NOT AVAILABLE", "TELEPHONE": "(812) 232-0021", "TYPE": "GENERAL ACUTE CARE", "STATUS": "OPEN", "POPULATION": 278, "COUNTY": "VIGO", "COUNTYFIPS": "18167", "COUNTRY": "USA", "LATITUDE": 39.419396156000097, "LONGITUDE": -87.409046743000005, "NAICS_CODE": "622110", "NAICS_DESC": "GENERAL MEDICAL AND SURGICAL HOSPITALS", "SOURCE": "http://www.in.gov/isdh/reports/QAMIS/hosdir", "SOURCEDATE": "2018-08-16T00:00:00.000Z", "VAL_METHOD": "IMAGERY", "VAL_DATE": "2014-01-24T00:00:00.000Z", "WEBSITE": "http://www.regionalhospital.com", "STATE_ID": "17-005042-1", "ALT_NAME": "NOT AVAILABLE", "ST_FIPS": "18", "OWNER": "PROPRIETARY", "TTL_STAFF": -999, "BEDS": 278, "TRAUMA": "LEVEL II", "HELIPAD": "Y" }, "geometry": { "type": "Polygon", "coordinates": [ [ [ -87.3883924, 39.313780199999975 ], [ -87.476621, 39.368637 ], [ -87.477421, 39.370437 ], [ -87.4929096, 39.4226137 ], [ -87.4978987, 39.448191800000018 ], [ -87.4351432, 39.5138227 ], [ -87.4348302, 39.513841500000012 ], [ -87.3876261, 39.505867100000025 ], [ -87.3327168, 39.474142399999948 ], [ -87.295674, 39.434425 ], [ -87.2952388, 39.4337423 ], [ -87.3501187, 39.3469208 ], [ -87.3881206, 39.313779900000014 ], [ -87.3883924, 39.313780199999975 ] ] ] } },
{ "type": "Feature", "properties": { "OBJECTID": 6721, "ID": "0016147804", "NAME": "UNION HOSPITAL INC", "ADDRESS": "1606 N SEVENTH ST", "CITY": "TERRE HAUTE", "STATE": "IN", "ZIP": "47804", "ZIP4": "NOT AVAILABLE", "TELEPHONE": "(812) 238-7606", "TYPE": "GENERAL ACUTE CARE", "STATUS": "OPEN", "POPULATION": 211, "COUNTY": "VIGO", "COUNTYFIPS": "18167", "COUNTRY": "USA", "LATITUDE": 39.485864575999997, "LONGITUDE": -87.406975607999996, "NAICS_CODE": "622110", "NAICS_DESC": "GENERAL MEDICAL AND SURGICAL HOSPITALS", "SOURCE": "http://www.in.gov/isdh/reports/QAMIS/hosdir", "SOURCEDATE": "2018-08-16T00:00:00.000Z", "VAL_METHOD": "IMAGERY/OTHER", "VAL_DATE": "2014-03-12T00:00:00.000Z", "WEBSITE": "http://www.uhhg.org", "STATE_ID": "17-005022-1", "ALT_NAME": "NOT AVAILABLE", "ST_FIPS": "18", "OWNER": "NON-PROFIT", "TTL_STAFF": -999, "BEDS": 211, "TRAUMA": "LEVEL III", "HELIPAD": "Y" }, "geometry": { "type": "Polygon", "coordinates": [ [ [ -87.4003887, 39.3984607 ], [ -87.451066, 39.403086100000017 ], [ -87.487464, 39.452632199999982 ], [ -87.4876414, 39.454086 ], [ -87.480107, 39.5203061 ], [ -87.4592013, 39.577295899999982 ], [ -87.4587792, 39.578266299999989 ], [ -87.437530800000019, 39.6004747 ], [ -87.4372989, 39.6004708 ], [ -87.3704844, 39.587057200000032 ], [ -87.3584822, 39.57163030000001 ], [ -87.314182, 39.483085 ], [ -87.332769, 39.458443900000042 ], [ -87.3814971, 39.408104900000026 ], [ -87.4001796, 39.398554500000024 ], [ -87.4003887, 39.3984607 ] ] ] } },
{ "type": "Feature", "properties": { "OBJECTID": 6727, "ID": "0015847630", "NAME": "THE HEART HOSPITAL AT DEACONESS GATEWAY LLC", "ADDRESS": "4007 GATEWAY BLVD", "CITY": "NEWBURGH", "STATE": "IN", "ZIP": "47630", "ZIP4": "NOT AVAILABLE", "TELEPHONE": "(812) 842-4784", "TYPE": "GENERAL ACUTE CARE", "STATUS": "OPEN", "POPULATION": 24, "COUNTY": "WARRICK", "COUNTYFIPS": "18173", "COUNTRY": "USA", "LATITUDE": 37.974883165000101, "LONGITUDE": -87.445107776, "NAICS_CODE": "622110", "NAICS_DESC": "GENERAL MEDICAL AND SURGICAL HOSPITALS", "SOURCE": "http://www.in.gov/isdh/reports/QAMIS/hosdir", "SOURCEDATE": "2018-08-16T00:00:00.000Z", "VAL_METHOD": "IMAGERY", "VAL_DATE": "2014-01-23T00:00:00.000Z", "WEBSITE": "http://www.deaconess.com/", "STATE_ID": "17-011772-1", "ALT_NAME": "NOT AVAILABLE", "ST_FIPS": "18", "OWNER": "PROPRIETARY", "TTL_STAFF": -999, "BEDS": 24, "TRAUMA": "NOT AVAILABLE", "HELIPAD": "Y" }, "geometry": { "type": "Polygon", "coordinates": [ [ [ -87.492964, 37.927784 ], [ -87.497645, 37.928516 ], [ -87.5321545, 37.935950499999947 ], [ -87.5350704, 37.936693499999983 ], [ -87.6011887, 37.9757813 ], [ -87.604027, 37.97811610000003 ], [ -87.4753274, 38.089002 ], [ -87.3780107, 38.0389524 ], [ -87.3764228, 37.9662682 ], [ -87.3781502, 37.964461300000011 ], [ -87.3999, 37.944050100000013 ], [ -87.492964, 37.927784 ] ] ] } },
{ "type": "Feature", "properties": { "OBJECTID": 6742, "ID": "0014347421", "NAME": "ST VINCENT DUNN HOSPITAL INC", "ADDRESS": "1600 23RD ST", "CITY": "BEDFORD", "STATE": "IN", "ZIP": "47421", "ZIP4": "NOT AVAILABLE", "TELEPHONE": "(812) 275-3331", "TYPE": "CRITICAL ACCESS", "STATUS": "OPEN", "POPULATION": 25, "COUNTY": "LAWRENCE", "COUNTYFIPS": "18093", "COUNTRY": "USA", "LATITUDE": 38.852872580000103, "LONGITUDE": -86.493958171000003, "NAICS_CODE": "622110", "NAICS_DESC": "GENERAL MEDICAL AND SURGICAL HOSPITALS", "SOURCE": "http://www.in.gov/isdh/reports/QAMIS/hosdir", "SOURCEDATE": "2018-08-16T00:00:00.000Z", "VAL_METHOD": "IMAGERY", "VAL_DATE": "2014-02-10T00:00:00.000Z", "WEBSITE": "http://www.stvincent.org/St-Vincent-Dunn/Default.aspx", "STATE_ID": "17-004779-1", "ALT_NAME": "NOT AVAILABLE", "ST_FIPS": "18", "OWNER": "NON-PROFIT", "TTL_STAFF": -999, "BEDS": 25, "TRAUMA": "NOT AVAILABLE", "HELIPAD": "N" }, "geometry": { "type": "Polygon", "coordinates": [ [ [ -86.4955542, 38.753319700000013 ], [ -86.5504359, 38.781517900000026 ], [ -86.5805471, 38.865259 ], [ -86.5799852, 38.867838099999986 ], [ -86.5579057, 38.919468800000018 ], [ -86.5467082, 38.9295112 ], [ -86.546372, 38.9295066 ], [ -86.4702118, 38.911756900000022 ], [ -86.3943634, 38.8754363 ], [ -86.4349945, 38.818763400000023 ], [ -86.4955542, 38.753319700000013 ] ] ] } },
{ "type": "Feature", "properties": { "OBJECTID": 4018, "ID": "0175740511", "NAME": "LEXINGTON VA MEDICAL CENTER - LEESTOWN", "ADDRESS": "2250 LEESTOWN ROAD LEXINGTON", "CITY": "LEXINGTON", "STATE": "KY", "ZIP": "40511", "ZIP4": "NOT AVAILABLE", "TELEPHONE": "(859) 233-4511", "TYPE": "MILITARY", "STATUS": "OPEN", "POPULATION": -999, "COUNTY": "FAYETTE", "COUNTYFIPS": "21067", "COUNTRY": "USA", "LATITUDE": 38.073859, "LONGITUDE": -84.538381, "NAICS_CODE": "622110", "NAICS_DESC": "GENERAL MEDICAL AND SURGICAL HOSPITALS", "SOURCE": "https://www.va.gov/directory/guide/allstate.asp", "SOURCEDATE": "2018-09-26T00:00:00.000Z", "VAL_METHOD": "IMAGERY", "VAL_DATE": "2019-05-10T00:00:00.000Z", "WEBSITE": "https://www.lexington.va.gov/", "STATE_ID": "NOT AVAILABLE", "ALT_NAME": "NOT AVAILABLE", "ST_FIPS": "21", "OWNER": "GOVERNMENT - FEDERAL", "TTL_STAFF": -999, "BEDS": -999, "TRAUMA": "NOT AVAILABLE", "HELIPAD": "N" }, "geometry": { "type": "Polygon", "coordinates": [ [ [ -84.566084, 37.984828 ], [ -84.590355, 37.988393 ], [ -84.593947200000017, 37.991124199999987 ], [ -84.647724, 38.042786 ], [ -84.623378, 38.130267 ], [ -84.5460425, 38.1553049 ], [ -84.434025, 38.128298 ], [ -84.433784, 38.128205800000025 ], [ -84.4202561, 38.09836360000002 ], [ -84.418413, 38.040963 ], [ -84.420582, 38.0375 ], [ -84.440875, 38.024527 ], [ -84.459658, 38.013609 ], [ -84.521551, 37.984615 ], [ -84.5273065, 37.9819896 ], [ -84.566084, 37.984828 ] ] ] } },
{ "type": "Feature", "properties": { "OBJECTID": 4035, "ID": "0102640475", "NAME": "BAPTIST HEALTH RICHMOND", "ADDRESS": "801 EASTERN BYPASS", "CITY": "RICHMOND", "STATE": "KY", "ZIP": "40475", "ZIP4": "NOT AVAILABLE", "TELEPHONE": "(859) 623-3131", "TYPE": "GENERAL ACUTE CARE", "STATUS": "OPEN", "POPULATION": 105, "COUNTY": "MADISON", "COUNTYFIPS": "21151", "COUNTRY": "USA", "LATITUDE": 37.730923012000098, "LONGITUDE": -84.292369279999903, "NAICS_CODE": "622110", "NAICS_DESC": "GENERAL MEDICAL AND SURGICAL HOSPITALS", "SOURCE": "https://chfs.ky.gov/agencies/os/oig/dhc/Documents/Directories/Hospital_Directory.pdf", "SOURCEDATE": "2018-08-11T00:00:00.000Z", "VAL_METHOD": "IMAGERY/OTHER", "VAL_DATE": "2015-05-12T00:00:00.000Z", "WEBSITE": "NOT AVAILABLE", "STATE_ID": "NOT AVAILABLE", "ALT_NAME": "NOT AVAILABLE", "ST_FIPS": "21", "OWNER": "PROPRIETARY", "TTL_STAFF": -999, "BEDS": 105, "TRAUMA": "NOT AVAILABLE", "HELIPAD": "Y" }, "geometry": { "type": "Polygon", "coordinates": [ [ [ -84.317452, 37.650178 ], [ -84.359735, 37.674161 ], [ -84.396752, 37.710358 ], [ -84.395804, 37.717098699999973 ], [ -84.3859, 37.742531 ], [ -84.3654853, 37.792948400000014 ], [ -84.331763, 37.849049 ], [ -84.3158842, 37.851217499999976 ], [ -84.163787, 37.739715 ], [ -84.263337, 37.665928 ], [ -84.266244, 37.664186 ], [ -84.317452, 37.650178 ] ] ] } },
{ "type": "Feature", "properties": { "OBJECTID": 4096, "ID": "0016647130", "NAME": "WELLSTONE REGIONAL HOSPITAL", "ADDRESS": "2700 VISSING PARK RD", "CITY": "JEFFERSONVILLE", "STATE": "IN", "ZIP": "47130", "ZIP4": "NOT AVAILABLE", "TELEPHONE": "(812) 284-8000", "TYPE": "PSYCHIATRIC", "STATUS": "OPEN", "POPULATION": 100, "COUNTY": "CLARK", "COUNTYFIPS": "18019", "COUNTRY": "USA", "LATITUDE": 38.326907294000101, "LONGITUDE": -85.709325225000001, "NAICS_CODE": "622210", "NAICS_DESC": "PSYCHIATRIC AND SUBSTANCE ABUSE HOSPITALS", "SOURCE": "http://www.in.gov/isdh/reports/QAMIS/hosdir", "SOURCEDATE": "2018-08-16T00:00:00.000Z", "VAL_METHOD": "IMAGERY", "VAL_DATE": "2014-02-10T00:00:00.000Z", "WEBSITE": "http://www.wellstonehospital.com", "STATE_ID": "NOT AVAILABLE", "ALT_NAME": "NOT AVAILABLE", "ST_FIPS": "18", "OWNER": "PROPRIETARY", "TTL_STAFF": -999, "BEDS": 100, "TRAUMA": "NOT AVAILABLE", "HELIPAD": "N" }, "geometry": { "type": "Polygon", "coordinates": [ [ [ -85.75223, 38.249011 ], [ -85.7609494, 38.258812099999972 ], [ -85.789379, 38.301011 ], [ -85.786204, 38.327402 ], [ -85.779053, 38.379581 ], [ -85.777, 38.38842 ], [ -85.761543, 38.403809 ], [ -85.760117, 38.404758 ], [ -85.663193, 38.433071 ], [ -85.662621, 38.432873 ], [ -85.662468, 38.432819 ], [ -85.6468045, 38.3588831 ], [ -85.648872, 38.338963 ], [ -85.652107, 38.331661 ], [ -85.652412, 38.33099 ], [ -85.653694, 38.329182 ], [ -85.672157, 38.307655 ], [ -85.680565, 38.29837 ], [ -85.7248371, 38.259862 ], [ -85.75223, 38.249011 ] ] ] } },
{ "type": "Feature", "properties": { "OBJECTID": 4320, "ID": "0017662439", "NAME": "LAWRENCE COUNTY MEMORIAL HOSPITAL", "ADDRESS": "2200 W STATE ST", "CITY": "LAWRENCEVILLE", "STATE": "IL", "ZIP": "62439", "ZIP4": "NOT AVAILABLE", "TELEPHONE": "(618) 943-1000", "TYPE": "CRITICAL ACCESS", "STATUS": "OPEN", "POPULATION": 25, "COUNTY": "LAWRENCE", "COUNTYFIPS": "17101", "COUNTRY": "USA", "LATITUDE": 38.728615177999998, "LONGITUDE": -87.693873249000006, "NAICS_CODE": "622110", "NAICS_DESC": "GENERAL MEDICAL AND SURGICAL HOSPITALS", "SOURCE": "https://data.illinois.gov/", "SOURCEDATE": "2018-08-09T00:00:00.000Z", "VAL_METHOD": "IMAGERY", "VAL_DATE": "2014-03-12T00:00:00.000Z", "WEBSITE": "http://www.lcmhosp.org", "STATE_ID": "141344", "ALT_NAME": "NOT AVAILABLE", "ST_FIPS": "17", "OWNER": "NON-PROFIT", "TTL_STAFF": -999, "BEDS": 25, "TRAUMA": "NOT AVAILABLE", "HELIPAD": "Y" }, "geometry": { "type": "Polygon", "coordinates": [ [ [ -87.694298, 38.64357 ], [ -87.856537, 38.731775 ], [ -87.684557, 38.822282 ], [ -87.5545568, 38.713537700000025 ], [ -87.5538211, 38.712723899999943 ], [ -87.555867, 38.706273 ], [ -87.694298, 38.64357 ] ] ] } },
{ "type": "Feature", "properties": { "OBJECTID": 4371, "ID": "0012440232", "NAME": "NORTON HEALTHCARE PAVILION", "ADDRESS": "315 EAST BROADWAY", "CITY": "LOUISVILLE", "STATE": "KY", "ZIP": "40232", "ZIP4": "NOT AVAILABLE", "TELEPHONE": "(502) 629-2000", "TYPE": "GENERAL ACUTE CARE", "STATUS": "OPEN", "POPULATION": 264, "COUNTY": "JEFFERSON", "COUNTYFIPS": "21111", "COUNTRY": "USA", "LATITUDE": 38.2460051750001, "LONGITUDE": -85.748718538999995, "NAICS_CODE": "622110", "NAICS_DESC": "GENERAL MEDICAL AND SURGICAL HOSPITALS", "SOURCE": "https://chfs.ky.gov/agencies/os/oig/dhc/Documents/Directories/Hospital_Directory.pdf", "SOURCEDATE": "2018-08-11T00:00:00.000Z", "VAL_METHOD": "IMAGERY/OTHER", "VAL_DATE": "2017-12-13T00:00:00.000Z", "WEBSITE": "http://www.nortonhealthcare.com/Pavilion", "STATE_ID": "NOT AVAILABLE", "ALT_NAME": "NOT AVAILABLE", "ST_FIPS": "21", "OWNER": "NON-PROFIT", "TTL_STAFF": -999, "BEDS": 264, "TRAUMA": "NOT AVAILABLE", "HELIPAD": "N" }, "geometry": { "type": "Polygon", "coordinates": [ [ [ -85.7034784, 38.1307332 ], [ -85.817687, 38.181034 ], [ -85.828624, 38.205964 ], [ -85.82993, 38.210158 ], [ -85.832464, 38.245216 ], [ -85.832365, 38.248701 ], [ -85.8323286, 38.249635599999976 ], [ -85.830927, 38.258951 ], [ -85.826288, 38.267497 ], [ -85.755, 38.370324800000013 ], [ -85.7546022, 38.370320100000015 ], [ -85.656595, 38.307229 ], [ -85.6421859, 38.290503800000025 ], [ -85.6340652, 38.280887900000039 ], [ -85.6223892, 38.23730089999998 ], [ -85.7034784, 38.1307332 ] ] ] } },
{ "type": "Feature", "properties": { "OBJECTID": 4993, "ID": "0006540359", "NAME": "ST. ELIZABETH OWEN", "ADDRESS": "330 ROLAND AVE.", "CITY": "OWENTON", "STATE": "KY", "ZIP": "40359", "ZIP4": "NOT AVAILABLE", "TELEPHONE": "(502) 484-3663", "TYPE": "CRITICAL ACCESS", "STATUS": "OPEN", "POPULATION": 25, "COUNTY": "OWEN", "COUNTYFIPS": "21187", "COUNTRY": "USA", "LATITUDE": 38.542398757999997, "LONGITUDE": -84.841139431000002, "NAICS_CODE": "622110", "NAICS_DESC": "GENERAL MEDICAL AND SURGICAL HOSPITALS", "SOURCE": "https://chfs.ky.gov/agencies/os/oig/dhc/Documents/Directories/Hospital_Directory.pdf", "SOURCEDATE": "2018-08-11T00:00:00.000Z", "VAL_METHOD": "IMAGERY", "VAL_DATE": "2014-02-10T00:00:00.000Z", "WEBSITE": "http://www.stelizabeth.com/", "STATE_ID": "600063", "ALT_NAME": "NEW HORIZONS MEDICAL CENTER", "ST_FIPS": "21", "OWNER": "NON-PROFIT", "TTL_STAFF": -999, "BEDS": 25, "TRAUMA": "NOT AVAILABLE", "HELIPAD": "Y" }, "geometry": { "type": "Polygon", "coordinates": [ [ [ -84.8584373, 38.45715630000003 ], [ -84.864717, 38.457987 ], [ -84.9151093, 38.500818 ], [ -84.9227078, 38.5368865 ], [ -84.9085387, 38.572401499999977 ], [ -84.851745, 38.615620700000029 ], [ -84.7860873, 38.6128542 ], [ -84.747162, 38.5555392 ], [ -84.763722, 38.4984 ], [ -84.7892987, 38.477465799999983 ], [ -84.8584373, 38.45715630000003 ] ] ] } },
{ "type": "Feature", "properties": { "OBJECTID": 216, "ID": "0012142728", "NAME": "T J HEALTH COLUMBIA", "ADDRESS": "901 WESTLAKE DRIVE", "CITY": "COLUMBIA", "STATE": "KY", "ZIP": "42728", "ZIP4": "NOT AVAILABLE", "TELEPHONE": "(270) 384-4753", "TYPE": "GENERAL ACUTE CARE", "STATUS": "OPEN", "POPULATION": 77, "COUNTY": "ADAIR", "COUNTYFIPS": "21001", "COUNTRY": "USA", "LATITUDE": 37.096641573000099, "LONGITUDE": -85.29454565, "NAICS_CODE": "622110", "NAICS_DESC": "GENERAL MEDICAL AND SURGICAL HOSPITALS", "SOURCE": "https://chfs.ky.gov/agencies/os/oig/dhc/Documents/Directories/Hospital_Directory.pdf", "SOURCEDATE": "2018-08-11T00:00:00.000Z", "VAL_METHOD": "IMAGERY", "VAL_DATE": "2014-02-10T00:00:00.000Z", "WEBSITE": "http://www.westlakeregionalhospital.com", "STATE_ID": "100001", "ALT_NAME": "NOT AVAILABLE", "ST_FIPS": "21", "OWNER": "NON-PROFIT", "TTL_STAFF": -999, "BEDS": 77, "TRAUMA": "NOT AVAILABLE", "HELIPAD": "Y" }, "geometry": { "type": "Polygon", "coordinates": [ [ [ -85.309619, 37.016915 ], [ -85.371653, 37.035191 ], [ -85.375269, 37.036648 ], [ -85.409522, 37.072578 ], [ -85.387165, 37.114614 ], [ -85.327087, 37.188827 ], [ -85.321757, 37.18774160000001 ], [ -85.266661, 37.16587 ], [ -85.215237, 37.143083 ], [ -85.190935, 37.08366 ], [ -85.205459, 37.065353 ], [ -85.256956, 37.03331 ], [ -85.309619, 37.016915 ] ] ] } },
{ "type": "Feature", "properties": { "OBJECTID": 217, "ID": "0001042539", "NAME": "CASEY COUNTY HOSPITAL", "ADDRESS": "187 WOLFORD AVENUE", "CITY": "LIBERTY", "STATE": "KY", "ZIP": "42539", "ZIP4": "NOT AVAILABLE", "TELEPHONE": "(606) 787-6275", "TYPE": "CRITICAL ACCESS", "STATUS": "OPEN", "POPULATION": 15, "COUNTY": "CASEY", "COUNTYFIPS": "21045", "COUNTRY": "USA", "LATITUDE": 37.3177168120001, "LONGITUDE": -84.933171912999995, "NAICS_CODE": "622110", "NAICS_DESC": "GENERAL MEDICAL AND SURGICAL HOSPITALS", "SOURCE": "https://chfs.ky.gov/agencies/os/oig/dhc/Documents/Directories/Hospital_Directory.pdf", "SOURCEDATE": "2018-08-11T00:00:00.000Z", "VAL_METHOD": "IMAGERY", "VAL_DATE": "2014-02-10T00:00:00.000Z", "WEBSITE": "NOT AVAILABLE", "STATE_ID": "600060", "ALT_NAME": "NOT AVAILABLE", "ST_FIPS": "21", "OWNER": "GOVERNMENT - LOCAL", "TTL_STAFF": -999, "BEDS": 15, "TRAUMA": "NOT AVAILABLE", "HELIPAD": "Y" }, "geometry": { "type": "Polygon", "coordinates": [ [ [ -84.963561, 37.216799 ], [ -85.031559, 37.273986 ], [ -85.024504, 37.290506 ], [ -85.004869, 37.327528 ], [ -84.974769, 37.380258 ], [ -84.865142, 37.391893 ], [ -84.84321, 37.362698 ], [ -84.844968, 37.346204 ], [ -84.846613, 37.341248 ], [ -84.861554, 37.303365 ], [ -84.9560619, 37.221882699999988 ], [ -84.961682, 37.217544 ], [ -84.963561, 37.216799 ] ] ] } },
{ "type": "Feature", "properties": { "OBJECTID": 218, "ID": "0005240336", "NAME": "MARCUM AND WALLACE MEMORIAL HOSPITAL", "ADDRESS": "60 MERCY COURT", "CITY": "IRVINE", "STATE": "KY", "ZIP": "40336", "ZIP4": "NOT AVAILABLE", "TELEPHONE": "(606) 723-2115", "TYPE": "CRITICAL ACCESS", "STATUS": "OPEN", "POPULATION": 25, "COUNTY": "ESTILL", "COUNTYFIPS": "21065", "COUNTRY": "USA", "LATITUDE": 37.706197098000104, "LONGITUDE": -83.977277144, "NAICS_CODE": "622110", "NAICS_DESC": "GENERAL MEDICAL AND SURGICAL HOSPITALS", "SOURCE": "https://chfs.ky.gov/agencies/os/oig/dhc/Documents/Directories/Hospital_Directory.pdf", "SOURCEDATE": "2018-08-11T00:00:00.000Z", "VAL_METHOD": "IMAGERY", "VAL_DATE": "2014-02-10T00:00:00.000Z", "WEBSITE": "http://www.marcumandwallace.org", "STATE_ID": "600052", "ALT_NAME": "NOT AVAILABLE", "ST_FIPS": "21", "OWNER": "NON-PROFIT", "TTL_STAFF": -999, "BEDS": 25, "TRAUMA": "LEVEL IV", "HELIPAD": "Y" }, "geometry": { "type": "Polygon", "coordinates": [ [ [ -83.989553733261928, 37.642925145747775 ], [ -84.035792819986739, 37.652477130845668 ], [ -84.058505869396129, 37.670191138158145 ], [ -84.085331935888263, 37.711951157948178 ], [ -84.019324, 37.784092 ], [ -84.005316, 37.788201 ], [ -83.9429362715819, 37.75963431051769 ], [ -83.936142547642874, 37.752476902298817 ], [ -83.885258517245802, 37.670025363053668 ], [ -83.922786596866459, 37.658528286330366 ], [ -83.987832729877539, 37.643308149398557 ], [ -83.989553733261928, 37.642925145747775 ] ] ] } },
{ "type": "Feature", "properties": { "OBJECTID": 220, "ID": "0007140207", "NAME": "NORTON WOMEN'S AND KOSAIR CHILDREN'S HOSPITAL", "ADDRESS": "4001 DUTCHMANS LANE", "CITY": "LOUISVILLE", "STATE": "KY", "ZIP": "40207", "ZIP4": "NOT AVAILABLE", "TELEPHONE": "(502) 893-1102", "TYPE": "WOMEN", "STATUS": "OPEN", "POPULATION": 373, "COUNTY": "JEFFERSON", "COUNTYFIPS": "21111", "COUNTRY": "USA", "LATITUDE": 38.235330085999998, "LONGITUDE": -85.632936927999907, "NAICS_CODE": "622110", "NAICS_DESC": "GENERAL MEDICAL AND SURGICAL HOSPITALS", "SOURCE": "https://chfs.ky.gov/agencies/os/oig/dhc/Documents/Directories/Hospital_Directory.pdf", "SOURCEDATE": "2018-08-11T00:00:00.000Z", "VAL_METHOD": "IMAGERY/OTHER", "VAL_DATE": "2014-02-10T00:00:00.000Z", "WEBSITE": "https://nortonhealthcare.com/pages/nwkch.aspx", "STATE_ID": "100255", "ALT_NAME": "NORTON SUBURBAN HOSPITAL", "ST_FIPS": "21", "OWNER": "NON-PROFIT", "TTL_STAFF": -999, "BEDS": 373, "TRAUMA": "NOT AVAILABLE", "HELIPAD": "N" }, "geometry": { "type": "Polygon", "coordinates": [ [ [ -85.6599723, 38.159976200000024 ], [ -85.7200733, 38.174285899999987 ], [ -85.760137, 38.190231 ], [ -85.7502715, 38.2590962 ], [ -85.628237, 38.325087 ], [ -85.621736, 38.327463 ], [ -85.58061, 38.315348 ], [ -85.5480395, 38.297587399999976 ], [ -85.493526, 38.240535 ], [ -85.506084, 38.189459 ], [ -85.508521, 38.183673 ], [ -85.595977, 38.162952 ], [ -85.6599723, 38.159976200000024 ] ] ] } },
{ "type": "Feature", "properties": { "OBJECTID": 221, "ID": "0009440215", "NAME": "SAINTS MARY & ELIZABETH HOSPITAL", "ADDRESS": "1850 BLUEGRASS AVENUE", "CITY": "LOUISVILLE", "STATE": "KY", "ZIP": "40215", "ZIP4": "NOT AVAILABLE", "TELEPHONE": "(502) 361-6000", "TYPE": "GENERAL ACUTE CARE", "STATUS": "OPEN", "POPULATION": 298, "COUNTY": "JEFFERSON", "COUNTYFIPS": "21111", "COUNTRY": "USA", "LATITUDE": 38.178264384000002, "LONGITUDE": -85.793916413999995, "NAICS_CODE": "622110", "NAICS_DESC": "GENERAL MEDICAL AND SURGICAL HOSPITALS", "SOURCE": "https://chfs.ky.gov/agencies/os/oig/dhc/Documents/Directories/Hospital_Directory.pdf", "SOURCEDATE": "2018-08-11T00:00:00.000Z", "VAL_METHOD": "IMAGERY", "VAL_DATE": "2014-02-10T00:00:00.000Z", "WEBSITE": "http://www.kentuckyonehealth.org/body.cfm?id=3288&fr=true", "STATE_ID": "100254", "ALT_NAME": "NOT AVAILABLE", "ST_FIPS": "21", "OWNER": "NON-PROFIT", "TTL_STAFF": -999, "BEDS": 331, "TRAUMA": "NOT AVAILABLE", "HELIPAD": "N" }, "geometry": { "type": "Polygon", "coordinates": [ [ [ -85.8187428, 38.103373399999974 ], [ -85.85734, 38.119289 ], [ -85.858689, 38.121306 ], [ -85.8740822, 38.1448017 ], [ -85.8786022, 38.1654306 ], [ -85.874719, 38.192929 ], [ -85.862129, 38.208388 ], [ -85.82307, 38.241531 ], [ -85.818451, 38.24394 ], [ -85.78582, 38.253151 ], [ -85.76482, 38.257563 ], [ -85.667454, 38.213035 ], [ -85.675743, 38.192416 ], [ -85.708337, 38.139333 ], [ -85.757362, 38.103756 ], [ -85.8187428, 38.103373399999974 ] ] ] } },
{ "type": "Feature", "properties": { "OBJECTID": 222, "ID": "0010640207", "NAME": "THE BROOK - DUPONT", "ADDRESS": "1405 BROWNS LANE", "CITY": "LOUISVILLE", "STATE": "KY", "ZIP": "40207", "ZIP4": "NOT AVAILABLE", "TELEPHONE": "(502) 896-0495", "TYPE": "PSYCHIATRIC", "STATUS": "OPEN", "POPULATION": 88, "COUNTY": "JEFFERSON", "COUNTYFIPS": "21111", "COUNTRY": "USA", "LATITUDE": 38.235696632, "LONGITUDE": -85.627340946999894, "NAICS_CODE": "622110", "NAICS_DESC": "GENERAL MEDICAL AND SURGICAL HOSPITALS", "SOURCE": "https://chfs.ky.gov/agencies/os/oig/dhc/Documents/Directories/Hospital_Directory.pdf", "SOURCEDATE": "2018-08-11T00:00:00.000Z", "VAL_METHOD": "IMAGERY", "VAL_DATE": "2014-02-10T00:00:00.000Z", "WEBSITE": "http://www.thebrookhospitals.com/", "STATE_ID": "100595", "ALT_NAME": "NOT AVAILABLE", "ST_FIPS": "21", "OWNER": "PROPRIETARY", "TTL_STAFF": -999, "BEDS": 88, "TRAUMA": "NOT AVAILABLE", "HELIPAD": "N" }, "geometry": { "type": "Polygon", "coordinates": [ [ [ -85.659669, 38.153649 ], [ -85.7209296, 38.165099299999987 ], [ -85.7714955, 38.189806699999963 ], [ -85.7392198, 38.260465799999956 ], [ -85.624397, 38.316349 ], [ -85.564846, 38.29111 ], [ -85.505425, 38.223428 ], [ -85.504949, 38.222596 ], [ -85.506113, 38.218808 ], [ -85.5909424, 38.1575331 ], [ -85.659669, 38.153649 ] ] ] } },
{ "type": "Feature", "properties": { "OBJECTID": 223, "ID": "0000240031", "NAME": "BAPTIST HEALTH LA GRANGE", "ADDRESS": "1025 NEW MOODY LANE", "CITY": "LAGRANGE", "STATE": "KY", "ZIP": "40031", "ZIP4": "NOT AVAILABLE", "TELEPHONE": "(502) 222-5388", "TYPE": "GENERAL ACUTE CARE", "STATUS": "OPEN", "POPULATION": 90, "COUNTY": "OLDHAM", "COUNTYFIPS": "21185", "COUNTRY": "USA", "LATITUDE": 38.394890193999998, "LONGITUDE": -85.376065153999903, "NAICS_CODE": "622110", "NAICS_DESC": "GENERAL MEDICAL AND SURGICAL HOSPITALS", "SOURCE": "https://chfs.ky.gov/agencies/os/oig/dhc/Documents/Directories/Hospital_Directory.pdf", "SOURCEDATE": "2018-08-11T00:00:00.000Z", "VAL_METHOD": "IMAGERY", "VAL_DATE": "2014-02-10T00:00:00.000Z", "WEBSITE": "https://www.baptisthealth.com/lagrange/pages/default.aspx", "STATE_ID": "100575", "ALT_NAME": "BAPTIST HOSPITAL NORTHEAST", "ST_FIPS": "21", "OWNER": "NON-PROFIT", "TTL_STAFF": -999, "BEDS": 90, "TRAUMA": "NOT AVAILABLE", "HELIPAD": "Y" }, "geometry": { "type": "Polygon", "coordinates": [ [ [ -85.475803, 38.32642 ], [ -85.5016449, 38.332035 ], [ -85.5029348, 38.3355021 ], [ -85.511113, 38.365742 ], [ -85.468497, 38.419005 ], [ -85.434945, 38.451997 ], [ -85.4092637, 38.468713500000028 ], [ -85.348633, 38.458762 ], [ -85.344032, 38.4574 ], [ -85.2990548, 38.414140800000027 ], [ -85.302208, 38.365803 ], [ -85.322126, 38.343809 ], [ -85.348657, 38.328949 ], [ -85.351988, 38.328004 ], [ -85.475803, 38.32642 ] ] ] } },
{ "type": "Feature", "properties": { "OBJECTID": 385, "ID": "0009140504", "NAME": "SAINT JOSEPH HOSPITAL", "ADDRESS": "ONE ST JOSEPH DRIVE", "CITY": "LEXINGTON", "STATE": "KY", "ZIP": "40504", "ZIP4": "NOT AVAILABLE", "TELEPHONE": "(859) 278-3436", "TYPE": "GENERAL ACUTE CARE", "STATUS": "OPEN", "POPULATION": 433, "COUNTY": "FAYETTE", "COUNTYFIPS": "21067", "COUNTRY": "USA", "LATITUDE": 38.032339731999997, "LONGITUDE": -84.52329929, "NAICS_CODE": "622110", "NAICS_DESC": "GENERAL MEDICAL AND SURGICAL HOSPITALS", "SOURCE": "https://chfs.ky.gov/agencies/os/oig/dhc/Documents/Directories/Hospital_Directory.pdf", "SOURCEDATE": "2018-08-11T00:00:00.000Z", "VAL_METHOD": "IMAGERY", "VAL_DATE": "2014-02-10T00:00:00.000Z", "WEBSITE": "http://www.sjhlex.org/system-locations-saint-joseph-hospital-lexington-ky", "STATE_ID": "100117", "ALT_NAME": "NOT AVAILABLE", "ST_FIPS": "21", "OWNER": "NON-PROFIT", "TTL_STAFF": -999, "BEDS": 433, "TRAUMA": "NOT AVAILABLE", "HELIPAD": "Y" }, "geometry": { "type": "Polygon", "coordinates": [ [ [ -84.5965982, 37.961172500000039 ], [ -84.647724, 38.042786 ], [ -84.590153, 38.086705 ], [ -84.520567, 38.114839 ], [ -84.452762, 38.1109 ], [ -84.4265854, 38.094552500000027 ], [ -84.4263297, 38.094310800000038 ], [ -84.4117929, 38.040174799999974 ], [ -84.416313, 38.026952 ], [ -84.436197, 37.992753 ], [ -84.4537097, 37.97539680000002 ], [ -84.49056, 37.957846 ], [ -84.5174882, 37.956360400000015 ], [ -84.5965982, 37.961172500000039 ] ] ] } },
{ "type": "Feature", "properties": { "OBJECTID": 386, "ID": "0009540502", "NAME": "SHRINERS HOSPITAL FOR CHILDREN", "ADDRESS": "1900 RICHMOND RD", "CITY": "LEXINGTON", "STATE": "KY", "ZIP": "40502", "ZIP4": "NOT AVAILABLE", "TELEPHONE": "(859) 266-2101", "TYPE": "CHILDREN", "STATUS": "OPEN", "POPULATION": 50, "COUNTY": "FAYETTE", "COUNTYFIPS": "21067", "COUNTRY": "USA", "LATITUDE": 38.022706609000103, "LONGITUDE": -84.472698523000005, "NAICS_CODE": "622110", "NAICS_DESC": "GENERAL MEDICAL AND SURGICAL HOSPITALS", "SOURCE": "https://chfs.ky.gov/agencies/os/oig/dhc/Documents/Directories/Hospital_Directory.pdf", "SOURCEDATE": "2018-08-11T00:00:00.000Z", "VAL_METHOD": "IMAGERY", "VAL_DATE": "2014-02-10T00:00:00.000Z", "WEBSITE": "http://www.shrinershospitalsforchildren.org/Hospitals/Locations/Lexington.aspx", "STATE_ID": "100116", "ALT_NAME": "NOT AVAILABLE", "ST_FIPS": "21", "OWNER": "NON-PROFIT", "TTL_STAFF": -999, "BEDS": 50, "TRAUMA": "NOT AVAILABLE", "HELIPAD": "N" }, "geometry": { "type": "Polygon", "coordinates": [ [ [ -84.413577, 37.923985 ], [ -84.483952, 37.944385 ], [ -84.535632, 37.963214 ], [ -84.550343, 37.981943 ], [ -84.563432, 38.008126 ], [ -84.576411, 38.04398 ], [ -84.576404, 38.044137 ], [ -84.5583614, 38.070085699999986 ], [ -84.5463995, 38.08086440000001 ], [ -84.5279898, 38.096079500000045 ], [ -84.515048, 38.104509899999982 ], [ -84.5131133, 38.105338700000019 ], [ -84.4842631, 38.104546100000015 ], [ -84.4809564, 38.1041951 ], [ -84.461106, 38.099046 ], [ -84.436832, 38.087721 ], [ -84.377067, 38.033752 ], [ -84.364429, 37.949372 ], [ -84.391041, 37.933668 ], [ -84.3989932, 37.929587799999972 ], [ -84.413577, 37.923985 ] ] ] } },
{ "type": "Feature", "properties": { "OBJECTID": 398, "ID": "0002640444", "NAME": "GARRARD COUNTY HOSPITAL", "ADDRESS": "308 WEST MAPLE AVENUE", "CITY": "LANCASTER", "STATE": "KY", "ZIP": "40444", "ZIP4": "NOT AVAILABLE", "TELEPHONE": "(859) 792-6844", "TYPE": "GENERAL ACUTE CARE", "STATUS": "CLOSED", "POPULATION": 15, "COUNTY": "GARRARD", "COUNTYFIPS": "21079", "COUNTRY": "USA", "LATITUDE": 37.622026064000103, "LONGITUDE": -84.585157253000006, "NAICS_CODE": "622110", "NAICS_DESC": "GENERAL MEDICAL AND SURGICAL HOSPITALS", "SOURCE": "http://chfs.ky.gov/os/oig/directories.htm", "SOURCEDATE": "2012-08-01T00:00:00.000Z", "VAL_METHOD": "IMAGERY", "VAL_DATE": "2014-02-10T00:00:00.000Z", "WEBSITE": "NOT AVAILABLE", "STATE_ID": "600051", "ALT_NAME": "NOT AVAILABLE", "ST_FIPS": "21", "OWNER": "PROPRIETARY", "TTL_STAFF": -999, "BEDS": 15, "TRAUMA": "NOT AVAILABLE", "HELIPAD": "Y" }, "geometry": { "type": "Polygon", "coordinates": [ [ [ -84.652765, 37.531931 ], [ -84.658124, 37.535805 ], [ -84.661477, 37.543871 ], [ -84.661507, 37.544864 ], [ -84.6640609, 37.691203099999974 ], [ -84.6638506, 37.691289 ], [ -84.661806, 37.692057 ], [ -84.568791, 37.686184 ], [ -84.515227, 37.675542 ], [ -84.513427, 37.674926 ], [ -84.50932, 37.668586 ], [ -84.4770478, 37.588022099999975 ], [ -84.540528, 37.544679 ], [ -84.652475, 37.53194 ], [ -84.652624, 37.531935 ], [ -84.652765, 37.531931 ] ] ] } },
{ "type": "Feature", "properties": { "OBJECTID": 402, "ID": "0002440601", "NAME": "FRANKFORT REGIONAL MEDICAL CENTER", "ADDRESS": "299 KINGS DAUGHTERS DRIVE", "CITY": "FRANKFORT", "STATE": "KY", "ZIP": "40601", "ZIP4": "NOT AVAILABLE", "TELEPHONE": "(502) 875-5240", "TYPE": "LONG TERM CARE", "STATUS": "OPEN", "POPULATION": 173, "COUNTY": "FRANKLIN", "COUNTYFIPS": "21073", "COUNTRY": "USA", "LATITUDE": 38.160661745, "LONGITUDE": -84.906893698000005, "NAICS_CODE": "622110", "NAICS_DESC": "GENERAL MEDICAL AND SURGICAL HOSPITALS", "SOURCE": "https://chfs.ky.gov/agencies/os/oig/dhc/Documents/Directories/Hospital_Directory.pdf", "SOURCEDATE": "2018-08-11T00:00:00.000Z", "VAL_METHOD": "IMAGERY", "VAL_DATE": "2014-02-10T00:00:00.000Z", "WEBSITE": "http://www.frankfortregional.com", "STATE_ID": "100130", "ALT_NAME": "NOT AVAILABLE", "ST_FIPS": "21", "OWNER": "PROPRIETARY", "TTL_STAFF": -999, "BEDS": 173, "TRAUMA": "LEVEL III", "HELIPAD": "Y" }, "geometry": { "type": "Polygon", "coordinates": [ [ [ -84.93059, 38.102641 ], [ -84.931984, 38.103291700000014 ], [ -84.944591, 38.109189 ], [ -84.976154, 38.125892 ], [ -85.013933600000016, 38.15722779999998 ], [ -85.013536, 38.160683 ], [ -84.9404646, 38.216673299999961 ], [ -84.916381, 38.228567 ], [ -84.8511604, 38.2283496 ], [ -84.848631, 38.22817 ], [ -84.847961, 38.227936 ], [ -84.829591, 38.221509 ], [ -84.819293, 38.217798 ], [ -84.8168767, 38.2157771 ], [ -84.759726, 38.167734 ], [ -84.896307, 38.109901 ], [ -84.93059, 38.102641 ] ] ] } },
{ "type": "Feature", "properties": { "OBJECTID": 426, "ID": "0002040484", "NAME": "EPHRAIM MCDOWELL FORT LOGAN HOSPITAL", "ADDRESS": "110 METKER TRAIL", "CITY": "STANFORD", "STATE": "KY", "ZIP": "40484", "ZIP4": "NOT AVAILABLE", "TELEPHONE": "(606) 365-2187", "TYPE": "CRITICAL ACCESS", "STATUS": "OPEN", "POPULATION": 25, "COUNTY": "LINCOLN", "COUNTYFIPS": "21137", "COUNTRY": "USA", "LATITUDE": 37.54279432, "LONGITUDE": -84.653036559, "NAICS_CODE": "622110", "NAICS_DESC": "GENERAL MEDICAL AND SURGICAL HOSPITALS", "SOURCE": "https://chfs.ky.gov/agencies/os/oig/dhc/Documents/Directories/Hospital_Directory.pdf", "SOURCEDATE": "2018-08-11T00:00:00.000Z", "VAL_METHOD": "IMAGERY", "VAL_DATE": "2014-02-10T00:00:00.000Z", "WEBSITE": "http://www.fortloganhospital.org", "STATE_ID": "600066", "ALT_NAME": "NOT AVAILABLE", "ST_FIPS": "21", "OWNER": "NON-PROFIT", "TTL_STAFF": -999, "BEDS": 25, "TRAUMA": "LEVEL IV", "HELIPAD": "Y" }, "geometry": { "type": "Polygon", "coordinates": [ [ [ -84.637667, 37.441361 ], [ -84.683499, 37.465215 ], [ -84.727355, 37.495487 ], [ -84.72767, 37.496576 ], [ -84.733424, 37.539428 ], [ -84.734163, 37.553165 ], [ -84.722488, 37.590328 ], [ -84.72217, 37.590635 ], [ -84.677943, 37.613047 ], [ -84.581295, 37.633583 ], [ -84.5785984, 37.632807300000024 ], [ -84.568394, 37.622261 ], [ -84.564358, 37.614289 ], [ -84.535453, 37.483544 ], [ -84.637667, 37.441361 ] ] ] } },
{ "type": "Feature", "properties": { "OBJECTID": 462, "ID": "0005842420", "NAME": "METHODIST HOSPITAL", "ADDRESS": "1305 N ELM STREET", "CITY": "HENDERSON", "STATE": "KY", "ZIP": "42420", "ZIP4": "NOT AVAILABLE", "TELEPHONE": "(270) 827-7700", "TYPE": "GENERAL ACUTE CARE", "STATUS": "OPEN", "POPULATION": 192, "COUNTY": "HENDERSON", "COUNTYFIPS": "21101", "COUNTRY": "USA", "LATITUDE": 37.854974612, "LONGITUDE": -87.583199015999995, "NAICS_CODE": "622110", "NAICS_DESC": "GENERAL MEDICAL AND SURGICAL HOSPITALS", "SOURCE": "https://chfs.ky.gov/agencies/os/oig/dhc/Documents/Directories/Hospital_Directory.pdf", "SOURCEDATE": "2018-08-11T00:00:00.000Z", "VAL_METHOD": "IMAGERY/OTHER", "VAL_DATE": "2014-02-10T00:00:00.000Z", "WEBSITE": "http://www.methodisthospital.net", "STATE_ID": "100173", "ALT_NAME": "NOT AVAILABLE", "ST_FIPS": "21", "OWNER": "NON-PROFIT", "TTL_STAFF": -999, "BEDS": 192, "TRAUMA": "NOT AVAILABLE", "HELIPAD": "Y" }, "geometry": { "type": "Polygon", "coordinates": [ [ [ -87.615591, 37.780186 ], [ -87.6682579, 37.791210299999975 ], [ -87.6687339, 37.79192130000002 ], [ -87.662468, 37.802844 ], [ -87.5454328, 37.922523799999965 ], [ -87.459697, 37.871708 ], [ -87.444369, 37.859285 ], [ -87.444219, 37.859128 ], [ -87.4763461, 37.787614499999982 ], [ -87.558697, 37.779708 ], [ -87.615591, 37.780186 ] ] ] } },
{ "type": "Feature", "properties": { "OBJECTID": 467, "ID": "0000440383", "NAME": "BLUEGRASS COMMUNITY HOSPITAL", "ADDRESS": "360 AMSDEN AVE.", "CITY": "VERSAILLES", "STATE": "KY", "ZIP": "40383", "ZIP4": "NOT AVAILABLE", "TELEPHONE": "(859) 873-3111", "TYPE": "GENERAL ACUTE CARE", "STATUS": "OPEN", "POPULATION": 25, "COUNTY": "WOODFORD", "COUNTYFIPS": "21239", "COUNTRY": "USA", "LATITUDE": 38.054765689000099, "LONGITUDE": -84.723788339999899, "NAICS_CODE": "622110", "NAICS_DESC": "GENERAL MEDICAL AND SURGICAL HOSPITALS", "SOURCE": "https://chfs.ky.gov/agencies/os/oig/dhc/Documents/Directories/Hospital_Directory.pdf", "SOURCEDATE": "2018-08-11T00:00:00.000Z", "VAL_METHOD": "IMAGERY", "VAL_DATE": "2014-02-10T00:00:00.000Z", "WEBSITE": "http://www.bluegrasscommunityhospital.com", "STATE_ID": "600059", "ALT_NAME": "NOT AVAILABLE", "ST_FIPS": "21", "OWNER": "NON-PROFIT", "TTL_STAFF": -999, "BEDS": 25, "TRAUMA": "NOT AVAILABLE", "HELIPAD": "Y" }, "geometry": { "type": "Polygon", "coordinates": [ [ [ -84.721098, 37.97218 ], [ -84.819085, 38.032076 ], [ -84.801765, 38.113976 ], [ -84.787598, 38.137016 ], [ -84.7874724, 38.13708410000001 ], [ -84.699814, 38.123334 ], [ -84.683427, 38.117288 ], [ -84.666576, 38.109147 ], [ -84.64968, 38.057602 ], [ -84.657505, 38.017813 ], [ -84.681109, 37.973743 ], [ -84.721098, 37.97218 ] ] ] } },
{ "type": "Feature", "properties": { "OBJECTID": 471, "ID": "0010542718", "NAME": "TAYLOR REGIONAL HOSPITAL", "ADDRESS": "1700 OLD LEBANON ROAD", "CITY": "CAMPBELLSVILLE", "STATE": "KY", "ZIP": "42718", "ZIP4": "NOT AVAILABLE", "TELEPHONE": "(270) 465-3561", "TYPE": "GENERAL ACUTE CARE", "STATUS": "OPEN", "POPULATION": 90, "COUNTY": "TAYLOR", "COUNTYFIPS": "21217", "COUNTRY": "USA", "LATITUDE": 37.3663517620001, "LONGITUDE": -85.338106556, "NAICS_CODE": "622110", "NAICS_DESC": "GENERAL MEDICAL AND SURGICAL HOSPITALS", "SOURCE": "https://chfs.ky.gov/agencies/os/oig/dhc/Documents/Directories/Hospital_Directory.pdf", "SOURCEDATE": "2018-08-11T00:00:00.000Z", "VAL_METHOD": "IMAGERY", "VAL_DATE": "2014-02-10T00:00:00.000Z", "WEBSITE": "http://www.trhosp.org", "STATE_ID": "100394", "ALT_NAME": "NOT AVAILABLE", "ST_FIPS": "21", "OWNER": "GOVERNMENT - DISTRICT/AUTHORITY", "TTL_STAFF": -999, "BEDS": 90, "TRAUMA": "LEVEL III", "HELIPAD": "Y" }, "geometry": { "type": "Polygon", "coordinates": [ [ [ -85.377657, 37.272933 ], [ -85.436462, 37.304529 ], [ -85.437567, 37.306 ], [ -85.421956, 37.383256 ], [ -85.403722, 37.422391 ], [ -85.379816, 37.438272 ], [ -85.3565329, 37.4493113 ], [ -85.282805, 37.417014 ], [ -85.273568, 37.386105 ], [ -85.272751, 37.320335 ], [ -85.295194, 37.301282 ], [ -85.357002, 37.278495 ], [ -85.377657, 37.272933 ] ] ] } },
{ "type": "Feature", "properties": { "OBJECTID": 508, "ID": "0008742642", "NAME": "RUSSELL COUNTY HOSPITAL", "ADDRESS": "153 DOWELL RD., PO BOX 1610", "CITY": "RUSSELL SPRINGS", "STATE": "KY", "ZIP": "42642", "ZIP4": "NOT AVAILABLE", "TELEPHONE": "(270) 866-4141", "TYPE": "GENERAL ACUTE CARE", "STATUS": "OPEN", "POPULATION": 25, "COUNTY": "RUSSELL", "COUNTYFIPS": "21207", "COUNTRY": "USA", "LATITUDE": 37.05758045, "LONGITUDE": -85.067352806000002, "NAICS_CODE": "622110", "NAICS_DESC": "GENERAL MEDICAL AND SURGICAL HOSPITALS", "SOURCE": "https://chfs.ky.gov/agencies/os/oig/dhc/Documents/Directories/Hospital_Directory.pdf", "SOURCEDATE": "2018-08-11T00:00:00.000Z", "VAL_METHOD": "IMAGERY", "VAL_DATE": "2013-12-18T00:00:00.000Z", "WEBSITE": "http://www.russellcohospital.org", "STATE_ID": "600081", "ALT_NAME": "NOT AVAILABLE", "ST_FIPS": "21", "OWNER": "GOVERNMENT - LOCAL", "TTL_STAFF": -999, "BEDS": 25, "TRAUMA": "NOT AVAILABLE", "HELIPAD": "Y" }, "geometry": { "type": "Polygon", "coordinates": [ [ [ -85.090399, 36.952211 ], [ -85.131522, 36.997734 ], [ -85.137661, 37.00681 ], [ -85.153856, 37.032121 ], [ -85.169782, 37.0779 ], [ -85.094541, 37.135162 ], [ -85.0184, 37.160282 ], [ -84.989121, 37.103374 ], [ -84.985372, 37.092019 ], [ -84.982239, 37.063209 ], [ -85.019889, 36.99078 ], [ -85.054656, 36.967357 ], [ -85.090399, 36.952211 ] ] ] } },
{ "type": "Feature", "properties": { "OBJECTID": 510, "ID": "0008640456", "NAME": "ROCKCASTLE REGIONAL HOSPITAL & RESPIRATORY CARE CENTER", "ADDRESS": "145 NEWCOMB AVE", "CITY": "MT VERNON", "STATE": "KY", "ZIP": "40456", "ZIP4": "NOT AVAILABLE", "TELEPHONE": "(606) 256-2195", "TYPE": "GENERAL ACUTE CARE", "STATUS": "OPEN", "POPULATION": 26, "COUNTY": "ROCKCASTLE", "COUNTYFIPS": "21203", "COUNTRY": "USA", "LATITUDE": 37.3579643200001, "LONGITUDE": -84.3359033199999, "NAICS_CODE": "622110", "NAICS_DESC": "GENERAL MEDICAL AND SURGICAL HOSPITALS", "SOURCE": "https://chfs.ky.gov/agencies/os/oig/dhc/Documents/Directories/Hospital_Directory.pdf", "SOURCEDATE": "2018-08-11T00:00:00.000Z", "VAL_METHOD": "IMAGERY/OTHER", "VAL_DATE": "2014-02-10T00:00:00.000Z", "WEBSITE": "http://www.rockcastleregional.org", "STATE_ID": "100960", "ALT_NAME": "NOT AVAILABLE", "ST_FIPS": "21", "OWNER": "NON-PROFIT", "TTL_STAFF": -999, "BEDS": 26, "TRAUMA": "LEVEL IV", "HELIPAD": "Y" }, "geometry": { "type": "Polygon", "coordinates": [ [ [ -84.352919, 37.284849 ], [ -84.411563, 37.290667 ], [ -84.421957, 37.353404 ], [ -84.4286846, 37.398166099999969 ], [ -84.351894, 37.44221 ], [ -84.316381, 37.442828 ], [ -84.267061, 37.37384 ], [ -84.2530676, 37.330220500000017 ], [ -84.253977, 37.326177 ], [ -84.306355, 37.301795 ], [ -84.352919, 37.284849 ] ] ] } },
{ "type": "Feature", "properties": { "OBJECTID": 511, "ID": "0000140207", "NAME": "BAPTIST HOSPITAL LOUISVILLE", "ADDRESS": "4000 KRESGE WAY", "CITY": "LOUISVILLE", "STATE": "KY", "ZIP": "40207", "ZIP4": "NOT AVAILABLE", "TELEPHONE": "(502) 897-8100", "TYPE": "GENERAL ACUTE CARE", "STATUS": "OPEN", "POPULATION": 519, "COUNTY": "JEFFERSON", "COUNTYFIPS": "21111", "COUNTRY": "USA", "LATITUDE": 38.238118248, "LONGITUDE": -85.637144295, "NAICS_CODE": "622110", "NAICS_DESC": "GENERAL MEDICAL AND SURGICAL HOSPITALS", "SOURCE": "https://chfs.ky.gov/agencies/os/oig/dhc/Documents/Directories/Hospital_Directory.pdf", "SOURCEDATE": "2018-08-11T00:00:00.000Z", "VAL_METHOD": "IMAGERY/OTHER", "VAL_DATE": "2014-02-10T00:00:00.000Z", "WEBSITE": "https://www.baptisthealth.com/louisville/pages/default.aspx", "STATE_ID": "100451", "ALT_NAME": "BAPTIST HOSPITAL EAST", "ST_FIPS": "21", "OWNER": "NON-PROFIT", "TTL_STAFF": -999, "BEDS": 519, "TRAUMA": "NOT AVAILABLE", "HELIPAD": "Y" }, "geometry": { "type": "Polygon", "coordinates": [ [ [ -85.65992, 38.158867 ], [ -85.7200733, 38.174285899999987 ], [ -85.760137, 38.190231 ], [ -85.7562008, 38.258725500000011 ], [ -85.7561796, 38.258850199999962 ], [ -85.746593800000014, 38.272247799999981 ], [ -85.622557, 38.32153 ], [ -85.5592347, 38.293755799999964 ], [ -85.504949, 38.222596 ], [ -85.592664, 38.160627 ], [ -85.65992, 38.158867 ] ] ] } },
{ "type": "Feature", "properties": { "OBJECTID": 512, "ID": "0004040202", "NAME": "JEWISH HOSPITAL & ST. MARY'S HEALTHCARE", "ADDRESS": "200 ABRAHAM FLEXNER WAY", "CITY": "LOUISVILLE", "STATE": "KY", "ZIP": "40202", "ZIP4": "NOT AVAILABLE", "TELEPHONE": "(502) 587-4011", "TYPE": "GENERAL ACUTE CARE", "STATUS": "OPEN", "POPULATION": 462, "COUNTY": "JEFFERSON", "COUNTYFIPS": "21111", "COUNTRY": "USA", "LATITUDE": 38.249131647000098, "LONGITUDE": -85.751189499000006, "NAICS_CODE": "622110", "NAICS_DESC": "GENERAL MEDICAL AND SURGICAL HOSPITALS", "SOURCE": "https://chfs.ky.gov/agencies/os/oig/dhc/Documents/Directories/Hospital_Directory.pdf", "SOURCEDATE": "2018-08-11T00:00:00.000Z", "VAL_METHOD": "IMAGERY", "VAL_DATE": "2013-12-18T00:00:00.000Z", "WEBSITE": "http://www.kentuckyonehealth.org/body.cfm?id=3299&fr=true", "STATE_ID": "100215", "ALT_NAME": "NOT AVAILABLE", "ST_FIPS": "21", "OWNER": "PROPRIETARY", "TTL_STAFF": -999, "BEDS": 462, "TRAUMA": "NOT AVAILABLE", "HELIPAD": "Y" }, "geometry": { "type": "Polygon", "coordinates": [ [ [ -85.7034784, 38.1307332 ], [ -85.8160735, 38.1808824 ], [ -85.8161823, 38.180933200000055 ], [ -85.8276403, 38.2066837 ], [ -85.828895, 38.209744 ], [ -85.83013, 38.213602 ], [ -85.832464, 38.245216 ], [ -85.832365, 38.248701 ], [ -85.8323286, 38.249635599999976 ], [ -85.830927, 38.258951 ], [ -85.826288, 38.267497 ], [ -85.7566609, 38.373830300000023 ], [ -85.652324, 38.310456 ], [ -85.633029, 38.283197 ], [ -85.6223892, 38.23730089999998 ], [ -85.7034784, 38.1307332 ] ] ] } },
{ "type": "Feature", "properties": { "OBJECTID": 513, "ID": "0004440204", "NAME": "KINDRED HOSPITAL - LOUISVILLE", "ADDRESS": "1313 SAINT ANTHONY PLACE", "CITY": "LOUISVILLE", "STATE": "KY", "ZIP": "40204", "ZIP4": "NOT AVAILABLE", "TELEPHONE": "(502) 587-7001", "TYPE": "LONG TERM CARE", "STATUS": "OPEN", "POPULATION": 337, "COUNTY": "JEFFERSON", "COUNTYFIPS": "21111", "COUNTRY": "USA", "LATITUDE": 38.242656516000103, "LONGITUDE": -85.731237729, "NAICS_CODE": "622110", "NAICS_DESC": "GENERAL MEDICAL AND SURGICAL HOSPITALS", "SOURCE": "https://chfs.ky.gov/agencies/os/oig/dhc/Documents/Directories/Hospital_Directory.pdf", "SOURCEDATE": "2018-08-11T00:00:00.000Z", "VAL_METHOD": "IMAGERY", "VAL_DATE": "2014-02-10T00:00:00.000Z", "WEBSITE": "http://www.kindredlouisville.com/", "STATE_ID": "100251", "ALT_NAME": "NOT AVAILABLE", "ST_FIPS": "21", "OWNER": "PROPRIETARY", "TTL_STAFF": -999, "BEDS": 337, "TRAUMA": "NOT AVAILABLE", "HELIPAD": "N" }, "geometry": { "type": "Polygon", "coordinates": [ [ [ -85.716321, 38.153559 ], [ -85.727952, 38.157587 ], [ -85.783516, 38.181395 ], [ -85.799115, 38.19509 ], [ -85.79929, 38.195271 ], [ -85.826586, 38.241884 ], [ -85.826966, 38.25053 ], [ -85.818148, 38.27199 ], [ -85.754189, 38.350571 ], [ -85.661632, 38.303698 ], [ -85.6421859, 38.290503800000025 ], [ -85.6156737, 38.249482 ], [ -85.6138396, 38.234626599999984 ], [ -85.6477146, 38.190516299999963 ], [ -85.657434, 38.178414 ], [ -85.659417, 38.176791 ], [ -85.716321, 38.153559 ] ] ] } },
{ "type": "Feature", "properties": { "OBJECTID": 515, "ID": "0007540205", "NAME": "OUR LADY OF PEACE", "ADDRESS": "2020 NEWBURG RD", "CITY": "LOUISVILLE", "STATE": "KY", "ZIP": "40205", "ZIP4": "NOT AVAILABLE", "TELEPHONE": "(502) 451-3330", "TYPE": "PSYCHIATRIC", "STATUS": "OPEN", "POPULATION": 396, "COUNTY": "JEFFERSON", "COUNTYFIPS": "21111", "COUNTRY": "USA", "LATITUDE": 38.218809, "LONGITUDE": -85.71059213, "NAICS_CODE": "622110", "NAICS_DESC": "GENERAL MEDICAL AND SURGICAL HOSPITALS", "SOURCE": "https://chfs.ky.gov/agencies/os/oig/dhc/Documents/Directories/Hospital_Directory.pdf", "SOURCEDATE": "2018-08-11T00:00:00.000Z", "VAL_METHOD": "IMAGERY", "VAL_DATE": "2014-02-10T00:00:00.000Z", "WEBSITE": "http://www.kentuckyonehealth.org/body.cfm?id=3289&fr=true", "STATE_ID": "100236", "ALT_NAME": "NOT AVAILABLE", "ST_FIPS": "21", "OWNER": "NON-PROFIT", "TTL_STAFF": -999, "BEDS": 396, "TRAUMA": "NOT AVAILABLE", "HELIPAD": "N" }, "geometry": { "type": "Polygon", "coordinates": [ [ [ -85.708337, 38.139333 ], [ -85.8095077, 38.185571499999973 ], [ -85.8042232, 38.2384553 ], [ -85.7847502, 38.272677 ], [ -85.768901, 38.293441 ], [ -85.761319, 38.298693 ], [ -85.7535547, 38.2988972 ], [ -85.6242765, 38.2653245 ], [ -85.6242352, 38.265303800000019 ], [ -85.609831, 38.255355 ], [ -85.602905, 38.248539 ], [ -85.591528, 38.227349 ], [ -85.616606, 38.175661 ], [ -85.660095, 38.144554 ], [ -85.708337, 38.139333 ] ] ] } },
{ "type": "Feature", "properties": { "OBJECTID": 516, "ID": "0011740202", "NAME": "UNIVERSITY OF LOUISVILLE HOSPITAL", "ADDRESS": "530 S JACKSON ST", "CITY": "LOUISVILLE", "STATE": "KY", "ZIP": "40202", "ZIP4": "NOT AVAILABLE", "TELEPHONE": "(502) 562-3000", "TYPE": "GENERAL ACUTE CARE", "STATUS": "OPEN", "POPULATION": 404, "COUNTY": "JEFFERSON", "COUNTYFIPS": "21111", "COUNTRY": "USA", "LATITUDE": 38.248322961, "LONGITUDE": -85.744335964999905, "NAICS_CODE": "622110", "NAICS_DESC": "GENERAL MEDICAL AND SURGICAL HOSPITALS", "SOURCE": "https://chfs.ky.gov/agencies/os/oig/dhc/Documents/Directories/Hospital_Directory.pdf", "SOURCEDATE": "2018-08-11T00:00:00.000Z", "VAL_METHOD": "IMAGERY", "VAL_DATE": "2014-02-10T00:00:00.000Z", "WEBSITE": "http://www.ulh.org", "STATE_ID": "100220", "ALT_NAME": "NOT AVAILABLE", "ST_FIPS": "21", "OWNER": "NON-PROFIT", "TTL_STAFF": -999, "BEDS": 404, "TRAUMA": "LEVEL I", "HELIPAD": "Y" }, "geometry": { "type": "Polygon", "coordinates": [ [ [ -85.708337, 38.139333 ], [ -85.8135413, 38.186401299999979 ], [ -85.830662, 38.238667 ], [ -85.832365, 38.248701 ], [ -85.8323286, 38.249635599999976 ], [ -85.830927, 38.258951 ], [ -85.826288, 38.267497 ], [ -85.760262, 38.372135 ], [ -85.7566609, 38.373830300000023 ], [ -85.74865410000001, 38.370715 ], [ -85.649099, 38.313881 ], [ -85.630857, 38.286419 ], [ -85.6138396, 38.234626599999984 ], [ -85.708337, 38.139333 ] ] ] } },
{ "type": "Feature", "properties": { "OBJECTID": 540, "ID": "0001562401", "NAME": "ST ANTHONYS MEMORIAL HOSPITAL", "ADDRESS": "503 N MAPLE STREET", "CITY": "EFFINGHAM", "STATE": "IL", "ZIP": "62401", "ZIP4": "NOT AVAILABLE", "TELEPHONE": "(217) 342-2121", "TYPE": "GENERAL ACUTE CARE", "STATUS": "OPEN", "POPULATION": 146, "COUNTY": "EFFINGHAM", "COUNTYFIPS": "17049", "COUNTRY": "USA", "LATITUDE": 39.125776017000099, "LONGITUDE": -88.550125218999895, "NAICS_CODE": "622110", "NAICS_DESC": "GENERAL MEDICAL AND SURGICAL HOSPITALS", "SOURCE": "https://data.illinois.gov/", "SOURCEDATE": "2018-08-09T00:00:00.000Z", "VAL_METHOD": "IMAGERY", "VAL_DATE": "2014-03-12T00:00:00.000Z", "WEBSITE": "http://www.stanthonyshospital.org", "STATE_ID": "140032", "ALT_NAME": "NOT AVAILABLE", "ST_FIPS": "17", "OWNER": "NON-PROFIT", "TTL_STAFF": -999, "BEDS": 146, "TRAUMA": "NOT AVAILABLE", "HELIPAD": "Y" }, "geometry": { "type": "Polygon", "coordinates": [ [ [ -88.543656, 39.035742 ], [ -88.6736837, 39.06641620000002 ], [ -88.638437, 39.172258 ], [ -88.618925, 39.182616 ], [ -88.504581, 39.207838 ], [ -88.503664, 39.207839 ], [ -88.444581, 39.138993 ], [ -88.444614, 39.1331 ], [ -88.451708, 39.096606 ], [ -88.543656, 39.035742 ] ] ] } },
{ "type": "Feature", "properties": { "OBJECTID": 547, "ID": "0002140422", "NAME": "EPHRAIM MCDOWELL REGIONAL MEDICAL CENTER", "ADDRESS": "217 SOUTH THIRD STREET", "CITY": "DANVILLE", "STATE": "KY", "ZIP": "40422", "ZIP4": "NOT AVAILABLE", "TELEPHONE": "(859) 239-1000", "TYPE": "GENERAL ACUTE CARE", "STATUS": "OPEN", "POPULATION": 222, "COUNTY": "BOYLE", "COUNTYFIPS": "21021", "COUNTRY": "USA", "LATITUDE": 37.643873305000099, "LONGITUDE": -84.773001139000002, "NAICS_CODE": "622110", "NAICS_DESC": "GENERAL MEDICAL AND SURGICAL HOSPITALS", "SOURCE": "https://chfs.ky.gov/agencies/os/oig/dhc/Documents/Directories/Hospital_Directory.pdf", "SOURCEDATE": "2018-08-11T00:00:00.000Z", "VAL_METHOD": "IMAGERY", "VAL_DATE": "2014-02-10T00:00:00.000Z", "WEBSITE": "http://www.emrmc.org", "STATE_ID": "100034", "ALT_NAME": "NOT AVAILABLE", "ST_FIPS": "21", "OWNER": "NON-PROFIT", "TTL_STAFF": -999, "BEDS": 222, "TRAUMA": "LEVEL III", "HELIPAD": "N" }, "geometry": { "type": "Polygon", "coordinates": [ [ [ -84.81352, 37.570454 ], [ -84.866042, 37.610394 ], [ -84.905312, 37.653058 ], [ -84.838412, 37.694128 ], [ -84.807459, 37.704063 ], [ -84.807271, 37.704105 ], [ -84.7590919, 37.71440089999998 ], [ -84.756858, 37.714127 ], [ -84.688747, 37.684488 ], [ -84.6819586, 37.678441299999982 ], [ -84.664082, 37.641518 ], [ -84.6801446, 37.623425500000018 ], [ -84.696191, 37.607459 ], [ -84.741295, 37.574575 ], [ -84.8056993, 37.570498799999974 ], [ -84.81352, 37.570454 ] ] ] } },
{ "type": "Feature", "properties": { "OBJECTID": 551, "ID": "0009740033", "NAME": "SPRING VIEW HOSPITAL", "ADDRESS": "320 LORETTO ROAD", "CITY": "LEBANON", "STATE": "KY", "ZIP": "40033", "ZIP4": "NOT AVAILABLE", "TELEPHONE": "(270) 692-3161", "TYPE": "GENERAL ACUTE CARE", "STATUS": "OPEN", "POPULATION": 75, "COUNTY": "MARION", "COUNTYFIPS": "21155", "COUNTRY": "USA", "LATITUDE": 37.569828878000102, "LONGITUDE": -85.261456408999905, "NAICS_CODE": "622110", "NAICS_DESC": "GENERAL MEDICAL AND SURGICAL HOSPITALS", "SOURCE": "https://chfs.ky.gov/agencies/os/oig/dhc/Documents/Directories/Hospital_Directory.pdf", "SOURCEDATE": "2018-08-11T00:00:00.000Z", "VAL_METHOD": "IMAGERY", "VAL_DATE": "2014-03-12T00:00:00.000Z", "WEBSITE": "http://www.springviewhospital.com", "STATE_ID": "100327", "ALT_NAME": "NOT AVAILABLE", "ST_FIPS": "21", "OWNER": "PROPRIETARY", "TTL_STAFF": -999, "BEDS": 75, "TRAUMA": "NOT AVAILABLE", "HELIPAD": "Y" }, "geometry": { "type": "Polygon", "coordinates": [ [ [ -85.30226, 37.484358 ], [ -85.320596, 37.497418 ], [ -85.358295, 37.556529 ], [ -85.365901, 37.586396 ], [ -85.351865, 37.615245 ], [ -85.291907, 37.644326 ], [ -85.208031, 37.631588 ], [ -85.206942, 37.631092 ], [ -85.177031, 37.611024 ], [ -85.176458, 37.610388 ], [ -85.153953, 37.575465 ], [ -85.1871432, 37.502679899999983 ], [ -85.1883294, 37.501237799999963 ], [ -85.30226, 37.484358 ] ] ] } },
{ "type": "Feature", "properties": { "OBJECTID": 567, "ID": "0001440391", "NAME": "CLARK REGIONAL MEDICAL CENTER", "ADDRESS": "175 HOSPITAL DRIVE", "CITY": "WINCHESTER", "STATE": "KY", "ZIP": "40391", "ZIP4": "NOT AVAILABLE", "TELEPHONE": "(859) 737-8559", "TYPE": "GENERAL ACUTE CARE", "STATUS": "OPEN", "POPULATION": 54, "COUNTY": "CLARK", "COUNTYFIPS": "21049", "COUNTRY": "USA", "LATITUDE": 38.001043223000103, "LONGITUDE": -84.195515862999997, "NAICS_CODE": "622110", "NAICS_DESC": "GENERAL MEDICAL AND SURGICAL HOSPITALS", "SOURCE": "https://chfs.ky.gov/agencies/os/oig/dhc/Documents/Directories/Hospital_Directory.pdf", "SOURCEDATE": "2018-08-11T00:00:00.000Z", "VAL_METHOD": "IMAGERY/OTHER", "VAL_DATE": "2014-02-10T00:00:00.000Z", "WEBSITE": "http://www.clarkregional.org", "STATE_ID": "100073", "ALT_NAME": "NOT AVAILABLE", "ST_FIPS": "21", "OWNER": "PROPRIETARY", "TTL_STAFF": -999, "BEDS": 54, "TRAUMA": "NOT AVAILABLE", "HELIPAD": "Y" }, "geometry": { "type": "Polygon", "coordinates": [ [ [ -84.245484, 37.929392 ], [ -84.2907759, 38.0304421 ], [ -84.289546, 38.037457 ], [ -84.271881, 38.053844 ], [ -84.17438, 38.069201 ], [ -84.0716, 38.036072 ], [ -84.068175, 38.031909 ], [ -84.108573, 37.964958 ], [ -84.111473, 37.962647 ], [ -84.150532, 37.938068 ], [ -84.160732, 37.934228 ], [ -84.186322, 37.931945 ], [ -84.245484, 37.929392 ] ] ] } },
{ "type": "Feature", "properties": { "OBJECTID": 581, "ID": "0007642303", "NAME": "OWENSBORO HEALTH REGIONAL HOSPITAL", "ADDRESS": "811 E PARRISH AVE", "CITY": "OWENSBORO", "STATE": "KY", "ZIP": "42303", "ZIP4": "NOT AVAILABLE", "TELEPHONE": "(270) 688-2000", "TYPE": "GENERAL ACUTE CARE", "STATUS": "OPEN", "POPULATION": 447, "COUNTY": "DAVIESS", "COUNTYFIPS": "21059", "COUNTRY": "USA", "LATITUDE": 37.765791864999997, "LONGITUDE": -87.102328606999905, "NAICS_CODE": "622110", "NAICS_DESC": "GENERAL MEDICAL AND SURGICAL HOSPITALS", "SOURCE": "https://chfs.ky.gov/agencies/os/oig/dhc/Documents/Directories/Hospital_Directory.pdf", "SOURCEDATE": "2018-08-11T00:00:00.000Z", "VAL_METHOD": "IMAGERY/OTHER", "VAL_DATE": "2014-02-10T00:00:00.000Z", "WEBSITE": "http://www.owensborohealth.org", "STATE_ID": "100092", "ALT_NAME": "NOT AVAILABLE", "ST_FIPS": "21", "OWNER": "NON-PROFIT", "TTL_STAFF": -999, "BEDS": 447, "TRAUMA": "LEVEL III", "HELIPAD": "Y" }, "geometry": { "type": "Polygon", "coordinates": [ [ [ -87.130727, 37.681472 ], [ -87.152521, 37.695385 ], [ -87.181376, 37.719182 ], [ -87.214827, 37.756783 ], [ -87.227342, 37.799637 ], [ -87.032385, 37.831363 ], [ -87.0313098, 37.83142880000004 ], [ -87.030411, 37.83106 ], [ -87.029509, 37.830681 ], [ -87.0263154, 37.8283756 ], [ -87.012151919732432, 37.815408897887401 ], [ -86.997691002304322, 37.735733092337775 ], [ -87.045219, 37.682876 ], [ -87.130727, 37.681472 ] ] ] } },
{ "type": "Feature", "properties": { "OBJECTID": 633, "ID": "0015261944", "NAME": "PARIS COMMUNITY HOSPITAL", "ADDRESS": "721 E COURT STREET", "CITY": "PARIS", "STATE": "IL", "ZIP": "61944", "ZIP4": "NOT AVAILABLE", "TELEPHONE": "(217) 465-4141", "TYPE": "CRITICAL ACCESS", "STATUS": "OPEN", "POPULATION": 25, "COUNTY": "EDGAR", "COUNTYFIPS": "17045", "COUNTRY": "USA", "LATITUDE": 39.606840038000001, "LONGITUDE": -87.677654701999998, "NAICS_CODE": "622110", "NAICS_DESC": "GENERAL MEDICAL AND SURGICAL HOSPITALS", "SOURCE": "https://data.illinois.gov/", "SOURCEDATE": "2018-08-09T00:00:00.000Z", "VAL_METHOD": "IMAGERY", "VAL_DATE": "2014-03-12T00:00:00.000Z", "WEBSITE": "http://www.pariscommunityhospital.com", "STATE_ID": "141320", "ALT_NAME": "NOT AVAILABLE", "ST_FIPS": "17", "OWNER": "NON-PROFIT", "TTL_STAFF": -999, "BEDS": 25, "TRAUMA": "NOT AVAILABLE", "HELIPAD": "Y" }, "geometry": { "type": "Polygon", "coordinates": [ [ [ -87.676442, 39.531203 ], [ -87.78364, 39.57347 ], [ -87.783295, 39.618181 ], [ -87.783171, 39.618668 ], [ -87.741705, 39.646369 ], [ -87.688935, 39.67697 ], [ -87.652156, 39.672161 ], [ -87.631074, 39.665548 ], [ -87.612278, 39.65767 ], [ -87.593545, 39.643354 ], [ -87.556419, 39.607316 ], [ -87.676442, 39.531203 ] ] ] } },
{ "type": "Feature", "properties": { "OBJECTID": 7118, "ID": "0003442701", "NAME": "HEALTHSOUTH LAKEVIEW REHABILITATION HOSPITAL OF CENTRAL KENTUCKY", "ADDRESS": "134 HEARTLAND DRIVE", "CITY": "ELIZABETHTOWN", "STATE": "KY", "ZIP": "42701", "ZIP4": "NOT AVAILABLE", "TELEPHONE": "(270) 769-3100", "TYPE": "REHABILITATION", "STATUS": "OPEN", "POPULATION": 40, "COUNTY": "HARDIN", "COUNTYFIPS": "21093", "COUNTRY": "USA", "LATITUDE": 37.714635563999998, "LONGITUDE": -85.8750721709999, "NAICS_CODE": "622110", "NAICS_DESC": "GENERAL MEDICAL AND SURGICAL HOSPITALS", "SOURCE": "https://chfs.ky.gov/agencies/os/oig/dhc/Documents/Directories/Hospital_Directory.pdf", "SOURCEDATE": "2018-08-11T00:00:00.000Z", "VAL_METHOD": "IMAGERY/OTHER", "VAL_DATE": "2013-12-17T00:00:00.000Z", "WEBSITE": "http://www.healthsouthlakeview.com", "STATE_ID": "100601", "ALT_NAME": "NOT AVAILABLE", "ST_FIPS": "21", "OWNER": "PROPRIETARY", "TTL_STAFF": -999, "BEDS": 40, "TRAUMA": "NOT AVAILABLE", "HELIPAD": "N" }, "geometry": { "type": "Polygon", "coordinates": [ [ [ -85.811405, 37.613985 ], [ -85.93743, 37.659782299999989 ], [ -85.9376368, 37.659931 ], [ -85.966222, 37.698257 ], [ -85.971374, 37.750414 ], [ -85.933727, 37.800499400000014 ], [ -85.9327293, 37.801183099999989 ], [ -85.9228044, 37.807751 ], [ -85.9209154, 37.808178799999972 ], [ -85.9207046, 37.8082265 ], [ -85.830026, 37.766792 ], [ -85.7913512, 37.73379709999994 ], [ -85.7901966, 37.730767400000019 ], [ -85.808792, 37.61822 ], [ -85.811405, 37.613985 ] ] ] } },
{ "type": "Feature", "properties": { "OBJECTID": 7134, "ID": "0009040509", "NAME": "SAINT JOSEPH EAST", "ADDRESS": "150 N EAGLE CREEK DRIVE", "CITY": "LEXINGTON", "STATE": "KY", "ZIP": "40509", "ZIP4": "NOT AVAILABLE", "TELEPHONE": "(859) 268-3750", "TYPE": "GENERAL ACUTE CARE", "STATUS": "OPEN", "POPULATION": 217, "COUNTY": "FAYETTE", "COUNTYFIPS": "21067", "COUNTRY": "USA", "LATITUDE": 37.999420095000097, "LONGITUDE": -84.439154994999996, "NAICS_CODE": "622110", "NAICS_DESC": "GENERAL MEDICAL AND SURGICAL HOSPITALS", "SOURCE": "https://chfs.ky.gov/agencies/os/oig/dhc/Documents/Directories/Hospital_Directory.pdf", "SOURCEDATE": "2018-08-11T00:00:00.000Z", "VAL_METHOD": "IMAGERY/OTHER", "VAL_DATE": "2014-02-10T00:00:00.000Z", "WEBSITE": "http://www.sjhlex.org/system-locations-saint-joseph-east-lexington-ky-hospital", "STATE_ID": "100538", "ALT_NAME": "NOT AVAILABLE", "ST_FIPS": "21", "OWNER": "NON-PROFIT", "TTL_STAFF": -999, "BEDS": 217, "TRAUMA": "NOT AVAILABLE", "HELIPAD": "N" }, "geometry": { "type": "Polygon", "coordinates": [ [ [ -84.349638, 37.889097 ], [ -84.4193, 37.904218 ], [ -84.424095, 37.906662 ], [ -84.5073305, 37.951567199999985 ], [ -84.53411, 37.967726 ], [ -84.5548812, 38.01357030000004 ], [ -84.552184, 38.019354 ], [ -84.524252, 38.057558 ], [ -84.518086, 38.062034 ], [ -84.504616, 38.070665 ], [ -84.4968612, 38.0756144 ], [ -84.494124, 38.077354 ], [ -84.4701575, 38.08323189999998 ], [ -84.459881, 38.081608 ], [ -84.4504172, 38.078667 ], [ -84.361923, 38.029875 ], [ -84.345178, 37.936249 ], [ -84.349638, 37.889097 ] ] ] } },
{ "type": "Feature", "properties": { "OBJECTID": 7205, "ID": "0002840324", "NAME": "GEORGETOWN COMMUNITY HOSPITAL", "ADDRESS": "1140 LEXINGTON ROAD", "CITY": "GEORGETOWN", "STATE": "KY", "ZIP": "40324", "ZIP4": "NOT AVAILABLE", "TELEPHONE": "(502) 868-1100", "TYPE": "GENERAL ACUTE CARE", "STATUS": "OPEN", "POPULATION": 75, "COUNTY": "SCOTT", "COUNTYFIPS": "21209", "COUNTRY": "USA", "LATITUDE": 38.186518506, "LONGITUDE": -84.560910793999895, "NAICS_CODE": "622110", "NAICS_DESC": "GENERAL MEDICAL AND SURGICAL HOSPITALS", "SOURCE": "https://chfs.ky.gov/agencies/os/oig/dhc/Documents/Directories/Hospital_Directory.pdf", "SOURCEDATE": "2018-08-11T00:00:00.000Z", "VAL_METHOD": "IMAGERY", "VAL_DATE": "2013-12-18T00:00:00.000Z", "WEBSITE": "http://www.georgetowncommunityhospital.com", "STATE_ID": "100380", "ALT_NAME": "NOT AVAILABLE", "ST_FIPS": "21", "OWNER": "PROPRIETARY", "TTL_STAFF": -999, "BEDS": 75, "TRAUMA": "NOT AVAILABLE", "HELIPAD": "N" }, "geometry": { "type": "Polygon", "coordinates": [ [ [ -84.491834600000018, 38.082498599999965 ], [ -84.5114242, 38.0881668 ], [ -84.6369318, 38.128026299999981 ], [ -84.702313, 38.20727 ], [ -84.6557683, 38.2475342 ], [ -84.5622736, 38.2967716 ], [ -84.491791, 38.269681899999988 ], [ -84.464491, 38.220946 ], [ -84.441286, 38.124395 ], [ -84.461207, 38.083044 ], [ -84.491834600000018, 38.082498599999965 ] ] ] } },
{ "type": "Feature", "properties": { "OBJECTID": 7222, "ID": "0002240004", "NAME": "FLAGET MEMORIAL HOSPITAL", "ADDRESS": "4305 NEW SHEPHERDSVILLE ROAD", "CITY": "BARDSTOWN", "STATE": "KY", "ZIP": "40004", "ZIP4": "NOT AVAILABLE", "TELEPHONE": "(502) 350-5000", "TYPE": "GENERAL ACUTE CARE", "STATUS": "OPEN", "POPULATION": 40, "COUNTY": "NELSON", "COUNTYFIPS": "21179", "COUNTRY": "USA", "LATITUDE": 37.861651018000003, "LONGITUDE": -85.523785833999995, "NAICS_CODE": "622110", "NAICS_DESC": "GENERAL MEDICAL AND SURGICAL HOSPITALS", "SOURCE": "https://chfs.ky.gov/agencies/os/oig/dhc/Documents/Directories/Hospital_Directory.pdf", "SOURCEDATE": "2018-08-11T00:00:00.000Z", "VAL_METHOD": "IMAGERY", "VAL_DATE": "2014-02-10T00:00:00.000Z", "WEBSITE": "http://www.flaget.com", "STATE_ID": "100348", "ALT_NAME": "NOT AVAILABLE", "ST_FIPS": "21", "OWNER": "NON-PROFIT", "TTL_STAFF": -999, "BEDS": 40, "TRAUMA": "NOT AVAILABLE", "HELIPAD": "Y" }, "geometry": { "type": "Polygon", "coordinates": [ [ [ -85.472876, 37.797242 ], [ -85.533221, 37.818406 ], [ -85.592229, 37.910933 ], [ -85.596412, 37.918303 ], [ -85.594078, 37.919277 ], [ -85.5806674, 37.922586900000013 ], [ -85.537994, 37.930341 ], [ -85.4683721, 37.9059059 ], [ -85.464742, 37.901866 ], [ -85.4166426, 37.829532900000032 ], [ -85.4174775, 37.8263162 ], [ -85.4322894, 37.803278500000019 ], [ -85.456278, 37.798772 ], [ -85.472876, 37.797242 ] ] ] } },
{ "type": "Feature", "properties": { "OBJECTID": 7237, "ID": "0017562454", "NAME": "CRAWFORD MEMORIAL HOSPITAL", "ADDRESS": "1000 NORTH ALLEN STREET", "CITY": "ROBINSON", "STATE": "IL", "ZIP": "62454", "ZIP4": "NOT AVAILABLE", "TELEPHONE": "(618) 546-2514", "TYPE": "CRITICAL ACCESS", "STATUS": "OPEN", "POPULATION": 63, "COUNTY": "CRAWFORD", "COUNTYFIPS": "17033", "COUNTRY": "USA", "LATITUDE": 39.0145414610001, "LONGITUDE": -87.750416764999997, "NAICS_CODE": "622110", "NAICS_DESC": "GENERAL MEDICAL AND SURGICAL HOSPITALS", "SOURCE": "https://data.illinois.gov/", "SOURCEDATE": "2018-08-09T00:00:00.000Z", "VAL_METHOD": "IMAGERY", "VAL_DATE": "2014-03-12T00:00:00.000Z", "WEBSITE": "http://www.crawfordmh.org", "STATE_ID": "141343", "ALT_NAME": "NOT AVAILABLE", "ST_FIPS": "17", "OWNER": "GOVERNMENT - DISTRICT/AUTHORITY", "TTL_STAFF": -999, "BEDS": 63, "TRAUMA": "NOT AVAILABLE", "HELIPAD": "Y" }, "geometry": { "type": "Polygon", "coordinates": [ [ [ -87.744847, 38.946155 ], [ -87.83324, 38.990128 ], [ -87.848015, 39.003239 ], [ -87.845077, 39.006113 ], [ -87.797273, 39.050105 ], [ -87.768784, 39.065054 ], [ -87.749279, 39.073592 ], [ -87.7307605, 39.066308599999985 ], [ -87.72136, 39.062485 ], [ -87.684573, 39.044617 ], [ -87.667709, 39.022695 ], [ -87.66774, 39.017022 ], [ -87.66797, 39.007993 ], [ -87.670351, 38.993215 ], [ -87.684749, 38.978416 ], [ -87.744847, 38.946155 ] ] ] } },
{ "type": "Feature", "properties": { "OBJECTID": 7239, "ID": "0017162568", "NAME": "TAYLORVILLE MEMORIAL HOSPITAL", "ADDRESS": "201 EAST PLEASANT STREET", "CITY": "TAYLORVILLE", "STATE": "IL", "ZIP": "62568", "ZIP4": "NOT AVAILABLE", "TELEPHONE": "(217) 824-3331", "TYPE": "CRITICAL ACCESS", "STATUS": "OPEN", "POPULATION": 45, "COUNTY": "CHRISTIAN", "COUNTYFIPS": "17021", "COUNTRY": "USA", "LATITUDE": 39.555325371000002, "LONGITUDE": -89.294259542999995, "NAICS_CODE": "622110", "NAICS_DESC": "GENERAL MEDICAL AND SURGICAL HOSPITALS", "SOURCE": "https://data.illinois.gov/", "SOURCEDATE": "2018-08-09T00:00:00.000Z", "VAL_METHOD": "IMAGERY", "VAL_DATE": "2014-03-12T00:00:00.000Z", "WEBSITE": "http://www.taylorvillememorial.org", "STATE_ID": "141339", "ALT_NAME": "NOT AVAILABLE", "ST_FIPS": "17", "OWNER": "NON-PROFIT", "TTL_STAFF": -999, "BEDS": 45, "TRAUMA": "NOT AVAILABLE", "HELIPAD": "Y" }, "geometry": { "type": "Polygon", "coordinates": [ [ [ -89.306688, 39.494434 ], [ -89.3582267, 39.4988926 ], [ -89.3904573, 39.567954900000018 ], [ -89.3687197, 39.6330105 ], [ -89.3685466, 39.633175 ], [ -89.2148295, 39.616622900000031 ], [ -89.208688, 39.4948281 ], [ -89.2324049, 39.494711300000013 ], [ -89.283936, 39.494483 ], [ -89.29718, 39.494433 ], [ -89.306688, 39.494434 ] ] ] } },
{ "type": "Feature", "properties": { "OBJECTID": 7578, "ID": "0181840121", "NAME": "IRELAND ARMY COMMUNITY HOSPITAL", "ADDRESS": "289 IRELAND AVE.", "CITY": "FORT KNOX", "STATE": "KY", "ZIP": "40121", "ZIP4": "NOT AVAILABLE", "TELEPHONE": "(502) 624-9333", "TYPE": "MILITARY", "STATUS": "OPEN", "POPULATION": -999, "COUNTY": "HARDIN", "COUNTYFIPS": "21093", "COUNTRY": "USA", "LATITUDE": 37.9003532, "LONGITUDE": -85.9414375, "NAICS_CODE": "622110", "NAICS_DESC": "GENERAL MEDICAL AND SURGICAL HOSPITALS", "SOURCE": "http://www.tricare.mil/mtf", "SOURCEDATE": "2019-04-02T00:00:00.000Z", "VAL_METHOD": "IMAGERY/OTHER", "VAL_DATE": "2019-05-16T00:00:00.000Z", "WEBSITE": "NOT AVAILABLE", "STATE_ID": "NOT AVAILABLE", "ALT_NAME": "NOT AVAILABLE", "ST_FIPS": "21", "OWNER": "GOVERNMENT - FEDERAL", "TTL_STAFF": -999, "BEDS": -999, "TRAUMA": "NOT AVAILABLE", "HELIPAD": "Y" }, "geometry": { "type": "Polygon", "coordinates": [ [ [ -85.9245756, 37.8174845 ], [ -85.9855462, 37.8325327 ], [ -85.9864254, 37.832822300000011 ], [ -85.989864, 37.850458 ], [ -85.995282, 37.8982409 ], [ -85.995311, 37.901968 ], [ -85.987364900000017, 37.92140639999996 ], [ -85.9615791, 37.968870300000049 ], [ -85.8822726, 37.9353979 ], [ -85.87363, 37.91358730000006 ], [ -85.9243803, 37.81752580000002 ], [ -85.9245756, 37.8174845 ] ] ] } },
{ "type": "Feature", "properties": { "OBJECTID": 5199, "ID": "0013947750", "NAME": "ST MARY'S MEDICAL CENTER OF EVANSVILLE INC", "ADDRESS": "3700 WASHINGTON AVE", "CITY": "EVANSVILLE", "STATE": "IN", "ZIP": "47750", "ZIP4": "NOT AVAILABLE", "TELEPHONE": "(812) 485-4000", "TYPE": "GENERAL ACUTE CARE", "STATUS": "OPEN", "POPULATION": 426, "COUNTY": "VANDERBURGH", "COUNTYFIPS": "18163", "COUNTRY": "USA", "LATITUDE": 37.963344448999997, "LONGITUDE": -87.502926150999897, "NAICS_CODE": "622110", "NAICS_DESC": "GENERAL MEDICAL AND SURGICAL HOSPITALS", "SOURCE": "http://www.in.gov/isdh/reports/QAMIS/hosdir", "SOURCEDATE": "2018-08-16T00:00:00.000Z", "VAL_METHOD": "IMAGERY", "VAL_DATE": "2014-03-12T00:00:00.000Z", "WEBSITE": "http://www.stmarys.org", "STATE_ID": "17-005089-1", "ALT_NAME": "NOT AVAILABLE", "ST_FIPS": "18", "OWNER": "NON-PROFIT", "TTL_STAFF": -999, "BEDS": 426, "TRAUMA": "LEVEL II, LEVEL II PEDIATRIC", "HELIPAD": "Y" }, "geometry": { "type": "Polygon", "coordinates": [ [ [ -87.5034305, 37.9101048 ], [ -87.52791, 37.915163 ], [ -87.5454846, 37.922239699999984 ], [ -87.616374, 37.9595413 ], [ -87.617664, 37.960394 ], [ -87.627883, 37.974253 ], [ -87.627883, 37.977755 ], [ -87.627861, 37.978525 ], [ -87.627702, 37.98104 ], [ -87.626579, 37.986313 ], [ -87.617313, 37.992576 ], [ -87.607788, 37.998461 ], [ -87.584638900000016, 38.01156179999996 ], [ -87.540302, 38.035764 ], [ -87.4898209, 38.0458509 ], [ -87.4221059, 38.019305499999966 ], [ -87.4219344, 38.0191156 ], [ -87.4097784, 37.976639100000057 ], [ -87.4010812, 37.9441616 ], [ -87.5034305, 37.9101048 ] ] ] } },
{ "type": "Feature", "properties": { "OBJECTID": 5247, "ID": "0000840504", "NAME": "CARDINAL HILL REHABILITATION HOSPITAL", "ADDRESS": "2050 VERSAILLES ROAD", "CITY": "LEXINGTON", "STATE": "KY", "ZIP": "40504", "ZIP4": "NOT AVAILABLE", "TELEPHONE": "(859) 254-5701", "TYPE": "REHABILITATION", "STATUS": "OPEN", "POPULATION": 158, "COUNTY": "FAYETTE", "COUNTYFIPS": "21067", "COUNTRY": "USA", "LATITUDE": 38.046972425, "LONGITUDE": -84.541388936000004, "NAICS_CODE": "622110", "NAICS_DESC": "GENERAL MEDICAL AND SURGICAL HOSPITALS", "SOURCE": "https://chfs.ky.gov/agencies/os/oig/dhc/Documents/Directories/Hospital_Directory.pdf", "SOURCEDATE": "2018-08-11T00:00:00.000Z", "VAL_METHOD": "IMAGERY", "VAL_DATE": "2014-02-10T00:00:00.000Z", "WEBSITE": "http://www.cardinalhill.org", "STATE_ID": "100100", "ALT_NAME": "NOT AVAILABLE", "ST_FIPS": "21", "OWNER": "NON-PROFIT", "TTL_STAFF": -999, "BEDS": 158, "TRAUMA": "NOT AVAILABLE", "HELIPAD": "N" }, "geometry": { "type": "Polygon", "coordinates": [ [ [ -84.534566, 37.966665 ], [ -84.5730614, 37.97279060000001 ], [ -84.5755218, 37.973272899999976 ], [ -84.604675, 37.989523 ], [ -84.651745, 38.032873 ], [ -84.639254, 38.063766 ], [ -84.601388, 38.09076 ], [ -84.5733108, 38.103714700000012 ], [ -84.520567, 38.114839 ], [ -84.461106, 38.099046 ], [ -84.441215, 38.084832 ], [ -84.4409049, 38.084519799999974 ], [ -84.4274117, 38.041483699999986 ], [ -84.449708, 38.006263 ], [ -84.460533, 37.992992 ], [ -84.460622, 37.992892 ], [ -84.490437, 37.980882 ], [ -84.534566, 37.966665 ] ] ] } },
{ "type": "Feature", "properties": { "OBJECTID": 5272, "ID": "0007040202", "NAME": "NORTON HOSPITAL", "ADDRESS": "200 EAST CHESTNUT STREET", "CITY": "LOUISVILLE", "STATE": "KY", "ZIP": "40202", "ZIP4": "NOT AVAILABLE", "TELEPHONE": "(502) 629-8000", "TYPE": "GENERAL ACUTE CARE", "STATUS": "OPEN", "POPULATION": 370, "COUNTY": "JEFFERSON", "COUNTYFIPS": "21111", "COUNTRY": "USA", "LATITUDE": 38.247723146000098, "LONGITUDE": -85.750460303999901, "NAICS_CODE": "622110", "NAICS_DESC": "GENERAL MEDICAL AND SURGICAL HOSPITALS", "SOURCE": "https://chfs.ky.gov/agencies/os/oig/dhc/Documents/Directories/Hospital_Directory.pdf", "SOURCEDATE": "2018-08-11T00:00:00.000Z", "VAL_METHOD": "IMAGERY/OTHER", "VAL_DATE": "2014-02-10T00:00:00.000Z", "WEBSITE": "http://www.nortonhealthcare.com/nortonhospital", "STATE_ID": "100234", "ALT_NAME": "NOT AVAILABLE", "ST_FIPS": "21", "OWNER": "NON-PROFIT", "TTL_STAFF": -999, "BEDS": 370, "TRAUMA": "NOT AVAILABLE", "HELIPAD": "Y" }, "geometry": { "type": "Polygon", "coordinates": [ [ [ -85.7034784, 38.1307332 ], [ -85.8143747, 38.183441600000016 ], [ -85.818057, 38.186016 ], [ -85.83013, 38.213602 ], [ -85.832464, 38.245216 ], [ -85.832365, 38.248701 ], [ -85.8323286, 38.249635599999976 ], [ -85.830927, 38.258951 ], [ -85.826288, 38.267497 ], [ -85.7566609, 38.373830300000023 ], [ -85.652324, 38.310456 ], [ -85.633029, 38.283197 ], [ -85.6223892, 38.23730089999998 ], [ -85.7034784, 38.1307332 ] ] ] } },
{ "type": "Feature", "properties": { "OBJECTID": 5281, "ID": "0009340353", "NAME": "SAINT JOSEPH MOUNT STERLING", "ADDRESS": "225 FALCON DRIVE", "CITY": "MT. STERLING", "STATE": "KY", "ZIP": "40353", "ZIP4": "NOT AVAILABLE", "TELEPHONE": "(859) 497-5018", "TYPE": "GENERAL ACUTE CARE", "STATUS": "OPEN", "POPULATION": 42, "COUNTY": "MONTGOMERY", "COUNTYFIPS": "21173", "COUNTRY": "USA", "LATITUDE": 38.077121254000097, "LONGITUDE": -83.945255795999998, "NAICS_CODE": "622110", "NAICS_DESC": "GENERAL MEDICAL AND SURGICAL HOSPITALS", "SOURCE": "https://chfs.ky.gov/agencies/os/oig/dhc/Documents/Directories/Hospital_Directory.pdf", "SOURCEDATE": "2018-08-11T00:00:00.000Z", "VAL_METHOD": "IMAGERY", "VAL_DATE": "2014-02-10T00:00:00.000Z", "WEBSITE": "http://www.sjhlex.org/system-locations-saint-joseph-mount-sterling-mount-sterling-ky", "STATE_ID": "100339", "ALT_NAME": "NOT AVAILABLE", "ST_FIPS": "21", "OWNER": "NON-PROFIT", "TTL_STAFF": -999, "BEDS": 42, "TRAUMA": "NOT AVAILABLE", "HELIPAD": "Y" }, "geometry": { "type": "Polygon", "coordinates": [ [ [ -83.940537, 37.984278 ], [ -83.974331, 37.991295 ], [ -84.027803, 38.02187 ], [ -84.038469, 38.113402 ], [ -83.9926, 38.150204 ], [ -83.978538, 38.156028 ], [ -83.9566575, 38.162795799999977 ], [ -83.87671454465945, 38.137580061057911 ], [ -83.84880574420869, 38.095673321251006 ], [ -83.853755248281345, 38.065921588710211 ], [ -83.854413248540283, 38.063050585369538 ], [ -83.879945140878775, 37.990694388305279 ], [ -83.883167239082582, 37.989958484774014 ], [ -83.940537, 37.984278 ] ] ] } },
{ "type": "Feature", "properties": { "OBJECTID": 5282, "ID": "0009561938", "NAME": "SARAH BUSH LINCOLN HEALTH CENTER", "ADDRESS": "1000 HEALTH CENTER DRIVE, P O BOX 372", "CITY": "MATTOON", "STATE": "IL", "ZIP": "61938", "ZIP4": "NOT AVAILABLE", "TELEPHONE": "(217) 258-2572", "TYPE": "GENERAL ACUTE CARE", "STATUS": "OPEN", "POPULATION": 118, "COUNTY": "COLES", "COUNTYFIPS": "17029", "COUNTRY": "USA", "LATITUDE": 39.488541184, "LONGITUDE": -88.273108637999897, "NAICS_CODE": "622110", "NAICS_DESC": "GENERAL MEDICAL AND SURGICAL HOSPITALS", "SOURCE": "https://data.illinois.gov/", "SOURCEDATE": "2018-08-09T00:00:00.000Z", "VAL_METHOD": "IMAGERY", "VAL_DATE": "2014-03-12T00:00:00.000Z", "WEBSITE": "http://www.sarahbush.org", "STATE_ID": "140189", "ALT_NAME": "NOT AVAILABLE", "ST_FIPS": "17", "OWNER": "NON-PROFIT", "TTL_STAFF": -999, "BEDS": 118, "TRAUMA": "NOT AVAILABLE", "HELIPAD": "Y" }, "geometry": { "type": "Polygon", "coordinates": [ [ [ -88.3783242, 39.428148400000019 ], [ -88.3922884, 39.489456 ], [ -88.322548, 39.535584 ], [ -88.2664316, 39.565041500000014 ], [ -88.160689, 39.485147 ], [ -88.1629277, 39.48315590000005 ], [ -88.176994, 39.473595 ], [ -88.242718, 39.441004 ], [ -88.3783242, 39.428148400000019 ] ] ] } },
{ "type": "Feature", "properties": { "OBJECTID": 5298, "ID": "0000941008", "NAME": "CARROLL COUNTY MEMORIAL HOSPITAL", "ADDRESS": "309 ELEVENTH STREET", "CITY": "CARROLLTON", "STATE": "KY", "ZIP": "41008", "ZIP4": "NOT AVAILABLE", "TELEPHONE": "(502) 732-4321", "TYPE": "CRITICAL ACCESS", "STATUS": "OPEN", "POPULATION": 25, "COUNTY": "CARROLL", "COUNTYFIPS": "21041", "COUNTRY": "USA", "LATITUDE": 38.680312339000103, "LONGITUDE": -85.168786100999995, "NAICS_CODE": "622110", "NAICS_DESC": "GENERAL MEDICAL AND SURGICAL HOSPITALS", "SOURCE": "https://chfs.ky.gov/agencies/os/oig/dhc/Documents/Directories/Hospital_Directory.pdf", "SOURCEDATE": "2018-08-11T00:00:00.000Z", "VAL_METHOD": "IMAGERY", "VAL_DATE": "2014-02-10T00:00:00.000Z", "WEBSITE": "http://www.ccmhosp.com", "STATE_ID": "600061", "ALT_NAME": "NOT AVAILABLE", "ST_FIPS": "21", "OWNER": "GOVERNMENT - DISTRICT/AUTHORITY", "TTL_STAFF": -999, "BEDS": 25, "TRAUMA": "NOT AVAILABLE", "HELIPAD": "Y" }, "geometry": { "type": "Polygon", "coordinates": [ [ [ -85.191161, 38.62415 ], [ -85.227985, 38.631685 ], [ -85.229081, 38.632014 ], [ -85.252607, 38.656851 ], [ -85.261203, 38.703349 ], [ -85.243851, 38.714409 ], [ -85.0855643, 38.722047699999962 ], [ -85.072278, 38.679045 ], [ -85.073543, 38.674373 ], [ -85.088499, 38.621535 ], [ -85.191161, 38.62415 ] ] ] } },
{ "type": "Feature", "properties": { "OBJECTID": 5299, "ID": "0004742502", "NAME": "LAKE CUMBERLAND REGIONAL HOSPITAL", "ADDRESS": "305 LANGDON STREET", "CITY": "SOMERSET", "STATE": "KY", "ZIP": "42502", "ZIP4": "NOT AVAILABLE", "TELEPHONE": "(606) 679-7441", "TYPE": "GENERAL ACUTE CARE", "STATUS": "OPEN", "POPULATION": 295, "COUNTY": "PULASKI", "COUNTYFIPS": "21199", "COUNTRY": "USA", "LATITUDE": 37.08600628, "LONGITUDE": -84.620177051, "NAICS_CODE": "622110", "NAICS_DESC": "GENERAL MEDICAL AND SURGICAL HOSPITALS", "SOURCE": "https://chfs.ky.gov/agencies/os/oig/dhc/Documents/Directories/Hospital_Directory.pdf", "SOURCEDATE": "2018-08-11T00:00:00.000Z", "VAL_METHOD": "IMAGERY", "VAL_DATE": "2013-12-19T00:00:00.000Z", "WEBSITE": "http://www.lakecumberlandhospital.com", "STATE_ID": "100959", "ALT_NAME": "NOT AVAILABLE", "ST_FIPS": "21", "OWNER": "PROPRIETARY", "TTL_STAFF": -999, "BEDS": 295, "TRAUMA": "NOT AVAILABLE", "HELIPAD": "Y" }, "geometry": { "type": "Polygon", "coordinates": [ [ [ -84.6127729, 36.995463499999985 ], [ -84.6598581, 37.014900499999982 ], [ -84.693313, 37.047625 ], [ -84.692024, 37.108441 ], [ -84.663372, 37.150178 ], [ -84.637498, 37.180398 ], [ -84.6231523, 37.1903902 ], [ -84.6229259, 37.1903815 ], [ -84.532613, 37.151011 ], [ -84.524527, 37.079272 ], [ -84.6085991, 36.997875499999971 ], [ -84.6127729, 36.995463499999985 ] ] ] } },
{ "type": "Feature", "properties": { "OBJECTID": 5315, "ID": "0004240031", "NAME": "KENTUCKY CORRECTIONAL PSYCHIATRIC CENTER", "ADDRESS": "1612 DAWKINS ROAD", "CITY": "LAGRANGE", "STATE": "KY", "ZIP": "40031", "ZIP4": "NOT AVAILABLE", "TELEPHONE": "(502) 222-7161", "TYPE": "PSYCHIATRIC", "STATUS": "OPEN", "POPULATION": 97, "COUNTY": "OLDHAM", "COUNTYFIPS": "21185", "COUNTRY": "USA", "LATITUDE": 38.412076794000001, "LONGITUDE": -85.422126726000002, "NAICS_CODE": "622110", "NAICS_DESC": "GENERAL MEDICAL AND SURGICAL HOSPITALS", "SOURCE": "https://chfs.ky.gov/agencies/os/oig/dhc/Documents/Directories/Hospital_Directory.pdf", "SOURCEDATE": "2018-08-11T00:00:00.000Z", "VAL_METHOD": "IMAGERY", "VAL_DATE": "2014-02-10T00:00:00.000Z", "WEBSITE": "http://kentucky.gov/Pages/home.aspx", "STATE_ID": "100528", "ALT_NAME": "NOT AVAILABLE", "ST_FIPS": "21", "OWNER": "GOVERNMENT - STATE", "TTL_STAFF": -999, "BEDS": 97, "TRAUMA": "NOT AVAILABLE", "HELIPAD": "Y" }, "geometry": { "type": "Polygon", "coordinates": [ [ [ -85.446321, 38.363319 ], [ -85.452582, 38.365913 ], [ -85.463194, 38.378617 ], [ -85.468497, 38.419005 ], [ -85.458524, 38.425392 ], [ -85.440138, 38.434325 ], [ -85.384108, 38.445599 ], [ -85.367824, 38.446174 ], [ -85.3414273, 38.432343899999964 ], [ -85.329617, 38.400573 ], [ -85.357228, 38.369838 ], [ -85.359429, 38.368387 ], [ -85.393053, 38.362889 ], [ -85.421865, 38.361899 ], [ -85.446321, 38.363319 ] ] ] } },
{ "type": "Feature", "properties": { "OBJECTID": 5476, "ID": "0019247250", "NAME": "KING'S DAUGHTERS' HEALTH", "ADDRESS": "1373 EAST SR 62", "CITY": "MADISON", "STATE": "IN", "ZIP": "47250", "ZIP4": "NOT AVAILABLE", "TELEPHONE": "(812) 801-0105", "TYPE": "GENERAL ACUTE CARE", "STATUS": "OPEN", "POPULATION": 72, "COUNTY": "JEFFERSON", "COUNTYFIPS": "18077", "COUNTRY": "USA", "LATITUDE": 38.792507239000003, "LONGITUDE": -85.364297964999906, "NAICS_CODE": "622110", "NAICS_DESC": "GENERAL MEDICAL AND SURGICAL HOSPITALS", "SOURCE": "http://www.in.gov/isdh/reports/QAMIS/hosdir", "SOURCEDATE": "2018-08-16T00:00:00.000Z", "VAL_METHOD": "IMAGERY", "VAL_DATE": "2016-04-27T00:00:00.000Z", "WEBSITE": "http://www.kdhmadison.org/", "STATE_ID": "17-005063-1", "ALT_NAME": "NOT AVAILABLE", "ST_FIPS": "18", "OWNER": "NON-PROFIT", "TTL_STAFF": -999, "BEDS": 72, "TRAUMA": "NOT AVAILABLE", "HELIPAD": "Y" }, "geometry": { "type": "Polygon", "coordinates": [ [ [ -85.370493, 38.724357500000032 ], [ -85.449944, 38.7528 ], [ -85.459398, 38.769882 ], [ -85.462358, 38.816634 ], [ -85.375605, 38.876487 ], [ -85.34544, 38.850509 ], [ -85.344634, 38.849669 ], [ -85.313259, 38.806248 ], [ -85.312593, 38.804278 ], [ -85.312835, 38.793784 ], [ -85.314686, 38.777177 ], [ -85.320321, 38.767676 ], [ -85.3535127, 38.733256800000042 ], [ -85.370493, 38.724357500000032 ] ] ] } },
{ "type": "Feature", "properties": { "OBJECTID": 5575, "ID": "0008340509", "NAME": "THE RIDGE BEHAVIORAL HEALTH SYSTEM", "ADDRESS": "3050 RIO DOSA DRIVE", "CITY": "LEXINGTON", "STATE": "KY", "ZIP": "40509", "ZIP4": "NOT AVAILABLE", "TELEPHONE": "(859) 269-2325", "TYPE": "PSYCHIATRIC", "STATUS": "OPEN", "POPULATION": 110, "COUNTY": "FAYETTE", "COUNTYFIPS": "21067", "COUNTRY": "USA", "LATITUDE": 38.004793651999996, "LONGITUDE": -84.442405520999998, "NAICS_CODE": "622110", "NAICS_DESC": "GENERAL MEDICAL AND SURGICAL HOSPITALS", "SOURCE": "https://chfs.ky.gov/agencies/os/oig/dhc/Documents/Directories/Hospital_Directory.pdf", "SOURCEDATE": "2018-08-11T00:00:00.000Z", "VAL_METHOD": "IMAGERY", "VAL_DATE": "2014-02-10T00:00:00.000Z", "WEBSITE": "http://www.ridgebhs.com", "STATE_ID": "100534", "ALT_NAME": "NOT AVAILABLE", "ST_FIPS": "21", "OWNER": "PROPRIETARY", "TTL_STAFF": -999, "BEDS": 110, "TRAUMA": "NOT AVAILABLE", "HELIPAD": "N" }, "geometry": { "type": "Polygon", "coordinates": [ [ [ -84.420943, 37.911343 ], [ -84.510162400000013, 37.952779200000016 ], [ -84.534566, 37.966665 ], [ -84.5433687, 37.980495499999982 ], [ -84.5592124, 38.010824300000017 ], [ -84.5573647, 38.0155837 ], [ -84.532104, 38.058369 ], [ -84.523517, 38.06571 ], [ -84.5227448, 38.066365300000037 ], [ -84.48039, 38.097295 ], [ -84.441215, 38.084832 ], [ -84.347662, 38.029372 ], [ -84.365715, 37.91821 ], [ -84.420943, 37.911343 ] ] ] } },
{ "type": "Feature", "properties": { "OBJECTID": 5576, "ID": "0011540508", "NAME": "UK HEALTHCARE GOOD SAMARITAN HOSPITAL", "ADDRESS": "310 SOUTH LIMESTONE STREET", "CITY": "LEXINGTON", "STATE": "KY", "ZIP": "40508", "ZIP4": "NOT AVAILABLE", "TELEPHONE": "(859) 257-6467", "TYPE": "GENERAL ACUTE CARE", "STATUS": "OPEN", "POPULATION": 221, "COUNTY": "FAYETTE", "COUNTYFIPS": "21067", "COUNTRY": "USA", "LATITUDE": 38.042311407000099, "LONGITUDE": -84.501038955, "NAICS_CODE": "622110", "NAICS_DESC": "GENERAL MEDICAL AND SURGICAL HOSPITALS", "SOURCE": "https://chfs.ky.gov/agencies/os/oig/dhc/Documents/Directories/Hospital_Directory.pdf", "SOURCEDATE": "2018-08-11T00:00:00.000Z", "VAL_METHOD": "IMAGERY", "VAL_DATE": "2013-12-17T00:00:00.000Z", "WEBSITE": "http://www.ukhealthcare.uky.edu/samaritan", "STATE_ID": "100104", "ALT_NAME": "NOT AVAILABLE", "ST_FIPS": "21", "OWNER": "GOVERNMENT - STATE", "TTL_STAFF": -999, "BEDS": 221, "TRAUMA": "NOT AVAILABLE", "HELIPAD": "N" }, "geometry": { "type": "Polygon", "coordinates": [ [ [ -84.492814, 37.956578 ], [ -84.5240351, 37.959983400000034 ], [ -84.528345, 37.960697 ], [ -84.535632, 37.963214 ], [ -84.570397, 37.97803 ], [ -84.5952599, 37.988697199999933 ], [ -84.5990241, 37.991480099999976 ], [ -84.600199, 37.993005 ], [ -84.600947100000013, 37.994170100000012 ], [ -84.623626, 38.042935 ], [ -84.590153, 38.086705 ], [ -84.531525, 38.118112 ], [ -84.487052, 38.132054400000023 ], [ -84.441286, 38.124395 ], [ -84.410672, 38.10524 ], [ -84.4103999, 38.105020699999962 ], [ -84.4100446, 38.104718099999971 ], [ -84.374682, 38.033142 ], [ -84.415776, 37.958902 ], [ -84.492814, 37.956578 ] ] ] } },
{ "type": "Feature", "properties": { "OBJECTID": 3027, "ID": "0010947586", "NAME": "PERRY COUNTY MEMORIAL HOSPITAL", "ADDRESS": "ONE HOSPITAL RD", "CITY": "TELL CITY", "STATE": "IN", "ZIP": "47586", "ZIP4": "NOT AVAILABLE", "TELEPHONE": "(812) 547-7011", "TYPE": "CRITICAL ACCESS", "STATUS": "OPEN", "POPULATION": 25, "COUNTY": "PERRY", "COUNTYFIPS": "18123", "COUNTRY": "USA", "LATITUDE": 37.9278612640001, "LONGITUDE": -86.758542198000001, "NAICS_CODE": "622110", "NAICS_DESC": "GENERAL MEDICAL AND SURGICAL HOSPITALS", "SOURCE": "http://www.in.gov/isdh/reports/QAMIS/hosdir", "SOURCEDATE": "2018-08-16T00:00:00.000Z", "VAL_METHOD": "IMAGERY", "VAL_DATE": "2014-01-24T00:00:00.000Z", "WEBSITE": "http://www.pchospital.org", "STATE_ID": "12-005064-1", "ALT_NAME": "NOT AVAILABLE", "ST_FIPS": "18", "OWNER": "GOVERNMENT - LOCAL", "TTL_STAFF": -999, "BEDS": 25, "TRAUMA": "NOT AVAILABLE", "HELIPAD": "Y" }, "geometry": { "type": "Polygon", "coordinates": [ [ [ -86.7294532, 37.900962100000044 ], [ -86.7437047, 37.9037443 ], [ -86.7630206, 37.932143099999983 ], [ -86.8061523, 37.99571539999998 ], [ -86.8060821, 37.9958473 ], [ -86.8036614, 37.996763 ], [ -86.6985068, 37.9991762 ], [ -86.671791499999983, 37.915842400000045 ], [ -86.6938846, 37.909068099999978 ], [ -86.7280475, 37.901191499999968 ], [ -86.7294532, 37.900962100000044 ] ] ] } },
{ "type": "Feature", "properties": { "OBJECTID": 3034, "ID": "0005447714", "NAME": "HEALTHSOUTH DEACONESS REHABILITATION HOSPITAL", "ADDRESS": "4100 COVERT AVE", "CITY": "EVANSVILLE", "STATE": "IN", "ZIP": "47714", "ZIP4": "NOT AVAILABLE", "TELEPHONE": "(812) 476-9983", "TYPE": "REHABILITATION", "STATUS": "OPEN", "POPULATION": 103, "COUNTY": "VANDERBURGH", "COUNTYFIPS": "18163", "COUNTRY": "USA", "LATITUDE": 37.956130735000002, "LONGITUDE": -87.500695412, "NAICS_CODE": "622310", "NAICS_DESC": "REHABILITATION HOSPITALS (EXCEPT ALCOHOLISM, DRUG ADDICTION)", "SOURCE": "http://www.in.gov/isdh/reports/QAMIS/hosdir", "SOURCEDATE": "2018-08-16T00:00:00.000Z", "VAL_METHOD": "IMAGERY", "VAL_DATE": "2014-01-22T00:00:00.000Z", "WEBSITE": "http://www.healthsouthdeaconess.com", "STATE_ID": "17-005164-1", "ALT_NAME": "NOT AVAILABLE", "ST_FIPS": "18", "OWNER": "PROPRIETARY", "TTL_STAFF": -999, "BEDS": 103, "TRAUMA": "NOT AVAILABLE", "HELIPAD": "N" }, "geometry": { "type": "Polygon", "coordinates": [ [ [ -87.5034305, 37.9101048 ], [ -87.52791, 37.915163 ], [ -87.5454846, 37.922239699999984 ], [ -87.6100902, 37.96505410000001 ], [ -87.618968, 37.975862 ], [ -87.62005, 37.978691 ], [ -87.615818, 37.985089 ], [ -87.6123562, 37.98767 ], [ -87.600861, 37.995686 ], [ -87.582618, 38.006354 ], [ -87.5407573, 38.028169299999981 ], [ -87.4915132, 38.0450041 ], [ -87.4221059, 38.019305499999966 ], [ -87.4219344, 38.0191156 ], [ -87.3908156, 37.9425039 ], [ -87.3911676, 37.940609099999953 ], [ -87.391715, 37.939940100000015 ], [ -87.5034305, 37.9101048 ] ] ] } },
{ "type": "Feature", "properties": { "OBJECTID": 3035, "ID": "0005347802", "NAME": "HARSHA BEHAVIORAL CENTER INC", "ADDRESS": "1420 E CROSSING BLVD", "CITY": "TERRE HAUTE", "STATE": "IN", "ZIP": "47802", "ZIP4": "NOT AVAILABLE", "TELEPHONE": "(812) 298-8888", "TYPE": "PSYCHIATRIC", "STATUS": "OPEN", "POPULATION": 36, "COUNTY": "VIGO", "COUNTYFIPS": "18167", "COUNTRY": "USA", "LATITUDE": 39.3985767120001, "LONGITUDE": -87.398919636999906, "NAICS_CODE": "622210", "NAICS_DESC": "PSYCHIATRIC AND SUBSTANCE ABUSE HOSPITALS", "SOURCE": "http://www.in.gov/isdh/reports/QAMIS/hosdir", "SOURCEDATE": "2018-08-16T00:00:00.000Z", "VAL_METHOD": "IMAGERY", "VAL_DATE": "2014-02-10T00:00:00.000Z", "WEBSITE": "http://www.harshacenter.com", "STATE_ID": "NOT AVAILABLE", "ALT_NAME": "NOT AVAILABLE", "ST_FIPS": "18", "OWNER": "PROPRIETARY", "TTL_STAFF": -999, "BEDS": 36, "TRAUMA": "NOT AVAILABLE", "HELIPAD": "N" }, "geometry": { "type": "Polygon", "coordinates": [ [ [ -87.3926362, 39.273755299999976 ], [ -87.475421, 39.368637 ], [ -87.475721, 39.369737 ], [ -87.4838206, 39.433581500000031 ], [ -87.4753839, 39.455028100000035 ], [ -87.4590142, 39.467618600000044 ], [ -87.4169405, 39.496463499999976 ], [ -87.3978157, 39.4920876 ], [ -87.3327859, 39.448291200000028 ], [ -87.3143736, 39.433805099999965 ], [ -87.3130154, 39.377529800000019 ], [ -87.3130963, 39.375736 ], [ -87.3242678, 39.343592699999988 ], [ -87.3885713, 39.2737754 ], [ -87.3926362, 39.273755299999976 ] ] ] } },
{ "type": "Feature", "properties": { "OBJECTID": 3048, "ID": "0006347421", "NAME": "INDIANA UNIVERSITY HEALTH BEDFORD HOSPITAL", "ADDRESS": "2900 W 16TH ST", "CITY": "BEDFORD", "STATE": "IN", "ZIP": "47421", "ZIP4": "NOT AVAILABLE", "TELEPHONE": "(812) 275-1200", "TYPE": "CRITICAL ACCESS", "STATUS": "OPEN", "POPULATION": 25, "COUNTY": "LAWRENCE", "COUNTYFIPS": "18093", "COUNTRY": "USA", "LATITUDE": 38.859920877, "LONGITUDE": -86.513198317000004, "NAICS_CODE": "622110", "NAICS_DESC": "GENERAL MEDICAL AND SURGICAL HOSPITALS", "SOURCE": "http://www.in.gov/isdh/reports/QAMIS/hosdir", "SOURCEDATE": "2018-08-16T00:00:00.000Z", "VAL_METHOD": "IMAGERY", "VAL_DATE": "2014-03-12T00:00:00.000Z", "WEBSITE": "http://www.iuhealth.com", "STATE_ID": "17-004683-1", "ALT_NAME": "NOT AVAILABLE", "ST_FIPS": "18", "OWNER": "NON-PROFIT", "TTL_STAFF": -999, "BEDS": 25, "TRAUMA": "NOT AVAILABLE", "HELIPAD": "Y" }, "geometry": { "type": "Polygon", "coordinates": [ [ [ -86.4981184, 38.760372600000046 ], [ -86.5504359, 38.781517900000026 ], [ -86.6083404, 38.823144699999936 ], [ -86.6151205, 38.8609836 ], [ -86.5909196, 38.927874099999975 ], [ -86.5508437, 38.9713483 ], [ -86.3943634, 38.8754363 ], [ -86.4264849, 38.834673200000012 ], [ -86.4968631, 38.760381 ], [ -86.4981184, 38.760372600000046 ] ] ] } },
{ "type": "Feature", "properties": { "OBJECTID": 3050, "ID": "0004947441", "NAME": "GREENE COUNTY GENERAL HOSPITAL", "ADDRESS": "1185 N 1000 W", "CITY": "LINTON", "STATE": "IN", "ZIP": "47441", "ZIP4": "NOT AVAILABLE", "TELEPHONE": "(812) 847-2281", "TYPE": "CRITICAL ACCESS", "STATUS": "OPEN", "POPULATION": 25, "COUNTY": "GREENE", "COUNTYFIPS": "18055", "COUNTRY": "USA", "LATITUDE": 39.040742209000001, "LONGITUDE": -87.130309913999994, "NAICS_CODE": "622110", "NAICS_DESC": "GENERAL MEDICAL AND SURGICAL HOSPITALS", "SOURCE": "http://www.in.gov/isdh/reports/QAMIS/hosdir", "SOURCEDATE": "2018-08-16T00:00:00.000Z", "VAL_METHOD": "IMAGERY", "VAL_DATE": "2014-03-12T00:00:00.000Z", "WEBSITE": "http://www.greenecountyhospital.com", "STATE_ID": "17-005061-1", "ALT_NAME": "NOT AVAILABLE", "ST_FIPS": "18", "OWNER": "GOVERNMENT - LOCAL", "TTL_STAFF": -999, "BEDS": 25, "TRAUMA": "NOT AVAILABLE", "HELIPAD": "Y" }, "geometry": { "type": "Polygon", "coordinates": [ [ [ -87.1484564, 38.981896800000051 ], [ -87.1857888, 38.9943777 ], [ -87.222463, 39.030946 ], [ -87.2087394, 39.067075400000022 ], [ -87.1476441, 39.1035544 ], [ -87.1290587, 39.111024500000056 ], [ -87.01183738562564, 39.079386378404507 ], [ -86.987968107761418, 39.028873105190954 ], [ -87.0800391, 38.988916899999957 ], [ -87.0914036, 38.9849933 ], [ -87.1484564, 38.981896800000051 ] ] ] } },
{ "type": "Feature", "properties": { "OBJECTID": 3051, "ID": "0004647670", "NAME": "GIBSON GENERAL HOSPITAL", "ADDRESS": "1808 SHERMAN DR", "CITY": "PRINCETON", "STATE": "IN", "ZIP": "47670", "ZIP4": "NOT AVAILABLE", "TELEPHONE": "(812) 385-3401", "TYPE": "CRITICAL ACCESS", "STATUS": "OPEN", "POPULATION": 25, "COUNTY": "GIBSON", "COUNTYFIPS": "18051", "COUNTRY": "USA", "LATITUDE": 38.360917272999998, "LONGITUDE": -87.589832205999997, "NAICS_CODE": "622110", "NAICS_DESC": "GENERAL MEDICAL AND SURGICAL HOSPITALS", "SOURCE": "http://www.in.gov/isdh/reports/QAMIS/hosdir", "SOURCEDATE": "2018-08-16T00:00:00.000Z", "VAL_METHOD": "IMAGERY", "VAL_DATE": "2014-02-10T00:00:00.000Z", "WEBSITE": "http://www.gibsongeneral.com", "STATE_ID": "17-005019-1", "ALT_NAME": "NOT AVAILABLE", "ST_FIPS": "18", "OWNER": "NON-PROFIT", "TTL_STAFF": -999, "BEDS": 25, "TRAUMA": "NOT AVAILABLE", "HELIPAD": "N" }, "geometry": { "type": "Polygon", "coordinates": [ [ [ -87.5678185, 38.279789899999976 ], [ -87.687096, 38.34792 ], [ -87.687098, 38.348548 ], [ -87.6870626, 38.355346700000013 ], [ -87.6870597, 38.355898399999958 ], [ -87.630592, 38.406363 ], [ -87.611284, 38.421068 ], [ -87.602033, 38.4279 ], [ -87.575338, 38.442016 ], [ -87.572223, 38.44206 ], [ -87.571947, 38.442052 ], [ -87.565477, 38.441799 ], [ -87.5375534, 38.405696900000066 ], [ -87.517464, 38.373903 ], [ -87.5056703, 38.351326400000019 ], [ -87.501896, 38.333001 ], [ -87.501984, 38.328271 ], [ -87.5678185, 38.279789899999976 ] ] ] } },
{ "type": "Feature", "properties": { "OBJECTID": 3139, "ID": "0016047842", "NAME": "UNION HOSPITAL CLINTON", "ADDRESS": "801 S MAIN ST", "CITY": "CLINTON", "STATE": "IN", "ZIP": "47842", "ZIP4": "NOT AVAILABLE", "TELEPHONE": "(765) 832-1234", "TYPE": "CRITICAL ACCESS", "STATUS": "OPEN", "POPULATION": 25, "COUNTY": "VERMILLION", "COUNTYFIPS": "18165", "COUNTRY": "USA", "LATITUDE": 39.652902508000103, "LONGITUDE": -87.39918421, "NAICS_CODE": "622110", "NAICS_DESC": "GENERAL MEDICAL AND SURGICAL HOSPITALS", "SOURCE": "http://www.in.gov/isdh/reports/QAMIS/hosdir", "SOURCEDATE": "2018-08-16T00:00:00.000Z", "VAL_METHOD": "IMAGERY", "VAL_DATE": "2014-03-12T00:00:00.000Z", "WEBSITE": "http://www.uhhg.org/wcch/index.html", "STATE_ID": "17-005055-1", "ALT_NAME": "NOT AVAILABLE", "ST_FIPS": "18", "OWNER": "NON-PROFIT", "TTL_STAFF": -999, "BEDS": 25, "TRAUMA": "NOT AVAILABLE", "HELIPAD": "Y" }, "geometry": { "type": "Polygon", "coordinates": [ [ [ -87.4379051, 39.589454 ], [ -87.4464422, 39.6004183 ], [ -87.4969423, 39.665489700000016 ], [ -87.497914, 39.667733 ], [ -87.403904, 39.739147 ], [ -87.398678, 39.741064 ], [ -87.398402, 39.74103 ], [ -87.38367, 39.724891 ], [ -87.385229, 39.697681 ], [ -87.3929144, 39.6567575 ], [ -87.398717, 39.63335 ], [ -87.417619, 39.596335799999984 ], [ -87.4373512, 39.589449899999963 ], [ -87.4376148, 39.5894485 ], [ -87.4379051, 39.589454 ] ] ] } },
{ "type": "Feature", "properties": { "OBJECTID": 3141, "ID": "0014047601", "NAME": "ST MARY'S WARRICK HOSPITAL INC", "ADDRESS": "1116 MILLIS AVE", "CITY": "BOONVILLE", "STATE": "IN", "ZIP": "47601", "ZIP4": "NOT AVAILABLE", "TELEPHONE": "(812) 897-4800", "TYPE": "CRITICAL ACCESS", "STATUS": "OPEN", "POPULATION": 35, "COUNTY": "WARRICK", "COUNTYFIPS": "18173", "COUNTRY": "USA", "LATITUDE": 38.041928632000101, "LONGITUDE": -87.262811198999898, "NAICS_CODE": "622110", "NAICS_DESC": "GENERAL MEDICAL AND SURGICAL HOSPITALS", "SOURCE": "http://www.in.gov/isdh/reports/QAMIS/hosdir", "SOURCEDATE": "2018-08-16T00:00:00.000Z", "VAL_METHOD": "IMAGERY", "VAL_DATE": "2014-02-10T00:00:00.000Z", "WEBSITE": "http://www.stmarys.org/warrick", "STATE_ID": "17-005111-1", "ALT_NAME": "NOT AVAILABLE", "ST_FIPS": "18", "OWNER": "NON-PROFIT", "TTL_STAFF": -999, "BEDS": 35, "TRAUMA": "NOT AVAILABLE", "HELIPAD": "N" }, "geometry": { "type": "Polygon", "coordinates": [ [ [ -87.285028, 37.977805 ], [ -87.3123786, 37.990356599999984 ], [ -87.3590307, 38.020234 ], [ -87.3747338, 38.0414117 ], [ -87.370034, 38.046948599999972 ], [ -87.3679015, 38.0492826 ], [ -87.2834968, 38.120477500000021 ], [ -87.226839, 38.090944 ], [ -87.1636044, 38.0547086 ], [ -87.1564624, 38.0401856 ], [ -87.1856463, 38.0063647 ], [ -87.214027, 37.98962 ], [ -87.257432, 37.981846499999982 ], [ -87.285028, 37.977805 ] ] ] } },
{ "type": "Feature", "properties": { "OBJECTID": 3146, "ID": "0015547882", "NAME": "SULLIVAN COUNTY COMMUNITY HOSPITAL", "ADDRESS": "2200 N SECTION ST", "CITY": "SULLIVAN", "STATE": "IN", "ZIP": "47882", "ZIP4": "NOT AVAILABLE", "TELEPHONE": "(812) 268-4311", "TYPE": "CRITICAL ACCESS", "STATUS": "OPEN", "POPULATION": 25, "COUNTY": "SULLIVAN", "COUNTYFIPS": "18153", "COUNTRY": "USA", "LATITUDE": 39.125570249000098, "LONGITUDE": -87.412610068999996, "NAICS_CODE": "622110", "NAICS_DESC": "GENERAL MEDICAL AND SURGICAL HOSPITALS", "SOURCE": "http://www.in.gov/isdh/reports/QAMIS/hosdir", "SOURCEDATE": "2018-08-16T00:00:00.000Z", "VAL_METHOD": "IMAGERY", "VAL_DATE": "2014-01-24T00:00:00.000Z", "WEBSITE": "http://www.schosp.com", "STATE_ID": "17-005013-1", "ALT_NAME": "NOT AVAILABLE", "ST_FIPS": "18", "OWNER": "GOVERNMENT - LOCAL", "TTL_STAFF": -999, "BEDS": 25, "TRAUMA": "NOT AVAILABLE", "HELIPAD": "Y" }, "geometry": { "type": "Polygon", "coordinates": [ [ [ -87.4095845, 39.0543214 ], [ -87.484855, 39.1082579 ], [ -87.4848864, 39.109512199999976 ], [ -87.4225942, 39.186459599999964 ], [ -87.3895664, 39.2082624 ], [ -87.3892445, 39.208262399999974 ], [ -87.3711109, 39.186436699999966 ], [ -87.3484846, 39.128214400000033 ], [ -87.372584, 39.0754907 ], [ -87.408954, 39.054304 ], [ -87.4092686, 39.054309900000035 ], [ -87.4095845, 39.0543214 ] ] ] } },
{ "type": "Feature", "properties": { "OBJECTID": 3149, "ID": "0013147170", "NAME": "SCOTT COUNTY MEMORIAL HOSPITAL AKA SCOTT MEMORIAL", "ADDRESS": "1451 N GARDNER ST", "CITY": "SCOTTSBURG", "STATE": "IN", "ZIP": "47170", "ZIP4": "NOT AVAILABLE", "TELEPHONE": "(812) 752-3456", "TYPE": "CRITICAL ACCESS", "STATUS": "OPEN", "POPULATION": 25, "COUNTY": "SCOTT", "COUNTYFIPS": "18143", "COUNTRY": "USA", "LATITUDE": 38.704989842000003, "LONGITUDE": -85.786184974999998, "NAICS_CODE": "622110", "NAICS_DESC": "GENERAL MEDICAL AND SURGICAL HOSPITALS", "SOURCE": "http://www.in.gov/isdh/reports/QAMIS/hosdir", "SOURCEDATE": "2018-08-16T00:00:00.000Z", "VAL_METHOD": "IMAGERY", "VAL_DATE": "2014-01-23T00:00:00.000Z", "WEBSITE": "http://www.scottmemorial.com", "STATE_ID": "17-004778-1", "ALT_NAME": "NOT AVAILABLE", "ST_FIPS": "18", "OWNER": "GOVERNMENT - LOCAL", "TTL_STAFF": -999, "BEDS": 25, "TRAUMA": "NOT AVAILABLE", "HELIPAD": "Y" }, "geometry": { "type": "Polygon", "coordinates": [ [ [ -85.774779, 38.597135 ], [ -85.775417, 38.597203 ], [ -85.786493, 38.60488 ], [ -85.86912, 38.681682 ], [ -85.8437578, 38.74275760000004 ], [ -85.8230754, 38.771329700000017 ], [ -85.781277, 38.774776 ], [ -85.736199, 38.752305 ], [ -85.7234731, 38.743681399999979 ], [ -85.691619, 38.686134 ], [ -85.774779, 38.597135 ] ] ] } },
{ "type": "Feature", "properties": { "OBJECTID": 3326, "ID": "0004840160", "NAME": "LINCOLN TRAIL BEHAVIORAL HEALTH SYSTEM", "ADDRESS": "3909 SOUTH WILSON ROAD", "CITY": "RADCLIFF", "STATE": "KY", "ZIP": "40160", "ZIP4": "NOT AVAILABLE", "TELEPHONE": "(270) 351-9444", "TYPE": "PSYCHIATRIC", "STATUS": "OPEN", "POPULATION": 140, "COUNTY": "HARDIN", "COUNTYFIPS": "21093", "COUNTRY": "USA", "LATITUDE": 37.787923683000002, "LONGITUDE": -85.9147806349999, "NAICS_CODE": "622110", "NAICS_DESC": "GENERAL MEDICAL AND SURGICAL HOSPITALS", "SOURCE": "https://chfs.ky.gov/agencies/os/oig/dhc/Documents/Directories/Hospital_Directory.pdf", "SOURCEDATE": "2018-08-11T00:00:00.000Z", "VAL_METHOD": "IMAGERY", "VAL_DATE": "2014-02-10T00:00:00.000Z", "WEBSITE": "http://www.lincolnbehavioral.com", "STATE_ID": "100574", "ALT_NAME": "NOT AVAILABLE", "ST_FIPS": "21", "OWNER": "PROPRIETARY", "TTL_STAFF": -999, "BEDS": 140, "TRAUMA": "NOT AVAILABLE", "HELIPAD": "N" }, "geometry": { "type": "Polygon", "coordinates": [ [ [ -85.867962, 37.689397 ], [ -85.893009, 37.693703 ], [ -85.89607, 37.694551 ], [ -85.978437, 37.738365 ], [ -86.0307104, 37.82670369999996 ], [ -86.0301201, 37.829671799999971 ], [ -85.969576, 37.883385 ], [ -85.9621994, 37.8824283 ], [ -85.9390009, 37.8773997 ], [ -85.9388489, 37.877351399999988 ], [ -85.8295667, 37.825427799999986 ], [ -85.77971, 37.801674 ], [ -85.85766, 37.69285 ], [ -85.867962, 37.689397 ] ] ] } },
{ "type": "Feature", "properties": { "OBJECTID": 3341, "ID": "0001240503", "NAME": "BAPTIST HEALTH LEXINGTON", "ADDRESS": "1740 NICHOLASVILLE ROAD", "CITY": "LEXINGTON", "STATE": "KY", "ZIP": "40503", "ZIP4": "NOT AVAILABLE", "TELEPHONE": "(859) 260-6100", "TYPE": "GENERAL ACUTE CARE", "STATUS": "OPEN", "POPULATION": 344, "COUNTY": "FAYETTE", "COUNTYFIPS": "21067", "COUNTRY": "USA", "LATITUDE": 38.018805193, "LONGITUDE": -84.511857714000001, "NAICS_CODE": "622110", "NAICS_DESC": "GENERAL MEDICAL AND SURGICAL HOSPITALS", "SOURCE": "https://chfs.ky.gov/agencies/os/oig/dhc/Documents/Directories/Hospital_Directory.pdf", "SOURCEDATE": "2018-08-11T00:00:00.000Z", "VAL_METHOD": "IMAGERY", "VAL_DATE": "2014-02-10T00:00:00.000Z", "WEBSITE": "https://www.baptisthealth.com/lexington/pages/default.aspx", "STATE_ID": "100101", "ALT_NAME": "CENTRAL BAPTIST HOSPITAL", "ST_FIPS": "21", "OWNER": "NON-PROFIT", "TTL_STAFF": -999, "BEDS": 391, "TRAUMA": "NOT AVAILABLE", "HELIPAD": "Y" }, "geometry": { "type": "Polygon", "coordinates": [ [ [ -84.4834194, 37.9426989 ], [ -84.57518, 37.968153 ], [ -84.5913105, 37.97832 ], [ -84.604675, 37.989523 ], [ -84.615391, 38.042724 ], [ -84.6142219, 38.045191599999953 ], [ -84.515048, 38.104509899999982 ], [ -84.5138441, 38.104641599999987 ], [ -84.4842631, 38.104546100000015 ], [ -84.4809564, 38.1041951 ], [ -84.441215, 38.084832 ], [ -84.4409049, 38.084519799999974 ], [ -84.4117929, 38.040174799999974 ], [ -84.419313499999987, 37.9801669 ], [ -84.4195769, 37.979908600000016 ], [ -84.452516, 37.957926 ], [ -84.4834194, 37.9426989 ] ] ] } },
{ "type": "Feature", "properties": { "OBJECTID": 3345, "ID": "0001940508", "NAME": "EASTERN STATE HOSPITAL", "ADDRESS": "1350 BULL LEA RD", "CITY": "LEXINGTON", "STATE": "KY", "ZIP": "40511", "ZIP4": "NOT AVAILABLE", "TELEPHONE": "(859) 246-8000", "TYPE": "PSYCHIATRIC", "STATUS": "OPEN", "POPULATION": 195, "COUNTY": "FAYETTE", "COUNTYFIPS": "21067", "COUNTRY": "USA", "LATITUDE": 38.082924061, "LONGITUDE": -84.4979543379999, "NAICS_CODE": "622110", "NAICS_DESC": "GENERAL MEDICAL AND SURGICAL HOSPITALS", "SOURCE": "https://chfs.ky.gov/agencies/os/oig/dhc/Documents/Directories/Hospital_Directory.pdf", "SOURCEDATE": "2018-08-11T00:00:00.000Z", "VAL_METHOD": "IMAGERY", "VAL_DATE": "2017-12-13T00:00:00.000Z", "WEBSITE": "http://ukhealthcare.uky.edu/ESH/", "STATE_ID": "100102", "ALT_NAME": "NOT AVAILABLE", "ST_FIPS": "21", "OWNER": "GOVERNMENT - STATE", "TTL_STAFF": -999, "BEDS": 195, "TRAUMA": "NOT AVAILABLE", "HELIPAD": "N" }, "geometry": { "type": "Polygon", "coordinates": [ [ [ -84.5185879, 38.005750100000014 ], [ -84.5545931, 38.013267600000042 ], [ -84.595433, 38.0357 ], [ -84.598867, 38.038408 ], [ -84.6029297, 38.043103700000032 ], [ -84.603815199999985, 38.044718800000012 ], [ -84.6139695, 38.154741300000026 ], [ -84.6130236, 38.1565257 ], [ -84.6116157, 38.158981799999978 ], [ -84.6112736, 38.159341200000036 ], [ -84.5564822, 38.172161600000059 ], [ -84.5062278, 38.1563253 ], [ -84.433784, 38.128205800000025 ], [ -84.4100446, 38.104718099999971 ], [ -84.404973, 38.082534 ], [ -84.396981, 38.03604 ], [ -84.400138, 38.0226558 ], [ -84.402142, 38.019118 ], [ -84.406909, 38.014207 ], [ -84.407534, 38.013699 ], [ -84.420498, 38.007489 ], [ -84.5185879, 38.005750100000014 ] ] ] } },
{ "type": "Feature", "properties": { "OBJECTID": 3410, "ID": "0011842633", "NAME": "WAYNE COUNTY HOSPITAL", "ADDRESS": "166 HOSPITAL STREET", "CITY": "MONTICELLO", "STATE": "KY", "ZIP": "42633", "ZIP4": "NOT AVAILABLE", "TELEPHONE": "(606) 348-9343", "TYPE": "GENERAL ACUTE CARE", "STATUS": "OPEN", "POPULATION": 25, "COUNTY": "WAYNE", "COUNTYFIPS": "21231", "COUNTRY": "USA", "LATITUDE": 36.81986477, "LONGITUDE": -84.866892605000004, "NAICS_CODE": "622110", "NAICS_DESC": "GENERAL MEDICAL AND SURGICAL HOSPITALS", "SOURCE": "https://chfs.ky.gov/agencies/os/oig/dhc/Documents/Directories/Hospital_Directory.pdf", "SOURCEDATE": "2018-08-11T00:00:00.000Z", "VAL_METHOD": "IMAGERY", "VAL_DATE": "2014-02-10T00:00:00.000Z", "WEBSITE": "http://www.waynehospital.org", "STATE_ID": "600074", "ALT_NAME": "NOT AVAILABLE", "ST_FIPS": "21", "OWNER": "GOVERNMENT - STATE", "TTL_STAFF": -999, "BEDS": 25, "TRAUMA": "NOT AVAILABLE", "HELIPAD": "Y" }, "geometry": { "type": "Polygon", "coordinates": [ [ [ -84.86285, 36.771015 ], [ -84.939414, 36.793868 ], [ -84.940117, 36.804513 ], [ -84.924165, 36.872497 ], [ -84.894811, 36.891269 ], [ -84.890419, 36.892238 ], [ -84.80848, 36.894261 ], [ -84.798795, 36.890611 ], [ -84.798333, 36.890242 ], [ -84.795275, 36.886203 ], [ -84.784185, 36.812487 ], [ -84.805942, 36.795371 ], [ -84.837997, 36.778032 ], [ -84.86285, 36.771015 ] ] ] } },
{ "type": "Feature", "properties": { "OBJECTID": 3445, "ID": "0001340223", "NAME": "CENTRAL STATE HOSPITAL", "ADDRESS": "10510 LAGRANGE ROAD", "CITY": "LOUISVILLE", "STATE": "KY", "ZIP": "40223", "ZIP4": "NOT AVAILABLE", "TELEPHONE": "(502) 253-7045", "TYPE": "PSYCHIATRIC", "STATUS": "OPEN", "POPULATION": 192, "COUNTY": "JEFFERSON", "COUNTYFIPS": "21111", "COUNTRY": "USA", "LATITUDE": 38.27219096, "LONGITUDE": -85.55809622, "NAICS_CODE": "622110", "NAICS_DESC": "GENERAL MEDICAL AND SURGICAL HOSPITALS", "SOURCE": "https://chfs.ky.gov/agencies/os/oig/dhc/Documents/Directories/Hospital_Directory.pdf", "SOURCEDATE": "2018-08-11T00:00:00.000Z", "VAL_METHOD": "IMAGERY", "VAL_DATE": "2014-02-10T00:00:00.000Z", "WEBSITE": "NOT AVAILABLE", "STATE_ID": "100198", "ALT_NAME": "NOT AVAILABLE", "ST_FIPS": "21", "OWNER": "GOVERNMENT - STATE", "TTL_STAFF": -999, "BEDS": 192, "TRAUMA": "NOT AVAILABLE", "HELIPAD": "N" }, "geometry": { "type": "Polygon", "coordinates": [ [ [ -85.6049429, 38.1930271 ], [ -85.654784800000016, 38.220443900000021 ], [ -85.6557815, 38.2219871 ], [ -85.6636012, 38.23760260000001 ], [ -85.6633, 38.250858 ], [ -85.6623689, 38.254123300000018 ], [ -85.6503033, 38.291582199999986 ], [ -85.6338, 38.327093 ], [ -85.62432, 38.337131 ], [ -85.619459, 38.339514 ], [ -85.560455, 38.336678 ], [ -85.559789, 38.336527 ], [ -85.4839, 38.317134 ], [ -85.481784, 38.309634 ], [ -85.476253, 38.289695 ], [ -85.4666848, 38.23669169999998 ], [ -85.508833, 38.193156 ], [ -85.5483318, 38.192898499999977 ], [ -85.6047235, 38.193015499999959 ], [ -85.6049429, 38.1930271 ] ] ] } },
{ "type": "Feature", "properties": { "OBJECTID": 3446, "ID": "0008940403", "NAME": "SAINT JOSEPH BEREA", "ADDRESS": "305 ESTILL STREET", "CITY": "BEREA", "STATE": "KY", "ZIP": "40403", "ZIP4": "NOT AVAILABLE", "TELEPHONE": "(859) 986-3151", "TYPE": "CRITICAL ACCESS", "STATUS": "OPEN", "POPULATION": 25, "COUNTY": "MADISON", "COUNTYFIPS": "21151", "COUNTRY": "USA", "LATITUDE": 37.576094958000098, "LONGITUDE": -84.286570551999901, "NAICS_CODE": "622110", "NAICS_DESC": "GENERAL MEDICAL AND SURGICAL HOSPITALS", "SOURCE": "https://chfs.ky.gov/agencies/os/oig/dhc/Documents/Directories/Hospital_Directory.pdf", "SOURCEDATE": "2018-08-11T00:00:00.000Z", "VAL_METHOD": "IMAGERY/OTHER", "VAL_DATE": "2014-02-10T00:00:00.000Z", "WEBSITE": "http://www.saintjosephberea.org", "STATE_ID": "600079", "ALT_NAME": "NOT AVAILABLE", "ST_FIPS": "21", "OWNER": "NON-PROFIT", "TTL_STAFF": -999, "BEDS": 25, "TRAUMA": "NOT AVAILABLE", "HELIPAD": "Y" }, "geometry": { "type": "Polygon", "coordinates": [ [ [ -84.324673, 37.49674 ], [ -84.326218, 37.497295 ], [ -84.334353, 37.510154 ], [ -84.3710941, 37.577487600000019 ], [ -84.361578, 37.617371 ], [ -84.3213894, 37.6703313 ], [ -84.312544, 37.679403 ], [ -84.2963405, 37.68246620000005 ], [ -84.2961143, 37.682365199999985 ], [ -84.266217, 37.66426 ], [ -84.222473, 37.629028 ], [ -84.211116, 37.605442 ], [ -84.20014, 37.553734 ], [ -84.323553, 37.497001 ], [ -84.324673, 37.49674 ] ] ] } },
{ "type": "Feature", "properties": { "OBJECTID": 3448, "ID": "0002540202", "NAME": "FRAZIER REHAB INSTITUTE", "ADDRESS": "220 ABRAHAM FLEXNER WAY", "CITY": "LOUISVILLE", "STATE": "KY", "ZIP": "40202", "ZIP4": "NOT AVAILABLE", "TELEPHONE": "(502) 407-3242", "TYPE": "REHABILITATION", "STATUS": "OPEN", "POPULATION": 135, "COUNTY": "JEFFERSON", "COUNTYFIPS": "21111", "COUNTRY": "USA", "LATITUDE": 38.248955758000101, "LONGITUDE": -85.750218461000003, "NAICS_CODE": "622110", "NAICS_DESC": "GENERAL MEDICAL AND SURGICAL HOSPITALS", "SOURCE": "https://chfs.ky.gov/agencies/os/oig/dhc/Documents/Directories/Hospital_Directory.pdf", "SOURCEDATE": "2018-08-11T00:00:00.000Z", "VAL_METHOD": "IMAGERY", "VAL_DATE": "2014-02-10T00:00:00.000Z", "WEBSITE": "http://www.frazierrehab.org", "STATE_ID": "100244", "ALT_NAME": "NOT AVAILABLE", "ST_FIPS": "21", "OWNER": "NON-PROFIT", "TTL_STAFF": -999, "BEDS": 135, "TRAUMA": "NOT AVAILABLE", "HELIPAD": "Y" }, "geometry": { "type": "Polygon", "coordinates": [ [ [ -85.7034784, 38.1307332 ], [ -85.8143747, 38.183441600000016 ], [ -85.818057, 38.186016 ], [ -85.828296, 38.213673 ], [ -85.832464, 38.245216 ], [ -85.832365, 38.248701 ], [ -85.8323286, 38.249635599999976 ], [ -85.830927, 38.258951 ], [ -85.826288, 38.267497 ], [ -85.7588737, 38.3713223 ], [ -85.7566609, 38.373830300000023 ], [ -85.649833, 38.313061 ], [ -85.632495, 38.283882 ], [ -85.6138396, 38.234626599999984 ], [ -85.7034784, 38.1307332 ] ] ] } },
{ "type": "Feature", "properties": { "OBJECTID": 3449, "ID": "0006840217", "NAME": "NORTON AUDUBON HOSPITAL", "ADDRESS": "ONE AUDUBON PLAZA DRIVE", "CITY": "LOUISVILLE", "STATE": "KY", "ZIP": "40217", "ZIP4": "NOT AVAILABLE", "TELEPHONE": "(502) 636-7001", "TYPE": "GENERAL ACUTE CARE", "STATUS": "OPEN", "POPULATION": 432, "COUNTY": "JEFFERSON", "COUNTYFIPS": "21111", "COUNTRY": "USA", "LATITUDE": 38.215127395000003, "LONGITUDE": -85.722813645000002, "NAICS_CODE": "622110", "NAICS_DESC": "GENERAL MEDICAL AND SURGICAL HOSPITALS", "SOURCE": "https://chfs.ky.gov/agencies/os/oig/dhc/Documents/Directories/Hospital_Directory.pdf", "SOURCEDATE": "2018-08-11T00:00:00.000Z", "VAL_METHOD": "IMAGERY", "VAL_DATE": "2014-03-12T00:00:00.000Z", "WEBSITE": "http://www.nortonhealthcare.com/NortonAudubonHospital", "STATE_ID": "100252", "ALT_NAME": "NOT AVAILABLE", "ST_FIPS": "21", "OWNER": "NON-PROFIT", "TTL_STAFF": -999, "BEDS": 432, "TRAUMA": "NOT AVAILABLE", "HELIPAD": "Y" }, "geometry": { "type": "Polygon", "coordinates": [ [ [ -85.702997, 38.117788 ], [ -85.819298, 38.177895800000023 ], [ -85.8167824, 38.240233799999935 ], [ -85.8166845, 38.2405335 ], [ -85.8165129, 38.2408099 ], [ -85.7692884, 38.293814600000026 ], [ -85.761319, 38.298693 ], [ -85.7535547, 38.2988972 ], [ -85.6190087, 38.253483399999972 ], [ -85.6133177, 38.2494976 ], [ -85.6132877, 38.249338700000031 ], [ -85.6138396, 38.234626599999984 ], [ -85.616268, 38.217439 ], [ -85.62563, 38.180533 ], [ -85.6457289, 38.1577111 ], [ -85.660069, 38.145767 ], [ -85.702997, 38.117788 ] ] ] } },
{ "type": "Feature", "properties": { "OBJECTID": 3450, "ID": "0006940241", "NAME": "NORTON BROWNSBORO HOSPITAL", "ADDRESS": "4960 NORTON HEALTHCARE BOULEVARD", "CITY": "LOUISVILLE", "STATE": "KY", "ZIP": "40241", "ZIP4": "NOT AVAILABLE", "TELEPHONE": "(502) 394-6464", "TYPE": "GENERAL ACUTE CARE", "STATUS": "OPEN", "POPULATION": 127, "COUNTY": "JEFFERSON", "COUNTYFIPS": "21111", "COUNTRY": "USA", "LATITUDE": 38.3153256800001, "LONGITUDE": -85.575894453999993, "NAICS_CODE": "622110", "NAICS_DESC": "GENERAL MEDICAL AND SURGICAL HOSPITALS", "SOURCE": "https://chfs.ky.gov/agencies/os/oig/dhc/Documents/Directories/Hospital_Directory.pdf", "SOURCEDATE": "2018-08-11T00:00:00.000Z", "VAL_METHOD": "IMAGERY", "VAL_DATE": "2014-02-10T00:00:00.000Z", "WEBSITE": "http://www.nortonhealthcare.com/nortonbrownsborohospital", "STATE_ID": "100475", "ALT_NAME": "NOT AVAILABLE", "ST_FIPS": "21", "OWNER": "NON-PROFIT", "TTL_STAFF": -999, "BEDS": 127, "TRAUMA": "NOT AVAILABLE", "HELIPAD": "Y" }, "geometry": { "type": "Polygon", "coordinates": [ [ [ -85.506113, 38.218808 ], [ -85.6226666, 38.240814500000013 ], [ -85.7016793, 38.2722086 ], [ -85.7015948, 38.275785 ], [ -85.698165, 38.280319 ], [ -85.631736, 38.357888 ], [ -85.617079, 38.368712 ], [ -85.594778, 38.367616 ], [ -85.4652797, 38.330063300000049 ], [ -85.463448, 38.328685 ], [ -85.463074, 38.326726 ], [ -85.474008, 38.264222 ], [ -85.4794567, 38.236497200000031 ], [ -85.506113, 38.218808 ] ] ] } },
{ "type": "Feature", "properties": { "OBJECTID": 3452, "ID": "0010740242", "NAME": "THE BROOK HOSPITAL - KMI", "ADDRESS": "8521 LAGRANGE RD", "CITY": "LOUISVILLE", "STATE": "KY", "ZIP": "40242", "ZIP4": "NOT AVAILABLE", "TELEPHONE": "(502) 426-6380", "TYPE": "PSYCHIATRIC", "STATUS": "OPEN", "POPULATION": 94, "COUNTY": "JEFFERSON", "COUNTYFIPS": "21111", "COUNTRY": "USA", "LATITUDE": 38.2725393000001, "LONGITUDE": -85.596478774999994, "NAICS_CODE": "622110", "NAICS_DESC": "GENERAL MEDICAL AND SURGICAL HOSPITALS", "SOURCE": "https://chfs.ky.gov/agencies/os/oig/dhc/Documents/Directories/Hospital_Directory.pdf", "SOURCEDATE": "2018-08-11T00:00:00.000Z", "VAL_METHOD": "IMAGERY/OTHER", "VAL_DATE": "2014-02-10T00:00:00.000Z", "WEBSITE": "http://www.thebrookhospitals.com/", "STATE_ID": "100241", "ALT_NAME": "NOT AVAILABLE", "ST_FIPS": "21", "OWNER": "PROPRIETARY", "TTL_STAFF": -999, "BEDS": 94, "TRAUMA": "NOT AVAILABLE", "HELIPAD": "N" }, "geometry": { "type": "Polygon", "coordinates": [ [ [ -85.6861565, 38.202725299999948 ], [ -85.701547, 38.245539 ], [ -85.7071766, 38.274059900000012 ], [ -85.7016287, 38.280171499999987 ], [ -85.63866, 38.329032 ], [ -85.6235525, 38.33931 ], [ -85.6174407, 38.3424852 ], [ -85.5612015, 38.331291600000014 ], [ -85.516096, 38.310242 ], [ -85.514135, 38.3078 ], [ -85.511709, 38.304582 ], [ -85.508484, 38.297236299999987 ], [ -85.500649, 38.275601 ], [ -85.5424436, 38.230765799999972 ], [ -85.575934, 38.21661 ], [ -85.62355, 38.20041 ], [ -85.6861565, 38.202725299999948 ] ] ] } },
{ "type": "Feature", "properties": { "OBJECTID": 3473, "ID": "0001162565", "NAME": "SHELBY MEMORIAL HOSPITAL", "ADDRESS": "200 S CEDAR ST", "CITY": "SHELBYVILLE", "STATE": "IL", "ZIP": "62565", "ZIP4": "NOT AVAILABLE", "TELEPHONE": "(217) 774-3961", "TYPE": "GENERAL ACUTE CARE", "STATUS": "OPEN", "POPULATION": 30, "COUNTY": "SHELBY", "COUNTYFIPS": "17173", "COUNTRY": "USA", "LATITUDE": 39.405781830000102, "LONGITUDE": -88.807950641000005, "NAICS_CODE": "622110", "NAICS_DESC": "GENERAL MEDICAL AND SURGICAL HOSPITALS", "SOURCE": "https://data.illinois.gov/", "SOURCEDATE": "2018-08-09T00:00:00.000Z", "VAL_METHOD": "IMAGERY", "VAL_DATE": "2014-03-12T00:00:00.000Z", "WEBSITE": "http://www.mysmh.org", "STATE_ID": "140019", "ALT_NAME": "NOT AVAILABLE", "ST_FIPS": "17", "OWNER": "NON-PROFIT", "TTL_STAFF": -999, "BEDS": 30, "TRAUMA": "NOT AVAILABLE", "HELIPAD": "Y" }, "geometry": { "type": "Polygon", "coordinates": [ [ [ -88.801277517712037, 39.342168855872885 ], [ -88.861846710893445, 39.355050226405417 ], [ -88.926939980540652, 39.405601713920611 ], [ -88.831170524878075, 39.471119731610024 ], [ -88.807780395744672, 39.485802254063096 ], [ -88.7904457361211, 39.476365285710571 ], [ -88.6864446, 39.404392400000042 ], [ -88.771652, 39.350875 ], [ -88.7778289, 39.3474214 ], [ -88.801277517712037, 39.342168855872885 ] ] ] } },
{ "type": "Feature", "properties": { "OBJECTID": 3714, "ID": "0007947129", "NAME": "KENTUCKIANA MEDICAL CENTER LLC", "ADDRESS": "4601 MEDICAL PLAZA WAY", "CITY": "CLARKSVILLE", "STATE": "IN", "ZIP": "47129", "ZIP4": "NOT AVAILABLE", "TELEPHONE": "(812) 280-3300", "TYPE": "GENERAL ACUTE CARE", "STATUS": "OPEN", "POPULATION": 42, "COUNTY": "CLARK", "COUNTYFIPS": "18019", "COUNTRY": "USA", "LATITUDE": 38.333085593000099, "LONGITUDE": -85.752433815000003, "NAICS_CODE": "622110", "NAICS_DESC": "GENERAL MEDICAL AND SURGICAL HOSPITALS", "SOURCE": "http://www.in.gov/isdh/reports/QAMIS/hosdir", "SOURCEDATE": "2018-08-16T00:00:00.000Z", "VAL_METHOD": "IMAGERY", "VAL_DATE": "2014-01-22T00:00:00.000Z", "WEBSITE": "http://kentuckianamedcen.com/", "STATE_ID": "17-011788-1", "ALT_NAME": "NOT AVAILABLE", "ST_FIPS": "18", "OWNER": "PROPRIETARY", "TTL_STAFF": -999, "BEDS": 42, "TRAUMA": "NOT AVAILABLE", "HELIPAD": "N" }, "geometry": { "type": "Polygon", "coordinates": [ [ [ -85.753919, 38.2371 ], [ -85.7661677, 38.249861599999974 ], [ -85.76748, 38.251913 ], [ -85.7923341, 38.3005339 ], [ -85.7961918, 38.331735 ], [ -85.801904, 38.379414 ], [ -85.8062202, 38.424687200000037 ], [ -85.7726327, 38.490923599999974 ], [ -85.7712719, 38.493440100000015 ], [ -85.6714297, 38.414409 ], [ -85.648872, 38.338963 ], [ -85.652107, 38.331661 ], [ -85.652412, 38.33099 ], [ -85.653694, 38.329182 ], [ -85.7198123, 38.2543412 ], [ -85.753919, 38.2371 ] ] ] } },
{ "type": "Feature", "properties": { "OBJECTID": 3752, "ID": "0006947454", "NAME": "INDIANA UNIVERSITY HEALTH PAOLI HOSPITAL", "ADDRESS": "642 W HOSPITAL RD", "CITY": "PAOLI", "STATE": "IN", "ZIP": "47454", "ZIP4": "NOT AVAILABLE", "TELEPHONE": "(812) 723-2811", "TYPE": "CRITICAL ACCESS", "STATUS": "OPEN", "POPULATION": 24, "COUNTY": "ORANGE", "COUNTYFIPS": "18117", "COUNTRY": "USA", "LATITUDE": 38.568361438000103, "LONGITUDE": -86.475163718000005, "NAICS_CODE": "622110", "NAICS_DESC": "GENERAL MEDICAL AND SURGICAL HOSPITALS", "SOURCE": "http://www.in.gov/isdh/reports/QAMIS/hosdir", "SOURCEDATE": "2018-08-16T00:00:00.000Z", "VAL_METHOD": "IMAGERY", "VAL_DATE": "2014-03-12T00:00:00.000Z", "WEBSITE": "http://www.iuhealth.org/paoli", "STATE_ID": "17-005065-1", "ALT_NAME": "NOT AVAILABLE", "ST_FIPS": "18", "OWNER": "NON-PROFIT", "TTL_STAFF": -999, "BEDS": 24, "TRAUMA": "NOT AVAILABLE", "HELIPAD": "Y" }, "geometry": { "type": "Polygon", "coordinates": [ [ [ -86.43977, 38.501217 ], [ -86.483566, 38.511885 ], [ -86.487867, 38.513242 ], [ -86.505393, 38.522323 ], [ -86.593035, 38.582794 ], [ -86.4655453, 38.6441749 ], [ -86.456571, 38.648473 ], [ -86.4544252, 38.64835290000002 ], [ -86.373766, 38.557423 ], [ -86.391141, 38.517325 ], [ -86.43977, 38.501217 ] ] ] } },
{ "type": "Feature", "properties": { "OBJECTID": 3762, "ID": "0004747591", "NAME": "GOOD SAMARITAN HOSPITAL", "ADDRESS": "520 S 7TH ST", "CITY": "VINCENNES", "STATE": "IN", "ZIP": "47591", "ZIP4": "NOT AVAILABLE", "TELEPHONE": "(812) 882-5220", "TYPE": "GENERAL ACUTE CARE", "STATUS": "OPEN", "POPULATION": 175, "COUNTY": "KNOX", "COUNTYFIPS": "18083", "COUNTRY": "USA", "LATITUDE": 38.673312929000097, "LONGITUDE": -87.532093359000001, "NAICS_CODE": "622110", "NAICS_DESC": "GENERAL MEDICAL AND SURGICAL HOSPITALS", "SOURCE": "http://www.in.gov/isdh/reports/QAMIS/hosdir", "SOURCEDATE": "2018-08-16T00:00:00.000Z", "VAL_METHOD": "IMAGERY", "VAL_DATE": "2014-01-24T00:00:00.000Z", "WEBSITE": "http://www.gshvin.org/goodsamaritan", "STATE_ID": "17-005038-1", "ALT_NAME": "NOT AVAILABLE", "ST_FIPS": "18", "OWNER": "GOVERNMENT - LOCAL", "TTL_STAFF": -999, "BEDS": 175, "TRAUMA": "LEVEL III", "HELIPAD": "Y" }, "geometry": { "type": "Polygon", "coordinates": [ [ [ -87.5386045, 38.571850500000025 ], [ -87.557503, 38.5900722 ], [ -87.5943701, 38.639783799999975 ], [ -87.5640941, 38.673054199999982 ], [ -87.4691813, 38.768991499999984 ], [ -87.4689273, 38.7688046 ], [ -87.4438534, 38.737287100000039 ], [ -87.4128715, 38.679831 ], [ -87.4127991, 38.679635 ], [ -87.4437054, 38.6436498 ], [ -87.4558816, 38.633717 ], [ -87.538350800000018, 38.571850499999968 ], [ -87.5386045, 38.571850500000025 ] ] ] } },
{ "type": "Feature", "properties": { "OBJECTID": 3878, "ID": "0175640502", "NAME": "LEXINGTON VA MEDICAL CENTER - COOPER", "ADDRESS": "1101 VETERANS DRIVE", "CITY": "LEXINGTON", "STATE": "KY", "ZIP": "40502", "ZIP4": "NOT AVAILABLE", "TELEPHONE": "(859) 233-4511", "TYPE": "MILITARY", "STATUS": "OPEN", "POPULATION": -999, "COUNTY": "FAYETTE", "COUNTYFIPS": "21067", "COUNTRY": "USA", "LATITUDE": 38.029804, "LONGITUDE": -84.506404, "NAICS_CODE": "622110", "NAICS_DESC": "GENERAL MEDICAL AND SURGICAL HOSPITALS", "SOURCE": "https://www.va.gov/directory/guide/allstate.asp", "SOURCEDATE": "2018-09-26T00:00:00.000Z", "VAL_METHOD": "IMAGERY", "VAL_DATE": "2019-05-10T00:00:00.000Z", "WEBSITE": "https://www.lexington.va.gov/", "STATE_ID": "NOT AVAILABLE", "ALT_NAME": "NOT AVAILABLE", "ST_FIPS": "21", "OWNER": "GOVERNMENT - FEDERAL", "TTL_STAFF": -999, "BEDS": -999, "TRAUMA": "NOT AVAILABLE", "HELIPAD": "Y" }, "geometry": { "type": "Polygon", "coordinates": [ [ [ -84.487169, 37.950854 ], [ -84.5197635, 37.956641299999987 ], [ -84.5730614, 37.97279060000001 ], [ -84.5735551, 37.973031 ], [ -84.604675, 37.989523 ], [ -84.623626, 38.042935 ], [ -84.5195903, 38.110223399999974 ], [ -84.5185738, 38.110562199999954 ], [ -84.4809564, 38.1041951 ], [ -84.461106, 38.099046 ], [ -84.436832, 38.087721 ], [ -84.4366465, 38.087527400000042 ], [ -84.4117929, 38.040174799999974 ], [ -84.412769, 38.02143670000001 ], [ -84.422677, 37.981948 ], [ -84.425112, 37.979211 ], [ -84.4849691, 37.9511272 ], [ -84.487169, 37.950854 ] ] ] } },
{ "type": "Feature", "properties": { "OBJECTID": 3879, "ID": "0173640206", "NAME": "ROBLEY REX VA MEDICAL CENTER", "ADDRESS": "800 ZORN AVENUE", "CITY": "LOUISVILLE", "STATE": "KY", "ZIP": "40206", "ZIP4": "NOT AVAILABLE", "TELEPHONE": "(502) 287-4000", "TYPE": "MILITARY", "STATUS": "OPEN", "POPULATION": -999, "COUNTY": "JEFFERSON", "COUNTYFIPS": "21111", "COUNTRY": "USA", "LATITUDE": 38.270259, "LONGITUDE": -85.696895, "NAICS_CODE": "622110", "NAICS_DESC": "GENERAL MEDICAL AND SURGICAL HOSPITALS", "SOURCE": "https://www.va.gov/directory/guide/allstate.asp", "SOURCEDATE": "2018-09-26T00:00:00.000Z", "VAL_METHOD": "IMAGERY", "VAL_DATE": "2019-05-09T00:00:00.000Z", "WEBSITE": "https://www.louisville.va.gov/", "STATE_ID": "NOT AVAILABLE", "ALT_NAME": "NOT AVAILABLE", "ST_FIPS": "21", "OWNER": "GOVERNMENT - FEDERAL", "TTL_STAFF": -999, "BEDS": -999, "TRAUMA": "NOT AVAILABLE", "HELIPAD": "N" }, "geometry": { "type": "Polygon", "coordinates": [ [ [ -85.750858, 38.196739 ], [ -85.779843, 38.217755 ], [ -85.792654, 38.237663 ], [ -85.799935, 38.249616 ], [ -85.8097702, 38.271690700000036 ], [ -85.809895, 38.2736 ], [ -85.789694, 38.300917 ], [ -85.753731, 38.340202 ], [ -85.628631, 38.334334 ], [ -85.58061, 38.315348 ], [ -85.57035, 38.311187200000013 ], [ -85.5702485, 38.311108 ], [ -85.5701038, 38.3109211 ], [ -85.569128, 38.307501 ], [ -85.6138396, 38.234626599999984 ], [ -85.632682, 38.222458 ], [ -85.666242, 38.214001 ], [ -85.750858, 38.196739 ] ] ] } }
]
}
