{
"type": "FeatureCollection",
"crs": { "type": "name", "properties": { "name": "urn:ogc:def:crs:OGC:1.3:CRS84" } },
"features": [
{ "type": "Feature", "properties": { "OBJECTID": 1645, "ID": "0099962703", "NAME": "SPRINGFIELD HOSPITAL INC - DBA LINCOLN PRAIRIE BEHAVIORAL HEALTH CENTER", "ADDRESS": "5230 SOUTH SIXTH STREET", "CITY": "SPRINGFIELD", "STATE": "IL", "ZIP": "62703", "ZIP4": "NOT AVAILABLE", "TELEPHONE": "(217) 585-1180", "TYPE": "PSYCHIATRIC", "STATUS": "OPEN", "POPULATION": 88, "COUNTY": "SANGAMON", "COUNTYFIPS": "17167", "COUNTRY": "USA", "LATITUDE": 39.725561960999997, "LONGITUDE": -89.640773952000004, "NAICS_CODE": "622110", "NAICS_DESC": "GENERAL MEDICAL AND SURGICAL HOSPITALS", "SOURCE": "https://data.illinois.gov/", "SOURCEDATE": "2018-08-09T00:00:00.000Z", "VAL_METHOD": "IMAGERY/OTHER", "VAL_DATE": "2015-02-21T00:00:00.000Z", "WEBSITE": "http://www.lincolnprairiebhc.com/", "STATE_ID": "NOT AVAILABLE", "ALT_NAME": "NOT AVAILABLE", "ST_FIPS": "17", "OWNER": "NOT AVAILABLE", "TTL_STAFF": -999, "BEDS": 88, "TRAUMA": "NOT AVAILABLE", "HELIPAD": "N" }, "geometry": { "type": "Polygon", "coordinates": [ [ [ -89.6468293, 39.596441599999949 ], [ -89.7431763, 39.719785 ], [ -89.7414246, 39.7521595 ], [ -89.6421667, 39.797111100000052 ], [ -89.5938829, 39.8062481 ], [ -89.5853405, 39.804025300000013 ], [ -89.5710152, 39.76924139999997 ], [ -89.5692971, 39.755219700000026 ], [ -89.5786057, 39.71689150000001 ], [ -89.5872461, 39.692456099999966 ], [ -89.6468293, 39.596441599999949 ] ] ] } },
{ "type": "Feature", "properties": { "OBJECTID": 2500, "ID": "0000462301", "NAME": "BLESSING HOSPITAL AT 14TH STREET", "ADDRESS": "1415 VERMONT STREET", "CITY": "QUINCY", "STATE": "IL", "ZIP": "62301", "ZIP4": "NOT AVAILABLE", "TELEPHONE": "(217) 223-1200", "TYPE": "GENERAL ACUTE CARE", "STATUS": "CLOSED", "POPULATION": -999, "COUNTY": "ADAMS", "COUNTYFIPS": "17001", "COUNTRY": "USA", "LATITUDE": 39.9350936660001, "LONGITUDE": -91.391403913000005, "NAICS_CODE": "622110", "NAICS_DESC": "GENERAL MEDICAL AND SURGICAL HOSPITALS", "SOURCE": "https://data.illinois.gov/", "SOURCEDATE": "2012-07-27T00:00:00.000Z", "VAL_METHOD": "IMAGERY", "VAL_DATE": "2014-02-10T00:00:00.000Z", "WEBSITE": "http://www.blessinghospital.org", "STATE_ID": "0004515", "ALT_NAME": "NOT AVAILABLE", "ST_FIPS": "17", "OWNER": "NON-PROFIT", "TTL_STAFF": -999, "BEDS": -999, "TRAUMA": "NOT AVAILABLE", "HELIPAD": "N" }, "geometry": { "type": "Polygon", "coordinates": [ [ [ -91.390668, 39.86272 ], [ -91.412356, 39.870049 ], [ -91.431207, 39.887373 ], [ -91.435229, 39.89241 ], [ -91.435463, 39.894355 ], [ -91.4158, 39.979981 ], [ -91.40663, 40.00182 ], [ -91.376867, 40.008825 ], [ -91.368068, 40.008272 ], [ -91.301047, 39.961395 ], [ -91.268373, 39.934421 ], [ -91.267522, 39.933505 ], [ -91.267441, 39.93332 ], [ -91.325624, 39.883973 ], [ -91.333537, 39.878231 ], [ -91.387618, 39.862905 ], [ -91.388801, 39.862732 ], [ -91.390668, 39.86272 ] ] ] } },
{ "type": "Feature", "properties": { "OBJECTID": 4301, "ID": "0016261747", "NAME": "HOPEDALE MEDICAL COMPLEX", "ADDRESS": "107 TREMONT STREET", "CITY": "HOPEDALE", "STATE": "IL", "ZIP": "61747", "ZIP4": "NOT AVAILABLE", "TELEPHONE": "(309) 449-3321", "TYPE": "CRITICAL ACCESS", "STATUS": "OPEN", "POPULATION": 25, "COUNTY": "TAZEWELL", "COUNTYFIPS": "17179", "COUNTRY": "USA", "LATITUDE": 40.418411462999998, "LONGITUDE": -89.4175622449999, "NAICS_CODE": "622110", "NAICS_DESC": "GENERAL MEDICAL AND SURGICAL HOSPITALS", "SOURCE": "https://data.illinois.gov/", "SOURCEDATE": "2018-08-09T00:00:00.000Z", "VAL_METHOD": "IMAGERY", "VAL_DATE": "2014-02-10T00:00:00.000Z", "WEBSITE": "http://www.hopedalemc.com", "STATE_ID": "141330", "ALT_NAME": "NOT AVAILABLE", "ST_FIPS": "17", "OWNER": "NON-PROFIT", "TTL_STAFF": -999, "BEDS": 25, "TRAUMA": "NOT AVAILABLE", "HELIPAD": "N" }, "geometry": { "type": "Polygon", "coordinates": [ [ [ -89.419699, 40.365545 ], [ -89.4357498, 40.366842399999967 ], [ -89.474184100000016, 40.3804685 ], [ -89.4914373, 40.409376699999967 ], [ -89.49537, 40.421925 ], [ -89.4990777, 40.4345112 ], [ -89.492641300000017, 40.48120260000001 ], [ -89.4714642, 40.48438220000002 ], [ -89.424215, 40.482273299999974 ], [ -89.3517263, 40.459239700000012 ], [ -89.3326403, 40.44097780000002 ], [ -89.3552956, 40.3970531 ], [ -89.378856, 40.378236 ], [ -89.3976665, 40.3675433 ], [ -89.419699, 40.365545 ] ] ] } },
{ "type": "Feature", "properties": { "OBJECTID": 4304, "ID": "0004461455", "NAME": "MC DONOUGH DISTRICT HOSPITAL", "ADDRESS": "525 EAST GRANT STREET", "CITY": "MACOMB", "STATE": "IL", "ZIP": "61455", "ZIP4": "NOT AVAILABLE", "TELEPHONE": "(309) 833-4101", "TYPE": "GENERAL ACUTE CARE", "STATUS": "OPEN", "POPULATION": 95, "COUNTY": "MCDONOUGH", "COUNTYFIPS": "17109", "COUNTRY": "USA", "LATITUDE": 40.447165610000098, "LONGITUDE": -90.664406474000003, "NAICS_CODE": "622110", "NAICS_DESC": "GENERAL MEDICAL AND SURGICAL HOSPITALS", "SOURCE": "https://data.illinois.gov/", "SOURCEDATE": "2018-08-09T00:00:00.000Z", "VAL_METHOD": "IMAGERY", "VAL_DATE": "2014-01-17T00:00:00.000Z", "WEBSITE": "http://www.mdh.org", "STATE_ID": "140089", "ALT_NAME": "NOT AVAILABLE", "ST_FIPS": "17", "OWNER": "GOVERNMENT - DISTRICT/AUTHORITY", "TTL_STAFF": -999, "BEDS": 95, "TRAUMA": "NOT AVAILABLE", "HELIPAD": "Y" }, "geometry": { "type": "Polygon", "coordinates": [ [ [ -90.677128, 40.381844 ], [ -90.780077, 40.429702 ], [ -90.673635, 40.559759 ], [ -90.656809, 40.550699 ], [ -90.552375, 40.45503 ], [ -90.619028, 40.381642 ], [ -90.677128, 40.381844 ] ] ] } },
{ "type": "Feature", "properties": { "OBJECTID": 4418, "ID": "0097962702", "NAME": "VIBRA HOSPITAL OF SPRINGFIELD, LLC", "ADDRESS": "701 N. WALNUT STREET", "CITY": "SPRINGFIELD", "STATE": "IL", "ZIP": "62702", "ZIP4": "NOT AVAILABLE", "TELEPHONE": "(217) 528-1217", "TYPE": "LONG TERM CARE", "STATUS": "OPEN", "POPULATION": 50, "COUNTY": "SANGAMON", "COUNTYFIPS": "17167", "COUNTRY": "USA", "LATITUDE": 39.809421532999998, "LONGITUDE": -89.664578165999998, "NAICS_CODE": "622110", "NAICS_DESC": "GENERAL MEDICAL AND SURGICAL HOSPITALS", "SOURCE": "https://data.illinois.gov/", "SOURCEDATE": "2018-08-09T00:00:00.000Z", "VAL_METHOD": "IMAGERY/OTHER", "VAL_DATE": "2016-04-26T00:00:00.000Z", "WEBSITE": "http://www.vhspringfield.com/", "STATE_ID": "NOT AVAILABLE", "ALT_NAME": "NOT AVAILABLE", "ST_FIPS": "17", "OWNER": "NOT AVAILABLE", "TTL_STAFF": -999, "BEDS": 50, "TRAUMA": "NOT AVAILABLE", "HELIPAD": "N" }, "geometry": { "type": "Polygon", "coordinates": [ [ [ -89.6750437, 39.735246900000014 ], [ -89.7061935, 39.744952799999965 ], [ -89.7064757, 39.745048199999985 ], [ -89.7322762, 39.7563732 ], [ -89.7624896, 39.786519299999959 ], [ -89.7727229, 39.8325664 ], [ -89.6736154, 39.912970599999987 ], [ -89.6056429, 39.892268699999967 ], [ -89.6052706, 39.892074799999968 ], [ -89.6048212, 39.891834 ], [ -89.5587397, 39.8232551 ], [ -89.5537853, 39.8024416 ], [ -89.571459500000017, 39.767312399999966 ], [ -89.6444709, 39.735184 ], [ -89.6750437, 39.735246900000014 ] ] ] } },
{ "type": "Feature", "properties": { "OBJECTID": 4537, "ID": "0015761443", "NAME": "OSF SAINT LUKE MEDICAL CENTER", "ADDRESS": "1051 WEST SOUTH STREET", "CITY": "KEWANEE", "STATE": "IL", "ZIP": "61443", "ZIP4": "NOT AVAILABLE", "TELEPHONE": "(309) 853-3361", "TYPE": "CRITICAL ACCESS", "STATUS": "OPEN", "POPULATION": 25, "COUNTY": "HENRY", "COUNTYFIPS": "17073", "COUNTRY": "USA", "LATITUDE": 41.220836818000102, "LONGITUDE": -89.94699282000001, "NAICS_CODE": "622110", "NAICS_DESC": "GENERAL MEDICAL AND SURGICAL HOSPITALS", "SOURCE": "https://data.illinois.gov/", "SOURCEDATE": "2018-08-09T00:00:00.000Z", "VAL_METHOD": "IMAGERY", "VAL_DATE": "2016-04-25T00:00:00.000Z", "WEBSITE": "https://www.osfhealthcare.org/saint-luke/", "STATE_ID": "141325", "ALT_NAME": "NOT AVAILABLE", "ST_FIPS": "17", "OWNER": "NON-PROFIT", "TTL_STAFF": -999, "BEDS": 25, "TRAUMA": "NOT AVAILABLE", "HELIPAD": "Y" }, "geometry": { "type": "Polygon", "coordinates": [ [ [ -89.9647926, 41.163938700000024 ], [ -90.0036217, 41.184851100000024 ], [ -90.040322, 41.229001 ], [ -89.997337, 41.2735334 ], [ -89.9341, 41.284090499999976 ], [ -89.9101626, 41.278375800000042 ], [ -89.8767167, 41.25614240000003 ], [ -89.867787, 41.23443 ], [ -89.867478, 41.214873 ], [ -89.8874655, 41.178606699999968 ], [ -89.9260667, 41.163785500000039 ], [ -89.9452048, 41.1634198 ], [ -89.9647926, 41.163938700000024 ] ] ] } },
{ "type": "Feature", "properties": { "OBJECTID": 361, "ID": "0001961401", "NAME": "GALESBURG COTTAGE HOSPITAL", "ADDRESS": "695 N KELLOGG ST", "CITY": "GALESBURG", "STATE": "IL", "ZIP": "61401", "ZIP4": "NOT AVAILABLE", "TELEPHONE": "(309) 345-4555", "TYPE": "GENERAL ACUTE CARE", "STATUS": "OPEN", "POPULATION": 119, "COUNTY": "KNOX", "COUNTYFIPS": "17095", "COUNTRY": "USA", "LATITUDE": 40.95579903, "LONGITUDE": -90.365760264000002, "NAICS_CODE": "622110", "NAICS_DESC": "GENERAL MEDICAL AND SURGICAL HOSPITALS", "SOURCE": "https://data.illinois.gov/", "SOURCEDATE": "2018-08-09T00:00:00.000Z", "VAL_METHOD": "IMAGERY", "VAL_DATE": "2014-02-10T00:00:00.000Z", "WEBSITE": "http://www.cottagehospital.com", "STATE_ID": "140040", "ALT_NAME": "NOT AVAILABLE", "ST_FIPS": "17", "OWNER": "NON-PROFIT", "TTL_STAFF": -999, "BEDS": 119, "TRAUMA": "LEVEL II", "HELIPAD": "Y" }, "geometry": { "type": "Polygon", "coordinates": [ [ [ -90.3651795, 40.8770973 ], [ -90.3666886, 40.8772286 ], [ -90.44128, 40.918231 ], [ -90.459504, 40.947482 ], [ -90.4404219, 40.983749 ], [ -90.40149, 41.020356 ], [ -90.382093, 41.034915 ], [ -90.3544917, 41.0290928 ], [ -90.287725, 41.005293 ], [ -90.2450263, 40.910846199999988 ], [ -90.2449721, 40.909156599999989 ], [ -90.2509375, 40.901286 ], [ -90.3651795, 40.8770973 ] ] ] } },
{ "type": "Feature", "properties": { "OBJECTID": 362, "ID": "0003361401", "NAME": "ST MARY MEDICAL CENTER", "ADDRESS": "3333 NORTH SEMINARY", "CITY": "GALESBURG", "STATE": "IL", "ZIP": "61401", "ZIP4": "NOT AVAILABLE", "TELEPHONE": "(309) 344-3161", "TYPE": "GENERAL ACUTE CARE", "STATUS": "OPEN", "POPULATION": 90, "COUNTY": "KNOX", "COUNTYFIPS": "17095", "COUNTRY": "USA", "LATITUDE": 40.986710283000001, "LONGITUDE": -90.360244917000003, "NAICS_CODE": "622110", "NAICS_DESC": "GENERAL MEDICAL AND SURGICAL HOSPITALS", "SOURCE": "https://data.illinois.gov/", "SOURCEDATE": "2018-08-09T00:00:00.000Z", "VAL_METHOD": "IMAGERY", "VAL_DATE": "2014-03-12T00:00:00.000Z", "WEBSITE": "http://www.osfstmary.org", "STATE_ID": "140064", "ALT_NAME": "NOT AVAILABLE", "ST_FIPS": "17", "OWNER": "NON-PROFIT", "TTL_STAFF": -999, "BEDS": 90, "TRAUMA": "LEVEL II", "HELIPAD": "Y" }, "geometry": { "type": "Polygon", "coordinates": [ [ [ -90.2892857, 40.897366800000022 ], [ -90.4034673, 40.9037779 ], [ -90.488341, 40.947163 ], [ -90.459571, 40.983829 ], [ -90.4132258, 41.03462 ], [ -90.381665, 41.063502 ], [ -90.379012, 41.06345 ], [ -90.2676444, 41.0395403 ], [ -90.2450263, 40.910846199999988 ], [ -90.2449721, 40.909156599999989 ], [ -90.2509375, 40.901286 ], [ -90.2892857, 40.897366800000022 ] ] ] } },
{ "type": "Feature", "properties": { "OBJECTID": 396, "ID": "0002962650", "NAME": "PASSAVANT AREA HOSPITAL", "ADDRESS": "1600 W WALNUT ST", "CITY": "JACKSONVILLE", "STATE": "IL", "ZIP": "62650", "ZIP4": "NOT AVAILABLE", "TELEPHONE": "(217) 245-9551", "TYPE": "GENERAL ACUTE CARE", "STATUS": "OPEN", "POPULATION": 108, "COUNTY": "MORGAN", "COUNTYFIPS": "17137", "COUNTRY": "USA", "LATITUDE": 39.746084993000103, "LONGITUDE": -90.260486635999897, "NAICS_CODE": "622110", "NAICS_DESC": "GENERAL MEDICAL AND SURGICAL HOSPITALS", "SOURCE": "https://data.illinois.gov/", "SOURCEDATE": "2018-08-09T00:00:00.000Z", "VAL_METHOD": "IMAGERY", "VAL_DATE": "2014-02-10T00:00:00.000Z", "WEBSITE": "http://www.passavanthospital.com", "STATE_ID": "140058", "ALT_NAME": "NOT AVAILABLE", "ST_FIPS": "17", "OWNER": "NON-PROFIT", "TTL_STAFF": -999, "BEDS": 108, "TRAUMA": "NOT AVAILABLE", "HELIPAD": "Y" }, "geometry": { "type": "Polygon", "coordinates": [ [ [ -90.297405, 39.663160500000011 ], [ -90.341532, 39.701357 ], [ -90.389913, 39.77008 ], [ -90.3899085, 39.770519499999963 ], [ -90.3898955, 39.770725599999956 ], [ -90.296735, 39.801559 ], [ -90.285731, 39.803426 ], [ -90.217817, 39.808829 ], [ -90.182401, 39.766773 ], [ -90.167094, 39.737588 ], [ -90.170532, 39.723013300000027 ], [ -90.191647, 39.706491 ], [ -90.22738, 39.679222 ], [ -90.2900497, 39.6635345 ], [ -90.297405, 39.663160500000011 ] ] ] } },
{ "type": "Feature", "properties": { "OBJECTID": 476, "ID": "0003561603", "NAME": "SAINT FRANCIS MEDICAL CENTER", "ADDRESS": "530 NE GLEN OAK AVE", "CITY": "PEORIA", "STATE": "IL", "ZIP": "61603", "ZIP4": "NOT AVAILABLE", "TELEPHONE": "(309) 655-2000", "TYPE": "GENERAL ACUTE CARE", "STATUS": "OPEN", "POPULATION": 631, "COUNTY": "PEORIA", "COUNTYFIPS": "17143", "COUNTRY": "USA", "LATITUDE": 40.702746816999998, "LONGITUDE": -89.591965424999998, "NAICS_CODE": "622110", "NAICS_DESC": "GENERAL MEDICAL AND SURGICAL HOSPITALS", "SOURCE": "https://data.illinois.gov/", "SOURCEDATE": "2018-08-09T00:00:00.000Z", "VAL_METHOD": "IMAGERY", "VAL_DATE": "2014-03-12T00:00:00.000Z", "WEBSITE": "http://www.osfsaintfrancis.org", "STATE_ID": "140067", "ALT_NAME": "NOT AVAILABLE", "ST_FIPS": "17", "OWNER": "NON-PROFIT", "TTL_STAFF": -999, "BEDS": 631, "TRAUMA": "LEVEL I, LEVEL I PEDIATRIC", "HELIPAD": "Y" }, "geometry": { "type": "Polygon", "coordinates": [ [ [ -89.654436982961414, 40.625925939592257 ], [ -89.6720949, 40.6451713 ], [ -89.700899, 40.699117600000015 ], [ -89.6773378, 40.777333099999979 ], [ -89.666883, 40.781538500000018 ], [ -89.6309951, 40.784220699999963 ], [ -89.602490800000012, 40.7836223 ], [ -89.5764233, 40.7769936 ], [ -89.5085497, 40.748407499999956 ], [ -89.5084084, 40.7483404 ], [ -89.5079264, 40.748106699999965 ], [ -89.4664623, 40.716712799999975 ], [ -89.5330649, 40.639981099999972 ], [ -89.5411992, 40.636454 ], [ -89.569649165054742, 40.632590140114928 ], [ -89.654436982961414, 40.625925939592257 ] ] ] } },
{ "type": "Feature", "properties": { "OBJECTID": 477, "ID": "0014762363", "NAME": "ILLINI COMMUNITY HOSPITAL", "ADDRESS": "640 W WASHINGTON", "CITY": "PITTSFIELD", "STATE": "IL", "ZIP": "62363", "ZIP4": "NOT AVAILABLE", "TELEPHONE": "(217) 285-2113", "TYPE": "CRITICAL ACCESS", "STATUS": "OPEN", "POPULATION": 21, "COUNTY": "PIKE", "COUNTYFIPS": "17149", "COUNTRY": "USA", "LATITUDE": 39.6074434780001, "LONGITUDE": -90.815132696999996, "NAICS_CODE": "622110", "NAICS_DESC": "GENERAL MEDICAL AND SURGICAL HOSPITALS", "SOURCE": "https://data.illinois.gov/", "SOURCEDATE": "2018-08-09T00:00:00.000Z", "VAL_METHOD": "IMAGERY", "VAL_DATE": "2016-04-26T00:00:00.000Z", "WEBSITE": "http://www.illinihospital.org", "STATE_ID": "141315", "ALT_NAME": "NOT AVAILABLE", "ST_FIPS": "17", "OWNER": "NON-PROFIT", "TTL_STAFF": -999, "BEDS": 21, "TRAUMA": "NOT AVAILABLE", "HELIPAD": "Y" }, "geometry": { "type": "Polygon", "coordinates": [ [ [ -90.8289741, 39.538322499999971 ], [ -90.9167804, 39.548482900000032 ], [ -90.927745, 39.563636 ], [ -90.923109, 39.604132 ], [ -90.904259, 39.633522 ], [ -90.8378745, 39.6652798 ], [ -90.7565875, 39.685016600000026 ], [ -90.7029165, 39.6191743 ], [ -90.7052114, 39.615606899999982 ], [ -90.7905825, 39.5449343 ], [ -90.8289741, 39.538322499999971 ] ] ] } },
{ "type": "Feature", "properties": { "OBJECTID": 481, "ID": "0000962301", "NAME": "BLESSING HOSPITAL", "ADDRESS": "BROADWAY AT 11TH STREET", "CITY": "QUINCY", "STATE": "IL", "ZIP": "62301", "ZIP4": "NOT AVAILABLE", "TELEPHONE": "(217) 223-5811", "TYPE": "GENERAL ACUTE CARE", "STATUS": "OPEN", "POPULATION": 335, "COUNTY": "ADAMS", "COUNTYFIPS": "17001", "COUNTRY": "USA", "LATITUDE": 39.936358882, "LONGITUDE": -91.399457201999994, "NAICS_CODE": "622110", "NAICS_DESC": "GENERAL MEDICAL AND SURGICAL HOSPITALS", "SOURCE": "https://data.illinois.gov/", "SOURCEDATE": "2018-08-09T00:00:00.000Z", "VAL_METHOD": "IMAGERY", "VAL_DATE": "2014-03-12T00:00:00.000Z", "WEBSITE": "http://www.blessinghospital.org", "STATE_ID": "140015", "ALT_NAME": "NOT AVAILABLE", "ST_FIPS": "17", "OWNER": "NON-PROFIT", "TTL_STAFF": -999, "BEDS": 335, "TRAUMA": "LEVEL II", "HELIPAD": "Y" }, "geometry": { "type": "Polygon", "coordinates": [ [ [ -91.38612, 39.85899 ], [ -91.406534, 39.862367 ], [ -91.431207, 39.887373 ], [ -91.435229, 39.89241 ], [ -91.435463, 39.894355 ], [ -91.429239, 39.987502 ], [ -91.40663, 40.00182 ], [ -91.376867, 40.008825 ], [ -91.368068, 40.008272 ], [ -91.313133, 39.960633 ], [ -91.279175, 39.930775 ], [ -91.279161, 39.930577 ], [ -91.38612, 39.85899 ] ] ] } },
{ "type": "Feature", "properties": { "OBJECTID": 482, "ID": "0010261603", "NAME": "METHODIST MEDICAL CENTER OF ILLINOIS", "ADDRESS": "221 N E GLEN OAK AVE", "CITY": "PEORIA", "STATE": "IL", "ZIP": "61606", "ZIP4": "NOT AVAILABLE", "TELEPHONE": "(309) 672-5522", "TYPE": "GENERAL ACUTE CARE", "STATUS": "OPEN", "POPULATION": 269, "COUNTY": "PEORIA", "COUNTYFIPS": "17143", "COUNTRY": "USA", "LATITUDE": 40.700305796000102, "LONGITUDE": -89.594916835999996, "NAICS_CODE": "622110", "NAICS_DESC": "GENERAL MEDICAL AND SURGICAL HOSPITALS", "SOURCE": "https://data.illinois.gov/", "SOURCEDATE": "2018-08-09T00:00:00.000Z", "VAL_METHOD": "IMAGERY", "VAL_DATE": "2016-04-26T00:00:00.000Z", "WEBSITE": "http://www.mymethodist.net", "STATE_ID": "140209", "ALT_NAME": "NOT AVAILABLE", "ST_FIPS": "17", "OWNER": "NON-PROFIT", "TTL_STAFF": -999, "BEDS": 269, "TRAUMA": "LEVEL II", "HELIPAD": "Y" }, "geometry": { "type": "Polygon", "coordinates": [ [ [ -89.654436982961414, 40.625925939592257 ], [ -89.6779606, 40.645167799999975 ], [ -89.6896541, 40.6691202 ], [ -89.700899, 40.699117600000015 ], [ -89.6799064, 40.778028099999972 ], [ -89.679244, 40.77905430000007 ], [ -89.666883, 40.781538500000018 ], [ -89.6025623, 40.789109900000042 ], [ -89.5126699, 40.746969300000025 ], [ -89.4705746, 40.716175100000044 ], [ -89.513169569375023, 40.631084439219215 ], [ -89.569648672476148, 40.628377538937627 ], [ -89.654436982961414, 40.625925939592257 ] ] ] } },
{ "type": "Feature", "properties": { "OBJECTID": 544, "ID": "0012061282", "NAME": "GENESIS MEDICAL CENTER ILLINI CAMPUS", "ADDRESS": "801 ILLINI DRIVE", "CITY": "SILVIS", "STATE": "IL", "ZIP": "61282", "ZIP4": "NOT AVAILABLE", "TELEPHONE": "(309) 792-9363", "TYPE": "GENERAL ACUTE CARE", "STATUS": "OPEN", "POPULATION": 101, "COUNTY": "ROCK ISLAND", "COUNTYFIPS": "17161", "COUNTRY": "USA", "LATITUDE": 41.4943257400001, "LONGITUDE": -90.418416113999996, "NAICS_CODE": "622110", "NAICS_DESC": "GENERAL MEDICAL AND SURGICAL HOSPITALS", "SOURCE": "https://data.illinois.gov/", "SOURCEDATE": "2018-08-09T00:00:00.000Z", "VAL_METHOD": "IMAGERY", "VAL_DATE": "2014-03-12T00:00:00.000Z", "WEBSITE": "http://www.genesishealth.com", "STATE_ID": "140275", "ALT_NAME": "NOT AVAILABLE", "ST_FIPS": "17", "OWNER": "NON-PROFIT", "TTL_STAFF": -999, "BEDS": 101, "TRAUMA": "LEVEL II", "HELIPAD": "Y" }, "geometry": { "type": "Polygon", "coordinates": [ [ [ -90.4953134, 41.452917699999986 ], [ -90.4988131, 41.453355699999989 ], [ -90.507124100000013, 41.4626794 ], [ -90.523105, 41.486444099999972 ], [ -90.5244813, 41.493228099999982 ], [ -90.5250158, 41.500444600000023 ], [ -90.5209008, 41.5056887 ], [ -90.517571, 41.509857699999976 ], [ -90.5124809, 41.512799900000019 ], [ -90.408318, 41.563134 ], [ -90.3977693, 41.567282100000014 ], [ -90.3967927, 41.567634900000044 ], [ -90.3855655, 41.569843300000031 ], [ -90.3490719, 41.564761299999965 ], [ -90.3434527, 41.560309200000034 ], [ -90.3247838, 41.5453533 ], [ -90.3231355, 41.540001700000019 ], [ -90.3217405, 41.534926400000032 ], [ -90.3342102, 41.513946 ], [ -90.3767297, 41.483402799999986 ], [ -90.4159065, 41.4604979 ], [ -90.4520381, 41.4568837 ], [ -90.4943528, 41.452903599999971 ], [ -90.4953134, 41.452917699999986 ] ] ] } },
{ "type": "Feature", "properties": { "OBJECTID": 545, "ID": "0012261201", "NAME": "TRINITY ROCK ISLAND", "ADDRESS": "2701 17TH ST", "CITY": "ROCK ISLAND", "STATE": "IL", "ZIP": "61201", "ZIP4": "NOT AVAILABLE", "TELEPHONE": "(309) 779-5000", "TYPE": "GENERAL ACUTE CARE", "STATUS": "OPEN", "POPULATION": 343, "COUNTY": "ROCK ISLAND", "COUNTYFIPS": "17161", "COUNTRY": "USA", "LATITUDE": 41.482615267, "LONGITUDE": -90.570418129000004, "NAICS_CODE": "622110", "NAICS_DESC": "GENERAL MEDICAL AND SURGICAL HOSPITALS", "SOURCE": "https://data.illinois.gov/", "SOURCEDATE": "2018-08-09T00:00:00.000Z", "VAL_METHOD": "IMAGERY", "VAL_DATE": "2014-03-12T00:00:00.000Z", "WEBSITE": "http://www.trinityqc.com", "STATE_ID": "140280", "ALT_NAME": "NOT AVAILABLE", "ST_FIPS": "17", "OWNER": "NON-PROFIT", "TTL_STAFF": -999, "BEDS": 343, "TRAUMA": "LEVEL II", "HELIPAD": "Y" }, "geometry": { "type": "Polygon", "coordinates": [ [ [ -90.572754700000019, 41.406362500000029 ], [ -90.6155756, 41.415014899999967 ], [ -90.6444668, 41.435006399999978 ], [ -90.6436497, 41.444061500000039 ], [ -90.5953359, 41.50553 ], [ -90.588287, 41.50925440000001 ], [ -90.5662266, 41.518093500000013 ], [ -90.5017995, 41.513590899999976 ], [ -90.4894284, 41.5126094 ], [ -90.4866282, 41.5114347 ], [ -90.4694557, 41.471325699999987 ], [ -90.484974, 41.450973500000025 ], [ -90.5233416, 41.429332599999988 ], [ -90.5632708, 41.408142600000062 ], [ -90.572754700000019, 41.406362500000029 ] ] ] } },
{ "type": "Feature", "properties": { "OBJECTID": 546, "ID": "0007262702", "NAME": "MEMORIAL MEDICAL CENTER", "ADDRESS": "701 N FIRST ST", "CITY": "SPRINGFIELD", "STATE": "IL", "ZIP": "62702", "ZIP4": "NOT AVAILABLE", "TELEPHONE": "(217) 788-3000", "TYPE": "GENERAL ACUTE CARE", "STATUS": "OPEN", "POPULATION": 473, "COUNTY": "SANGAMON", "COUNTYFIPS": "17167", "COUNTRY": "USA", "LATITUDE": 39.80936884, "LONGITUDE": -89.655779101999897, "NAICS_CODE": "622110", "NAICS_DESC": "GENERAL MEDICAL AND SURGICAL HOSPITALS", "SOURCE": "https://data.illinois.gov/", "SOURCEDATE": "2018-08-09T00:00:00.000Z", "VAL_METHOD": "IMAGERY", "VAL_DATE": "2014-03-12T00:00:00.000Z", "WEBSITE": "http://www.memorialmedical.com", "STATE_ID": "140148", "ALT_NAME": "NOT AVAILABLE", "ST_FIPS": "17", "OWNER": "NON-PROFIT", "TTL_STAFF": -999, "BEDS": 473, "TRAUMA": "LEVEL I", "HELIPAD": "Y" }, "geometry": { "type": "Polygon", "coordinates": [ [ [ -89.6444709, 39.735184 ], [ -89.6731741, 39.73929619999997 ], [ -89.7236652, 39.7565519 ], [ -89.7536479, 39.786572800000044 ], [ -89.7727229, 39.8325664 ], [ -89.6734097, 39.9035181 ], [ -89.6105823, 39.88471549999997 ], [ -89.5557359, 39.828588300000035 ], [ -89.534862300000015, 39.802561699999949 ], [ -89.571459500000017, 39.767312399999966 ], [ -89.5787073, 39.762414699999951 ], [ -89.6444709, 39.735184 ] ] ] } },
{ "type": "Feature", "properties": { "OBJECTID": 561, "ID": "0014662644", "NAME": "MASON DISTRICT HOSPITAL", "ADDRESS": "615 NORTH PROMENADE STREET, P O BOX 530", "CITY": "HAVANA", "STATE": "IL", "ZIP": "62644", "ZIP4": "NOT AVAILABLE", "TELEPHONE": "(309) 543-4431", "TYPE": "CRITICAL ACCESS", "STATUS": "OPEN", "POPULATION": 20, "COUNTY": "MASON", "COUNTYFIPS": "17125", "COUNTRY": "USA", "LATITUDE": 40.305423138000002, "LONGITUDE": -90.054090695999903, "NAICS_CODE": "622110", "NAICS_DESC": "GENERAL MEDICAL AND SURGICAL HOSPITALS", "SOURCE": "https://data.illinois.gov/", "SOURCEDATE": "2018-08-09T00:00:00.000Z", "VAL_METHOD": "IMAGERY", "VAL_DATE": "2014-03-12T00:00:00.000Z", "WEBSITE": "http://www.masondistricthospital.org", "STATE_ID": "141313", "ALT_NAME": "NOT AVAILABLE", "ST_FIPS": "17", "OWNER": "GOVERNMENT - DISTRICT/AUTHORITY", "TTL_STAFF": -999, "BEDS": 20, "TRAUMA": "NOT AVAILABLE", "HELIPAD": "Y" }, "geometry": { "type": "Polygon", "coordinates": [ [ [ -90.008779, 40.231915 ], [ -90.111379, 40.236761 ], [ -90.055071, 40.321301 ], [ -90.045482, 40.332856 ], [ -90.04519, 40.3332 ], [ -90.036825, 40.341825 ], [ -90.030396, 40.347488 ], [ -90.022504, 40.3526771 ], [ -89.998622, 40.341581 ], [ -89.941776, 40.297425 ], [ -90.008779, 40.231915 ] ] ] } },
{ "type": "Feature", "properties": { "OBJECTID": 570, "ID": "0007961701", "NAME": "ST JOSEPH MEDICAL CENTER", "ADDRESS": "2200 E WASHINGTON", "CITY": "BLOOMINGTON", "STATE": "IL", "ZIP": "61701", "ZIP4": "NOT AVAILABLE", "TELEPHONE": "(309) 662-3311", "TYPE": "GENERAL ACUTE CARE", "STATUS": "OPEN", "POPULATION": -999, "COUNTY": "MCLEAN", "COUNTYFIPS": "17113", "COUNTRY": "USA", "LATITUDE": 40.482676588000103, "LONGITUDE": -88.955562196000002, "NAICS_CODE": "622110", "NAICS_DESC": "GENERAL MEDICAL AND SURGICAL HOSPITALS", "SOURCE": "https://data.illinois.gov/", "SOURCEDATE": "2018-08-09T00:00:00.000Z", "VAL_METHOD": "IMAGERY", "VAL_DATE": "2014-03-12T00:00:00.000Z", "WEBSITE": "http://www.osfstjoseph.org/", "STATE_ID": "140162", "ALT_NAME": "NOT AVAILABLE", "ST_FIPS": "17", "OWNER": "NON-PROFIT", "TTL_STAFF": -999, "BEDS": -999, "TRAUMA": "LEVEL II", "HELIPAD": "Y" }, "geometry": { "type": "Polygon", "coordinates": [ [ [ -88.989955281265907, 40.400673489445992 ], [ -88.990207279453841, 40.400689489040474 ], [ -89.051884262686841, 40.412335502861609 ], [ -89.060375443264405, 40.458782649201609 ], [ -89.059567234256619, 40.494996365133652 ], [ -89.018674404627674, 40.539319237903555 ], [ -88.996784930971941, 40.5479972834313 ], [ -88.903235997583536, 40.576281132333108 ], [ -88.902710001362124, 40.576269132639609 ], [ -88.896101048053495, 40.575935136136472 ], [ -88.859635041267254, 40.497594032580487 ], [ -88.863599767602253, 40.458186102352045 ], [ -88.887681970453983, 40.410421708442193 ], [ -88.88918996083828, 40.409874703955616 ], [ -88.989955281265907, 40.400673489445992 ] ] ] } },
{ "type": "Feature", "properties": { "OBJECTID": 573, "ID": "0006461761", "NAME": "BROMENN HEALTHCARE", "ADDRESS": "1304 FRANKLIN AVENUE", "CITY": "NORMAL", "STATE": "IL", "ZIP": "61761", "ZIP4": "NOT AVAILABLE", "TELEPHONE": "(309) 454-1400", "TYPE": "GENERAL ACUTE CARE", "STATUS": "OPEN", "POPULATION": 200, "COUNTY": "MCLEAN", "COUNTYFIPS": "17113", "COUNTRY": "USA", "LATITUDE": 40.496970978999997, "LONGITUDE": -88.990850001999902, "NAICS_CODE": "622110", "NAICS_DESC": "GENERAL MEDICAL AND SURGICAL HOSPITALS", "SOURCE": "https://data.illinois.gov/", "SOURCEDATE": "2018-08-09T00:00:00.000Z", "VAL_METHOD": "IMAGERY", "VAL_DATE": "2016-04-26T00:00:00.000Z", "WEBSITE": "www.advocatehealth.com/bromenn", "STATE_ID": "140127", "ALT_NAME": "NOT AVAILABLE", "ST_FIPS": "17", "OWNER": "NON-PROFIT", "TTL_STAFF": -999, "BEDS": 200, "TRAUMA": "LEVEL II", "HELIPAD": "Y" }, "geometry": { "type": "Polygon", "coordinates": [ [ [ -88.990016208126576, 40.41857855274197 ], [ -89.034285662999494, 40.431044768915505 ], [ -89.03480796313498, 40.431358269804008 ], [ -89.066542161928169, 40.458650645783415 ], [ -89.089544171374442, 40.484384811761515 ], [ -89.091459171317965, 40.487429719607057 ], [ -89.091550168601984, 40.488789723606303 ], [ -89.070824267098644, 40.540343900663267 ], [ -88.984435496910905, 40.59079212523789 ], [ -88.925092591689122, 40.547086750299925 ], [ -88.899059764167134, 40.517282015061632 ], [ -88.891827773227803, 40.489609357342147 ], [ -88.892055174586432, 40.488037551897712 ], [ -88.902104231375333, 40.469151174437378 ], [ -88.932450584657175, 40.43328170457454 ], [ -88.951547461603511, 40.426715649007512 ], [ -88.989839209404224, 40.418581553067376 ], [ -88.990016208126576, 40.41857855274197 ] ] ] } },
{ "type": "Feature", "properties": { "OBJECTID": 628, "ID": "0015061462", "NAME": "OSF HOLY FAMILY MEDICAL CENTER", "ADDRESS": "1000 W HARLEM AVENUE", "CITY": "MONMOUTH", "STATE": "IL", "ZIP": "61462", "ZIP4": "NOT AVAILABLE", "TELEPHONE": "(309) 734-3141", "TYPE": "CRITICAL ACCESS", "STATUS": "OPEN", "POPULATION": 23, "COUNTY": "WARREN", "COUNTYFIPS": "17187", "COUNTRY": "USA", "LATITUDE": 40.922252932, "LONGITUDE": -90.658301335000004, "NAICS_CODE": "622110", "NAICS_DESC": "GENERAL MEDICAL AND SURGICAL HOSPITALS", "SOURCE": "https://data.illinois.gov/", "SOURCEDATE": "2018-08-09T00:00:00.000Z", "VAL_METHOD": "IMAGERY", "VAL_DATE": "2014-03-13T00:00:00.000Z", "WEBSITE": "http://www.osfholyfamily.org", "STATE_ID": "141318", "ALT_NAME": "NOT AVAILABLE", "ST_FIPS": "17", "OWNER": "NON-PROFIT", "TTL_STAFF": -999, "BEDS": 23, "TRAUMA": "NOT AVAILABLE", "HELIPAD": "Y" }, "geometry": { "type": "Polygon", "coordinates": [ [ [ -90.6578625, 40.8191342 ], [ -90.749331, 40.864467 ], [ -90.750512, 40.865297 ], [ -90.751645, 40.866103 ], [ -90.752814300000011, 40.8676341 ], [ -90.754005, 40.869361 ], [ -90.76693, 40.915697 ], [ -90.629343, 41.00799 ], [ -90.517449, 40.936113 ], [ -90.5175011, 40.919062199999956 ], [ -90.5177953, 40.903689600000014 ], [ -90.6572667, 40.81946880000001 ], [ -90.6578625, 40.8191342 ] ] ] } },
{ "type": "Feature", "properties": { "OBJECTID": 630, "ID": "0016562681", "NAME": "SARAH D CULBERTSON MEMORIAL HOSPITAL", "ADDRESS": "238 SOUTH CONGRESS STREET", "CITY": "RUSHVILLE", "STATE": "IL", "ZIP": "62681", "ZIP4": "NOT AVAILABLE", "TELEPHONE": "(217) 322-4321", "TYPE": "CRITICAL ACCESS", "STATUS": "OPEN", "POPULATION": 46, "COUNTY": "SCHUYLER", "COUNTYFIPS": "17169", "COUNTRY": "USA", "LATITUDE": 40.118162796999997, "LONGITUDE": -90.5643155, "NAICS_CODE": "622110", "NAICS_DESC": "GENERAL MEDICAL AND SURGICAL HOSPITALS", "SOURCE": "https://data.illinois.gov/", "SOURCEDATE": "2018-08-09T00:00:00.000Z", "VAL_METHOD": "IMAGERY", "VAL_DATE": "2014-01-21T00:00:00.000Z", "WEBSITE": "http://www.cmhospital.com", "STATE_ID": "141333", "ALT_NAME": "NOT AVAILABLE", "ST_FIPS": "17", "OWNER": "GOVERNMENT - DISTRICT/AUTHORITY", "TTL_STAFF": -999, "BEDS": 46, "TRAUMA": "NOT AVAILABLE", "HELIPAD": "N" }, "geometry": { "type": "Polygon", "coordinates": [ [ [ -90.572329, 40.040034 ], [ -90.615243, 40.044506 ], [ -90.661897, 40.089552 ], [ -90.66245720000002, 40.1393864 ], [ -90.593332, 40.234378 ], [ -90.5017049, 40.175966200000019 ], [ -90.481084, 40.153409 ], [ -90.471983, 40.110207 ], [ -90.47084, 40.053777 ], [ -90.491704, 40.043211 ], [ -90.572329, 40.040034 ] ] ] } },
{ "type": "Feature", "properties": { "OBJECTID": 631, "ID": "0015462812", "NAME": "ABRAHAM LINCOLN MEMORIAL HOSPITAL", "ADDRESS": "200 STAHLHUT DRIVE", "CITY": "LINCOLN", "STATE": "IL", "ZIP": "62656", "ZIP4": "NOT AVAILABLE", "TELEPHONE": "(217) 732-2161", "TYPE": "CRITICAL ACCESS", "STATUS": "OPEN", "POPULATION": 25, "COUNTY": "LOGAN", "COUNTYFIPS": "17107", "COUNTRY": "USA", "LATITUDE": 40.153786502000102, "LONGITUDE": -89.389893552999993, "NAICS_CODE": "622110", "NAICS_DESC": "GENERAL MEDICAL AND SURGICAL HOSPITALS", "SOURCE": "https://data.illinois.gov/", "SOURCEDATE": "2018-08-09T00:00:00.000Z", "VAL_METHOD": "IMAGERY", "VAL_DATE": "2014-03-12T00:00:00.000Z", "WEBSITE": "http://www.almh.org", "STATE_ID": "141322", "ALT_NAME": "NOT AVAILABLE", "ST_FIPS": "17", "OWNER": "NON-PROFIT", "TTL_STAFF": -999, "BEDS": 25, "TRAUMA": "NOT AVAILABLE", "HELIPAD": "Y" }, "geometry": { "type": "Polygon", "coordinates": [ [ [ -89.4380045, 40.06368269999998 ], [ -89.444810500000017, 40.0647543 ], [ -89.447682, 40.067109 ], [ -89.485571, 40.165155199999958 ], [ -89.4855798, 40.1653604 ], [ -89.485652, 40.1702 ], [ -89.485678, 40.173153 ], [ -89.4627593, 40.249482 ], [ -89.46097, 40.251795 ], [ -89.3055053, 40.200977 ], [ -89.3029224, 40.199715399999981 ], [ -89.292068, 40.179063 ], [ -89.282254, 40.149898 ], [ -89.310644, 40.106582 ], [ -89.317643, 40.099371 ], [ -89.4380045, 40.06368269999998 ] ] ] } },
{ "type": "Feature", "properties": { "OBJECTID": 928, "ID": "0098261231", "NAME": "GENESIS MEDICAL CENTER ALEDO", "ADDRESS": "409 NORTHWEST 9TH AVENUE", "CITY": "ALEDO", "STATE": "IL", "ZIP": "61231", "ZIP4": "NOT AVAILABLE", "TELEPHONE": "(309) 582-9100", "TYPE": "CRITICAL ACCESS", "STATUS": "OPEN", "POPULATION": 22, "COUNTY": "MERCER", "COUNTYFIPS": "17131", "COUNTRY": "USA", "LATITUDE": 41.205523198000002, "LONGITUDE": -90.759473440999997, "NAICS_CODE": "622110", "NAICS_DESC": "GENERAL MEDICAL AND SURGICAL HOSPITALS", "SOURCE": "https://data.illinois.gov/", "SOURCEDATE": "2018-08-09T00:00:00.000Z", "VAL_METHOD": "IMAGERY/OTHER", "VAL_DATE": "2015-02-21T00:00:00.000Z", "WEBSITE": "http://www.genesishealth.com/facilities/hospital/aledo/genesis-medical-center-aledo/", "STATE_ID": "NOT AVAILABLE", "ALT_NAME": "NOT AVAILABLE", "ST_FIPS": "17", "OWNER": "NOT AVAILABLE", "TTL_STAFF": -999, "BEDS": 22, "TRAUMA": "NOT AVAILABLE", "HELIPAD": "Y" }, "geometry": { "type": "Polygon", "coordinates": [ [ [ -90.744309, 41.127041199999987 ], [ -90.8207828, 41.164547300000059 ], [ -90.8756207, 41.197703500000046 ], [ -90.8186788, 41.2391346 ], [ -90.7359549, 41.2691903 ], [ -90.6449739, 41.202864300000037 ], [ -90.744309, 41.127041199999987 ] ] ] } },
{ "type": "Feature", "properties": { "OBJECTID": 7190, "ID": "0000961605", "NAME": "GREATER PEORIA SPECIALTY HOSPITAL LLC - DBA KINDRED HOSPITAL PEORIA", "ADDRESS": "500 WEST ROMEO B GARRETT AVENUE", "CITY": "PEORIA", "STATE": "IL", "ZIP": "61605", "ZIP4": "NOT AVAILABLE", "TELEPHONE": "(309) 680-1500", "TYPE": "LONG TERM CARE", "STATUS": "OPEN", "POPULATION": 50, "COUNTY": "PEORIA", "COUNTYFIPS": "17143", "COUNTRY": "USA", "LATITUDE": 40.692888623999998, "LONGITUDE": -89.600729650999895, "NAICS_CODE": "622110", "NAICS_DESC": "GENERAL MEDICAL AND SURGICAL HOSPITALS", "SOURCE": "https://data.illinois.gov/", "SOURCEDATE": "2018-08-09T00:00:00.000Z", "VAL_METHOD": "IMAGERY", "VAL_DATE": "2014-02-10T00:00:00.000Z", "WEBSITE": "http://www.khpeoria.com/", "STATE_ID": "0005777", "ALT_NAME": "NOT AVAILABLE", "ST_FIPS": "17", "OWNER": "PROPRIETARY", "TTL_STAFF": -999, "BEDS": 50, "TRAUMA": "NOT AVAILABLE", "HELIPAD": "N" }, "geometry": { "type": "Polygon", "coordinates": [ [ [ -89.6612663, 40.608592700000031 ], [ -89.680421737393132, 40.637917948768916 ], [ -89.7050123, 40.698747 ], [ -89.6694902, 40.7740683 ], [ -89.6563006, 40.7753207 ], [ -89.6030002, 40.775463499999951 ], [ -89.6025397, 40.775440199999963 ], [ -89.6011307, 40.775363 ], [ -89.5724204, 40.770357 ], [ -89.5125149, 40.743957199999976 ], [ -89.5119763, 40.743643099999979 ], [ -89.4790972, 40.715889900000022 ], [ -89.513169569375023, 40.631084439219215 ], [ -89.53467957335576, 40.626764661720202 ], [ -89.547741677283682, 40.624357714909401 ], [ -89.6612663, 40.608592700000031 ] ] ] } },
{ "type": "Feature", "properties": { "OBJECTID": 7191, "ID": "0000861614", "NAME": "PROCTOR HOSPITAL", "ADDRESS": "5409 N KNOXVILLE AVE", "CITY": "PEORIA", "STATE": "IL", "ZIP": "61614", "ZIP4": "NOT AVAILABLE", "TELEPHONE": "(309) 691-1000", "TYPE": "GENERAL ACUTE CARE", "STATUS": "OPEN", "POPULATION": 172, "COUNTY": "PEORIA", "COUNTYFIPS": "17143", "COUNTRY": "USA", "LATITUDE": 40.752968051000003, "LONGITUDE": -89.597865557999995, "NAICS_CODE": "622110", "NAICS_DESC": "GENERAL MEDICAL AND SURGICAL HOSPITALS", "SOURCE": "https://data.illinois.gov/", "SOURCEDATE": "2018-08-09T00:00:00.000Z", "VAL_METHOD": "IMAGERY", "VAL_DATE": "2014-03-12T00:00:00.000Z", "WEBSITE": "http://www.proctor.org", "STATE_ID": "140013", "ALT_NAME": "NOT AVAILABLE", "ST_FIPS": "17", "OWNER": "NON-PROFIT", "TTL_STAFF": -999, "BEDS": 172, "TRAUMA": "NOT AVAILABLE", "HELIPAD": "Y" }, "geometry": { "type": "Polygon", "coordinates": [ [ [ -89.5924985, 40.669196399999961 ], [ -89.621006, 40.672366299999965 ], [ -89.6324352, 40.6840834 ], [ -89.6629323, 40.7170241 ], [ -89.6751105, 40.733513499999972 ], [ -89.6886417, 40.7549657 ], [ -89.6899814, 40.774782300000034 ], [ -89.6899767, 40.775542 ], [ -89.6899673, 40.776324700000018 ], [ -89.6890972, 40.7800711 ], [ -89.6180328, 40.8344042 ], [ -89.6165353, 40.834794200000019 ], [ -89.563593, 40.827594 ], [ -89.483408, 40.715755200000025 ], [ -89.483867, 40.715482 ], [ -89.5914603, 40.669177700000034 ], [ -89.5924985, 40.669196399999961 ] ] ] } },
{ "type": "Feature", "properties": { "OBJECTID": 7220, "ID": "0006061554", "NAME": "PEKIN MEMORIAL HOSPITAL", "ADDRESS": "600 SOUTH 13TH STREET", "CITY": "PEKIN", "STATE": "IL", "ZIP": "61554", "ZIP4": "NOT AVAILABLE", "TELEPHONE": "(309) 347-1151", "TYPE": "GENERAL ACUTE CARE", "STATUS": "OPEN", "POPULATION": 125, "COUNTY": "TAZEWELL", "COUNTYFIPS": "17179", "COUNTRY": "USA", "LATITUDE": 40.563128601000102, "LONGITUDE": -89.632472848999996, "NAICS_CODE": "622110", "NAICS_DESC": "GENERAL MEDICAL AND SURGICAL HOSPITALS", "SOURCE": "https://data.illinois.gov/", "SOURCEDATE": "2018-08-09T00:00:00.000Z", "VAL_METHOD": "IMAGERY", "VAL_DATE": "2014-02-10T00:00:00.000Z", "WEBSITE": "http://www.pekinhospital.org", "STATE_ID": "140120", "ALT_NAME": "NOT AVAILABLE", "ST_FIPS": "17", "OWNER": "NON-PROFIT", "TTL_STAFF": -999, "BEDS": 125, "TRAUMA": "NOT AVAILABLE", "HELIPAD": "N" }, "geometry": { "type": "Polygon", "coordinates": [ [ [ -89.6347345, 40.480191100000013 ], [ -89.663821, 40.49441 ], [ -89.7125113, 40.5370571 ], [ -89.624252264275157, 40.631724346906331 ], [ -89.61761245193297, 40.636377871228326 ], [ -89.6054347, 40.643638500000016 ], [ -89.6027715, 40.643739699999962 ], [ -89.5332731, 40.59253930000002 ], [ -89.5013843, 40.529707599999981 ], [ -89.6157096, 40.480423 ], [ -89.6252851, 40.480304100000012 ], [ -89.6347345, 40.480191100000013 ] ] ] } },
{ "type": "Feature", "properties": { "OBJECTID": 7236, "ID": "0015161254", "NAME": "HAMMOND HENRY HOSPITAL", "ADDRESS": "600 N COLLEGE AVENUE", "CITY": "GENESEO", "STATE": "IL", "ZIP": "61254", "ZIP4": "NOT AVAILABLE", "TELEPHONE": "(309) 944-6431", "TYPE": "CRITICAL ACCESS", "STATUS": "OPEN", "POPULATION": 61, "COUNTY": "HENRY", "COUNTYFIPS": "17073", "COUNTRY": "USA", "LATITUDE": 41.460314785000001, "LONGITUDE": -90.157676844999997, "NAICS_CODE": "622110", "NAICS_DESC": "GENERAL MEDICAL AND SURGICAL HOSPITALS", "SOURCE": "https://data.illinois.gov/", "SOURCEDATE": "2018-08-09T00:00:00.000Z", "VAL_METHOD": "IMAGERY", "VAL_DATE": "2014-03-12T00:00:00.000Z", "WEBSITE": "http://www.hammondhenry.com", "STATE_ID": "141319", "ALT_NAME": "NOT AVAILABLE", "ST_FIPS": "17", "OWNER": "GOVERNMENT - DISTRICT/AUTHORITY", "TTL_STAFF": -999, "BEDS": 61, "TRAUMA": "NOT AVAILABLE", "HELIPAD": "Y" }, "geometry": { "type": "Polygon", "coordinates": [ [ [ -90.1649865, 41.3756844 ], [ -90.2938705, 41.454690900000031 ], [ -90.2516097, 41.498783899999964 ], [ -90.164737, 41.540233 ], [ -90.1572721, 41.5385781 ], [ -90.0850996, 41.483011199999972 ], [ -90.0675506, 41.4573 ], [ -90.0680001, 41.417673200000038 ], [ -90.1649865, 41.3756844 ] ] ] } },
{ "type": "Feature", "properties": { "OBJECTID": 5249, "ID": "0000161520", "NAME": "GRAHAM HOSPITAL ASSOCIATION", "ADDRESS": "210 WEST WALNUT STREET", "CITY": "CANTON", "STATE": "IL", "ZIP": "61520", "ZIP4": "NOT AVAILABLE", "TELEPHONE": "(309) 647-5240", "TYPE": "GENERAL ACUTE CARE", "STATUS": "OPEN", "POPULATION": 93, "COUNTY": "FULTON", "COUNTYFIPS": "17057", "COUNTRY": "USA", "LATITUDE": 40.552669086999998, "LONGITUDE": -90.038829973999995, "NAICS_CODE": "622110", "NAICS_DESC": "GENERAL MEDICAL AND SURGICAL HOSPITALS", "SOURCE": "https://data.illinois.gov/", "SOURCEDATE": "2018-08-09T00:00:00.000Z", "VAL_METHOD": "IMAGERY", "VAL_DATE": "2014-03-12T00:00:00.000Z", "WEBSITE": "http://www.grahamhospital.org", "STATE_ID": "140001", "ALT_NAME": "NOT AVAILABLE", "ST_FIPS": "17", "OWNER": "NON-PROFIT", "TTL_STAFF": -999, "BEDS": 93, "TRAUMA": "NOT AVAILABLE", "HELIPAD": "Y" }, "geometry": { "type": "Polygon", "coordinates": [ [ [ -90.030068, 40.473397 ], [ -90.0582273, 40.486336599999959 ], [ -90.107029, 40.524138 ], [ -90.141875, 40.560343 ], [ -90.046075334272103, 40.625743003425043 ], [ -90.036992354505941, 40.62935902928669 ], [ -90.031856356592556, 40.629326042397338 ], [ -90.025629344353661, 40.625782056035781 ], [ -89.950703, 40.568014 ], [ -89.944729, 40.542897 ], [ -90.030068, 40.473397 ] ] ] } },
{ "type": "Feature", "properties": { "OBJECTID": 5279, "ID": "0002762703", "NAME": "ST JOHNS HOSPITAL", "ADDRESS": "800 E CARPENTER ST", "CITY": "SPRINGFIELD", "STATE": "IL", "ZIP": "62702", "ZIP4": "NOT AVAILABLE", "TELEPHONE": "(217) 544-6464", "TYPE": "GENERAL ACUTE CARE", "STATUS": "OPEN", "POPULATION": 434, "COUNTY": "SANGAMON", "COUNTYFIPS": "17167", "COUNTRY": "USA", "LATITUDE": 39.805439016000001, "LONGITUDE": -89.644008037999996, "NAICS_CODE": "622110", "NAICS_DESC": "GENERAL MEDICAL AND SURGICAL HOSPITALS", "SOURCE": "https://data.illinois.gov/", "SOURCEDATE": "2018-08-09T00:00:00.000Z", "VAL_METHOD": "IMAGERY", "VAL_DATE": "2014-03-12T00:00:00.000Z", "WEBSITE": "www.st-johns.org", "STATE_ID": "140053", "ALT_NAME": "NOT AVAILABLE", "ST_FIPS": "17", "OWNER": "NON-PROFIT", "TTL_STAFF": -999, "BEDS": 434, "TRAUMA": "LEVEL I, LEVEL II PEDIATRIC", "HELIPAD": "Y" }, "geometry": { "type": "Polygon", "coordinates": [ [ [ -89.6439033, 39.708909400000017 ], [ -89.715326100000013, 39.759990699999989 ], [ -89.7390388, 39.7866431 ], [ -89.7481053, 39.8011124 ], [ -89.7585261, 39.8286807 ], [ -89.6719797, 39.870275 ], [ -89.608528, 39.8886756 ], [ -89.520221, 39.846149 ], [ -89.5153782, 39.837679900000012 ], [ -89.5044795, 39.802734299999976 ], [ -89.5384648, 39.750609800000014 ], [ -89.5385474, 39.750516200000021 ], [ -89.5388386, 39.750239899999983 ], [ -89.6439033, 39.708909400000017 ] ] ] } },
{ "type": "Feature", "properties": { "OBJECTID": 5347, "ID": "0100361265", "NAME": "TRINITY MEDICAL CENTER - 7TH STREET CAMPUS - DBA TRINITY MOLINE", "ADDRESS": "500 JOHN DEERE ROAD, 7TH STREET CAMPUS", "CITY": "MOLINE", "STATE": "IL", "ZIP": "61265", "ZIP4": "NOT AVAILABLE", "TELEPHONE": "(309) 779-5000", "TYPE": "GENERAL ACUTE CARE", "STATUS": "OPEN", "POPULATION": -999, "COUNTY": "ROCK ISLAND", "COUNTYFIPS": "17161", "COUNTRY": "USA", "LATITUDE": 41.468307402999997, "LONGITUDE": -90.530979691, "NAICS_CODE": "622110", "NAICS_DESC": "GENERAL MEDICAL AND SURGICAL HOSPITALS", "SOURCE": "https://data.illinois.gov/", "SOURCEDATE": "2018-08-09T00:00:00.000Z", "VAL_METHOD": "IMAGERY/OTHER", "VAL_DATE": "2015-01-17T00:00:00.000Z", "WEBSITE": "NOT AVAILABLE", "STATE_ID": "NOT AVAILABLE", "ALT_NAME": "NOT AVAILABLE", "ST_FIPS": "17", "OWNER": "NOT AVAILABLE", "TTL_STAFF": -999, "BEDS": -999, "TRAUMA": "NOT AVAILABLE", "HELIPAD": "Y" }, "geometry": { "type": "Polygon", "coordinates": [ [ [ -90.5779577, 41.3920941 ], [ -90.6196049, 41.43011630000003 ], [ -90.6262729, 41.4422826 ], [ -90.6262747, 41.4433855 ], [ -90.6262706, 41.443739 ], [ -90.6028492, 41.493941799999952 ], [ -90.5963375, 41.504244 ], [ -90.5953359, 41.50553 ], [ -90.5869475, 41.509787299999978 ], [ -90.5662266, 41.518093500000013 ], [ -90.5133738, 41.522223900000057 ], [ -90.4607953, 41.514618299999981 ], [ -90.4055844, 41.492833200000042 ], [ -90.3986251, 41.485967400000028 ], [ -90.3975803, 41.484366199999954 ], [ -90.3977178, 41.483301699999956 ], [ -90.40002650000001, 41.47201459999998 ], [ -90.4321004, 41.442514500000051 ], [ -90.4474728, 41.4284822 ], [ -90.4707077, 41.416834800000032 ], [ -90.5254854, 41.398671800000024 ], [ -90.572866, 41.392419500000024 ], [ -90.5779577, 41.3920941 ] ] ] } },
{ "type": "Feature", "properties": { "OBJECTID": 3374, "ID": "0001662321", "NAME": "MEMORIAL HOSPITAL ASSOCIATION", "ADDRESS": "1454 NORTH COUNTY ROAD 2050", "CITY": "CARTHAGE", "STATE": "IL", "ZIP": "62321", "ZIP4": "NOT AVAILABLE", "TELEPHONE": "(217) 357-8500", "TYPE": "CRITICAL ACCESS", "STATUS": "OPEN", "POPULATION": 18, "COUNTY": "HANCOCK", "COUNTYFIPS": "17067", "COUNTRY": "USA", "LATITUDE": 40.407996805000003, "LONGITUDE": -91.113265025000004, "NAICS_CODE": "622110", "NAICS_DESC": "GENERAL MEDICAL AND SURGICAL HOSPITALS", "SOURCE": "https://data.illinois.gov/", "SOURCEDATE": "2018-08-09T00:00:00.000Z", "VAL_METHOD": "IMAGERY", "VAL_DATE": "2014-03-12T00:00:00.000Z", "WEBSITE": "http://www.mhtlc.org", "STATE_ID": "0005611", "ALT_NAME": "NOT AVAILABLE", "ST_FIPS": "17", "OWNER": "NON-PROFIT", "TTL_STAFF": -999, "BEDS": 18, "TRAUMA": "NOT AVAILABLE", "HELIPAD": "Y" }, "geometry": { "type": "Polygon", "coordinates": [ [ [ -91.121746, 40.312802 ], [ -91.130712, 40.3203 ], [ -91.217334, 40.397602 ], [ -91.158927, 40.461141 ], [ -91.139298, 40.475141 ], [ -91.052461, 40.447529 ], [ -90.97642620000002, 40.4149504 ], [ -90.9763562, 40.4147516 ], [ -91.121442, 40.312797 ], [ -91.121746, 40.312802 ] ] ] } },
{ "type": "Feature", "properties": { "OBJECTID": 3375, "ID": "0014261530", "NAME": "ADVOCATE EUREKA  HOSPITAL", "ADDRESS": "101 S MAJOR ST", "CITY": "EUREKA", "STATE": "IL", "ZIP": "61530", "ZIP4": "NOT AVAILABLE", "TELEPHONE": "(309) 467-2371", "TYPE": "CRITICAL ACCESS", "STATUS": "OPEN", "POPULATION": 18, "COUNTY": "WOODFORD", "COUNTYFIPS": "17203", "COUNTRY": "USA", "LATITUDE": 40.721389861, "LONGITUDE": -89.271586428999996, "NAICS_CODE": "622110", "NAICS_DESC": "GENERAL MEDICAL AND SURGICAL HOSPITALS", "SOURCE": "https://data.illinois.gov/", "SOURCEDATE": "2018-08-09T00:00:00.000Z", "VAL_METHOD": "IMAGERY", "VAL_DATE": "2014-02-10T00:00:00.000Z", "WEBSITE": "http://www.advocatehealth.com/eureka/", "STATE_ID": "141309", "ALT_NAME": "NOT AVAILABLE", "ST_FIPS": "17", "OWNER": "NON-PROFIT", "TTL_STAFF": -999, "BEDS": 18, "TRAUMA": "NOT AVAILABLE", "HELIPAD": "N" }, "geometry": { "type": "Polygon", "coordinates": [ [ [ -89.2747749, 40.634851300000015 ], [ -89.3328648, 40.6898958 ], [ -89.3309444, 40.7628165 ], [ -89.2738449, 40.807195 ], [ -89.1572825, 40.735273899999989 ], [ -89.2518538, 40.654344 ], [ -89.2747749, 40.634851300000015 ] ] ] } }
]
}
