{
"type": "FeatureCollection",
"crs": { "type": "name", "properties": { "name": "urn:ogc:def:crs:OGC:1.3:CRS84" } },
"features": [
{ "type": "Feature", "properties": { "OBJECTID": 1096, "ID": "0013149091", "NAME": "STURGIS HOSPITAL", "ADDRESS": "916 MYRTLE AVE", "CITY": "STURGIS", "STATE": "MI", "ZIP": "49091", "ZIP4": "NOT AVAILABLE", "TELEPHONE": "NOT AVAILABLE", "TYPE": "GENERAL ACUTE CARE", "STATUS": "OPEN", "POPULATION": 84, "COUNTY": "ST. JOSEPH", "COUNTYFIPS": "26149", "COUNTRY": "USA", "LATITUDE": 41.794628632000098, "LONGITUDE": -85.407564797000006, "NAICS_CODE": "622110", "NAICS_DESC": "GENERAL MEDICAL AND SURGICAL HOSPITALS", "SOURCE": "https://w2.lara.state.mi.us/VAL/License/Search", "SOURCEDATE": "2018-08-09T00:00:00.000Z", "VAL_METHOD": "IMAGERY", "VAL_DATE": "2014-02-10T00:00:00.000Z", "WEBSITE": "http://www.sturgishospital.com", "STATE_ID": "NOT AVAILABLE", "ALT_NAME": "NOT AVAILABLE", "ST_FIPS": "26", "OWNER": "NON-PROFIT", "TTL_STAFF": -999, "BEDS": 84, "TRAUMA": "NOT AVAILABLE", "HELIPAD": "Y" }, "geometry": { "type": "Polygon", "coordinates": [ [ [ -85.4259434, 41.714321100000028 ], [ -85.5358584, 41.792862600000056 ], [ -85.5358619, 41.793482399999988 ], [ -85.512279, 41.809855 ], [ -85.467508, 41.839151 ], [ -85.409507, 41.876071 ], [ -85.321166, 41.842232 ], [ -85.292151, 41.828244 ], [ -85.292126, 41.82723 ], [ -85.309565, 41.803633 ], [ -85.338032, 41.767101 ], [ -85.41557, 41.718729 ], [ -85.42566, 41.714322 ], [ -85.4259434, 41.714321100000028 ] ] ] } },
{ "type": "Feature", "properties": { "OBJECTID": 1392, "ID": "0010546761", "NAME": "PARKVIEW LAGRANGE HOSPITAL", "ADDRESS": "207 N TOWNLINE RD", "CITY": "LAGRANGE", "STATE": "IN", "ZIP": "46761", "ZIP4": "NOT AVAILABLE", "TELEPHONE": "(260) 463-9000", "TYPE": "CRITICAL ACCESS", "STATUS": "OPEN", "POPULATION": 25, "COUNTY": "LAGRANGE", "COUNTYFIPS": "18087", "COUNTRY": "USA", "LATITUDE": 41.645804090000098, "LONGITUDE": -85.426137056999906, "NAICS_CODE": "622110", "NAICS_DESC": "GENERAL MEDICAL AND SURGICAL HOSPITALS", "SOURCE": "http://www.in.gov/isdh/reports/QAMIS/hosdir", "SOURCEDATE": "2018-08-16T00:00:00.000Z", "VAL_METHOD": "IMAGERY", "VAL_DATE": "2014-03-12T00:00:00.000Z", "WEBSITE": "http://www.parkview.com", "STATE_ID": "17-005085-1", "ALT_NAME": "NOT AVAILABLE", "ST_FIPS": "18", "OWNER": "NON-PROFIT", "TTL_STAFF": -999, "BEDS": 25, "TRAUMA": "NOT AVAILABLE", "HELIPAD": "Y" }, "geometry": { "type": "Polygon", "coordinates": [ [ [ -85.462308601782269, 41.561605125535515 ], [ -85.540843031637095, 41.613726209912166 ], [ -85.578075606638464, 41.650447232935036 ], [ -85.580919761785623, 41.654577332307426 ], [ -85.580248060457876, 41.655009331848341 ], [ -85.43078, 41.744196 ], [ -85.419882, 41.743344 ], [ -85.277167126266775, 41.641843217021247 ], [ -85.277086170501931, 41.636750117517622 ], [ -85.366842809450432, 41.562321025569489 ], [ -85.438070630868054, 41.561574125478963 ], [ -85.462308601782269, 41.561605125535515 ] ] ] } },
{ "type": "Feature", "properties": { "OBJECTID": 2104, "ID": "0003349036", "NAME": "COMMUNITY HEALTH CENTER OF BRANCH COUNTY", "ADDRESS": "274 E CHICAGO ST", "CITY": "COLDWATER", "STATE": "MI", "ZIP": "49036", "ZIP4": "NOT AVAILABLE", "TELEPHONE": "NOT AVAILABLE", "TYPE": "GENERAL ACUTE CARE", "STATUS": "OPEN", "POPULATION": 96, "COUNTY": "BRANCH", "COUNTYFIPS": "26023", "COUNTRY": "USA", "LATITUDE": 41.9376100590001, "LONGITUDE": -84.989688555000001, "NAICS_CODE": "622110", "NAICS_DESC": "GENERAL MEDICAL AND SURGICAL HOSPITALS", "SOURCE": "https://w2.lara.state.mi.us/VAL/License/Search", "SOURCEDATE": "2018-08-09T00:00:00.000Z", "VAL_METHOD": "IMAGERY", "VAL_DATE": "2014-03-12T00:00:00.000Z", "WEBSITE": "http://www.chcbc.com", "STATE_ID": "NOT AVAILABLE", "ALT_NAME": "NOT AVAILABLE", "ST_FIPS": "26", "OWNER": "GOVERNMENT - LOCAL", "TTL_STAFF": -999, "BEDS": 96, "TRAUMA": "NOT AVAILABLE", "HELIPAD": "Y" }, "geometry": { "type": "Polygon", "coordinates": [ [ [ -84.9968884, 41.803235700000023 ], [ -85.116935, 41.900793 ], [ -85.136989, 41.941549 ], [ -85.024364, 42.003852 ], [ -85.000882, 42.014694 ], [ -84.924021, 42.000122 ], [ -84.884563, 41.985663 ], [ -84.875737, 41.947953 ], [ -84.875591, 41.945276 ], [ -84.901606, 41.887881 ], [ -84.9968884, 41.803235700000023 ] ] ] } },
{ "type": "Feature", "properties": { "OBJECTID": 2911, "ID": "0003749202", "NAME": "HENRY FORD ALLEGIANCE CARELINK", "ADDRESS": "110 N ELM AVENUE", "CITY": "JACKSON", "STATE": "MI", "ZIP": "49202", "ZIP4": "NOT AVAILABLE", "TELEPHONE": "NOT AVAILABLE", "TYPE": "LONG TERM CARE", "STATUS": "OPEN", "POPULATION": 64, "COUNTY": "JACKSON", "COUNTYFIPS": "26075", "COUNTRY": "USA", "LATITUDE": 42.251880594000099, "LONGITUDE": -84.3855601019999, "NAICS_CODE": "622310", "NAICS_DESC": "SPECIALTY (EXCEPT PSYCHIATRIC AND SUBSTANCE ABUSE) HOSPITALS", "SOURCE": "https://w2.lara.state.mi.us/VAL/License/Search", "SOURCEDATE": "2018-08-09T00:00:00.000Z", "VAL_METHOD": "IMAGERY/OTHER", "VAL_DATE": "2014-02-10T00:00:00.000Z", "WEBSITE": "http://www.allegiancehealth.org/services/carelink-long-term-acute-care", "STATE_ID": "NOT AVAILABLE", "ALT_NAME": "CARELINK OF JACKSON, A COMMUNITY-OWNED SPECIALTY H", "ST_FIPS": "26", "OWNER": "NON-PROFIT", "TTL_STAFF": -999, "BEDS": 64, "TRAUMA": "NOT AVAILABLE", "HELIPAD": "N" }, "geometry": { "type": "Polygon", "coordinates": [ [ [ -84.36448, 42.147721 ], [ -84.456979, 42.183398 ], [ -84.501862, 42.218458 ], [ -84.5419266, 42.269153200000055 ], [ -84.537273, 42.273382 ], [ -84.4679797, 42.325349300000028 ], [ -84.46285, 42.32748 ], [ -84.348552, 42.341329 ], [ -84.260093, 42.310252 ], [ -84.22881, 42.291731 ], [ -84.249865, 42.232595 ], [ -84.2944291, 42.1818199 ], [ -84.36448, 42.147721 ] ] ] } },
{ "type": "Feature", "properties": { "OBJECTID": 245, "ID": "0001649242", "NAME": "HILLSDALE COMMUNITY HEALTH CENTER", "ADDRESS": "168 S HOWELL STREET", "CITY": "HILLSDALE", "STATE": "MI", "ZIP": "49242", "ZIP4": "NOT AVAILABLE", "TELEPHONE": "NOT AVAILABLE", "TYPE": "GENERAL ACUTE CARE", "STATUS": "OPEN", "POPULATION": 65, "COUNTY": "HILLSDALE", "COUNTYFIPS": "26059", "COUNTRY": "USA", "LATITUDE": 41.911738688000099, "LONGITUDE": -84.633003533999997, "NAICS_CODE": "622110", "NAICS_DESC": "GENERAL MEDICAL AND SURGICAL HOSPITALS", "SOURCE": "https://w2.lara.state.mi.us/VAL/License/Search", "SOURCEDATE": "2018-08-09T00:00:00.000Z", "VAL_METHOD": "IMAGERY", "VAL_DATE": "2014-03-12T00:00:00.000Z", "WEBSITE": "http://www.hchc.com", "STATE_ID": "NOT AVAILABLE", "ALT_NAME": "NOT AVAILABLE", "ST_FIPS": "26", "OWNER": "NON-PROFIT", "TTL_STAFF": -999, "BEDS": 65, "TRAUMA": "NOT AVAILABLE", "HELIPAD": "Y" }, "geometry": { "type": "Polygon", "coordinates": [ [ [ -84.631292, 41.818378 ], [ -84.6604632, 41.839820800000012 ], [ -84.7000162, 41.883233900000022 ], [ -84.728544, 41.926877 ], [ -84.689877, 41.985454 ], [ -84.66665, 41.995035 ], [ -84.644068, 41.991333 ], [ -84.592814, 41.982045 ], [ -84.534981, 41.941785 ], [ -84.529547, 41.879089 ], [ -84.558452, 41.861708 ], [ -84.631292, 41.818378 ] ] ] } },
{ "type": "Feature", "properties": { "OBJECTID": 5616, "ID": "0003449201", "NAME": "HENRY FORD ALLEGIANCE HEALTH", "ADDRESS": "205 N EAST AVE", "CITY": "JACKSON", "STATE": "MI", "ZIP": "49201", "ZIP4": "NOT AVAILABLE", "TELEPHONE": "NOT AVAILABLE", "TYPE": "GENERAL ACUTE CARE", "STATUS": "OPEN", "POPULATION": 325, "COUNTY": "JACKSON", "COUNTYFIPS": "26075", "COUNTRY": "USA", "LATITUDE": 42.250734771000097, "LONGITUDE": -84.392693125999998, "NAICS_CODE": "622110", "NAICS_DESC": "GENERAL MEDICAL AND SURGICAL HOSPITALS", "SOURCE": "https://w2.lara.state.mi.us/VAL/License/Search", "SOURCEDATE": "2018-08-09T00:00:00.000Z", "VAL_METHOD": "IMAGERY", "VAL_DATE": "2014-03-12T00:00:00.000Z", "WEBSITE": "http://www.allegiancehealth.org", "STATE_ID": "NOT AVAILABLE", "ALT_NAME": "NOT AVAILABLE", "ST_FIPS": "26", "OWNER": "NON-PROFIT", "TTL_STAFF": -999, "BEDS": 325, "TRAUMA": "NOT AVAILABLE", "HELIPAD": "Y" }, "geometry": { "type": "Polygon", "coordinates": [ [ [ -84.364347, 42.138794 ], [ -84.460338, 42.181921 ], [ -84.5165652, 42.216443100000028 ], [ -84.537322, 42.252414 ], [ -84.5452324, 42.270129299999972 ], [ -84.479561, 42.328907 ], [ -84.462879, 42.33257 ], [ -84.461458, 42.332699 ], [ -84.348552, 42.341329 ], [ -84.2599606, 42.30539030000002 ], [ -84.2543643, 42.301527 ], [ -84.2493524, 42.291754599999948 ], [ -84.249865, 42.232595 ], [ -84.306805, 42.183316 ], [ -84.364347, 42.138794 ] ] ] } },
{ "type": "Feature", "properties": { "OBJECTID": 3046, "ID": "0000746703", "NAME": "CAMERON MEMORIAL COMMUNITY HOSPITAL INC", "ADDRESS": "416 E MAUMEE ST", "CITY": "ANGOLA", "STATE": "IN", "ZIP": "46703", "ZIP4": "NOT AVAILABLE", "TELEPHONE": "(260) 665-2141", "TYPE": "CRITICAL ACCESS", "STATUS": "OPEN", "POPULATION": 25, "COUNTY": "STEUBEN", "COUNTYFIPS": "18151", "COUNTRY": "USA", "LATITUDE": 41.634378767000001, "LONGITUDE": -84.994689108000003, "NAICS_CODE": "622110", "NAICS_DESC": "GENERAL MEDICAL AND SURGICAL HOSPITALS", "SOURCE": "http://www.in.gov/isdh/reports/QAMIS/hosdir", "SOURCEDATE": "2018-08-16T00:00:00.000Z", "VAL_METHOD": "IMAGERY", "VAL_DATE": "2014-03-12T00:00:00.000Z", "WEBSITE": "http://www.cameronmch.com", "STATE_ID": "17-005037-1", "ALT_NAME": "NOT AVAILABLE", "ST_FIPS": "18", "OWNER": "NON-PROFIT", "TTL_STAFF": -999, "BEDS": 25, "TRAUMA": "NOT AVAILABLE", "HELIPAD": "Y" }, "geometry": { "type": "Polygon", "coordinates": [ [ [ -85.005139268448829, 41.542001164793113 ], [ -85.058587300109608, 41.577228575057504 ], [ -85.140760121977024, 41.634409281486498 ], [ -84.9984298, 41.742516299999963 ], [ -84.9445376, 41.7073814 ], [ -84.9369242, 41.701277299999987 ], [ -84.857687606372636, 41.629794193421056 ], [ -84.909449850388569, 41.5875105137726 ], [ -84.997951740920684, 41.542141261583488 ], [ -85.005139268448829, 41.542001164793113 ] ] ] } }
]
}
