{
"type": "FeatureCollection",
"crs": { "type": "name", "properties": { "name": "urn:ogc:def:crs:OGC:1.3:CRS84" } },
"features": [
{ "type": "Feature", "properties": { "OBJECTID": 1292, "ID": "0001345056", "NAME": "MCCULLOUGH-HYDE MEMORIAL HOSPITAL", "ADDRESS": "110 NORTH POPLAR STREET", "CITY": "OXFORD", "STATE": "OH", "ZIP": "45056", "ZIP4": "NOT AVAILABLE", "TELEPHONE": "(513) 523-2111", "TYPE": "GENERAL ACUTE CARE", "STATUS": "OPEN", "POPULATION": 70, "COUNTY": "BUTLER", "COUNTYFIPS": "39017", "COUNTRY": "USA", "LATITUDE": 39.512596159000097, "LONGITUDE": -84.74153696, "NAICS_CODE": "622110", "NAICS_DESC": "GENERAL MEDICAL AND SURGICAL HOSPITALS", "SOURCE": "http://publicapps.odh.ohio.gov/EID/Provider_Search.aspx", "SOURCEDATE": "2018-08-10T00:00:00.000Z", "VAL_METHOD": "IMAGERY", "VAL_DATE": "2014-03-12T00:00:00.000Z", "WEBSITE": "http://www.mhmh.org", "STATE_ID": "1119", "ALT_NAME": "NOT AVAILABLE", "ST_FIPS": "39", "OWNER": "NON-PROFIT", "TTL_STAFF": -999, "BEDS": 70, "TRAUMA": "NOT AVAILABLE", "HELIPAD": "Y" }, "geometry": { "type": "Polygon", "coordinates": [ [ [ -84.759524153714779, 39.434013518557485 ], [ -84.815747, 39.493913900000052 ], [ -84.834378041909687, 39.529389067053494 ], [ -84.820961, 39.569254 ], [ -84.8202829, 39.570151 ], [ -84.819893, 39.570612 ], [ -84.816881, 39.572717 ], [ -84.8128821, 39.5727451 ], [ -84.7155879, 39.568057800000012 ], [ -84.6893509, 39.56004870000001 ], [ -84.6854869, 39.556975799999961 ], [ -84.674389, 39.548023599999986 ], [ -84.6436501, 39.507999600000019 ], [ -84.6436069, 39.50490989999998 ], [ -84.681957, 39.442039799999961 ], [ -84.759524153714779, 39.434013518557485 ] ] ] } },
{ "type": "Feature", "properties": { "OBJECTID": 1322, "ID": "0016045331", "NAME": "WAYNE HOSPITAL", "ADDRESS": "835 SWEITZER STREET", "CITY": "GREENVILLE", "STATE": "OH", "ZIP": "45331", "ZIP4": "NOT AVAILABLE", "TELEPHONE": "(937) 548-1141", "TYPE": "GENERAL ACUTE CARE", "STATUS": "OPEN", "POPULATION": 104, "COUNTY": "DARKE", "COUNTYFIPS": "39037", "COUNTRY": "USA", "LATITUDE": 40.089291772000003, "LONGITUDE": -84.634741097000003, "NAICS_CODE": "622110", "NAICS_DESC": "GENERAL MEDICAL AND SURGICAL HOSPITALS", "SOURCE": "http://publicapps.odh.ohio.gov/EID/Provider_Search.aspx", "SOURCEDATE": "2018-08-10T00:00:00.000Z", "VAL_METHOD": "IMAGERY", "VAL_DATE": "2014-02-10T00:00:00.000Z", "WEBSITE": "http://www.waynehealthcare.org", "STATE_ID": "1159", "ALT_NAME": "NOT AVAILABLE", "ST_FIPS": "39", "OWNER": "NON-PROFIT", "TTL_STAFF": -999, "BEDS": 104, "TRAUMA": "NOT AVAILABLE", "HELIPAD": "N" }, "geometry": { "type": "Polygon", "coordinates": [ [ [ -84.63315, 40.001149 ], [ -84.655731, 40.01509 ], [ -84.706213, 40.05589 ], [ -84.733903, 40.106199 ], [ -84.733767, 40.106697 ], [ -84.708031, 40.143511 ], [ -84.6369761, 40.2074025 ], [ -84.4979723, 40.110898699999971 ], [ -84.557199, 40.023506 ], [ -84.557285, 40.023402 ], [ -84.63315, 40.001149 ] ] ] } },
{ "type": "Feature", "properties": { "OBJECTID": 1370, "ID": "0028645224", "NAME": "CHILDREN'S HOSPITAL MC - COLLEGE HILL", "ADDRESS": "5642 HAMILTON AVENUE", "CITY": "CINCINNATI", "STATE": "OH", "ZIP": "45224", "ZIP4": "NOT AVAILABLE", "TELEPHONE": "(513) 636-4200", "TYPE": "PSYCHIATRIC", "STATUS": "OPEN", "POPULATION": 74, "COUNTY": "HAMILTON", "COUNTYFIPS": "39061", "COUNTRY": "USA", "LATITUDE": 39.1926339440001, "LONGITUDE": -84.543876447999907, "NAICS_CODE": "622210", "NAICS_DESC": "CHILDREN'S HOSPITALS, PSYCHIATRIC OR SUBSTANCE ABUSE", "SOURCE": "http://publicapps.odh.ohio.gov/EID/Provider_Search.aspx", "SOURCEDATE": "2018-08-10T00:00:00.000Z", "VAL_METHOD": "IMAGERY/OTHER", "VAL_DATE": "2016-09-20T00:00:00.000Z", "WEBSITE": "https://www.cincinnatichildrens.org/service/p/psychiatry/programs", "STATE_ID": "1446", "ALT_NAME": "NOT AVAILABLE", "ST_FIPS": "39", "OWNER": "NON-PROFIT", "TTL_STAFF": -999, "BEDS": 74, "TRAUMA": "NOT AVAILABLE", "HELIPAD": "N" }, "geometry": { "type": "Polygon", "coordinates": [ [ [ -84.5332994, 39.0983228 ], [ -84.605314, 39.143008 ], [ -84.612781, 39.149331 ], [ -84.628528815503202, 39.181113662867794 ], [ -84.64462967310169, 39.227385671694769 ], [ -84.634655214462811, 39.235004373132703 ], [ -84.598948518004789, 39.252928282031391 ], [ -84.59878501831912, 39.252992682118986 ], [ -84.559924286148032, 39.267089800284374 ], [ -84.545368200691485, 39.267303701097148 ], [ -84.507994206066442, 39.248045684661129 ], [ -84.498270194922242, 39.242477683155691 ], [ -84.452565053924843, 39.214126689173177 ], [ -84.448212737799139, 39.210582688140548 ], [ -84.466090317778935, 39.168003545664348 ], [ -84.5194318, 39.100229399999975 ], [ -84.5213509, 39.098723 ], [ -84.5332994, 39.0983228 ] ] ] } },
{ "type": "Feature", "properties": { "OBJECTID": 1371, "ID": "0127645236", "NAME": "JEWISH HOSPITAL, LLC", "ADDRESS": "4777 EAST GALBRAITH ROAD", "CITY": "CINCINNATI", "STATE": "OH", "ZIP": "45236", "ZIP4": "NOT AVAILABLE", "TELEPHONE": "(513) 686-3000", "TYPE": "GENERAL ACUTE CARE", "STATUS": "OPEN", "POPULATION": 209, "COUNTY": "HAMILTON", "COUNTYFIPS": "39061", "COUNTRY": "USA", "LATITUDE": 39.2059509790001, "LONGITUDE": -84.38094165, "NAICS_CODE": "622110", "NAICS_DESC": "GENERAL MEDICAL AND SURGICAL HOSPITALS", "SOURCE": "http://publicapps.odh.ohio.gov/EID/Provider_Search.aspx", "SOURCEDATE": "2018-08-10T00:00:00.000Z", "VAL_METHOD": "IMAGERY/OTHER", "VAL_DATE": "2015-03-11T00:00:00.000Z", "WEBSITE": "http://e-mercy.com/jewish-hospital.aspx", "STATE_ID": "1003", "ALT_NAME": "NOT AVAILABLE", "ST_FIPS": "39", "OWNER": "NON-PROFIT", "TTL_STAFF": -999, "BEDS": 209, "TRAUMA": "NOT AVAILABLE", "HELIPAD": "Y" }, "geometry": { "type": "Polygon", "coordinates": [ [ [ -84.418781, 39.118587 ], [ -84.4902152, 39.137195400000024 ], [ -84.495152260575509, 39.171861841792413 ], [ -84.49811790777413, 39.215898067384337 ], [ -84.405173251129924, 39.286861360641595 ], [ -84.393905140966325, 39.292134765575639 ], [ -84.373013617564681, 39.297626272580764 ], [ -84.314120043059106, 39.307771785173074 ], [ -84.304877325338325, 39.291152698965412 ], [ -84.294962091662114, 39.246627728654339 ], [ -84.291592805458805, 39.189531723658369 ], [ -84.29221380372546, 39.188786722043716 ], [ -84.36103, 39.142296 ], [ -84.4129193, 39.119982099999952 ], [ -84.418781, 39.118587 ] ] ] } },
{ "type": "Feature", "properties": { "OBJECTID": 1373, "ID": "0028745219", "NAME": "DRAKE CENTER FOR POST-ACUTE CARE, LLC", "ADDRESS": "2139 AUBURN AVENUE", "CITY": "CINCINNATI", "STATE": "OH", "ZIP": "45219", "ZIP4": "NOT AVAILABLE", "TELEPHONE": "(513) 418-2624", "TYPE": "LONG TERM CARE", "STATUS": "OPEN", "POPULATION": 30, "COUNTY": "HAMILTON", "COUNTYFIPS": "39061", "COUNTRY": "USA", "LATITUDE": 39.121299407000002, "LONGITUDE": -84.510407282000003, "NAICS_CODE": "622310", "NAICS_DESC": "SPECIALTY (EXCEPT PSYCHIATRIC AND SUBSTANCE ABUSE) HOSPITALS", "SOURCE": "http://publicapps.odh.ohio.gov/EID/Provider_Search.aspx", "SOURCEDATE": "2018-08-10T00:00:00.000Z", "VAL_METHOD": "IMAGERY/OTHER", "VAL_DATE": "2016-09-20T00:00:00.000Z", "WEBSITE": "http://uchealth.com/danieldrakecenter/locations-directions/christ-hospital-mt-auburn/", "STATE_ID": "1512", "ALT_NAME": "NOT AVAILABLE", "ST_FIPS": "39", "OWNER": "NON-PROFIT", "TTL_STAFF": -999, "BEDS": 30, "TRAUMA": "NOT AVAILABLE", "HELIPAD": "Y" }, "geometry": { "type": "Polygon", "coordinates": [ [ [ -84.4808034, 39.0246218 ], [ -84.590907, 39.080531 ], [ -84.585, 39.1293314 ], [ -84.583147, 39.141484 ], [ -84.5809649, 39.147923100000021 ], [ -84.577468798169306, 39.156432647556372 ], [ -84.561728281452375, 39.173254751003135 ], [ -84.559755887432019, 39.174145651057451 ], [ -84.546245919400874, 39.177775650617789 ], [ -84.478109609011995, 39.192120860482852 ], [ -84.40303986189133, 39.170960262730844 ], [ -84.449341, 39.027679 ], [ -84.4808034, 39.0246218 ] ] ] } },
{ "type": "Feature", "properties": { "OBJECTID": 1374, "ID": "0009245220", "NAME": "CINCINNATI VA MEDICAL CENTER", "ADDRESS": "3200 VINE STREET", "CITY": "CINCINNATI", "STATE": "OH", "ZIP": "45220", "ZIP4": "NOT AVAILABLE", "TELEPHONE": "(513) 861-3100", "TYPE": "MILITARY", "STATUS": "OPEN", "POPULATION": 268, "COUNTY": "HAMILTON", "COUNTYFIPS": "39061", "COUNTRY": "USA", "LATITUDE": 39.139413643000097, "LONGITUDE": -84.508194552000006, "NAICS_CODE": "622110", "NAICS_DESC": "GENERAL MEDICAL AND SURGICAL HOSPITALS", "SOURCE": "http://publicapps.odh.ohio.gov/EID/Provider_Search.aspx", "SOURCEDATE": "2018-08-10T00:00:00.000Z", "VAL_METHOD": "IMAGERY/OTHER", "VAL_DATE": "2014-01-31T00:00:00.000Z", "WEBSITE": "http://www.cincinnati.va.gov/", "STATE_ID": "36003F", "ALT_NAME": "NOT AVAILABLE", "ST_FIPS": "39", "OWNER": "GOVERNMENT - FEDERAL", "TTL_STAFF": -999, "BEDS": 268, "TRAUMA": "NOT AVAILABLE", "HELIPAD": "N" }, "geometry": { "type": "Polygon", "coordinates": [ [ [ -84.4571042, 39.042565200000013 ], [ -84.4664964, 39.044897200000058 ], [ -84.5689971, 39.0882175 ], [ -84.5693973, 39.088896200000015 ], [ -84.603466, 39.148725 ], [ -84.609815659626804, 39.185882661617519 ], [ -84.605624177761527, 39.18919316200396 ], [ -84.518547079373818, 39.213773465758344 ], [ -84.47338309517059, 39.220035683169264 ], [ -84.449319080327157, 39.223289699052025 ], [ -84.429656538065601, 39.216684003278047 ], [ -84.395885193098152, 39.182902379118346 ], [ -84.398338255454803, 39.170481363245003 ], [ -84.4571042, 39.042565200000013 ] ] ] } },
{ "type": "Feature", "properties": { "OBJECTID": 1391, "ID": "0029545417", "NAME": "RIVERVIEW HEALTH INSTITUTE", "ADDRESS": "ONE ELIZABETH PLACE", "CITY": "DAYTON", "STATE": "OH", "ZIP": "45417", "ZIP4": "NOT AVAILABLE", "TELEPHONE": "(937) 222-5390", "TYPE": "GENERAL ACUTE CARE", "STATUS": "OPEN", "POPULATION": 12, "COUNTY": "MONTGOMERY", "COUNTYFIPS": "39113", "COUNTRY": "USA", "LATITUDE": 39.748248080000103, "LONGITUDE": -84.19940099, "NAICS_CODE": "622110", "NAICS_DESC": "GENERAL MEDICAL AND SURGICAL HOSPITALS", "SOURCE": "http://publicapps.odh.ohio.gov/EID/Provider_Search.aspx", "SOURCEDATE": "2018-08-10T00:00:00.000Z", "VAL_METHOD": "IMAGERY/OTHER", "VAL_DATE": "2016-09-21T00:00:00.000Z", "WEBSITE": "http://www.riverviewhealthinstitute.com/", "STATE_ID": "1455", "ALT_NAME": "NOT AVAILABLE", "ST_FIPS": "39", "OWNER": "PROPRIETARY", "TTL_STAFF": -999, "BEDS": 12, "TRAUMA": "NOT AVAILABLE", "HELIPAD": "N" }, "geometry": { "type": "Polygon", "coordinates": [ [ [ -84.2303103, 39.628868 ], [ -84.23506, 39.631777 ], [ -84.243921, 39.637324 ], [ -84.290746, 39.702507 ], [ -84.317691, 39.746221 ], [ -84.273971, 39.81578 ], [ -84.1881471, 39.8723193 ], [ -84.0786325, 39.793512799999988 ], [ -84.0649162, 39.732218299999943 ], [ -84.1280124, 39.6886578 ], [ -84.161816, 39.666617 ], [ -84.2303103, 39.628868 ] ] ] } },
{ "type": "Feature", "properties": { "OBJECTID": 1393, "ID": "0129245342", "NAME": "SYCAMORE MEDICAL CENTER", "ADDRESS": "4000 MIAMISBURG-CENTERVILLE ROAD", "CITY": "MIAMISBURG", "STATE": "OH", "ZIP": "45342", "ZIP4": "NOT AVAILABLE", "TELEPHONE": "(937) 866-0551", "TYPE": "GENERAL ACUTE CARE", "STATUS": "OPEN", "POPULATION": 108, "COUNTY": "MONTGOMERY", "COUNTYFIPS": "39113", "COUNTRY": "USA", "LATITUDE": 39.637702931, "LONGITUDE": -84.249272493999996, "NAICS_CODE": "622110", "NAICS_DESC": "GENERAL MEDICAL AND SURGICAL HOSPITALS", "SOURCE": "http://publicapps.odh.ohio.gov/EID/Provider_Search.aspx", "SOURCEDATE": "2018-08-10T00:00:00.000Z", "VAL_METHOD": "IMAGERY/OTHER", "VAL_DATE": "2015-03-12T00:00:00.000Z", "WEBSITE": "http://www.ketteringhealth.org/sycamore/", "STATE_ID": "1031", "ALT_NAME": "NOT AVAILABLE", "ST_FIPS": "39", "OWNER": "NON-PROFIT", "TTL_STAFF": -999, "BEDS": 108, "TRAUMA": "NOT AVAILABLE", "HELIPAD": "Y" }, "geometry": { "type": "Polygon", "coordinates": [ [ [ -84.285543, 39.589158 ], [ -84.29626, 39.591381 ], [ -84.355437, 39.632807 ], [ -84.3523836, 39.639432200000066 ], [ -84.333896, 39.658214 ], [ -84.290691, 39.68783 ], [ -84.2046622, 39.744671099999934 ], [ -84.1163274, 39.655101900000012 ], [ -84.144291, 39.628598 ], [ -84.186227, 39.590696 ], [ -84.20093, 39.581434 ], [ -84.2016683, 39.58143369999997 ], [ -84.285543, 39.589158 ] ] ] } },
{ "type": "Feature", "properties": { "OBJECTID": 1395, "ID": "0006445406", "NAME": "GOOD SAMARITAN HOSPITAL", "ADDRESS": "2222 PHILADELPHIA DRIVE", "CITY": "DAYTON", "STATE": "OH", "ZIP": "45406", "ZIP4": "NOT AVAILABLE", "TELEPHONE": "(937) 278-2612", "TYPE": "GENERAL ACUTE CARE", "STATUS": "OPEN", "POPULATION": 491, "COUNTY": "MONTGOMERY", "COUNTYFIPS": "39113", "COUNTRY": "USA", "LATITUDE": 39.7875513380001, "LONGITUDE": -84.23333439, "NAICS_CODE": "622110", "NAICS_DESC": "GENERAL MEDICAL AND SURGICAL HOSPITALS", "SOURCE": "http://publicapps.odh.ohio.gov/EID/Provider_Search.aspx", "SOURCEDATE": "2018-08-10T00:00:00.000Z", "VAL_METHOD": "IMAGERY", "VAL_DATE": "2014-03-12T00:00:00.000Z", "WEBSITE": "http://www.goodsamdayton.com", "STATE_ID": "1245", "ALT_NAME": "NOT AVAILABLE", "ST_FIPS": "39", "OWNER": "NON-PROFIT", "TTL_STAFF": -999, "BEDS": 491, "TRAUMA": "NOT AVAILABLE", "HELIPAD": "Y" }, "geometry": { "type": "Polygon", "coordinates": [ [ [ -84.2297834, 39.683740900000018 ], [ -84.304099, 39.746333 ], [ -84.330182, 39.789715 ], [ -84.330296, 39.797043 ], [ -84.330316, 39.79843 ], [ -84.330361, 39.802614 ], [ -84.3304131, 39.84996550000001 ], [ -84.26037, 39.872788 ], [ -84.245456, 39.874461 ], [ -84.1886249, 39.86678449999998 ], [ -84.1012836, 39.800244500000019 ], [ -84.12035, 39.743973199999985 ], [ -84.2297834, 39.683740900000018 ] ] ] } },
{ "type": "Feature", "properties": { "OBJECTID": 1410, "ID": "0001947025", "NAME": "COMMUNITY MENTAL HEALTH CENTER INC", "ADDRESS": "285 BIELBY RD", "CITY": "LAWRENCEBURG", "STATE": "IN", "ZIP": "47025", "ZIP4": "NOT AVAILABLE", "TELEPHONE": "(812) 537-1302", "TYPE": "PSYCHIATRIC", "STATUS": "OPEN", "POPULATION": 16, "COUNTY": "DEARBORN", "COUNTYFIPS": "18029", "COUNTRY": "USA", "LATITUDE": 39.109798476000002, "LONGITUDE": -84.882533917999993, "NAICS_CODE": "622210", "NAICS_DESC": "PSYCHIATRIC AND SUBSTANCE ABUSE HOSPITALS", "SOURCE": "http://www.in.gov/isdh/reports/QAMIS/hosdir", "SOURCEDATE": "2018-08-16T00:00:00.000Z", "VAL_METHOD": "IMAGERY", "VAL_DATE": "2014-03-12T00:00:00.000Z", "WEBSITE": "http://www.cmhcinc.org", "STATE_ID": "NOT AVAILABLE", "ALT_NAME": "NOT AVAILABLE", "ST_FIPS": "18", "OWNER": "NON-PROFIT", "TTL_STAFF": -999, "BEDS": 16, "TRAUMA": "NOT AVAILABLE", "HELIPAD": "Y" }, "geometry": { "type": "Polygon", "coordinates": [ [ [ -84.9322124, 39.0310107 ], [ -84.9536887, 39.062613699999964 ], [ -84.962952, 39.136817 ], [ -84.913138513352251, 39.168605078870911 ], [ -84.908814925903144, 39.170784290524367 ], [ -84.8270017, 39.145077299999969 ], [ -84.845524, 39.09359820000001 ], [ -84.885586, 39.029597 ], [ -84.886108, 39.029408 ], [ -84.9322124, 39.0310107 ] ] ] } },
{ "type": "Feature", "properties": { "OBJECTID": 1443, "ID": "0003347331", "NAME": "FAYETTE REGIONAL HEALTH SYSTEM", "ADDRESS": "1941 VIRGINIA AVE", "CITY": "CONNERSVILLE", "STATE": "IN", "ZIP": "47331", "ZIP4": "NOT AVAILABLE", "TELEPHONE": "(765) 825-5131", "TYPE": "GENERAL ACUTE CARE", "STATUS": "OPEN", "POPULATION": 99, "COUNTY": "FAYETTE", "COUNTYFIPS": "18041", "COUNTRY": "USA", "LATITUDE": 39.656238175000098, "LONGITUDE": -85.132660997999906, "NAICS_CODE": "622110", "NAICS_DESC": "GENERAL MEDICAL AND SURGICAL HOSPITALS", "SOURCE": "http://www.in.gov/isdh/reports/QAMIS/hosdir", "SOURCEDATE": "2018-08-16T00:00:00.000Z", "VAL_METHOD": "IMAGERY", "VAL_DATE": "2014-03-12T00:00:00.000Z", "WEBSITE": "http://www.fayetteregional.org", "STATE_ID": "17-005059-1", "ALT_NAME": "NOT AVAILABLE", "ST_FIPS": "18", "OWNER": "NON-PROFIT", "TTL_STAFF": -999, "BEDS": 99, "TRAUMA": "NOT AVAILABLE", "HELIPAD": "N" }, "geometry": { "type": "Polygon", "coordinates": [ [ [ -85.158575111605828, 39.579554947432754 ], [ -85.230409076464795, 39.63131353933197 ], [ -85.162393984779783, 39.714746414234583 ], [ -85.137697185360082, 39.722450333139975 ], [ -85.10963102229212, 39.715207632022434 ], [ -85.090957909558114, 39.707763624606052 ], [ -85.05380998180317, 39.640893991966983 ], [ -85.053850169674632, 39.635224279904953 ], [ -85.102039723671723, 39.582443505935053 ], [ -85.158575111605828, 39.579554947432754 ] ] ] } },
{ "type": "Feature", "properties": { "OBJECTID": 1691, "ID": "0125345420", "NAME": "ACCESS HOSPITAL DAYTON, LLC", "ADDRESS": "2611 WAYNE AVENUE", "CITY": "DAYTON", "STATE": "OH", "ZIP": "45420", "ZIP4": "NOT AVAILABLE", "TELEPHONE": "(937) 256-7801", "TYPE": "PSYCHIATRIC", "STATUS": "OPEN", "POPULATION": 110, "COUNTY": "MONTGOMERY", "COUNTYFIPS": "39113", "COUNTRY": "USA", "LATITUDE": 39.736012126, "LONGITUDE": -84.154228141999994, "NAICS_CODE": "622210", "NAICS_DESC": "PSYCHIATRIC AND SUBSTANCE ABUSE HOSPITALS", "SOURCE": "http://publicapps.odh.ohio.gov/EID/Provider_Search.aspx", "SOURCEDATE": "2018-08-10T00:00:00.000Z", "VAL_METHOD": "IMAGERY/OTHER", "VAL_DATE": "2015-03-11T00:00:00.000Z", "WEBSITE": "http://www.accesshospital.com/", "STATE_ID": "1499", "ALT_NAME": "NOT AVAILABLE", "ST_FIPS": "39", "OWNER": "PROPRIETARY", "TTL_STAFF": -999, "BEDS": 110, "TRAUMA": "NOT AVAILABLE", "HELIPAD": "N" }, "geometry": { "type": "Polygon", "coordinates": [ [ [ -84.146868, 39.658656 ], [ -84.2324207, 39.6766929 ], [ -84.2811207, 39.739512200000043 ], [ -84.2811236, 39.739653 ], [ -84.2811474, 39.7408342 ], [ -84.2536252, 39.772079399999981 ], [ -84.236678, 39.78819 ], [ -84.219509, 39.801691 ], [ -84.194027, 39.819693 ], [ -84.1891605, 39.822758400000026 ], [ -84.095596, 39.804676 ], [ -84.095454, 39.804471 ], [ -84.0953098, 39.804256499999973 ], [ -84.0457422, 39.72390230000002 ], [ -84.056822, 39.708406 ], [ -84.1092292, 39.660157600000012 ], [ -84.146868, 39.658656 ] ] ] } },
{ "type": "Feature", "properties": { "OBJECTID": 1693, "ID": "0127045229", "NAME": "SHRINERS HOSPITALS FOR CHILDREN - CINCINNATI", "ADDRESS": "3229 BURNETT AVENUE", "CITY": "CINCINNATI", "STATE": "OH", "ZIP": "45229", "ZIP4": "NOT AVAILABLE", "TELEPHONE": "(513) 872-6317", "TYPE": "CHILDREN", "STATUS": "OPEN", "POPULATION": 30, "COUNTY": "HAMILTON", "COUNTYFIPS": "39061", "COUNTRY": "USA", "LATITUDE": 39.137267881000099, "LONGITUDE": -84.501273967000003, "NAICS_CODE": "622310", "NAICS_DESC": "CHILDREN'S HOSPITALS, SPECIALTY (EXCEPT PSYCHIATRIC, SUBSTANCE ABUSE)", "SOURCE": "http://publicapps.odh.ohio.gov/EID/Provider_Search.aspx", "SOURCEDATE": "2018-08-10T00:00:00.000Z", "VAL_METHOD": "IMAGERY/OTHER", "VAL_DATE": "2015-03-11T00:00:00.000Z", "WEBSITE": "http://shrinershospitalcincinnati.org/", "STATE_ID": "1808", "ALT_NAME": "NOT AVAILABLE", "ST_FIPS": "39", "OWNER": "NON-PROFIT", "TTL_STAFF": -999, "BEDS": 30, "TRAUMA": "NOT AVAILABLE", "HELIPAD": "Y" }, "geometry": { "type": "Polygon", "coordinates": [ [ [ -84.477753, 39.025378 ], [ -84.5847284, 39.082286499999974 ], [ -84.5848928, 39.082664499999979 ], [ -84.60219, 39.148612 ], [ -84.609815659626804, 39.185882661617519 ], [ -84.603404679228021, 39.188770361653681 ], [ -84.521325048182007, 39.205546661562451 ], [ -84.458432358563087, 39.213650685828803 ], [ -84.452565053924843, 39.214126689173177 ], [ -84.380906312432657, 39.193726498072429 ], [ -84.39072581507601, 39.160441652303284 ], [ -84.4228285, 39.0875567 ], [ -84.451172, 39.030521 ], [ -84.4513914, 39.030403399999976 ], [ -84.477753, 39.025378 ] ] ] } },
{ "type": "Feature", "properties": { "OBJECTID": 1699, "ID": "0130045404", "NAME": "DAYTON CHILDREN'S HOSPITAL", "ADDRESS": "ONE CHILDRENS PLAZA", "CITY": "DAYTON", "STATE": "OH", "ZIP": "45404", "ZIP4": "NOT AVAILABLE", "TELEPHONE": "(937) 641-3300", "TYPE": "CHILDREN", "STATUS": "OPEN", "POPULATION": 155, "COUNTY": "MONTGOMERY", "COUNTYFIPS": "39113", "COUNTRY": "USA", "LATITUDE": 39.774242487000002, "LONGITUDE": -84.168027334000001, "NAICS_CODE": "622310", "NAICS_DESC": "CHILDREN'S HOSPITALS, SPECIALTY (EXCEPT PSYCHIATRIC, SUBSTANCE ABUSE)", "SOURCE": "http://publicapps.odh.ohio.gov/EID/Provider_Search.aspx", "SOURCEDATE": "2018-08-10T00:00:00.000Z", "VAL_METHOD": "IMAGERY/OTHER", "VAL_DATE": "2015-03-12T00:00:00.000Z", "WEBSITE": "http://www.childrensdayton.org/cms/home/index.html", "STATE_ID": "1411", "ALT_NAME": "NOT AVAILABLE", "ST_FIPS": "39", "OWNER": "NON-PROFIT", "TTL_STAFF": -999, "BEDS": 155, "TRAUMA": "LEVEL II PEDIATRIC", "HELIPAD": "Y" }, "geometry": { "type": "Polygon", "coordinates": [ [ [ -84.2324207, 39.6766929 ], [ -84.236844, 39.678658 ], [ -84.282588, 39.731856 ], [ -84.292333, 39.746435 ], [ -84.270257, 39.797789 ], [ -84.262235, 39.808807 ], [ -84.2175112, 39.864648799999969 ], [ -84.187744, 39.896385 ], [ -84.0566094, 39.860329800000045 ], [ -84.052206, 39.856119 ], [ -84.044376, 39.84273 ], [ -84.027495, 39.793513 ], [ -84.076249, 39.734506 ], [ -84.138164, 39.69436 ], [ -84.2324207, 39.6766929 ] ] ] } },
{ "type": "Feature", "properties": { "OBJECTID": 2042, "ID": "0000000105", "NAME": "REID HOSPITAL-ER", "ADDRESS": "CHESTER BLVD", "CITY": "RICHMOND", "STATE": "IN", "ZIP": "47374", "ZIP4": "NOT AVAILABLE", "TELEPHONE": "(765) 983-3144", "TYPE": "GENERAL ACUTE CARE", "STATUS": "CLOSED", "POPULATION": -999, "COUNTY": "WAYNE", "COUNTYFIPS": "18177", "COUNTRY": "USA", "LATITUDE": 39.845241913000102, "LONGITUDE": -84.886344515999994, "NAICS_CODE": "622110", "NAICS_DESC": "GENERAL MEDICAL AND SURGICAL HOSPITALS", "SOURCE": "http://www.in.gov/isdh/reports/QAMIS/hosdir/", "SOURCEDATE": "2015-01-05T00:00:00.000Z", "VAL_METHOD": "IMAGERY/OTHER", "VAL_DATE": "2016-04-28T00:00:00.000Z", "WEBSITE": "http://www.reidhospital.org/", "STATE_ID": "NOT AVAILABLE", "ALT_NAME": "NOT AVAILABLE", "ST_FIPS": "18", "OWNER": "NOT AVAILABLE", "TTL_STAFF": -999, "BEDS": -999, "TRAUMA": "NOT AVAILABLE", "HELIPAD": "N" }, "geometry": { "type": "Polygon", "coordinates": [ [ [ -84.89001020354587, 39.759736424023188 ], [ -84.910015262685874, 39.762929472600746 ], [ -84.98638247640028, 39.818141519106916 ], [ -85.032157975488346, 39.859639924473953 ], [ -84.913696300374326, 39.933369119476687 ], [ -84.831668110458295, 39.909961078183919 ], [ -84.812799, 39.891608 ], [ -84.791107, 39.864723 ], [ -84.7877321, 39.859755799999988 ], [ -84.786682, 39.856418 ], [ -84.786499, 39.855365 ], [ -84.7935927, 39.8350911 ], [ -84.85217209438359, 39.76357931392743 ], [ -84.871113147702388, 39.758272374265964 ], [ -84.89001020354587, 39.759736424023188 ] ] ] } },
{ "type": "Feature", "properties": { "OBJECTID": 2081, "ID": "0003541017", "NAME": "HEALTHSOUTH NORTHERN KENTUCKY REHABILITATION HOSPITAL", "ADDRESS": "201 MEDICAL VILLAGE DRIVE", "CITY": "EDGEWOOD", "STATE": "KY", "ZIP": "41017", "ZIP4": "NOT AVAILABLE", "TELEPHONE": "(859) 341-2044", "TYPE": "REHABILITATION", "STATUS": "OPEN", "POPULATION": 40, "COUNTY": "KENTON", "COUNTYFIPS": "21117", "COUNTRY": "USA", "LATITUDE": 39.012612266000097, "LONGITUDE": -84.566615194999898, "NAICS_CODE": "622110", "NAICS_DESC": "GENERAL MEDICAL AND SURGICAL HOSPITALS", "SOURCE": "https://chfs.ky.gov/agencies/os/oig/dhc/Documents/Directories/Hospital_Directory.pdf", "SOURCEDATE": "2018-08-11T00:00:00.000Z", "VAL_METHOD": "IMAGERY/OTHER", "VAL_DATE": "2013-12-18T00:00:00.000Z", "WEBSITE": "http://www.healthsouthkentucky.com", "STATE_ID": "100592", "ALT_NAME": "NOT AVAILABLE", "ST_FIPS": "21", "OWNER": "PROPRIETARY", "TTL_STAFF": -999, "BEDS": 40, "TRAUMA": "NOT AVAILABLE", "HELIPAD": "N" }, "geometry": { "type": "Polygon", "coordinates": [ [ [ -84.5763897, 38.938108899999989 ], [ -84.5813142, 38.9388349 ], [ -84.59575, 38.942562400000043 ], [ -84.6093583, 38.95715990000005 ], [ -84.632158, 39.001801 ], [ -84.6383845, 39.0143319 ], [ -84.637687, 39.019901 ], [ -84.618695, 39.055579 ], [ -84.6012549, 39.065914700000036 ], [ -84.520781500000012, 39.0853584 ], [ -84.518776, 39.085369 ], [ -84.512117, 39.078402 ], [ -84.498225, 39.06191 ], [ -84.493982, 39.047132 ], [ -84.492637, 39.038572 ], [ -84.490753, 39.008161 ], [ -84.49183, 38.997021 ], [ -84.494132, 38.992347 ], [ -84.5029145, 38.984369500000028 ], [ -84.5763897, 38.938108899999989 ] ] ] } },
{ "type": "Feature", "properties": { "OBJECTID": 2306, "ID": "0008545103", "NAME": "MERCY HOSPITAL CLERMONT", "ADDRESS": "3000 HOSPITAL DRIVE", "CITY": "BATAVIA", "STATE": "OH", "ZIP": "45103", "ZIP4": "NOT AVAILABLE", "TELEPHONE": "(513) 732-8200", "TYPE": "GENERAL ACUTE CARE", "STATUS": "OPEN", "POPULATION": 148, "COUNTY": "CLERMONT", "COUNTYFIPS": "39025", "COUNTRY": "USA", "LATITUDE": 39.080499895000102, "LONGITUDE": -84.144528187999995, "NAICS_CODE": "622110", "NAICS_DESC": "GENERAL MEDICAL AND SURGICAL HOSPITALS", "SOURCE": "http://publicapps.odh.ohio.gov/EID/Provider_Search.aspx", "SOURCEDATE": "2018-08-10T00:00:00.000Z", "VAL_METHOD": "IMAGERY/OTHER", "VAL_DATE": "2014-02-10T00:00:00.000Z", "WEBSITE": "http://www.e-mercy.com/clermont-hospital.aspx", "STATE_ID": "1028", "ALT_NAME": "NOT AVAILABLE", "ST_FIPS": "39", "OWNER": "NON-PROFIT", "TTL_STAFF": -999, "BEDS": 148, "TRAUMA": "NOT AVAILABLE", "HELIPAD": "Y" }, "geometry": { "type": "Polygon", "coordinates": [ [ [ -84.199997, 39.035357 ], [ -84.26330249999998, 39.072210700000056 ], [ -84.274559, 39.083837 ], [ -84.2861069, 39.10222370000001 ], [ -84.2860277, 39.102362200000016 ], [ -84.2803816, 39.107513600000011 ], [ -84.15636259999998, 39.14506 ], [ -84.134728, 39.144161 ], [ -84.101173, 39.129471 ], [ -84.0510819, 39.093765600000033 ], [ -84.023033, 39.064808 ], [ -84.022476, 39.059389 ], [ -84.036734, 39.048047 ], [ -84.043289, 39.044672 ], [ -84.176064, 39.033095 ], [ -84.199997, 39.035357 ] ] ] } },
{ "type": "Feature", "properties": { "OBJECTID": 2469, "ID": "0014945255", "NAME": "MERCY HOSPITAL ANDERSON", "ADDRESS": "7500 STATE ROAD", "CITY": "CINCINNATI", "STATE": "OH", "ZIP": "45255", "ZIP4": "NOT AVAILABLE", "TELEPHONE": "(513) 624-4500", "TYPE": "GENERAL ACUTE CARE", "STATUS": "OPEN", "POPULATION": 226, "COUNTY": "HAMILTON", "COUNTYFIPS": "39061", "COUNTRY": "USA", "LATITUDE": 39.085685509000001, "LONGITUDE": -84.348902933000005, "NAICS_CODE": "622110", "NAICS_DESC": "GENERAL MEDICAL AND SURGICAL HOSPITALS", "SOURCE": "http://publicapps.odh.ohio.gov/EID/Provider_Search.aspx", "SOURCEDATE": "2018-08-10T00:00:00.000Z", "VAL_METHOD": "IMAGERY", "VAL_DATE": "2014-02-10T00:00:00.000Z", "WEBSITE": "http://www.e-mercy.com", "STATE_ID": "1193", "ALT_NAME": "NOT AVAILABLE", "ST_FIPS": "39", "OWNER": "NON-PROFIT", "TTL_STAFF": -999, "BEDS": 226, "TRAUMA": "NOT AVAILABLE", "HELIPAD": "Y" }, "geometry": { "type": "Polygon", "coordinates": [ [ [ -84.3194122, 39.026649799999987 ], [ -84.3934671, 39.04660939999998 ], [ -84.417469700000012, 39.0559979 ], [ -84.4292903, 39.062090899999987 ], [ -84.4315275, 39.0681805 ], [ -84.434406, 39.101429 ], [ -84.434373, 39.127364 ], [ -84.431968, 39.131963 ], [ -84.4007296, 39.1386864 ], [ -84.358944, 39.143466 ], [ -84.296722, 39.125723 ], [ -84.282326, 39.10605 ], [ -84.2799471, 39.10021 ], [ -84.276527, 39.083978 ], [ -84.296701, 39.051435300000023 ], [ -84.2969032, 39.051192800000031 ], [ -84.3194122, 39.026649799999987 ] ] ] } },
{ "type": "Feature", "properties": { "OBJECTID": 2475, "ID": "0017345408", "NAME": "MEDICAL CENTER AT ELIZABETH PLACE", "ADDRESS": "ONE ELIZABETH PLACE", "CITY": "DAYTON", "STATE": "OH", "ZIP": "45408", "ZIP4": "NOT AVAILABLE", "TELEPHONE": "(937) 223-6237", "TYPE": "GENERAL ACUTE CARE", "STATUS": "OPEN", "POPULATION": 26, "COUNTY": "MONTGOMERY", "COUNTYFIPS": "39113", "COUNTRY": "USA", "LATITUDE": 39.747017603000103, "LONGITUDE": -84.199258099000005, "NAICS_CODE": "622110", "NAICS_DESC": "GENERAL MEDICAL AND SURGICAL HOSPITALS", "SOURCE": "http://publicapps.odh.ohio.gov/EID/Provider_Search.aspx", "SOURCEDATE": "2018-08-10T00:00:00.000Z", "VAL_METHOD": "IMAGERY", "VAL_DATE": "2014-01-31T00:00:00.000Z", "WEBSITE": "http://www.mcep.us", "STATE_ID": "1467", "ALT_NAME": "NOT AVAILABLE", "ST_FIPS": "39", "OWNER": "PROPRIETARY", "TTL_STAFF": -999, "BEDS": 26, "TRAUMA": "NOT AVAILABLE", "HELIPAD": "N" }, "geometry": { "type": "Polygon", "coordinates": [ [ [ -84.2303103, 39.628868 ], [ -84.2440181, 39.636244 ], [ -84.317691, 39.746221 ], [ -84.268901, 39.811989 ], [ -84.1888279, 39.860837399999966 ], [ -84.095596, 39.804676 ], [ -84.084593899999987, 39.796527799999957 ], [ -84.0685149, 39.734075600000018 ], [ -84.1280124, 39.6886578 ], [ -84.161816, 39.666617 ], [ -84.2303103, 39.628868 ] ] ] } },
{ "type": "Feature", "properties": { "OBJECTID": 2503, "ID": "0010141075", "NAME": "ST. ELIZABETH FT. THOMAS", "ADDRESS": "85 NORTH GRAND AVENUE", "CITY": "FT. THOMAS", "STATE": "KY", "ZIP": "41075", "ZIP4": "NOT AVAILABLE", "TELEPHONE": "(859) 572-3100", "TYPE": "GENERAL ACUTE CARE", "STATUS": "OPEN", "POPULATION": 284, "COUNTY": "CAMPBELL", "COUNTYFIPS": "21037", "COUNTRY": "USA", "LATITUDE": 39.078660723, "LONGITUDE": -84.467677507000005, "NAICS_CODE": "622110", "NAICS_DESC": "GENERAL MEDICAL AND SURGICAL HOSPITALS", "SOURCE": "https://chfs.ky.gov/agencies/os/oig/dhc/Documents/Directories/Hospital_Directory.pdf", "SOURCEDATE": "2018-08-11T00:00:00.000Z", "VAL_METHOD": "IMAGERY", "VAL_DATE": "2014-02-10T00:00:00.000Z", "WEBSITE": "http://www.stelizabeth.com", "STATE_ID": "100059", "ALT_NAME": "NOT AVAILABLE", "ST_FIPS": "21", "OWNER": "NON-PROFIT", "TTL_STAFF": -999, "BEDS": 284, "TRAUMA": "NOT AVAILABLE", "HELIPAD": "Y" }, "geometry": { "type": "Polygon", "coordinates": [ [ [ -84.447113, 38.99516 ], [ -84.473762, 39.007421 ], [ -84.475662, 39.008715 ], [ -84.573106, 39.086881 ], [ -84.573309, 39.087254 ], [ -84.566219, 39.110168 ], [ -84.563846, 39.113395 ], [ -84.538075, 39.1470129 ], [ -84.484391886517017, 39.152621631231568 ], [ -84.446039742116326, 39.151148434454015 ], [ -84.4425446, 39.148153100000023 ], [ -84.3902081, 39.036709800000025 ], [ -84.415756, 38.995794 ], [ -84.447113, 38.99516 ] ] ] } },
{ "type": "Feature", "properties": { "OBJECTID": 2998, "ID": "0122645216", "NAME": "DRAKE CENTER INC", "ADDRESS": "151 WEST GALBRAITH ROAD", "CITY": "CINCINNATI", "STATE": "OH", "ZIP": "45216", "ZIP4": "NOT AVAILABLE", "TELEPHONE": "(513) 418-2624", "TYPE": "LONG TERM CARE", "STATUS": "OPEN", "POPULATION": 316, "COUNTY": "HAMILTON", "COUNTYFIPS": "39061", "COUNTRY": "USA", "LATITUDE": 39.212639697999997, "LONGITUDE": -84.481148656000002, "NAICS_CODE": "622310", "NAICS_DESC": "SPECIALTY (EXCEPT PSYCHIATRIC AND SUBSTANCE ABUSE) HOSPITALS", "SOURCE": "http://publicapps.odh.ohio.gov/EID/Provider_Search.aspx", "SOURCEDATE": "2018-08-10T00:00:00.000Z", "VAL_METHOD": "IMAGERY/OTHER", "VAL_DATE": "2015-03-10T00:00:00.000Z", "WEBSITE": "http://uchealth.com/danieldrakecenter/", "STATE_ID": "1409", "ALT_NAME": "DRAKE CENTER FOR POST-ACUTE CARE, LLC", "ST_FIPS": "39", "OWNER": "NON-PROFIT", "TTL_STAFF": -999, "BEDS": 316, "TRAUMA": "NOT AVAILABLE", "HELIPAD": "N" }, "geometry": { "type": "Polygon", "coordinates": [ [ [ -84.532710100000017, 39.132912699999963 ], [ -84.535315, 39.133679 ], [ -84.538046, 39.134853 ], [ -84.5408219, 39.136174299999972 ], [ -84.566908021093866, 39.158393846129968 ], [ -84.64462967310169, 39.227385671694769 ], [ -84.625438036114332, 39.23785007401856 ], [ -84.559924286148032, 39.267089800284374 ], [ -84.487269259173544, 39.289997729470834 ], [ -84.466205938512587, 39.295450141231939 ], [ -84.428856184570222, 39.29040605212937 ], [ -84.42230797125444, 39.285163353079028 ], [ -84.35478568819596, 39.225742555496254 ], [ -84.355234275128097, 39.221538248995373 ], [ -84.40303986189133, 39.170960262730844 ], [ -84.416962832158276, 39.157331644470297 ], [ -84.422981827203628, 39.153886739909787 ], [ -84.441035, 39.144764 ], [ -84.4811008, 39.1364731 ], [ -84.4968914, 39.134884899999967 ], [ -84.532710100000017, 39.132912699999963 ] ] ] } },
{ "type": "Feature", "properties": { "OBJECTID": 2999, "ID": "0009045238", "NAME": "MERCY FRANCISCAN HOSPITAL WESTERN HILLS", "ADDRESS": "3131 QUEEN CITY AVENUE", "CITY": "CINCINNATI", "STATE": "OH", "ZIP": "45238", "ZIP4": "NOT AVAILABLE", "TELEPHONE": "(513) 389-5915", "TYPE": "GENERAL ACUTE CARE", "STATUS": "CLOSED", "POPULATION": 156, "COUNTY": "HAMILTON", "COUNTYFIPS": "39061", "COUNTRY": "USA", "LATITUDE": 39.135265486999998, "LONGITUDE": -84.606650904999995, "NAICS_CODE": "622110", "NAICS_DESC": "GENERAL MEDICAL AND SURGICAL HOSPITALS", "SOURCE": "http://publicapps.odh.ohio.gov/EID/Provider_Search.aspx", "SOURCEDATE": "2012-07-23T00:00:00.000Z", "VAL_METHOD": "IMAGERY", "VAL_DATE": "2014-02-10T00:00:00.000Z", "WEBSITE": "http://www.e-mercy.com", "STATE_ID": "360113", "ALT_NAME": "NOT AVAILABLE", "ST_FIPS": "39", "OWNER": "NON-PROFIT", "TTL_STAFF": -999, "BEDS": 156, "TRAUMA": "NOT AVAILABLE", "HELIPAD": "Y" }, "geometry": { "type": "Polygon", "coordinates": [ [ [ -84.6240235, 39.075672899999958 ], [ -84.6347217, 39.081415900000025 ], [ -84.682608, 39.107624 ], [ -84.692172, 39.139949 ], [ -84.692643, 39.142186 ], [ -84.687510655385651, 39.162151670306052 ], [ -84.672812833285448, 39.20102166984487 ], [ -84.600799773712751, 39.213301268209683 ], [ -84.599684973377819, 39.212829668040115 ], [ -84.505403243448839, 39.16750383901347 ], [ -84.505953925845063, 39.162411636218792 ], [ -84.516244, 39.097604 ], [ -84.5173855, 39.097116399999976 ], [ -84.5189734, 39.0967447 ], [ -84.6098292, 39.0760928 ], [ -84.6240235, 39.075672899999958 ] ] ] } },
{ "type": "Feature", "properties": { "OBJECTID": 3000, "ID": "0017945227", "NAME": "MERCY ST THERESA CENTER", "ADDRESS": "7010 ROWAN HILL DR", "CITY": "CINCINNATI", "STATE": "OH", "ZIP": "45227", "ZIP4": "NOT AVAILABLE", "TELEPHONE": "(513) 527-7475", "TYPE": "GENERAL ACUTE CARE", "STATUS": "CLOSED", "POPULATION": -999, "COUNTY": "HAMILTON", "COUNTYFIPS": "39061", "COUNTRY": "USA", "LATITUDE": 39.149347982999998, "LONGITUDE": -84.369018081999997, "NAICS_CODE": "622110", "NAICS_DESC": "GENERAL MEDICAL AND SURGICAL HOSPITALS", "SOURCE": "http://publicapps.odh.ohio.gov/EID/Provider_Search.aspx", "SOURCEDATE": "2012-07-23T00:00:00.000Z", "VAL_METHOD": "IMAGERY", "VAL_DATE": "2014-02-10T00:00:00.000Z", "WEBSITE": "http://www.e-mercy.com/", "STATE_ID": "NOT AVAILABLE", "ALT_NAME": "NOT AVAILABLE", "ST_FIPS": "39", "OWNER": "NON-PROFIT", "TTL_STAFF": -999, "BEDS": -999, "TRAUMA": "NOT AVAILABLE", "HELIPAD": "N" }, "geometry": { "type": "Polygon", "coordinates": [ [ [ -84.364851, 39.093519 ], [ -84.434406, 39.101429 ], [ -84.4538127, 39.1223165 ], [ -84.454165094735259, 39.164729745378601 ], [ -84.430656933990633, 39.184319669865161 ], [ -84.366769998162141, 39.22489744742618 ], [ -84.353393991927447, 39.227358858713387 ], [ -84.291592805458805, 39.189531723658369 ], [ -84.3058302, 39.1118381 ], [ -84.306137, 39.11132 ], [ -84.334627, 39.102514 ], [ -84.364851, 39.093519 ] ] ] } },
{ "type": "Feature", "properties": { "OBJECTID": 6031, "ID": "0029645459", "NAME": "MIAMI VALLEY HOSPITAL SOUTH", "ADDRESS": "2400 MIAMI VALLEY DRIVE", "CITY": "CENTERVILLE", "STATE": "OH", "ZIP": "45459", "ZIP4": "NOT AVAILABLE", "TELEPHONE": "(937) 208-8000", "TYPE": "GENERAL ACUTE CARE", "STATUS": "OPEN", "POPULATION": 87, "COUNTY": "MONTGOMERY", "COUNTYFIPS": "39113", "COUNTRY": "USA", "LATITUDE": 39.652760512999997, "LONGITUDE": -84.114587184999905, "NAICS_CODE": "622110", "NAICS_DESC": "GENERAL MEDICAL AND SURGICAL HOSPITALS", "SOURCE": "http://publicapps.odh.ohio.gov/EID/Provider_Search.aspx", "SOURCEDATE": "2018-08-10T00:00:00.000Z", "VAL_METHOD": "IMAGERY", "VAL_DATE": "2016-09-21T00:00:00.000Z", "WEBSITE": "https://www.miamivalleyhospital.org/Locations/Miami-Valley-Hospital-South/", "STATE_ID": "1489", "ALT_NAME": "NOT AVAILABLE", "ST_FIPS": "39", "OWNER": "NON-PROFIT", "TTL_STAFF": -999, "BEDS": 87, "TRAUMA": "NOT AVAILABLE", "HELIPAD": "Y" }, "geometry": { "type": "Polygon", "coordinates": [ [ [ -84.104271, 39.58401 ], [ -84.234078700000012, 39.6108678 ], [ -84.233537, 39.639955300000018 ], [ -84.2335132, 39.640077199999972 ], [ -84.2323339, 39.6451261 ], [ -84.205882, 39.671297 ], [ -84.186117, 39.690616 ], [ -84.088577, 39.769669300000011 ], [ -84.007375, 39.674537 ], [ -84.0377163, 39.627108199999959 ], [ -84.041661, 39.624481 ], [ -84.08956, 39.593044 ], [ -84.104271, 39.58401 ] ] ] } },
{ "type": "Feature", "properties": { "OBJECTID": 6050, "ID": "0002247025", "NAME": "DEARBORN COUNTY HOSPITAL", "ADDRESS": "600 WILSON CREEK RD", "CITY": "LAWRENCEBURG", "STATE": "IN", "ZIP": "47025", "ZIP4": "NOT AVAILABLE", "TELEPHONE": "(812) 537-1010", "TYPE": "GENERAL ACUTE CARE", "STATUS": "OPEN", "POPULATION": 88, "COUNTY": "DEARBORN", "COUNTYFIPS": "18029", "COUNTRY": "USA", "LATITUDE": 39.111591353999998, "LONGITUDE": -84.883399047999902, "NAICS_CODE": "622110", "NAICS_DESC": "GENERAL MEDICAL AND SURGICAL HOSPITALS", "SOURCE": "http://www.in.gov/isdh/reports/QAMIS/hosdir", "SOURCEDATE": "2018-08-16T00:00:00.000Z", "VAL_METHOD": "IMAGERY", "VAL_DATE": "2014-03-12T00:00:00.000Z", "WEBSITE": "http://www.dch.org", "STATE_ID": "17-005077-1", "ALT_NAME": "NOT AVAILABLE", "ST_FIPS": "18", "OWNER": "GOVERNMENT - LOCAL", "TTL_STAFF": -999, "BEDS": 88, "TRAUMA": "NOT AVAILABLE", "HELIPAD": "Y" }, "geometry": { "type": "Polygon", "coordinates": [ [ [ -84.9322124, 39.0310107 ], [ -84.9536887, 39.062613699999964 ], [ -84.976863, 39.135437 ], [ -84.894379994746487, 39.183276934944644 ], [ -84.8270017, 39.145077299999969 ], [ -84.845524, 39.09359820000001 ], [ -84.885586, 39.029597 ], [ -84.886108, 39.029408 ], [ -84.9322124, 39.0310107 ] ] ] } },
{ "type": "Feature", "properties": { "OBJECTID": 6053, "ID": "0016745365", "NAME": "WILSON MEMORIAL HOSPITAL", "ADDRESS": "915 WEST MICHIGAN STREET", "CITY": "SIDNEY", "STATE": "OH", "ZIP": "45365", "ZIP4": "NOT AVAILABLE", "TELEPHONE": "(937) 498-2311", "TYPE": "GENERAL ACUTE CARE", "STATUS": "OPEN", "POPULATION": 90, "COUNTY": "SHELBY", "COUNTYFIPS": "39149", "COUNTRY": "USA", "LATITUDE": 40.286854382000101, "LONGITUDE": -84.170174400999898, "NAICS_CODE": "622110", "NAICS_DESC": "GENERAL MEDICAL AND SURGICAL HOSPITALS", "SOURCE": "http://publicapps.odh.ohio.gov/EID/Provider_Search.aspx", "SOURCEDATE": "2018-08-10T00:00:00.000Z", "VAL_METHOD": "IMAGERY", "VAL_DATE": "2014-02-10T00:00:00.000Z", "WEBSITE": "http://www.wilsonhospital.com", "STATE_ID": "1268", "ALT_NAME": "NOT AVAILABLE", "ST_FIPS": "39", "OWNER": "NON-PROFIT", "TTL_STAFF": -999, "BEDS": 90, "TRAUMA": "NOT AVAILABLE", "HELIPAD": "Y" }, "geometry": { "type": "Polygon", "coordinates": [ [ [ -84.191932, 40.206981 ], [ -84.233558, 40.227638 ], [ -84.234863, 40.228717 ], [ -84.283447, 40.289859 ], [ -84.24237620000001, 40.380168300000058 ], [ -84.166946, 40.398769 ], [ -84.161888, 40.399841 ], [ -84.15216, 40.396106 ], [ -84.088462, 40.332874 ], [ -84.062492, 40.281463 ], [ -84.07975, 40.255065 ], [ -84.150794, 40.213382 ], [ -84.163162, 40.208297 ], [ -84.191932, 40.206981 ] ] ] } },
{ "type": "Feature", "properties": { "OBJECTID": 6165, "ID": "0012147374", "NAME": "RICHMOND STATE HOSPITAL", "ADDRESS": "498 NW 18TH ST", "CITY": "RICHMOND", "STATE": "IN", "ZIP": "47374", "ZIP4": "NOT AVAILABLE", "TELEPHONE": "(765) 966-0511", "TYPE": "PSYCHIATRIC", "STATUS": "OPEN", "POPULATION": 30, "COUNTY": "WAYNE", "COUNTYFIPS": "18177", "COUNTRY": "USA", "LATITUDE": 39.838912645999997, "LONGITUDE": -84.925713754999904, "NAICS_CODE": "622210", "NAICS_DESC": "PSYCHIATRIC AND SUBSTANCE ABUSE HOSPITALS", "SOURCE": "http://www.in.gov/isdh/reports/QAMIS/hosdir", "SOURCEDATE": "2018-08-16T00:00:00.000Z", "VAL_METHOD": "IMAGERY", "VAL_DATE": "2014-02-10T00:00:00.000Z", "WEBSITE": "http://www.richmondstatehospital.org", "STATE_ID": "NOT AVAILABLE", "ALT_NAME": "NOT AVAILABLE", "ST_FIPS": "18", "OWNER": "GOVERNMENT - STATE", "TTL_STAFF": -999, "BEDS": 30, "TRAUMA": "NOT AVAILABLE", "HELIPAD": "N" }, "geometry": { "type": "Polygon", "coordinates": [ [ [ -84.941837355996626, 39.779202519669013 ], [ -84.986639480879475, 39.794655588515901 ], [ -85.005232542073585, 39.812737563618853 ], [ -85.017916699420297, 39.859540622877041 ], [ -84.949264877401475, 39.903563525016494 ], [ -84.945190668038634, 39.903579620162077 ], [ -84.896881254710294, 39.893619182465144 ], [ -84.85339014643877, 39.878405148655844 ], [ -84.834744086819541, 39.849224158332312 ], [ -84.8262983, 39.8327641 ], [ -84.8262791, 39.8325818 ], [ -84.8282568, 39.8300146 ], [ -84.871091156444436, 39.783807331749095 ], [ -84.941837355996626, 39.779202519669013 ] ] ] } },
{ "type": "Feature", "properties": { "OBJECTID": 6346, "ID": "0000000091", "NAME": "SOUTHVIEW HOSPITAL", "ADDRESS": "1997 MIAMISBURG CENTERVILLE RD", "CITY": "DAYTON", "STATE": "OH", "ZIP": "45459", "ZIP4": "NOT AVAILABLE", "TELEPHONE": "(937) 439-6000", "TYPE": "GENERAL ACUTE CARE", "STATUS": "OPEN", "POPULATION": 128, "COUNTY": "MONTGOMERY", "COUNTYFIPS": "39113", "COUNTRY": "USA", "LATITUDE": 39.635396614000101, "LONGITUDE": -84.203420172999998, "NAICS_CODE": "622110", "NAICS_DESC": "GENERAL MEDICAL AND SURGICAL HOSPITALS", "SOURCE": "http://publicapps.odh.ohio.gov/EID/Provider_Search.aspx", "SOURCEDATE": "2018-08-10T00:00:00.000Z", "VAL_METHOD": "IMAGERY/OTHER", "VAL_DATE": "2015-05-22T00:00:00.000Z", "WEBSITE": "http://www.ketteringhealth.org/southview/", "STATE_ID": "1035", "ALT_NAME": "NOT AVAILABLE", "ST_FIPS": "39", "OWNER": "NON-PROFIT", "TTL_STAFF": -999, "BEDS": 128, "TRAUMA": "NOT AVAILABLE", "HELIPAD": "N" }, "geometry": { "type": "Polygon", "coordinates": [ [ [ -84.195145, 39.544147 ], [ -84.212247, 39.547826 ], [ -84.274847, 39.582653 ], [ -84.322313, 39.642542 ], [ -84.322278, 39.643603 ], [ -84.2090024, 39.7477215 ], [ -84.2053506, 39.7507589 ], [ -84.2003357, 39.74910469999994 ], [ -84.090435, 39.701594 ], [ -84.085887, 39.69887 ], [ -84.084348, 39.697616 ], [ -84.08141, 39.694972 ], [ -84.0556248, 39.6581512 ], [ -84.0701107, 39.644215600000031 ], [ -84.118325, 39.599466 ], [ -84.195145, 39.544147 ] ] ] } },
{ "type": "Feature", "properties": { "OBJECTID": 6408, "ID": "0012047374", "NAME": "REID HOSPITAL & HEALTH CARE SERVICES", "ADDRESS": "1100 REID PKWY", "CITY": "RICHMOND", "STATE": "IN", "ZIP": "47374", "ZIP4": "NOT AVAILABLE", "TELEPHONE": "(765) 983-3000", "TYPE": "GENERAL ACUTE CARE", "STATUS": "OPEN", "POPULATION": 221, "COUNTY": "WAYNE", "COUNTYFIPS": "18177", "COUNTRY": "USA", "LATITUDE": 39.864710013, "LONGITUDE": -84.884284516999998, "NAICS_CODE": "622110", "NAICS_DESC": "GENERAL MEDICAL AND SURGICAL HOSPITALS", "SOURCE": "http://www.in.gov/isdh/reports/QAMIS/hosdir", "SOURCEDATE": "2018-08-16T00:00:00.000Z", "VAL_METHOD": "IMAGERY", "VAL_DATE": "2016-04-28T00:00:00.000Z", "WEBSITE": "http://www.reidhosp.com", "STATE_ID": "17-005044-1", "ALT_NAME": "NOT AVAILABLE", "ST_FIPS": "18", "OWNER": "NON-PROFIT", "TTL_STAFF": -999, "BEDS": 221, "TRAUMA": "LEVEL III", "HELIPAD": "Y" }, "geometry": { "type": "Polygon", "coordinates": [ [ [ -84.908975262126788, 39.776749441034895 ], [ -84.995748498875045, 39.83083250048324 ], [ -85.032157975488346, 39.859639924473953 ], [ -84.958648398197226, 39.92337918409698 ], [ -84.917368410281966, 39.947080092846122 ], [ -84.868730502638755, 39.932607182311266 ], [ -84.8121474, 39.909134 ], [ -84.7886814, 39.850128299999945 ], [ -84.779579, 39.819049 ], [ -84.871086154318803, 39.777685341914967 ], [ -84.908975262126788, 39.776749441034895 ] ] ] } },
{ "type": "Feature", "properties": { "OBJECTID": 6484, "ID": "0017645431", "NAME": "SOIN MEDICAL CENTER", "ADDRESS": "3535 PENTAGON PARK BLVD", "CITY": "BEAVERCREEK", "STATE": "OH", "ZIP": "45431", "ZIP4": "NOT AVAILABLE", "TELEPHONE": "(937) 702-4000", "TYPE": "GENERAL ACUTE CARE", "STATUS": "OPEN", "POPULATION": 127, "COUNTY": "GREENE", "COUNTYFIPS": "39057", "COUNTRY": "USA", "LATITUDE": 39.77104394, "LONGITUDE": -84.063052985999903, "NAICS_CODE": "622110", "NAICS_DESC": "GENERAL MEDICAL AND SURGICAL HOSPITALS", "SOURCE": "http://publicapps.odh.ohio.gov/EID/Provider_Search.aspx", "SOURCEDATE": "2018-08-10T00:00:00.000Z", "VAL_METHOD": "IMAGERY", "VAL_DATE": "2014-02-10T00:00:00.000Z", "WEBSITE": "http://ketteringhealth.org/soin/", "STATE_ID": "1504", "ALT_NAME": "NOT AVAILABLE", "ST_FIPS": "39", "OWNER": "NON-PROFIT", "TTL_STAFF": -999, "BEDS": 127, "TRAUMA": "LEVEL III", "HELIPAD": "Y" }, "geometry": { "type": "Polygon", "coordinates": [ [ [ -84.0993382, 39.690522 ], [ -84.105982, 39.697207 ], [ -84.140005, 39.759519 ], [ -84.138275, 39.792743 ], [ -84.135725, 39.803001199999933 ], [ -84.1315353, 39.806957499999974 ], [ -84.123055, 39.812795 ], [ -84.061318, 39.836534 ], [ -83.988304, 39.847075 ], [ -83.934886, 39.795785 ], [ -83.944396, 39.784783 ], [ -84.0124847, 39.7124278 ], [ -84.0199167, 39.704587599999989 ], [ -84.0993382, 39.690522 ] ] ] } },
{ "type": "Feature", "properties": { "OBJECTID": 6489, "ID": "0122145229", "NAME": "CHILDREN'S HOSPITAL MEDICAL CENTER", "ADDRESS": "3333 BURNET AVENUE", "CITY": "CINCINNATI", "STATE": "OH", "ZIP": "45229", "ZIP4": "NOT AVAILABLE", "TELEPHONE": "(513) 636-4200", "TYPE": "CHILDREN", "STATUS": "OPEN", "POPULATION": 501, "COUNTY": "HAMILTON", "COUNTYFIPS": "39061", "COUNTRY": "USA", "LATITUDE": 39.140906365, "LONGITUDE": -84.502358184999906, "NAICS_CODE": "622310", "NAICS_DESC": "CHILDREN'S HOSPITALS, SPECIALTY (EXCEPT PSYCHIATRIC, SUBSTANCE ABUSE)", "SOURCE": "http://publicapps.odh.ohio.gov/EID/Provider_Search.aspx", "SOURCEDATE": "2018-08-10T00:00:00.000Z", "VAL_METHOD": "IMAGERY/OTHER", "VAL_DATE": "2015-03-10T00:00:00.000Z", "WEBSITE": "https://www.cincinnatichildrens.org", "STATE_ID": "1186", "ALT_NAME": "NOT AVAILABLE", "ST_FIPS": "39", "OWNER": "NON-PROFIT", "TTL_STAFF": -999, "BEDS": 501, "TRAUMA": "LEVEL II PEDIATRIC", "HELIPAD": "Y" }, "geometry": { "type": "Polygon", "coordinates": [ [ [ -84.4584012, 39.043685899999964 ], [ -84.4664964, 39.044897200000058 ], [ -84.567906, 39.088227799999984 ], [ -84.592348, 39.148974 ], [ -84.598575666378991, 39.183503859631188 ], [ -84.518999068416662, 39.210677664138849 ], [ -84.449057071635764, 39.220704696866463 ], [ -84.448895071487271, 39.220711696960699 ], [ -84.447822969790749, 39.220538697384896 ], [ -84.438265836703835, 39.213469295707824 ], [ -84.39795667368972, 39.17623787035334 ], [ -84.398338255454803, 39.170481363245003 ], [ -84.4300001, 39.1032559 ], [ -84.4584012, 39.043685899999964 ] ] ] } },
{ "type": "Feature", "properties": { "OBJECTID": 6490, "ID": "0129545219", "NAME": "UNIVERSITY OF CINCINNATI MEDICAL CENTER, LLC", "ADDRESS": "234 GOODMAN STREET", "CITY": "CINCINNATI", "STATE": "OH", "ZIP": "45219", "ZIP4": "NOT AVAILABLE", "TELEPHONE": "(513) 584-1000", "TYPE": "GENERAL ACUTE CARE", "STATUS": "OPEN", "POPULATION": 699, "COUNTY": "HAMILTON", "COUNTYFIPS": "39061", "COUNTRY": "USA", "LATITUDE": 39.138357661999997, "LONGITUDE": -84.503716116000007, "NAICS_CODE": "622110", "NAICS_DESC": "GENERAL MEDICAL AND SURGICAL HOSPITALS", "SOURCE": "http://publicapps.odh.ohio.gov/EID/Provider_Search.aspx", "SOURCEDATE": "2018-08-10T00:00:00.000Z", "VAL_METHOD": "IMAGERY/OTHER", "VAL_DATE": "2015-03-12T00:00:00.000Z", "WEBSITE": "http://uchealth.com/university-of-cincinnati-medical-center/", "STATE_ID": "1189", "ALT_NAME": "NOT AVAILABLE", "ST_FIPS": "39", "OWNER": "NON-PROFIT", "TTL_STAFF": -999, "BEDS": 699, "TRAUMA": "LEVEL I", "HELIPAD": "Y" }, "geometry": { "type": "Polygon", "coordinates": [ [ [ -84.4522287, 39.033604900000014 ], [ -84.4532666, 39.033702800000015 ], [ -84.470317, 39.039569 ], [ -84.5812613, 39.085175399999954 ], [ -84.5986178, 39.148569600000037 ], [ -84.603331867936376, 39.185705660815472 ], [ -84.603064570786202, 39.186373060965558 ], [ -84.521325048182007, 39.205546661562451 ], [ -84.459024561311296, 39.214302386081101 ], [ -84.452565053924843, 39.214126689173177 ], [ -84.385456815120818, 39.193083395532732 ], [ -84.393100818062692, 39.160604652108034 ], [ -84.449478, 39.037732 ], [ -84.4522287, 39.033604900000014 ] ] ] } },
{ "type": "Feature", "properties": { "OBJECTID": 6522, "ID": "0008945373", "NAME": "UPPER VALLEY MEDICAL CENTER", "ADDRESS": "3130 NORTH COUNTY ROAD 25A", "CITY": "TROY", "STATE": "OH", "ZIP": "45373", "ZIP4": "NOT AVAILABLE", "TELEPHONE": "(937) 440-4000", "TYPE": "GENERAL ACUTE CARE", "STATUS": "OPEN", "POPULATION": 193, "COUNTY": "MIAMI", "COUNTYFIPS": "39109", "COUNTRY": "USA", "LATITUDE": 40.085874431000001, "LONGITUDE": -84.229927998999997, "NAICS_CODE": "622110", "NAICS_DESC": "GENERAL MEDICAL AND SURGICAL HOSPITALS", "SOURCE": "http://publicapps.odh.ohio.gov/EID/Provider_Search.aspx", "SOURCEDATE": "2018-08-10T00:00:00.000Z", "VAL_METHOD": "IMAGERY/OTHER", "VAL_DATE": "2014-02-10T00:00:00.000Z", "WEBSITE": "http://www.uvmc.com", "STATE_ID": "1036", "ALT_NAME": "NOT AVAILABLE", "ST_FIPS": "39", "OWNER": "NON-PROFIT", "TTL_STAFF": -999, "BEDS": 193, "TRAUMA": "NOT AVAILABLE", "HELIPAD": "Y" }, "geometry": { "type": "Polygon", "coordinates": [ [ [ -84.1996465, 39.97328450000002 ], [ -84.273388, 40.009167 ], [ -84.321046, 40.076635 ], [ -84.2556219, 40.164717800000027 ], [ -84.216679, 40.179529 ], [ -84.1955844, 40.171601 ], [ -84.1587416, 40.147616 ], [ -84.13481, 40.077659 ], [ -84.135918, 40.051452 ], [ -84.151041, 40.021775 ], [ -84.165282, 40.000844 ], [ -84.166846, 39.99954 ], [ -84.1996465, 39.97328450000002 ] ] ] } },
{ "type": "Feature", "properties": { "OBJECTID": 6528, "ID": "0010645405", "NAME": "GRANDVIEW HOSPITAL & MEDICAL CENTER", "ADDRESS": "405 GRAND AVENUE", "CITY": "DAYTON", "STATE": "OH", "ZIP": "45405", "ZIP4": "NOT AVAILABLE", "TELEPHONE": "(937) 723-3200", "TYPE": "GENERAL ACUTE CARE", "STATUS": "OPEN", "POPULATION": 289, "COUNTY": "MONTGOMERY", "COUNTYFIPS": "39113", "COUNTRY": "USA", "LATITUDE": 39.770040754, "LONGITUDE": -84.202233621999895, "NAICS_CODE": "622110", "NAICS_DESC": "GENERAL MEDICAL AND SURGICAL HOSPITALS", "SOURCE": "http://publicapps.odh.ohio.gov/EID/Provider_Search.aspx", "SOURCEDATE": "2018-08-10T00:00:00.000Z", "VAL_METHOD": "IMAGERY", "VAL_DATE": "2014-02-10T00:00:00.000Z", "WEBSITE": "http://www.ketteringhealth.org/grandview/", "STATE_ID": "1017", "ALT_NAME": "NOT AVAILABLE", "ST_FIPS": "39", "OWNER": "NON-PROFIT", "TTL_STAFF": -999, "BEDS": 289, "TRAUMA": "LEVEL III", "HELIPAD": "N" }, "geometry": { "type": "Polygon", "coordinates": [ [ [ -84.2331739, 39.645006500000036 ], [ -84.3095926, 39.746286400000024 ], [ -84.299453, 39.797448 ], [ -84.2885082, 39.822033300000015 ], [ -84.264623, 39.845265 ], [ -84.1863271, 39.891843299999941 ], [ -84.064275, 39.82701 ], [ -84.051385, 39.792513 ], [ -84.051404, 39.792264 ], [ -84.082008700000017, 39.736898799999985 ], [ -84.083585, 39.73582 ], [ -84.141454, 39.699761399999979 ], [ -84.2331739, 39.645006500000036 ] ] ] } },
{ "type": "Feature", "properties": { "OBJECTID": 6530, "ID": "0009745429", "NAME": "KETTERING MEDICAL CENTER", "ADDRESS": "3535 SOUTHERN BOULEVARD", "CITY": "KETTERING", "STATE": "OH", "ZIP": "45429", "ZIP4": "NOT AVAILABLE", "TELEPHONE": "(937) 298-4331", "TYPE": "GENERAL ACUTE CARE", "STATUS": "OPEN", "POPULATION": 456, "COUNTY": "MONTGOMERY", "COUNTYFIPS": "39113", "COUNTRY": "USA", "LATITUDE": 39.697286574000003, "LONGITUDE": -84.192429516999894, "NAICS_CODE": "622110", "NAICS_DESC": "GENERAL MEDICAL AND SURGICAL HOSPITALS", "SOURCE": "http://publicapps.odh.ohio.gov/EID/Provider_Search.aspx", "SOURCEDATE": "2018-08-10T00:00:00.000Z", "VAL_METHOD": "IMAGERY/OTHER", "VAL_DATE": "2014-02-10T00:00:00.000Z", "WEBSITE": "http://www.ketteringhealth.org/", "STATE_ID": "1017", "ALT_NAME": "NOT AVAILABLE", "ST_FIPS": "39", "OWNER": "NON-PROFIT", "TTL_STAFF": -999, "BEDS": 456, "TRAUMA": "LEVEL II", "HELIPAD": "Y" }, "geometry": { "type": "Polygon", "coordinates": [ [ [ -84.234078700000012, 39.6108678 ], [ -84.264843, 39.639453 ], [ -84.265332200000017, 39.640210099999983 ], [ -84.275572, 39.673572 ], [ -84.278705, 39.695377 ], [ -84.2561151, 39.7428552 ], [ -84.251795, 39.749613 ], [ -84.2343167, 39.766708900000012 ], [ -84.21919, 39.777556 ], [ -84.1842724, 39.7860797 ], [ -84.13905, 39.752360099999947 ], [ -84.121598, 39.736492 ], [ -84.08141, 39.694972 ], [ -84.097579, 39.672772 ], [ -84.1096594, 39.657115199999978 ], [ -84.1387284, 39.638053499999977 ], [ -84.156011, 39.628518 ], [ -84.159022, 39.627474 ], [ -84.234078700000012, 39.6108678 ] ] ] } },
{ "type": "Feature", "properties": { "OBJECTID": 6534, "ID": "0128145342", "NAME": "LIFE CARE HOSPITALS OF DAYTON", "ADDRESS": "4000 MIAMISBURG-CENTERVILLE ROAD", "CITY": "MIAMISBURG", "STATE": "OH", "ZIP": "45342", "ZIP4": "NOT AVAILABLE", "TELEPHONE": "(937) 384-8300", "TYPE": "LONG TERM CARE", "STATUS": "OPEN", "POPULATION": 44, "COUNTY": "MONTGOMERY", "COUNTYFIPS": "39113", "COUNTRY": "USA", "LATITUDE": 39.637588717, "LONGITUDE": -84.24827312, "NAICS_CODE": "622310", "NAICS_DESC": "SPECIALTY (EXCEPT PSYCHIATRIC AND SUBSTANCE ABUSE) HOSPITALS", "SOURCE": "http://publicapps.odh.ohio.gov/EID/Provider_Search.aspx", "SOURCEDATE": "2018-08-10T00:00:00.000Z", "VAL_METHOD": "IMAGERY/OTHER", "VAL_DATE": "2015-03-11T00:00:00.000Z", "WEBSITE": "http://www.lifecare-hospitals.com/hospital/dayton", "STATE_ID": "1439", "ALT_NAME": "NOT AVAILABLE", "ST_FIPS": "39", "OWNER": "PROPRIETARY", "TTL_STAFF": -999, "BEDS": 44, "TRAUMA": "NOT AVAILABLE", "HELIPAD": "Y" }, "geometry": { "type": "Polygon", "coordinates": [ [ [ -84.199629, 39.576187 ], [ -84.2574762, 39.5877074 ], [ -84.30492, 39.606039 ], [ -84.347817, 39.637443 ], [ -84.3492458, 39.638578399999986 ], [ -84.327684, 39.6583 ], [ -84.211314, 39.747551199999982 ], [ -84.2053506, 39.7507589 ], [ -84.1971645, 39.750063600000018 ], [ -84.103795, 39.657403399999936 ], [ -84.109236800000019, 39.650013400000013 ], [ -84.1850502, 39.586124 ], [ -84.199629, 39.576187 ] ] ] } },
{ "type": "Feature", "properties": { "OBJECTID": 6535, "ID": "0127945417", "NAME": "KINDRED HOSPITALS-DAYTON", "ADDRESS": "707 EAST EDWIN C MOSES BLVD", "CITY": "DAYTON", "STATE": "OH", "ZIP": "45417", "ZIP4": "NOT AVAILABLE", "TELEPHONE": "(937) 234-2606", "TYPE": "LONG TERM CARE", "STATUS": "OPEN", "POPULATION": 67, "COUNTY": "MONTGOMERY", "COUNTYFIPS": "39113", "COUNTRY": "USA", "LATITUDE": 39.7467039530001, "LONGITUDE": -84.197911442000006, "NAICS_CODE": "622310", "NAICS_DESC": "SPECIALTY (EXCEPT PSYCHIATRIC AND SUBSTANCE ABUSE) HOSPITALS", "SOURCE": "http://publicapps.odh.ohio.gov/EID/Provider_Search.aspx", "SOURCEDATE": "2018-08-10T00:00:00.000Z", "VAL_METHOD": "IMAGERY/OTHER", "VAL_DATE": "2015-03-11T00:00:00.000Z", "WEBSITE": "http://www.khdayton.com/", "STATE_ID": "1458", "ALT_NAME": "NOT AVAILABLE", "ST_FIPS": "39", "OWNER": "PROPRIETARY", "TTL_STAFF": -999, "BEDS": 67, "TRAUMA": "NOT AVAILABLE", "HELIPAD": "N" }, "geometry": { "type": "Polygon", "coordinates": [ [ [ -84.2303103, 39.628868 ], [ -84.2440181, 39.636244 ], [ -84.290746, 39.702507 ], [ -84.317691, 39.746221 ], [ -84.2718561, 39.814623900000029 ], [ -84.1886249, 39.86678449999998 ], [ -84.0786325, 39.793512799999988 ], [ -84.0649162, 39.732218299999943 ], [ -84.161065, 39.665348 ], [ -84.2303103, 39.628868 ] ] ] } },
{ "type": "Feature", "properties": { "OBJECTID": 6658, "ID": "0017445005", "NAME": "ATRIUM MEDICAL CENTER", "ADDRESS": "ONE MEDICAL CENTER DRIVE", "CITY": "FRANKLIN", "STATE": "OH", "ZIP": "45005", "ZIP4": "NOT AVAILABLE", "TELEPHONE": "(513) 424-2111", "TYPE": "GENERAL ACUTE CARE", "STATUS": "OPEN", "POPULATION": 328, "COUNTY": "WARREN", "COUNTYFIPS": "39165", "COUNTRY": "USA", "LATITUDE": 39.498340495000001, "LONGITUDE": -84.314251393999896, "NAICS_CODE": "622110", "NAICS_DESC": "GENERAL MEDICAL AND SURGICAL HOSPITALS", "SOURCE": "http://publicapps.odh.ohio.gov/EID/Provider_Search.aspx", "SOURCEDATE": "2018-08-10T00:00:00.000Z", "VAL_METHOD": "IMAGERY", "VAL_DATE": "2014-03-12T00:00:00.000Z", "WEBSITE": "http://www.atriummedcenter.org/", "STATE_ID": "1116", "ALT_NAME": "NOT AVAILABLE", "ST_FIPS": "39", "OWNER": "NON-PROFIT", "TTL_STAFF": -999, "BEDS": 328, "TRAUMA": "LEVEL III", "HELIPAD": "Y" }, "geometry": { "type": "Polygon", "coordinates": [ [ [ -84.3592121, 39.423478099999976 ], [ -84.3661303, 39.427177599999943 ], [ -84.3883105, 39.444637399999984 ], [ -84.4029124, 39.478511600000026 ], [ -84.4040946, 39.501981600000022 ], [ -84.4040356, 39.502523800000013 ], [ -84.3992403, 39.507227200000024 ], [ -84.392770900000016, 39.513372699999977 ], [ -84.3914241, 39.5143766 ], [ -84.307157, 39.572462 ], [ -84.2365741, 39.596758200000053 ], [ -84.20109, 39.48502 ], [ -84.201421, 39.481486 ], [ -84.235533, 39.448661 ], [ -84.3221215, 39.42356630000004 ], [ -84.3258268, 39.42328 ], [ -84.3576931, 39.423387 ], [ -84.3592121, 39.423478099999976 ] ] ] } },
{ "type": "Feature", "properties": { "OBJECTID": 6724, "ID": "0001145242", "NAME": "BETHESDA NORTH", "ADDRESS": "10500 MONTGOMERY ROAD", "CITY": "CINCINNATI", "STATE": "OH", "ZIP": "45242", "ZIP4": "NOT AVAILABLE", "TELEPHONE": "(513) 865-1111", "TYPE": "GENERAL ACUTE CARE", "STATUS": "OPEN", "POPULATION": 524, "COUNTY": "HAMILTON", "COUNTYFIPS": "39061", "COUNTRY": "USA", "LATITUDE": 39.251979953000003, "LONGITUDE": -84.341784685999997, "NAICS_CODE": "622110", "NAICS_DESC": "GENERAL MEDICAL AND SURGICAL HOSPITALS", "SOURCE": "http://publicapps.odh.ohio.gov/EID/Provider_Search.aspx", "SOURCEDATE": "2018-08-10T00:00:00.000Z", "VAL_METHOD": "IMAGERY", "VAL_DATE": "2014-03-12T00:00:00.000Z", "WEBSITE": "http://www.trihealth.com/hospitals-and-practices/bethesda-north-hospital/", "STATE_ID": "1024", "ALT_NAME": "NOT AVAILABLE", "ST_FIPS": "39", "OWNER": "NON-PROFIT", "TTL_STAFF": -999, "BEDS": 524, "TRAUMA": "LEVEL III", "HELIPAD": "Y" }, "geometry": { "type": "Polygon", "coordinates": [ [ [ -84.403641931615581, 39.161418751290768 ], [ -84.454103245813485, 39.211137885799289 ], [ -84.486057764424359, 39.295323534391613 ], [ -84.484679467625625, 39.29926723811267 ], [ -84.310533150270231, 39.344693861964643 ], [ -84.265407879903989, 39.355350247421612 ], [ -84.260415266658597, 39.268668039865283 ], [ -84.32517776119839, 39.195951322678461 ], [ -84.345405833741069, 39.180827691434956 ], [ -84.403641931615581, 39.161418751290768 ] ] ] } },
{ "type": "Feature", "properties": { "OBJECTID": 6937, "ID": "0007145239", "NAME": "MERCY FRANCISCAN HOSPITAL - MT AIRY", "ADDRESS": "2446 KIPLING AVENUE", "CITY": "CINCINNATI", "STATE": "OH", "ZIP": "45239", "ZIP4": "NOT AVAILABLE", "TELEPHONE": "(513) 853-5000", "TYPE": "GENERAL ACUTE CARE", "STATUS": "CLOSED", "POPULATION": 170, "COUNTY": "HAMILTON", "COUNTYFIPS": "39061", "COUNTRY": "USA", "LATITUDE": 39.204740769000097, "LONGITUDE": -84.570670798999998, "NAICS_CODE": "622110", "NAICS_DESC": "GENERAL MEDICAL AND SURGICAL HOSPITALS", "SOURCE": "http://publicapps.odh.ohio.gov/EID/Provider_Search.aspx", "SOURCEDATE": "2012-07-23T00:00:00.000Z", "VAL_METHOD": "IMAGERY", "VAL_DATE": "2014-02-10T00:00:00.000Z", "WEBSITE": "http://www.e-mercy.com", "STATE_ID": "360234", "ALT_NAME": "NOT AVAILABLE", "ST_FIPS": "39", "OWNER": "NON-PROFIT", "TTL_STAFF": -999, "BEDS": 170, "TRAUMA": "NOT AVAILABLE", "HELIPAD": "N" }, "geometry": { "type": "Polygon", "coordinates": [ [ [ -84.5356217, 39.1221766 ], [ -84.60212574735705, 39.152770651629346 ], [ -84.60299894780313, 39.153249151949055 ], [ -84.607163750107944, 39.155565653447951 ], [ -84.701228127135437, 39.208587771635493 ], [ -84.654842043840517, 39.248472673999139 ], [ -84.612695536414975, 39.267835799059306 ], [ -84.572319701894202, 39.281584015985388 ], [ -84.564202112766935, 39.283678418349467 ], [ -84.499984176066874, 39.236159678294072 ], [ -84.46328693906635, 39.206099777264534 ], [ -84.477378968665761, 39.179998651947372 ], [ -84.5356217, 39.1221766 ] ] ] } },
{ "type": "Feature", "properties": { "OBJECTID": 4130, "ID": "0126345220", "NAME": "SELECT SPECIALTY HOSPITAL-CINCINNATI, INC", "ADDRESS": "375 DIXMYTH AVE, 15TH FLOOR", "CITY": "CINCINNATI", "STATE": "OH", "ZIP": "45220", "ZIP4": "NOT AVAILABLE", "TELEPHONE": "(513) 862-4444", "TYPE": "LONG TERM CARE", "STATUS": "OPEN", "POPULATION": 36, "COUNTY": "HAMILTON", "COUNTYFIPS": "39061", "COUNTRY": "USA", "LATITUDE": 39.140054383000098, "LONGITUDE": -84.520803574, "NAICS_CODE": "622310", "NAICS_DESC": "SPECIALTY (EXCEPT PSYCHIATRIC AND SUBSTANCE ABUSE) HOSPITALS", "SOURCE": "http://publicapps.odh.ohio.gov/EID/Provider_Search.aspx", "SOURCEDATE": "2018-08-10T00:00:00.000Z", "VAL_METHOD": "IMAGERY/OTHER", "VAL_DATE": "2015-03-11T00:00:00.000Z", "WEBSITE": "http://cincinnati.selectspecialtyhospitals.com/", "STATE_ID": "1424", "ALT_NAME": "NOT AVAILABLE", "ST_FIPS": "39", "OWNER": "PROPRIETARY", "TTL_STAFF": -999, "BEDS": 36, "TRAUMA": "NOT AVAILABLE", "HELIPAD": "N" }, "geometry": { "type": "Polygon", "coordinates": [ [ [ -84.468018, 39.063263 ], [ -84.590907, 39.080531 ], [ -84.591048, 39.080703 ], [ -84.619433, 39.148708 ], [ -84.622959820555948, 39.180386661985629 ], [ -84.62204486209464, 39.190986664132254 ], [ -84.617023882302718, 39.194528664438323 ], [ -84.599843940143302, 39.203906665532969 ], [ -84.517048113853392, 39.223510670907601 ], [ -84.448895071487271, 39.220711696960699 ], [ -84.446107067303217, 39.220331698123317 ], [ -84.438265836703835, 39.213469295707824 ], [ -84.40303986189133, 39.170960262730844 ], [ -84.4320796, 39.10989389999996 ], [ -84.459518, 39.064624 ], [ -84.468018, 39.063263 ] ] ] } },
{ "type": "Feature", "properties": { "OBJECTID": 4206, "ID": "0128745219", "NAME": "REGENCY HOSPITAL OF CINCINNATI LLC", "ADDRESS": "10500 MONTGOMERY ROAD, 1ST FLOOR", "CITY": "CINCINNATI", "STATE": "OH", "ZIP": "45219", "ZIP4": "NOT AVAILABLE", "TELEPHONE": "(717) 975-4503", "TYPE": "LONG TERM CARE", "STATUS": "OPEN", "POPULATION": 41, "COUNTY": "HAMILTON", "COUNTYFIPS": "39061", "COUNTRY": "USA", "LATITUDE": 39.252247455000003, "LONGITUDE": -84.341354683999995, "NAICS_CODE": "622310", "NAICS_DESC": "SPECIALTY (EXCEPT PSYCHIATRIC AND SUBSTANCE ABUSE) HOSPITALS", "SOURCE": "http://publicapps.odh.ohio.gov/EID/Provider_Search.aspx", "SOURCEDATE": "2018-08-10T00:00:00.000Z", "VAL_METHOD": "IMAGERY/OTHER", "VAL_DATE": "2015-03-12T00:00:00.000Z", "WEBSITE": "http://cincinnatinorth.selectspecialtyhospitals.com/", "STATE_ID": "1463", "ALT_NAME": "SELECT SPECILATY HOSPITAL OF NORTH CINCINNATI", "ST_FIPS": "39", "OWNER": "PROPRIETARY", "TTL_STAFF": -999, "BEDS": 41, "TRAUMA": "NOT AVAILABLE", "HELIPAD": "Y" }, "geometry": { "type": "Polygon", "coordinates": [ [ [ -84.403641931615581, 39.161418751290768 ], [ -84.454103245813485, 39.211137885799289 ], [ -84.486057764424359, 39.295323534391613 ], [ -84.484679467625625, 39.29926723811267 ], [ -84.310533150270231, 39.344693861964643 ], [ -84.265407879903989, 39.355350247421612 ], [ -84.260415266658597, 39.268668039865283 ], [ -84.32517776119839, 39.195951322678461 ], [ -84.345405833741069, 39.180827691434956 ], [ -84.403641931615581, 39.161418751290768 ] ] ] } },
{ "type": "Feature", "properties": { "OBJECTID": 4207, "ID": "0129845417", "NAME": "HAVEN BEHAVIORAL SENIOR CARE OF DAYTON", "ADDRESS": "ONE ELIZABETH PLACE, E3 SUITE A", "CITY": "DAYTON", "STATE": "OH", "ZIP": "45417", "ZIP4": "NOT AVAILABLE", "TELEPHONE": "(615) 393-8879", "TYPE": "PSYCHIATRIC", "STATUS": "OPEN", "POPULATION": 32, "COUNTY": "MONTGOMERY", "COUNTYFIPS": "39113", "COUNTRY": "USA", "LATITUDE": 39.747739867000099, "LONGITUDE": -84.199397618999996, "NAICS_CODE": "622210", "NAICS_DESC": "PSYCHIATRIC AND SUBSTANCE ABUSE HOSPITALS", "SOURCE": "http://publicapps.odh.ohio.gov/EID/Provider_Search.aspx", "SOURCEDATE": "2018-08-10T00:00:00.000Z", "VAL_METHOD": "IMAGERY/OTHER", "VAL_DATE": "2015-03-12T00:00:00.000Z", "WEBSITE": "https://dayton.havenbehavioral.com/", "STATE_ID": "1506", "ALT_NAME": "NOT AVAILABLE", "ST_FIPS": "39", "OWNER": "PROPRIETARY", "TTL_STAFF": -999, "BEDS": 32, "TRAUMA": "NOT AVAILABLE", "HELIPAD": "N" }, "geometry": { "type": "Polygon", "coordinates": [ [ [ -84.2303103, 39.628868 ], [ -84.244387, 39.637346 ], [ -84.290746, 39.702507 ], [ -84.317691, 39.746221 ], [ -84.273971, 39.81578 ], [ -84.1886249, 39.86678449999998 ], [ -84.0786325, 39.793512799999988 ], [ -84.0649162, 39.732218299999943 ], [ -84.1280124, 39.6886578 ], [ -84.161492, 39.66605 ], [ -84.2303103, 39.628868 ] ] ] } },
{ "type": "Feature", "properties": { "OBJECTID": 4447, "ID": "0122045213", "NAME": "BLUERIDGE VISTA HEALTH AND WELLNESS", "ADDRESS": "5500 VERULAM AVENUE", "CITY": "CINCINNATI", "STATE": "OH", "ZIP": "45213", "ZIP4": "NOT AVAILABLE", "TELEPHONE": "(513) 531-6444", "TYPE": "PSYCHIATRIC", "STATUS": "OPEN", "POPULATION": -999, "COUNTY": "HAMILTON", "COUNTYFIPS": "39061", "COUNTRY": "USA", "LATITUDE": 39.173175836, "LONGITUDE": -84.429995207000005, "NAICS_CODE": "622210", "NAICS_DESC": "PSYCHIATRIC AND SUBSTANCE ABUSE HOSPITALS", "SOURCE": "http://publicapps.odh.ohio.gov/EID/Provider_Search.aspx", "SOURCEDATE": "2018-08-10T00:00:00.000Z", "VAL_METHOD": "IMAGERY/OTHER", "VAL_DATE": "2018-03-19T00:00:00.000Z", "WEBSITE": "http://www.blueridgevista.com/", "STATE_ID": "1529", "ALT_NAME": "BRIDGEWELL HOSPITAL OF CINCINNATI", "ST_FIPS": "39", "OWNER": "PROPRIETARY", "TTL_STAFF": -999, "BEDS": -999, "TRAUMA": "NOT AVAILABLE", "HELIPAD": "N" }, "geometry": { "type": "Polygon", "coordinates": [ [ [ -84.5064282, 39.099282200000019 ], [ -84.541326539640295, 39.152640538368658 ], [ -84.512486002461941, 39.218411668107606 ], [ -84.451295924236476, 39.236133709355592 ], [ -84.364069278689655, 39.25395078408193 ], [ -84.346273085309676, 39.227647163314465 ], [ -84.339618607340455, 39.205592932320144 ], [ -84.33987289369945, 39.201267725370165 ], [ -84.347354770765591, 39.160628659875783 ], [ -84.359869, 39.141904 ], [ -84.423848, 39.111673 ], [ -84.435932, 39.106966 ], [ -84.492697800000016, 39.099384 ], [ -84.5064282, 39.099282200000019 ] ] ] } },
{ "type": "Feature", "properties": { "OBJECTID": 4450, "ID": "0123145216", "NAME": "HEALTHSOUTH REHABILITATION HOSPITAL AT DRAKE", "ADDRESS": "151 WEST GALBRAITH ROAD", "CITY": "CINCINNATI", "STATE": "OH", "ZIP": "45216", "ZIP4": "NOT AVAILABLE", "TELEPHONE": "(513) 418-5655", "TYPE": "REHABILITATION", "STATUS": "OPEN", "POPULATION": 60, "COUNTY": "HAMILTON", "COUNTYFIPS": "39061", "COUNTRY": "USA", "LATITUDE": 39.212758671000103, "LONGITUDE": -84.480232563999905, "NAICS_CODE": "622310", "NAICS_DESC": "REHABILITATION HOSPITALS (EXCEPT ALCOHOLISM, DRUG ADDICTION)", "SOURCE": "http://publicapps.odh.ohio.gov/EID/Provider_Search.aspx", "SOURCEDATE": "2018-08-10T00:00:00.000Z", "VAL_METHOD": "IMAGERY/OTHER", "VAL_DATE": "2015-03-10T00:00:00.000Z", "WEBSITE": "http://www.healthsouthdrake.com/", "STATE_ID": "1502", "ALT_NAME": "NOT AVAILABLE", "ST_FIPS": "39", "OWNER": "PROPRIETARY", "TTL_STAFF": -999, "BEDS": 60, "TRAUMA": "NOT AVAILABLE", "HELIPAD": "N" }, "geometry": { "type": "Polygon", "coordinates": [ [ [ -84.532710100000017, 39.132912699999963 ], [ -84.535315, 39.133679 ], [ -84.538046, 39.134853 ], [ -84.5408219, 39.136174299999972 ], [ -84.566908021093866, 39.158393846129968 ], [ -84.64462967310169, 39.227385671694769 ], [ -84.625438036114332, 39.23785007401856 ], [ -84.559924286148032, 39.267089800284374 ], [ -84.487269259173544, 39.289997729470834 ], [ -84.466205938512587, 39.295450141231939 ], [ -84.428856184570222, 39.29040605212937 ], [ -84.42230797125444, 39.285163353079028 ], [ -84.35478568819596, 39.225742555496254 ], [ -84.355234275128097, 39.221538248995373 ], [ -84.40303986189133, 39.170960262730844 ], [ -84.416962832158276, 39.157331644470297 ], [ -84.422981827203628, 39.153886739909787 ], [ -84.441035, 39.144764 ], [ -84.4811008, 39.1364731 ], [ -84.4968914, 39.134884899999967 ], [ -84.532710100000017, 39.132912699999963 ] ] ] } },
{ "type": "Feature", "properties": { "OBJECTID": 4454, "ID": "0127445237", "NAME": "SUMMIT BEHAVIORAL HEALTHCARE", "ADDRESS": "1101 SUMMIT ROAD", "CITY": "CINCINNATI", "STATE": "OH", "ZIP": "45237", "ZIP4": "NOT AVAILABLE", "TELEPHONE": "(513) 948-3600", "TYPE": "PSYCHIATRIC", "STATUS": "OPEN", "POPULATION": -999, "COUNTY": "HAMILTON", "COUNTYFIPS": "39061", "COUNTRY": "USA", "LATITUDE": 39.19537129, "LONGITUDE": -84.470206876000006, "NAICS_CODE": "622210", "NAICS_DESC": "PSYCHIATRIC AND SUBSTANCE ABUSE HOSPITALS", "SOURCE": "http://publicapps.odh.ohio.gov/EID/Provider_Search.aspx", "SOURCEDATE": "2018-08-10T00:00:00.000Z", "VAL_METHOD": "IMAGERY/OTHER", "VAL_DATE": "2015-03-11T00:00:00.000Z", "WEBSITE": "http://mha.ohio.gov/Default.aspx?tabid=192", "STATE_ID": "NOT AVAILABLE", "ALT_NAME": "NOT AVAILABLE", "ST_FIPS": "39", "OWNER": "GOVERNMENT - STATE", "TTL_STAFF": -999, "BEDS": -999, "TRAUMA": "NOT AVAILABLE", "HELIPAD": "N" }, "geometry": { "type": "Polygon", "coordinates": [ [ [ -84.5331282, 39.10410449999997 ], [ -84.581639786846921, 39.155045647948064 ], [ -84.620455706204098, 39.228434572166876 ], [ -84.46256873279529, 39.294633341945335 ], [ -84.428856184570222, 39.29040605212937 ], [ -84.364069278689655, 39.25395078408193 ], [ -84.346273085309676, 39.227647163314465 ], [ -84.348111967626593, 39.221547752909991 ], [ -84.387932811553313, 39.16024665252251 ], [ -84.4046396, 39.147896700000018 ], [ -84.415065, 39.140506 ], [ -84.430864, 39.131088 ], [ -84.4442814, 39.126382 ], [ -84.5013192, 39.110852100000045 ], [ -84.5279693, 39.1042074 ], [ -84.5331282, 39.10410449999997 ] ] ] } },
{ "type": "Feature", "properties": { "OBJECTID": 4455, "ID": "0128345040", "NAME": "LINDNER CENTER OF HOPE", "ADDRESS": "4075 OLD WESTERN ROW ROAD", "CITY": "MASON", "STATE": "OH", "ZIP": "45040", "ZIP4": "NOT AVAILABLE", "TELEPHONE": "(513) 536-4673", "TYPE": "PSYCHIATRIC", "STATUS": "OPEN", "POPULATION": 34, "COUNTY": "WARREN", "COUNTYFIPS": "39165", "COUNTRY": "USA", "LATITUDE": 39.331523087999997, "LONGITUDE": -84.294586307000003, "NAICS_CODE": "622210", "NAICS_DESC": "PSYCHIATRIC AND SUBSTANCE ABUSE HOSPITALS", "SOURCE": "http://publicapps.odh.ohio.gov/EID/Provider_Search.aspx", "SOURCEDATE": "2018-08-10T00:00:00.000Z", "VAL_METHOD": "IMAGERY/OTHER", "VAL_DATE": "2015-03-11T00:00:00.000Z", "WEBSITE": "http://lindnercenterofhope.org/", "STATE_ID": "1481", "ALT_NAME": "NOT AVAILABLE", "ST_FIPS": "39", "OWNER": "NON-PROFIT", "TTL_STAFF": -999, "BEDS": 34, "TRAUMA": "NOT AVAILABLE", "HELIPAD": "N" }, "geometry": { "type": "Polygon", "coordinates": [ [ [ -84.366111263060603, 39.24523647663014 ], [ -84.367339079738088, 39.250002182493624 ], [ -84.376678416664305, 39.289244772165915 ], [ -84.383799148546203, 39.320634868421081 ], [ -84.383582264751283, 39.343446767712486 ], [ -84.374619058278483, 39.354730365885757 ], [ -84.361651445535415, 39.368671460728379 ], [ -84.336107308540235, 39.382921347347789 ], [ -84.329443598139363, 39.386400442959442 ], [ -84.305506, 39.398327 ], [ -84.305034, 39.398466 ], [ -84.206029, 39.411474 ], [ -84.204624, 39.411385 ], [ -84.204386, 39.411365 ], [ -84.203663, 39.411211 ], [ -84.2009811, 39.4036829 ], [ -84.204503023506561, 39.383647665128194 ], [ -84.22078298102511, 39.315028722536361 ], [ -84.275413984535675, 39.271165829001944 ], [ -84.283701993378799, 39.265987829034927 ], [ -84.366111263060603, 39.24523647663014 ] ] ] } },
{ "type": "Feature", "properties": { "OBJECTID": 305, "ID": "0017545409", "NAME": "MIAMI VALLEY HOSPITAL", "ADDRESS": "ONE WYOMING STREET", "CITY": "DAYTON", "STATE": "OH", "ZIP": "45409", "ZIP4": "NOT AVAILABLE", "TELEPHONE": "(937) 208-8000", "TYPE": "GENERAL ACUTE CARE", "STATUS": "OPEN", "POPULATION": 883, "COUNTY": "MONTGOMERY", "COUNTYFIPS": "39113", "COUNTRY": "USA", "LATITUDE": 39.7448932040001, "LONGITUDE": -84.185908608000005, "NAICS_CODE": "622110", "NAICS_DESC": "GENERAL MEDICAL AND SURGICAL HOSPITALS", "SOURCE": "http://publicapps.odh.ohio.gov/EID/Provider_Search.aspx", "SOURCEDATE": "2018-08-10T00:00:00.000Z", "VAL_METHOD": "IMAGERY", "VAL_DATE": "2014-03-12T00:00:00.000Z", "WEBSITE": "http://www.miamivalleyhospital.org", "STATE_ID": "1247", "ALT_NAME": "NOT AVAILABLE", "ST_FIPS": "39", "OWNER": "NON-PROFIT", "TTL_STAFF": -999, "BEDS": 883, "TRAUMA": "LEVEL I", "HELIPAD": "Y" }, "geometry": { "type": "Polygon", "coordinates": [ [ [ -84.2313774, 39.635321299999973 ], [ -84.2410996, 39.640644100000017 ], [ -84.26095, 39.668 ], [ -84.3095926, 39.746286400000024 ], [ -84.274547, 39.790469 ], [ -84.238242, 39.821526 ], [ -84.1894246, 39.856946600000022 ], [ -84.095596, 39.804676 ], [ -84.084593899999987, 39.796527799999957 ], [ -84.0649162, 39.732218299999943 ], [ -84.064834, 39.729946 ], [ -84.120729, 39.678868 ], [ -84.15763, 39.658938 ], [ -84.2313774, 39.635321299999973 ] ] ] } },
{ "type": "Feature", "properties": { "OBJECTID": 542, "ID": "0010041042", "NAME": "ST. ELIZABETH FLORENCE", "ADDRESS": "4900 HOUSTON ROAD", "CITY": "FLORENCE", "STATE": "KY", "ZIP": "41042", "ZIP4": "NOT AVAILABLE", "TELEPHONE": "(859) 962-5200", "TYPE": "GENERAL ACUTE CARE", "STATUS": "OPEN", "POPULATION": 161, "COUNTY": "BOONE", "COUNTYFIPS": "21015", "COUNTRY": "USA", "LATITUDE": 39.016591818000101, "LONGITUDE": -84.630767204999998, "NAICS_CODE": "622110", "NAICS_DESC": "GENERAL MEDICAL AND SURGICAL HOSPITALS", "SOURCE": "https://chfs.ky.gov/agencies/os/oig/dhc/Documents/Directories/Hospital_Directory.pdf", "SOURCEDATE": "2018-08-11T00:00:00.000Z", "VAL_METHOD": "IMAGERY", "VAL_DATE": "2014-02-10T00:00:00.000Z", "WEBSITE": "http://www.stelizabeth.com", "STATE_ID": "100273", "ALT_NAME": "NOT AVAILABLE", "ST_FIPS": "21", "OWNER": "NON-PROFIT", "TTL_STAFF": -999, "BEDS": 161, "TRAUMA": "NOT AVAILABLE", "HELIPAD": "Y" }, "geometry": { "type": "Polygon", "coordinates": [ [ [ -84.6246011, 38.8718078 ], [ -84.628988, 38.874443 ], [ -84.652656, 38.899004 ], [ -84.691995, 38.943749 ], [ -84.7333499, 39.027289 ], [ -84.7302736, 39.034559699999981 ], [ -84.7048444, 39.053617199999977 ], [ -84.6666616, 39.081032399999977 ], [ -84.520781500000012, 39.0853584 ], [ -84.511811, 39.077196 ], [ -84.4917967, 39.012019199999955 ], [ -84.491777, 39.00965 ], [ -84.492849, 39.007574 ], [ -84.6246011, 38.8718078 ] ] ] } },
{ "type": "Feature", "properties": { "OBJECTID": 7208, "ID": "0009941017", "NAME": "ST. ELIZABETH EDGEWOOD", "ADDRESS": "1 MEDICAL VILLAGE DR.", "CITY": "EDGEWOOD", "STATE": "KY", "ZIP": "41017", "ZIP4": "NOT AVAILABLE", "TELEPHONE": "(859) 344-2000", "TYPE": "GENERAL ACUTE CARE", "STATUS": "OPEN", "POPULATION": 480, "COUNTY": "KENTON", "COUNTYFIPS": "21117", "COUNTRY": "USA", "LATITUDE": 39.013178162000003, "LONGITUDE": -84.562789718999994, "NAICS_CODE": "622110", "NAICS_DESC": "GENERAL MEDICAL AND SURGICAL HOSPITALS", "SOURCE": "https://chfs.ky.gov/agencies/os/oig/dhc/Documents/Directories/Hospital_Directory.pdf", "SOURCEDATE": "2018-08-11T00:00:00.000Z", "VAL_METHOD": "IMAGERY/OTHER", "VAL_DATE": "2014-02-10T00:00:00.000Z", "WEBSITE": "http://www.stelizabeth.com", "STATE_ID": "100500", "ALT_NAME": "NOT AVAILABLE", "ST_FIPS": "21", "OWNER": "NON-PROFIT", "TTL_STAFF": -999, "BEDS": 480, "TRAUMA": "NOT AVAILABLE", "HELIPAD": "Y" }, "geometry": { "type": "Polygon", "coordinates": [ [ [ -84.5931664, 38.949124900000015 ], [ -84.6066796, 38.963726200000018 ], [ -84.6105982, 38.9681174 ], [ -84.625164, 39.012409 ], [ -84.619875, 39.036648 ], [ -84.619127, 39.038614 ], [ -84.6048812, 39.060179200000022 ], [ -84.6012539, 39.064139400000045 ], [ -84.588248, 39.06832 ], [ -84.519736, 39.079723 ], [ -84.51631, 39.079226 ], [ -84.5126638, 39.076926799999988 ], [ -84.497113, 39.062063 ], [ -84.491774, 39.041649 ], [ -84.490753, 39.008161 ], [ -84.49183, 38.997021 ], [ -84.494132, 38.992347 ], [ -84.5297399, 38.970965 ], [ -84.5931664, 38.949124900000015 ] ] ] } },
{ "type": "Feature", "properties": { "OBJECTID": 7216, "ID": "0002741042", "NAME": "GATEWAY REHABILITATION HOSPITAL AT FLORENCE", "ADDRESS": "5940 MERCHANT STREET", "CITY": "FLORENCE", "STATE": "KY", "ZIP": "41042", "ZIP4": "NOT AVAILABLE", "TELEPHONE": "(859) 426-2400", "TYPE": "REHABILITATION", "STATUS": "OPEN", "POPULATION": 40, "COUNTY": "BOONE", "COUNTYFIPS": "21015", "COUNTRY": "USA", "LATITUDE": 39.008040398, "LONGITUDE": -84.655139219000006, "NAICS_CODE": "622110", "NAICS_DESC": "GENERAL MEDICAL AND SURGICAL HOSPITALS", "SOURCE": "https://chfs.ky.gov/agencies/os/oig/dhc/Documents/Directories/Hospital_Directory.pdf", "SOURCEDATE": "2018-08-11T00:00:00.000Z", "VAL_METHOD": "IMAGERY", "VAL_DATE": "2013-12-18T00:00:00.000Z", "WEBSITE": "http://www.gatewayflorence.com/", "STATE_ID": "100928", "ALT_NAME": "NOT AVAILABLE", "ST_FIPS": "21", "OWNER": "PROPRIETARY", "TTL_STAFF": -999, "BEDS": 40, "TRAUMA": "NOT AVAILABLE", "HELIPAD": "N" }, "geometry": { "type": "Polygon", "coordinates": [ [ [ -84.6246011, 38.8718078 ], [ -84.628988, 38.874443 ], [ -84.652656, 38.899004 ], [ -84.691995, 38.943749 ], [ -84.75176070000002, 39.026640200000031 ], [ -84.744877, 39.040796 ], [ -84.70264, 39.070145 ], [ -84.655783, 39.074545 ], [ -84.5366501, 39.063445900000019 ], [ -84.531855, 39.060548 ], [ -84.5117062, 39.0219902 ], [ -84.510251200000013, 39.0183162 ], [ -84.6246011, 38.8718078 ] ] ] } },
{ "type": "Feature", "properties": { "OBJECTID": 7440, "ID": "0000000024", "NAME": "88TH MEDICAL GROUP - WRIGHT-PATTERSON AIR FORCE BASE MEDICAL CENTER", "ADDRESS": "4881 SUGAR MAPLE DR", "CITY": "WRIGHT PATTERSON AFB", "STATE": "OH", "ZIP": "45433", "ZIP4": "NOT AVAILABLE", "TELEPHONE": "NOT AVAILABLE", "TYPE": "MILITARY", "STATUS": "OPEN", "POPULATION": -999, "COUNTY": "GREENE", "COUNTYFIPS": "39057", "COUNTRY": "USA", "LATITUDE": 39.8053478470001, "LONGITUDE": -84.037407127999998, "NAICS_CODE": "622110", "NAICS_DESC": "GENERAL MEDICAL AND SURGICAL HOSPITALS", "SOURCE": "http://www.tricare.mil/mtf", "SOURCEDATE": "2019-04-02T00:00:00.000Z", "VAL_METHOD": "IMAGERY/OTHER", "VAL_DATE": "2015-07-28T00:00:00.000Z", "WEBSITE": "http://www.wpafb.af.mil/units/wpmc/index.asp", "STATE_ID": "NOT AVAILABLE", "ALT_NAME": "NOT AVAILABLE", "ST_FIPS": "39", "OWNER": "GOVERNMENT - FEDERAL", "TTL_STAFF": -999, "BEDS": -999, "TRAUMA": "NOT AVAILABLE", "HELIPAD": "N" }, "geometry": { "type": "Polygon", "coordinates": [ [ [ -84.0586795, 39.72393179999996 ], [ -84.0905801, 39.729048299999988 ], [ -84.1647554, 39.7758877 ], [ -84.1643813, 39.7816633 ], [ -84.144668, 39.801888 ], [ -84.142474, 39.804065 ], [ -84.141601, 39.804928 ], [ -84.0570481, 39.8727059 ], [ -84.053638, 39.874688 ], [ -84.032139, 39.872175 ], [ -83.965103, 39.861487 ], [ -83.964503, 39.860964 ], [ -83.953125, 39.822104 ], [ -83.9493966, 39.807190499999983 ], [ -83.944396, 39.784783 ], [ -83.9873178, 39.7475069 ], [ -84.0518763, 39.726103599999981 ], [ -84.0586795, 39.72393179999996 ] ] ] } },
{ "type": "Feature", "properties": { "OBJECTID": 5168, "ID": "0030245040", "NAME": "CINCINNATI CHILDREN'S HOSPITAL MEDICAL CENTER AT LINDNER CENTER", "ADDRESS": "4075 OLD WESTERN ROW ROAD", "CITY": "MASON", "STATE": "OH", "ZIP": "45040", "ZIP4": "NOT AVAILABLE", "TELEPHONE": "(513) 636-4200", "TYPE": "PSYCHIATRIC", "STATUS": "OPEN", "POPULATION": 16, "COUNTY": "WARREN", "COUNTYFIPS": "39165", "COUNTRY": "USA", "LATITUDE": 39.331130477000002, "LONGITUDE": -84.295407220999905, "NAICS_CODE": "622210", "NAICS_DESC": "CHILDREN'S HOSPITALS, PSYCHIATRIC OR SUBSTANCE ABUSE", "SOURCE": "http://publicapps.odh.ohio.gov/EID/Provider_Search.aspx", "SOURCEDATE": "2018-08-10T00:00:00.000Z", "VAL_METHOD": "IMAGERY/OTHER", "VAL_DATE": "2016-09-22T00:00:00.000Z", "WEBSITE": "https://www.cincinnatichildrens.org/service/p/psychiatry/", "STATE_ID": "1500", "ALT_NAME": "NOT AVAILABLE", "ST_FIPS": "39", "OWNER": "NON-PROFIT", "TTL_STAFF": -999, "BEDS": 16, "TRAUMA": "LEVEL I PEDIATRIC", "HELIPAD": "N" }, "geometry": { "type": "Polygon", "coordinates": [ [ [ -84.366111263060603, 39.24523647663014 ], [ -84.367339079738088, 39.250002182493624 ], [ -84.376678416664305, 39.289244772165915 ], [ -84.383799148546203, 39.320634868421081 ], [ -84.383582264751283, 39.343446767712486 ], [ -84.374619058278483, 39.354730365885757 ], [ -84.361651445535415, 39.368671460728379 ], [ -84.336107308540235, 39.382921347347789 ], [ -84.329443598139363, 39.386400442959442 ], [ -84.305506, 39.398327 ], [ -84.305034, 39.398466 ], [ -84.206029, 39.411474 ], [ -84.204624, 39.411385 ], [ -84.204386, 39.411365 ], [ -84.203663, 39.411211 ], [ -84.2009811, 39.4036829 ], [ -84.204503023506561, 39.383647665128194 ], [ -84.22078298102511, 39.315028722536361 ], [ -84.275413984535675, 39.271165829001944 ], [ -84.283701993378799, 39.265987829034927 ], [ -84.366111263060603, 39.24523647663014 ] ] ] } },
{ "type": "Feature", "properties": { "OBJECTID": 5232, "ID": "0010845428", "NAME": "DAYTON VA MEDICAL CENTER", "ADDRESS": "4100 WEST THIRD STREET", "CITY": "DAYTON", "STATE": "OH", "ZIP": "45428", "ZIP4": "NOT AVAILABLE", "TELEPHONE": "(937) 268-6511", "TYPE": "MILITARY", "STATUS": "OPEN", "POPULATION": 460, "COUNTY": "MONTGOMERY", "COUNTYFIPS": "39113", "COUNTRY": "USA", "LATITUDE": 39.742656683000099, "LONGITUDE": -84.264584560999893, "NAICS_CODE": "622110", "NAICS_DESC": "GENERAL MEDICAL AND SURGICAL HOSPITALS", "SOURCE": "http://publicapps.odh.ohio.gov/EID/Provider_Search.aspx", "SOURCEDATE": "2018-08-10T00:00:00.000Z", "VAL_METHOD": "IMAGERY", "VAL_DATE": "2014-02-10T00:00:00.000Z", "WEBSITE": "http://www.dayton.va.gov/", "STATE_ID": "36007F", "ALT_NAME": "NOT AVAILABLE", "ST_FIPS": "39", "OWNER": "GOVERNMENT - FEDERAL", "TTL_STAFF": -999, "BEDS": 460, "TRAUMA": "LEVEL II", "HELIPAD": "Y" }, "geometry": { "type": "Polygon", "coordinates": [ [ [ -84.2903196, 39.6694991 ], [ -84.30849, 39.67138 ], [ -84.313218, 39.673175 ], [ -84.374445, 39.745716 ], [ -84.291282, 39.827631 ], [ -84.189755300000016, 39.8006829 ], [ -84.187005, 39.799688 ], [ -84.155307, 39.781714799999982 ], [ -84.1252592, 39.7470386 ], [ -84.22078, 39.6864 ], [ -84.2257244, 39.683605199999981 ], [ -84.2287109, 39.6820013 ], [ -84.2903196, 39.6694991 ] ] ] } },
{ "type": "Feature", "properties": { "OBJECTID": 5397, "ID": "0000000095", "NAME": "CINCINNATI CHILDREN'S LIBERTY", "ADDRESS": "7777 YANKEE RD", "CITY": "MIDDLETOWN", "STATE": "OH", "ZIP": "45044", "ZIP4": "NOT AVAILABLE", "TELEPHONE": "(513) 636-4200", "TYPE": "CHILDREN", "STATUS": "OPEN", "POPULATION": 42, "COUNTY": "BUTLER", "COUNTYFIPS": "39017", "COUNTRY": "USA", "LATITUDE": 39.376577246000103, "LONGITUDE": -84.367944092999906, "NAICS_CODE": "622310", "NAICS_DESC": "CHILDREN'S HOSPITALS, SPECIALTY (EXCEPT PSYCHIATRIC, SUBSTANCE ABUSE)", "SOURCE": "http://publicapps.odh.ohio.gov/EID/Provider_Search.aspx", "SOURCEDATE": "2018-08-10T00:00:00.000Z", "VAL_METHOD": "IMAGERY/OTHER", "VAL_DATE": "2015-05-22T00:00:00.000Z", "WEBSITE": "http://www.cincinnatichildrens.org/", "STATE_ID": "1492", "ALT_NAME": "CHILDREN'S HOSPITAL MEDICAL CENTER LIBERTY CAMPUS", "ST_FIPS": "39", "OWNER": "NON-PROFIT", "TTL_STAFF": -999, "BEDS": 42, "TRAUMA": "NOT AVAILABLE", "HELIPAD": "Y" }, "geometry": { "type": "Polygon", "coordinates": [ [ [ -84.445053430137989, 39.313821657386612 ], [ -84.454779147264844, 39.316876257346379 ], [ -84.537006310758699, 39.390212829009492 ], [ -84.533223314336894, 39.392406330368459 ], [ -84.501720136774651, 39.408979038606908 ], [ -84.451037, 39.429818600000011 ], [ -84.3886348, 39.447629900000017 ], [ -84.3596658, 39.447498499999988 ], [ -84.3583341, 39.446830699999978 ], [ -84.305034, 39.398466 ], [ -84.30114504058983, 39.363171747724479 ], [ -84.3141540562914, 39.34555876171067 ], [ -84.326496872409464, 39.337292967031424 ], [ -84.362135714646726, 39.316528072024795 ], [ -84.36718262117509, 39.315465671396289 ], [ -84.375218531681242, 39.314114270172873 ], [ -84.413397384736783, 39.313052563026744 ], [ -84.445053430137989, 39.313821657386612 ] ] ] } },
{ "type": "Feature", "properties": { "OBJECTID": 5399, "ID": "0000000090", "NAME": "BETHESDA ARROW SPRINGS-ER", "ADDRESS": "100 ARROW SPRINGS BLVD", "CITY": "LEBANON", "STATE": "OH", "ZIP": "45036", "ZIP4": "NOT AVAILABLE", "TELEPHONE": "(513) 282-7000", "TYPE": "GENERAL ACUTE CARE", "STATUS": "CLOSED", "POPULATION": -999, "COUNTY": "WARREN", "COUNTYFIPS": "39165", "COUNTRY": "USA", "LATITUDE": 39.395222955000101, "LONGITUDE": -84.209427548999898, "NAICS_CODE": "622110", "NAICS_DESC": "GENERAL MEDICAL AND SURGICAL HOSPITALS", "SOURCE": "http://publicapps.odh.ohio.gov", "SOURCEDATE": "2015-03-03T00:00:00.000Z", "VAL_METHOD": "IMAGERY/OTHER", "VAL_DATE": "2015-05-22T00:00:00.000Z", "WEBSITE": "http://www.trihealth.com/hospitals-and-practices/bethesda-arrow-springs/", "STATE_ID": "NOT AVAILABLE", "ALT_NAME": "NOT AVAILABLE", "ST_FIPS": "39", "OWNER": "NOT AVAILABLE", "TTL_STAFF": -999, "BEDS": -999, "TRAUMA": "NOT AVAILABLE", "HELIPAD": "Y" }, "geometry": { "type": "Polygon", "coordinates": [ [ [ -84.31501803693159, 39.28693879774071 ], [ -84.31613803849352, 39.287334797040835 ], [ -84.321497246127706, 39.289471593660863 ], [ -84.32259014891342, 39.292983591305976 ], [ -84.323735068163074, 39.337306766981406 ], [ -84.319289371325993, 39.363873851578482 ], [ -84.315784471284289, 39.380247740797849 ], [ -84.278954, 39.442781 ], [ -84.240553, 39.470963 ], [ -84.200114, 39.494215 ], [ -84.142183, 39.497468 ], [ -84.141413, 39.497404 ], [ -84.131783, 39.492479 ], [ -84.071948, 39.429833 ], [ -84.210224985016595, 39.299309703586438 ], [ -84.31501803693159, 39.28693879774071 ] ] ] } },
{ "type": "Feature", "properties": { "OBJECTID": 5892, "ID": "0015245069", "NAME": "WEST CHESTER MEDICAL CENTER", "ADDRESS": "7700 UNIVERSITY DRIVE", "CITY": "WEST CHESTER", "STATE": "OH", "ZIP": "45069", "ZIP4": "NOT AVAILABLE", "TELEPHONE": "(513) 298-3000", "TYPE": "GENERAL ACUTE CARE", "STATUS": "OPEN", "POPULATION": 194, "COUNTY": "BUTLER", "COUNTYFIPS": "39017", "COUNTRY": "USA", "LATITUDE": 39.358023873, "LONGITUDE": -84.367564951000006, "NAICS_CODE": "622110", "NAICS_DESC": "GENERAL MEDICAL AND SURGICAL HOSPITALS", "SOURCE": "http://publicapps.odh.ohio.gov/EID/Provider_Search.aspx", "SOURCEDATE": "2018-08-10T00:00:00.000Z", "VAL_METHOD": "IMAGERY", "VAL_DATE": "2014-03-12T00:00:00.000Z", "WEBSITE": "http://uchealth.com/westchesterhospital/", "STATE_ID": "1486", "ALT_NAME": "NOT AVAILABLE", "ST_FIPS": "39", "OWNER": "NON-PROFIT", "TTL_STAFF": -999, "BEDS": 194, "TRAUMA": "LEVEL III", "HELIPAD": "Y" }, "geometry": { "type": "Polygon", "coordinates": [ [ [ -84.397014140729809, 39.286782763996904 ], [ -84.465291748497322, 39.305045147877436 ], [ -84.475732177077887, 39.316767353961936 ], [ -84.511528205674509, 39.386507619321058 ], [ -84.463763561253089, 39.404261312496587 ], [ -84.384088, 39.4297263 ], [ -84.3634397, 39.421162600000031 ], [ -84.287945522091292, 39.380870229709032 ], [ -84.283679709940074, 39.356015949914479 ], [ -84.284716807975016, 39.33670206690195 ], [ -84.284728807974659, 39.336603066988211 ], [ -84.285051308263348, 39.335525067926284 ], [ -84.313535244056879, 39.312994082041492 ], [ -84.353699088977905, 39.292309080294935 ], [ -84.359414095018721, 39.290003778750666 ], [ -84.397014140729809, 39.286782763996904 ] ] ] } },
{ "type": "Feature", "properties": { "OBJECTID": 5893, "ID": "0008845011", "NAME": "BETHESDA BUTLER HOSPITAL", "ADDRESS": "3125 HAMILTON MASON ROAD", "CITY": "HAMILTON", "STATE": "OH", "ZIP": "45011", "ZIP4": "NOT AVAILABLE", "TELEPHONE": "(513) 894-8888", "TYPE": "GENERAL ACUTE CARE", "STATUS": "OPEN", "POPULATION": 10, "COUNTY": "BUTLER", "COUNTYFIPS": "39017", "COUNTRY": "USA", "LATITUDE": 39.378343266000101, "LONGITUDE": -84.515082202000002, "NAICS_CODE": "622110", "NAICS_DESC": "GENERAL MEDICAL AND SURGICAL HOSPITALS", "SOURCE": "http://publicapps.odh.ohio.gov/EID/Provider_Search.aspx", "SOURCEDATE": "2018-08-10T00:00:00.000Z", "VAL_METHOD": "IMAGERY", "VAL_DATE": "2014-02-04T00:00:00.000Z", "WEBSITE": "http://www.trihealth.com/hospitals-and-practices/bethesda-butler/", "STATE_ID": "1457", "ALT_NAME": "BUTLER COUNTY MEDICAL CENTER", "ST_FIPS": "39", "OWNER": "NON-PROFIT", "TTL_STAFF": -999, "BEDS": 10, "TRAUMA": "NOT AVAILABLE", "HELIPAD": "Y" }, "geometry": { "type": "Polygon", "coordinates": [ [ [ -84.503808675494312, 39.292168926698437 ], [ -84.529158665402363, 39.298253933320517 ], [ -84.575400608648138, 39.337877679274598 ], [ -84.60867451296987, 39.391553747652438 ], [ -84.60901824705752, 39.407001866281931 ], [ -84.597479100000015, 39.425595299999983 ], [ -84.5964213, 39.4259185 ], [ -84.593196, 39.426817100000044 ], [ -84.5792037, 39.4298189 ], [ -84.5339662, 39.4391635 ], [ -84.4210075, 39.450864499999987 ], [ -84.4208286, 39.450863600000019 ], [ -84.35831983907778, 39.367372160111167 ], [ -84.371247054824806, 39.357856564907777 ], [ -84.474470257731866, 39.302332743508238 ], [ -84.503808675494312, 39.292168926698437 ] ] ] } },
{ "type": "Feature", "properties": { "OBJECTID": 5895, "ID": "0013645013", "NAME": "FORT HAMILTON HUGHES MEMORIAL HOSPITAL", "ADDRESS": "630 EATON AVENUE", "CITY": "HAMILTON", "STATE": "OH", "ZIP": "45013", "ZIP4": "NOT AVAILABLE", "TELEPHONE": "(513) 867-2000", "TYPE": "GENERAL ACUTE CARE", "STATUS": "OPEN", "POPULATION": 274, "COUNTY": "BUTLER", "COUNTYFIPS": "39017", "COUNTRY": "USA", "LATITUDE": 39.415548233000003, "LONGITUDE": -84.572707011000006, "NAICS_CODE": "622110", "NAICS_DESC": "GENERAL MEDICAL AND SURGICAL HOSPITALS", "SOURCE": "http://publicapps.odh.ohio.gov/EID/Provider_Search.aspx", "SOURCEDATE": "2018-08-10T00:00:00.000Z", "VAL_METHOD": "IMAGERY/OTHER", "VAL_DATE": "2014-03-12T00:00:00.000Z", "WEBSITE": "http://www.khnetwork.org/fort_hamilton", "STATE_ID": "1117", "ALT_NAME": "NOT AVAILABLE", "ST_FIPS": "39", "OWNER": "NON-PROFIT", "TTL_STAFF": -999, "BEDS": 274, "TRAUMA": "NOT AVAILABLE", "HELIPAD": "Y" }, "geometry": { "type": "Polygon", "coordinates": [ [ [ -84.559990417699112, 39.33929237897464 ], [ -84.597335433174052, 39.35382850062576 ], [ -84.6647899028886, 39.387737156097053 ], [ -84.667697750662711, 39.405690380704797 ], [ -84.6652028, 39.441959699999956 ], [ -84.6350709, 39.4722079 ], [ -84.5877205, 39.479076400000011 ], [ -84.5490741, 39.475021800000015 ], [ -84.505362, 39.457291899999987 ], [ -84.4756078, 39.416510399999986 ], [ -84.454715217712419, 39.380505493665559 ], [ -84.497254868347696, 39.36198389265418 ], [ -84.540252037525946, 39.346338383917825 ], [ -84.559990417699112, 39.33929237897464 ] ] ] } },
{ "type": "Feature", "properties": { "OBJECTID": 5897, "ID": "0126645069", "NAME": "BECKETT SPRINGS", "ADDRESS": "8614 SHEPHERD FARM DRIVE", "CITY": "WEST CHESTER", "STATE": "OH", "ZIP": "45069", "ZIP4": "NOT AVAILABLE", "TELEPHONE": "(502) 583-4446", "TYPE": "PSYCHIATRIC", "STATUS": "OPEN", "POPULATION": 72, "COUNTY": "BUTLER", "COUNTYFIPS": "39017", "COUNTRY": "USA", "LATITUDE": 39.343725431000102, "LONGITUDE": -84.455905118999993, "NAICS_CODE": "622210", "NAICS_DESC": "PSYCHIATRIC AND SUBSTANCE ABUSE HOSPITALS", "SOURCE": "http://publicapps.odh.ohio.gov/EID/Provider_Search.aspx", "SOURCEDATE": "2018-08-10T00:00:00.000Z", "VAL_METHOD": "IMAGERY/OTHER", "VAL_DATE": "2015-03-11T00:00:00.000Z", "WEBSITE": "http://www.beckettsprings.com/", "STATE_ID": "1510", "ALT_NAME": "NOT AVAILABLE", "ST_FIPS": "39", "OWNER": "PROPRIETARY", "TTL_STAFF": -999, "BEDS": 72, "TRAUMA": "NOT AVAILABLE", "HELIPAD": "N" }, "geometry": { "type": "Polygon", "coordinates": [ [ [ -84.446114201518128, 39.285464543077524 ], [ -84.504880274727412, 39.292216726762085 ], [ -84.523801974622316, 39.301702136635924 ], [ -84.534215384384183, 39.312240347902261 ], [ -84.552230617175468, 39.337194475772748 ], [ -84.562054941457518, 39.352670493871038 ], [ -84.556583025102114, 39.398311442426774 ], [ -84.4506899, 39.436426400000038 ], [ -84.4268654, 39.443830200000036 ], [ -84.370843776143047, 39.391403660127054 ], [ -84.353038830227774, 39.367620458611142 ], [ -84.345456111232195, 39.355887760715063 ], [ -84.345118107329753, 39.34940276297985 ], [ -84.357708008952301, 39.317598272466633 ], [ -84.362985414406694, 39.314157472378682 ], [ -84.365122616625371, 39.312869172235672 ], [ -84.37507042715508, 39.307748970864218 ], [ -84.429114381979659, 39.287393750965443 ], [ -84.42974458267885, 39.28728995067133 ], [ -84.445282200411256, 39.285408743402797 ], [ -84.446114201518128, 39.285464543077524 ] ] ] } },
{ "type": "Feature", "properties": { "OBJECTID": 3023, "ID": "0130345408", "NAME": "HEALTHSOUTH REHABILITATION HOSPITAL DAYTON", "ADDRESS": "ONE ELIZABETH PLACE", "CITY": "DAYTON", "STATE": "OH", "ZIP": "45417", "ZIP4": "NOT AVAILABLE", "TELEPHONE": "(937) 424-8200", "TYPE": "REHABILITATION", "STATUS": "OPEN", "POPULATION": 50, "COUNTY": "MONTGOMERY", "COUNTYFIPS": "39113", "COUNTRY": "USA", "LATITUDE": 39.748243586999997, "LONGITUDE": -84.199992718000004, "NAICS_CODE": "622310", "NAICS_DESC": "REHABILITATION HOSPITALS (EXCEPT ALCOHOLISM, DRUG ADDICTION)", "SOURCE": "http://publicapps.odh.ohio.gov/EID/Provider_Search.aspx", "SOURCEDATE": "2018-08-10T00:00:00.000Z", "VAL_METHOD": "IMAGERY/OTHER", "VAL_DATE": "2015-03-12T00:00:00.000Z", "WEBSITE": "http://www.healthsouthdayton.com/", "STATE_ID": "1461", "ALT_NAME": "RELIANT REHABILITATION", "ST_FIPS": "39", "OWNER": "PROPRIETARY", "TTL_STAFF": -999, "BEDS": 50, "TRAUMA": "NOT AVAILABLE", "HELIPAD": "N" }, "geometry": { "type": "Polygon", "coordinates": [ [ [ -84.2303103, 39.628868 ], [ -84.2435928, 39.6406132 ], [ -84.290742, 39.697488 ], [ -84.317691, 39.746221 ], [ -84.273971, 39.81578 ], [ -84.1886249, 39.86678449999998 ], [ -84.0786325, 39.793512799999988 ], [ -84.0649162, 39.732218299999943 ], [ -84.131953, 39.688853 ], [ -84.2303103, 39.628868 ] ] ] } },
{ "type": "Feature", "properties": { "OBJECTID": 3029, "ID": "0029745439", "NAME": "KETTERING YOUTH SERVICES", "ADDRESS": "5350 LAMME ROAD", "CITY": "DAYTON", "STATE": "OH", "ZIP": "45439", "ZIP4": "NOT AVAILABLE", "TELEPHONE": "(937) 534-4600", "TYPE": "PSYCHIATRIC", "STATUS": "OPEN", "POPULATION": 60, "COUNTY": "MONTGOMERY", "COUNTYFIPS": "39113", "COUNTRY": "USA", "LATITUDE": 39.675395681000097, "LONGITUDE": -84.211010728000005, "NAICS_CODE": "622210", "NAICS_DESC": "PSYCHIATRIC AND SUBSTANCE ABUSE HOSPITALS", "SOURCE": "http://publicapps.odh.ohio.gov/EID/Provider_Search.aspx", "SOURCEDATE": "2018-08-10T00:00:00.000Z", "VAL_METHOD": "IMAGERY/OTHER", "VAL_DATE": "2016-09-21T00:00:00.000Z", "WEBSITE": "http://ketteringhealth.org/mentalhealth/", "STATE_ID": "1525", "ALT_NAME": "NOT AVAILABLE", "ST_FIPS": "39", "OWNER": "NON-PROFIT", "TTL_STAFF": -999, "BEDS": 60, "TRAUMA": "NOT AVAILABLE", "HELIPAD": "N" }, "geometry": { "type": "Polygon", "coordinates": [ [ [ -84.230095, 39.585399 ], [ -84.2479827, 39.592362900000012 ], [ -84.29325, 39.630394 ], [ -84.3054388, 39.6438432 ], [ -84.305588, 39.644454 ], [ -84.308806, 39.673179 ], [ -84.273402, 39.716983 ], [ -84.242151, 39.751217 ], [ -84.213204, 39.771047 ], [ -84.200522, 39.775287 ], [ -84.1857581, 39.7760226 ], [ -84.1590612, 39.753923400000026 ], [ -84.117263, 39.687868199999976 ], [ -84.103795, 39.657403399999936 ], [ -84.115246, 39.639198 ], [ -84.1600282, 39.616097699999983 ], [ -84.1803658, 39.606346100000017 ], [ -84.1850223, 39.604128699999954 ], [ -84.230095, 39.585399 ] ] ] } },
{ "type": "Feature", "properties": { "OBJECTID": 3453, "ID": "0006741012", "NAME": "NORTHKEY COMMUNITY CARE-INTENSIVE SERVICES", "ADDRESS": "502 FARRELL DR", "CITY": "COVINGTON", "STATE": "KY", "ZIP": "41012", "ZIP4": "NOT AVAILABLE", "TELEPHONE": "(859) 331-1900", "TYPE": "PSYCHIATRIC", "STATUS": "OPEN", "POPULATION": 57, "COUNTY": "KENTON", "COUNTYFIPS": "21117", "COUNTRY": "USA", "LATITUDE": 39.049609046999997, "LONGITUDE": -84.529347396999995, "NAICS_CODE": "622110", "NAICS_DESC": "GENERAL MEDICAL AND SURGICAL HOSPITALS", "SOURCE": "https://chfs.ky.gov/agencies/os/oig/dhc/Documents/Directories/Hospital_Directory.pdf", "SOURCEDATE": "2018-08-11T00:00:00.000Z", "VAL_METHOD": "IMAGERY", "VAL_DATE": "2014-02-10T00:00:00.000Z", "WEBSITE": "http://www.northkey.org/live/index.asp", "STATE_ID": "100265", "ALT_NAME": "NOT AVAILABLE", "ST_FIPS": "21", "OWNER": "NON-PROFIT", "TTL_STAFF": -999, "BEDS": 57, "TRAUMA": "NOT AVAILABLE", "HELIPAD": "N" }, "geometry": { "type": "Polygon", "coordinates": [ [ [ -84.5404246, 38.954377300000019 ], [ -84.541462100000018, 38.954591799999974 ], [ -84.5921866, 38.977107799999963 ], [ -84.61305, 39.007251 ], [ -84.616573, 39.017695 ], [ -84.619875, 39.036648 ], [ -84.620097, 39.06104 ], [ -84.614958, 39.066297 ], [ -84.551159, 39.09563 ], [ -84.549993, 39.095949 ], [ -84.545664, 39.096233800000029 ], [ -84.5103894, 39.095081099999959 ], [ -84.505489, 39.091368 ], [ -84.495533300000019, 39.0728946 ], [ -84.472051, 39.000704 ], [ -84.487062, 38.985958 ], [ -84.5036878, 38.973389300000029 ], [ -84.5336545, 38.955320300000047 ], [ -84.5404246, 38.954377300000019 ] ] ] } },
{ "type": "Feature", "properties": { "OBJECTID": 3458, "ID": "0010341014", "NAME": "ST. ELIZABETH COVINGTON", "ADDRESS": "1500 JAMES SIMPSON JR. WAY", "CITY": "COVINGTON", "STATE": "KY", "ZIP": "41011", "ZIP4": "NOT AVAILABLE", "TELEPHONE": "(859) 655-8800", "TYPE": "GENERAL ACUTE CARE", "STATUS": "OPEN", "POPULATION": 151, "COUNTY": "KENTON", "COUNTYFIPS": "21117", "COUNTRY": "USA", "LATITUDE": 39.071348372000003, "LONGITUDE": -84.517999891000002, "NAICS_CODE": "622110", "NAICS_DESC": "GENERAL MEDICAL AND SURGICAL HOSPITALS", "SOURCE": "https://chfs.ky.gov/agencies/os/oig/dhc/Documents/Directories/Hospital_Directory.pdf", "SOURCEDATE": "2018-08-11T00:00:00.000Z", "VAL_METHOD": "IMAGERY", "VAL_DATE": "2014-02-10T00:00:00.000Z", "WEBSITE": "http://www.stelizabeth.com", "STATE_ID": "100272", "ALT_NAME": "NOT AVAILABLE", "ST_FIPS": "21", "OWNER": "NON-PROFIT", "TTL_STAFF": -999, "BEDS": 151, "TRAUMA": "NOT AVAILABLE", "HELIPAD": "N" }, "geometry": { "type": "Polygon", "coordinates": [ [ [ -84.5348485, 38.991314400000043 ], [ -84.6079688, 39.01703210000003 ], [ -84.6172003, 39.024119800000022 ], [ -84.617922, 39.028262 ], [ -84.618259, 39.031506 ], [ -84.618049, 39.034265 ], [ -84.609725, 39.062055 ], [ -84.6032838, 39.065760200000028 ], [ -84.551159, 39.09563 ], [ -84.549993, 39.095949 ], [ -84.545664, 39.096233800000029 ], [ -84.5103894, 39.095081099999959 ], [ -84.505489, 39.091368 ], [ -84.495533300000019, 39.0728946 ], [ -84.489755, 39.038007 ], [ -84.495904, 39.015191 ], [ -84.5335895, 38.99131940000003 ], [ -84.5348485, 38.991314400000043 ] ] ] } },
{ "type": "Feature", "properties": { "OBJECTID": 3610, "ID": "0015345069", "NAME": "UNIVERSITY POINTE SURGICAL HOSPITAL", "ADDRESS": "7750 UNIVERSITY COURT", "CITY": "WEST CHESTER", "STATE": "OH", "ZIP": "45069", "ZIP4": "NOT AVAILABLE", "TELEPHONE": "(513) 475-8300", "TYPE": "GENERAL ACUTE CARE", "STATUS": "OPEN", "POPULATION": 8, "COUNTY": "BUTLER", "COUNTYFIPS": "39017", "COUNTRY": "USA", "LATITUDE": 39.361434723000102, "LONGITUDE": -84.365734898, "NAICS_CODE": "622110", "NAICS_DESC": "GENERAL MEDICAL AND SURGICAL HOSPITALS", "SOURCE": "http://publicapps.odh.ohio.gov/EID/Provider_Search.aspx", "SOURCEDATE": "2018-08-10T00:00:00.000Z", "VAL_METHOD": "IMAGERY", "VAL_DATE": "2014-02-10T00:00:00.000Z", "WEBSITE": "http://uchealth.com/westchesterhospital/surgical-center/", "STATE_ID": "1460", "ALT_NAME": "NOT AVAILABLE", "ST_FIPS": "39", "OWNER": "NON-PROFIT", "TTL_STAFF": -999, "BEDS": 8, "TRAUMA": "NOT AVAILABLE", "HELIPAD": "Y" }, "geometry": { "type": "Polygon", "coordinates": [ [ [ -84.397014140729809, 39.286782763996904 ], [ -84.437709203922964, 39.298241752089588 ], [ -84.465212949507986, 39.30600474853069 ], [ -84.475732177077887, 39.316767353961936 ], [ -84.511528205674509, 39.386507619321058 ], [ -84.505661911972183, 39.390848222174171 ], [ -84.456030151230166, 39.408457710429381 ], [ -84.3837202, 39.4336478 ], [ -84.36500150000002, 39.427180200000038 ], [ -84.287611022077982, 39.383694927191598 ], [ -84.278946005649473, 39.37792572895281 ], [ -84.281391906084437, 39.355422750049065 ], [ -84.284728807974659, 39.336603066988211 ], [ -84.285051308263348, 39.335525067926284 ], [ -84.313535244056879, 39.312994082041492 ], [ -84.359414095018721, 39.290003778750666 ], [ -84.397014140729809, 39.286782763996904 ] ] ] } },
{ "type": "Feature", "properties": { "OBJECTID": 3612, "ID": "0008645014", "NAME": "MERCY HOSPITAL FAIRFIELD", "ADDRESS": "3000 MACK ROAD", "CITY": "FAIRFIELD", "STATE": "OH", "ZIP": "45014", "ZIP4": "NOT AVAILABLE", "TELEPHONE": "(513) 870-7000", "TYPE": "GENERAL ACUTE CARE", "STATUS": "OPEN", "POPULATION": 209, "COUNTY": "BUTLER", "COUNTYFIPS": "39017", "COUNTRY": "USA", "LATITUDE": 39.312699164000001, "LONGITUDE": -84.517795738000004, "NAICS_CODE": "622110", "NAICS_DESC": "GENERAL MEDICAL AND SURGICAL HOSPITALS", "SOURCE": "http://publicapps.odh.ohio.gov/EID/Provider_Search.aspx", "SOURCEDATE": "2018-08-10T00:00:00.000Z", "VAL_METHOD": "IMAGERY", "VAL_DATE": "2014-02-10T00:00:00.000Z", "WEBSITE": "http://www.e-mercy.com", "STATE_ID": "1033", "ALT_NAME": "NOT AVAILABLE", "ST_FIPS": "39", "OWNER": "NON-PROFIT", "TTL_STAFF": -999, "BEDS": 209, "TRAUMA": "NOT AVAILABLE", "HELIPAD": "Y" }, "geometry": { "type": "Polygon", "coordinates": [ [ [ -84.64462967310169, 39.227385671694769 ], [ -84.593581799186708, 39.337002480427302 ], [ -84.545885217796894, 39.394376635525298 ], [ -84.545761018005322, 39.394500035625164 ], [ -84.5024978, 39.4133828 ], [ -84.4968157, 39.412921800000014 ], [ -84.454715217712419, 39.380505493665559 ], [ -84.375963515389444, 39.288717872497045 ], [ -84.449945446308476, 39.243354916691906 ], [ -84.509382165363419, 39.236229677978429 ], [ -84.64462967310169, 39.227385671694769 ] ] ] } },
{ "type": "Feature", "properties": { "OBJECTID": 3617, "ID": "0013245177", "NAME": "CLINTON MEMORIAL HOSPITAL", "ADDRESS": "610 WEST MAIN STREET", "CITY": "WILMINGTON", "STATE": "OH", "ZIP": "45177", "ZIP4": "NOT AVAILABLE", "TELEPHONE": "(937) 382-6611", "TYPE": "GENERAL ACUTE CARE", "STATUS": "OPEN", "POPULATION": 165, "COUNTY": "CLINTON", "COUNTYFIPS": "39027", "COUNTRY": "USA", "LATITUDE": 39.443851317000103, "LONGITUDE": -83.840020956999993, "NAICS_CODE": "622110", "NAICS_DESC": "GENERAL MEDICAL AND SURGICAL HOSPITALS", "SOURCE": "http://publicapps.odh.ohio.gov/EID/Provider_Search.aspx", "SOURCEDATE": "2018-08-10T00:00:00.000Z", "VAL_METHOD": "IMAGERY", "VAL_DATE": "2014-03-12T00:00:00.000Z", "WEBSITE": "http://www.cmhregional.com", "STATE_ID": "1124", "ALT_NAME": "NOT AVAILABLE", "ST_FIPS": "39", "OWNER": "PROPRIETARY", "TTL_STAFF": -999, "BEDS": 165, "TRAUMA": "NOT AVAILABLE", "HELIPAD": "Y" }, "geometry": { "type": "Polygon", "coordinates": [ [ [ -83.860881, 39.377108 ], [ -83.882934, 39.386882 ], [ -83.911439, 39.401881 ], [ -83.944866, 39.42459 ], [ -83.945201, 39.435723 ], [ -83.923337, 39.483051 ], [ -83.9076098, 39.4928697 ], [ -83.8480693, 39.52371080000006 ], [ -83.8466761, 39.5238575 ], [ -83.813301, 39.515563 ], [ -83.761271, 39.492122 ], [ -83.739347, 39.473186 ], [ -83.743446, 39.438062 ], [ -83.755106, 39.402021 ], [ -83.80676, 39.377685 ], [ -83.826121, 39.373874 ], [ -83.860881, 39.377108 ] ] ] } },
{ "type": "Feature", "properties": { "OBJECTID": 3666, "ID": "0006145219", "NAME": "CHRIST HOSPITAL", "ADDRESS": "2139 AUBURN AVENUE", "CITY": "CINCINNATI", "STATE": "OH", "ZIP": "45219", "ZIP4": "NOT AVAILABLE", "TELEPHONE": "(513) 585-1139", "TYPE": "GENERAL ACUTE CARE", "STATUS": "OPEN", "POPULATION": 621, "COUNTY": "HAMILTON", "COUNTYFIPS": "39061", "COUNTRY": "USA", "LATITUDE": 39.120930590999997, "LONGITUDE": -84.510906969000004, "NAICS_CODE": "622110", "NAICS_DESC": "GENERAL MEDICAL AND SURGICAL HOSPITALS", "SOURCE": "http://publicapps.odh.ohio.gov/EID/Provider_Search.aspx", "SOURCEDATE": "2018-08-10T00:00:00.000Z", "VAL_METHOD": "IMAGERY", "VAL_DATE": "2014-02-10T00:00:00.000Z", "WEBSITE": "http://www.thechristhospital.com", "STATE_ID": "1187", "ALT_NAME": "NOT AVAILABLE", "ST_FIPS": "39", "OWNER": "NON-PROFIT", "TTL_STAFF": -999, "BEDS": 621, "TRAUMA": "NOT AVAILABLE", "HELIPAD": "Y" }, "geometry": { "type": "Polygon", "coordinates": [ [ [ -84.4808034, 39.0246218 ], [ -84.590907, 39.080531 ], [ -84.585, 39.1293314 ], [ -84.583147, 39.141484 ], [ -84.5809649, 39.147923100000021 ], [ -84.577468798169306, 39.156432647556372 ], [ -84.561728281452375, 39.173254751003135 ], [ -84.559755887432019, 39.174145651057451 ], [ -84.546245919400874, 39.177775650617789 ], [ -84.478109609011995, 39.192120860482852 ], [ -84.40303986189133, 39.170960262730844 ], [ -84.449341, 39.027679 ], [ -84.4808034, 39.0246218 ] ] ] } },
{ "type": "Feature", "properties": { "OBJECTID": 3668, "ID": "0008745219", "NAME": "UC MEDICAL CENTER PSYCHIATRIC", "ADDRESS": "311 STRAIGHT STREET", "CITY": "CINCINNATI", "STATE": "OH", "ZIP": "45219", "ZIP4": "NOT AVAILABLE", "TELEPHONE": "(513) 584-1000", "TYPE": "PSYCHIATRIC", "STATUS": "OPEN", "POPULATION": 72, "COUNTY": "HAMILTON", "COUNTYFIPS": "39061", "COUNTRY": "USA", "LATITUDE": 39.129531129, "LONGITUDE": -84.522295632999899, "NAICS_CODE": "622210", "NAICS_DESC": "PSYCHIATRIC AND SUBSTANCE ABUSE HOSPITALS", "SOURCE": "http://publicapps.odh.ohio.gov/EID/Provider_Search.aspx", "SOURCEDATE": "2018-08-10T00:00:00.000Z", "VAL_METHOD": "IMAGERY", "VAL_DATE": "2014-02-10T00:00:00.000Z", "WEBSITE": "http://uchealth.com/services/psychiatry", "STATE_ID": "1498", "ALT_NAME": "DEACONESS HOSPITAL", "ST_FIPS": "39", "OWNER": "NON-PROFIT", "TTL_STAFF": -999, "BEDS": 72, "TRAUMA": "NOT AVAILABLE", "HELIPAD": "N" }, "geometry": { "type": "Polygon", "coordinates": [ [ [ -84.470317, 39.039569 ], [ -84.590907, 39.080531 ], [ -84.591048, 39.080703 ], [ -84.602902, 39.111278 ], [ -84.605051, 39.117596 ], [ -84.615427, 39.14905 ], [ -84.613568538068392, 39.18153056101044 ], [ -84.612850670848431, 39.189985862963496 ], [ -84.608601083032639, 39.191692362957298 ], [ -84.601370902725392, 39.194354662981539 ], [ -84.518999068416662, 39.210677664138849 ], [ -84.464304043758403, 39.20721067770198 ], [ -84.419966877866258, 39.170461658241166 ], [ -84.416221862221391, 39.166837655094881 ], [ -84.414727755282456, 39.165175953551888 ], [ -84.4204255, 39.144048 ], [ -84.429041, 39.114424 ], [ -84.447647, 39.063752 ], [ -84.4571042, 39.042565200000013 ], [ -84.470317, 39.039569 ] ] ] } },
{ "type": "Feature", "properties": { "OBJECTID": 3669, "ID": "0009945220", "NAME": "GOOD SAMARITAN HOSPITAL", "ADDRESS": "375 DIXMYTH AVENUE", "CITY": "CINCINNATI", "STATE": "OH", "ZIP": "45220", "ZIP4": "NOT AVAILABLE", "TELEPHONE": "(513) 862-1400", "TYPE": "GENERAL ACUTE CARE", "STATUS": "OPEN", "POPULATION": 657, "COUNTY": "HAMILTON", "COUNTYFIPS": "39061", "COUNTRY": "USA", "LATITUDE": 39.139933339000002, "LONGITUDE": -84.522284404999894, "NAICS_CODE": "622110", "NAICS_DESC": "GENERAL MEDICAL AND SURGICAL HOSPITALS", "SOURCE": "http://publicapps.odh.ohio.gov/EID/Provider_Search.aspx", "SOURCEDATE": "2018-08-10T00:00:00.000Z", "VAL_METHOD": "IMAGERY", "VAL_DATE": "2014-03-12T00:00:00.000Z", "WEBSITE": "http://www.trihealth.com", "STATE_ID": "1191", "ALT_NAME": "NOT AVAILABLE", "ST_FIPS": "39", "OWNER": "NON-PROFIT", "TTL_STAFF": -999, "BEDS": 657, "TRAUMA": "NOT AVAILABLE", "HELIPAD": "Y" }, "geometry": { "type": "Polygon", "coordinates": [ [ [ -84.468018, 39.063263 ], [ -84.5974961, 39.0784446 ], [ -84.65898323626763, 39.197167668482322 ], [ -84.599761958832687, 39.20892666694273 ], [ -84.517829803380835, 39.220669469399496 ], [ -84.449336663027694, 39.217969394252115 ], [ -84.40303986189133, 39.170960262730844 ], [ -84.4320796, 39.10989389999996 ], [ -84.459518, 39.064624 ], [ -84.468018, 39.063263 ] ] ] } },
{ "type": "Feature", "properties": { "OBJECTID": 3671, "ID": "0130245211", "NAME": "MERCY HEALTH - WEST HOSPITAL", "ADDRESS": "3300 MERCY HEALTH BLVD", "CITY": "CINCINNATI", "STATE": "OH", "ZIP": "45211", "ZIP4": "NOT AVAILABLE", "TELEPHONE": "(513) 215-0200", "TYPE": "GENERAL ACUTE CARE", "STATUS": "OPEN", "POPULATION": 568, "COUNTY": "HAMILTON", "COUNTYFIPS": "39061", "COUNTRY": "USA", "LATITUDE": 39.180620032999997, "LONGITUDE": -84.596399418000004, "NAICS_CODE": "622110", "NAICS_DESC": "GENERAL MEDICAL AND SURGICAL HOSPITALS", "SOURCE": "http://publicapps.odh.ohio.gov/EID/Provider_Search.aspx", "SOURCEDATE": "2018-08-10T00:00:00.000Z", "VAL_METHOD": "IMAGERY/OTHER", "VAL_DATE": "2015-03-12T00:00:00.000Z", "WEBSITE": "http://e-mercy.com/west-hospital.aspx", "STATE_ID": "1026", "ALT_NAME": "NOT AVAILABLE", "ST_FIPS": "39", "OWNER": "NON-PROFIT", "TTL_STAFF": -999, "BEDS": 568, "TRAUMA": "NOT AVAILABLE", "HELIPAD": "Y" }, "geometry": { "type": "Polygon", "coordinates": [ [ [ -84.5330133, 39.103633699999968 ], [ -84.6166826, 39.116540400000019 ], [ -84.63387, 39.12918 ], [ -84.666458652254093, 39.153527665657123 ], [ -84.727572719797507, 39.214829572209105 ], [ -84.613996770934605, 39.243576975863796 ], [ -84.593498101578405, 39.245582677683579 ], [ -84.554491477354532, 39.226144772078889 ], [ -84.486837759300414, 39.174116345283579 ], [ -84.491912919692041, 39.160390635273124 ], [ -84.5262723, 39.103518399999984 ], [ -84.5330133, 39.103633699999968 ] ] ] } },
{ "type": "Feature", "properties": { "OBJECTID": 3672, "ID": "0009145241", "NAME": "TRIHEALTH EVENDALE MEDICAL CENTER", "ADDRESS": "3155 GLENDALE-MILFORD ROAD", "CITY": "CINCINNATI", "STATE": "OH", "ZIP": "45241", "ZIP4": "NOT AVAILABLE", "TELEPHONE": "(513) 862-1400", "TYPE": "GENERAL ACUTE CARE", "STATUS": "OPEN", "POPULATION": 29, "COUNTY": "HAMILTON", "COUNTYFIPS": "39061", "COUNTRY": "USA", "LATITUDE": 39.251489134000103, "LONGITUDE": -84.420412357000004, "NAICS_CODE": "622110", "NAICS_DESC": "GENERAL MEDICAL AND SURGICAL HOSPITALS", "SOURCE": "http://publicapps.odh.ohio.gov/EID/Provider_Search.aspx", "SOURCEDATE": "2018-08-10T00:00:00.000Z", "VAL_METHOD": "IMAGERY/OTHER", "VAL_DATE": "2014-02-10T00:00:00.000Z", "WEBSITE": "http://www.trihealth.com/hospitals-and-practices/trihealth-evendale-hospital/", "STATE_ID": "1482", "ALT_NAME": "TRIHEALTH EVENDALE HOSPITAL", "ST_FIPS": "39", "OWNER": "NON-PROFIT", "TTL_STAFF": -999, "BEDS": 29, "TRAUMA": "NOT AVAILABLE", "HELIPAD": "N" }, "geometry": { "type": "Polygon", "coordinates": [ [ [ -84.486953772190049, 39.17802284785845 ], [ -84.512486002461941, 39.218411668107606 ], [ -84.522834072353049, 39.299776734662352 ], [ -84.519171876280055, 39.300639335400348 ], [ -84.367079023809822, 39.31984697065969 ], [ -84.36687242342154, 39.319705470711696 ], [ -84.321936846407553, 39.288746993891415 ], [ -84.333278746791635, 39.257569503697582 ], [ -84.348860970494897, 39.222192753483228 ], [ -84.35150095897508, 39.217747745322754 ], [ -84.375671521564513, 39.198253406182197 ], [ -84.427279925902354, 39.182914669475913 ], [ -84.486953772190049, 39.17802284785845 ] ] ] } },
{ "type": "Feature", "properties": { "OBJECTID": 3673, "ID": "0002345133", "NAME": "HIGHLAND DISTRICT HOSPITAL", "ADDRESS": "1275 NORTH HIGH STREET", "CITY": "HILLSBORO", "STATE": "OH", "ZIP": "45133", "ZIP4": "NOT AVAILABLE", "TELEPHONE": "(937) 393-6100", "TYPE": "CRITICAL ACCESS", "STATUS": "OPEN", "POPULATION": 45, "COUNTY": "HIGHLAND", "COUNTYFIPS": "39071", "COUNTRY": "USA", "LATITUDE": 39.221753009000103, "LONGITUDE": -83.610765232999896, "NAICS_CODE": "622110", "NAICS_DESC": "GENERAL MEDICAL AND SURGICAL HOSPITALS", "SOURCE": "http://publicapps.odh.ohio.gov/EID/Provider_Search.aspx", "SOURCEDATE": "2018-08-10T00:00:00.000Z", "VAL_METHOD": "IMAGERY", "VAL_DATE": "2014-03-12T00:00:00.000Z", "WEBSITE": "http://www.hdh.org", "STATE_ID": "1199", "ALT_NAME": "NOT AVAILABLE", "ST_FIPS": "39", "OWNER": "GOVERNMENT - DISTRICT/AUTHORITY", "TTL_STAFF": -999, "BEDS": 45, "TRAUMA": "NOT AVAILABLE", "HELIPAD": "Y" }, "geometry": { "type": "Polygon", "coordinates": [ [ [ -83.604482, 39.147162 ], [ -83.6471705, 39.156608899999988 ], [ -83.653684, 39.158479 ], [ -83.677852, 39.175781 ], [ -83.696028262995839, 39.204416079654003 ], [ -83.669388, 39.281858 ], [ -83.578096, 39.304898 ], [ -83.542594, 39.263129 ], [ -83.528014, 39.215291 ], [ -83.541857, 39.174954 ], [ -83.578559, 39.15318 ], [ -83.604482, 39.147162 ] ] ] } },
{ "type": "Feature", "properties": { "OBJECTID": 3881, "ID": "0173741075", "NAME": "CINCINNATI VA MEDICAL CENTER - FORT THOMAS", "ADDRESS": "1000 S FT THOMAS AVE", "CITY": "FT THOMAS", "STATE": "KY", "ZIP": "41075", "ZIP4": "NOT AVAILABLE", "TELEPHONE": "(859) 572-6202", "TYPE": "MILITARY", "STATUS": "OPEN", "POPULATION": -999, "COUNTY": "CAMPBELL", "COUNTYFIPS": "21037", "COUNTRY": "USA", "LATITUDE": 39.064603, "LONGITUDE": -84.445641, "NAICS_CODE": "622110", "NAICS_DESC": "GENERAL MEDICAL AND SURGICAL HOSPITALS", "SOURCE": "https://www.va.gov/directory/guide/allstate.asp", "SOURCEDATE": "2018-09-26T00:00:00.000Z", "VAL_METHOD": "IMAGERY", "VAL_DATE": "2019-05-09T00:00:00.000Z", "WEBSITE": "https://www.va.gov/directory/guide/facility.asp?ID=6479", "STATE_ID": "NOT AVAILABLE", "ALT_NAME": "NOT AVAILABLE", "ST_FIPS": "21", "OWNER": "GOVERNMENT - FEDERAL", "TTL_STAFF": -999, "BEDS": -999, "TRAUMA": "NOT AVAILABLE", "HELIPAD": "N" }, "geometry": { "type": "Polygon", "coordinates": [ [ [ -84.4376612, 38.991722200000012 ], [ -84.4377953, 38.991763900000024 ], [ -84.470589, 39.005992 ], [ -84.473762, 39.007421 ], [ -84.475662, 39.008715 ], [ -84.484184, 39.01753 ], [ -84.5590531, 39.095132599999964 ], [ -84.5591391, 39.098742399999978 ], [ -84.5548043, 39.106178199999974 ], [ -84.554033, 39.107414 ], [ -84.5343687, 39.126628299999958 ], [ -84.500181, 39.142873799999968 ], [ -84.491576, 39.143337 ], [ -84.4706831, 39.143144699999986 ], [ -84.467672, 39.142674 ], [ -84.464558, 39.141624 ], [ -84.3632002, 39.036360299999927 ], [ -84.360504, 39.029323 ], [ -84.409450300000017, 38.99200290000001 ], [ -84.4376612, 38.991722200000012 ] ] ] } },
{ "type": "Feature", "properties": { "OBJECTID": 3941, "ID": "0174845242", "NAME": "ASSURANCE HEALTH CINCINNATI LLC", "ADDRESS": "11690 GROOMS ROAD", "CITY": "CINICINNATI", "STATE": "OH", "ZIP": "45242", "ZIP4": "NOT AVAILABLE", "TELEPHONE": "(513) 519-4947", "TYPE": "PSYCHIATRIC", "STATUS": "OPEN", "POPULATION": -999, "COUNTY": "HAMILTON", "COUNTYFIPS": "39061", "COUNTRY": "USA", "LATITUDE": 39.281939747000003, "LONGITUDE": -84.367425757999996, "NAICS_CODE": "622210", "NAICS_DESC": "PSYCHIATRIC AND SUBSTANCE ABUSE HOSPITALS", "SOURCE": "http://publicapps.odh.ohio.gov/EID/Provider_Search.aspx", "SOURCEDATE": "2018-08-10T00:00:00.000Z", "VAL_METHOD": "IMAGERY", "VAL_DATE": "2019-05-09T00:00:00.000Z", "WEBSITE": "NOT AVAILABLE", "STATE_ID": "NOT AVAILABLE", "ALT_NAME": "NOT AVAILABLE", "ST_FIPS": "39", "OWNER": "PROPRIETARY", "TTL_STAFF": -999, "BEDS": -999, "TRAUMA": "NOT AVAILABLE", "HELIPAD": "N" }, "geometry": { "type": "Polygon", "coordinates": [ [ [ -84.398338255454803, 39.170481363245003 ], [ -84.403557362811028, 39.17107816274968 ], [ -84.532237761748192, 39.297378232513502 ], [ -84.523491983551608, 39.307369142333656 ], [ -84.367184941458831, 39.347376165931777 ], [ -84.277762297987252, 39.341278462577513 ], [ -84.274825192674683, 39.335944267521995 ], [ -84.273457290240955, 39.333326070044798 ], [ -84.270047178086514, 39.270218832869034 ], [ -84.271085978379787, 39.262218840180275 ], [ -84.32308393137555, 39.218499761481461 ], [ -84.362999885367714, 39.191149701081358 ], [ -84.382868864118521, 39.178137676863699 ], [ -84.398338255454803, 39.170481363245003 ] ] ] } },
{ "type": "Feature", "properties": { "OBJECTID": 3942, "ID": "0175245207", "NAME": "TRIHEALTH REHABILITATION HOSPITAL LLC", "ADDRESS": "2155 DANA AVENUE", "CITY": "CINCINNATI", "STATE": "OH", "ZIP": "45207", "ZIP4": "NOT AVAILABLE", "TELEPHONE": "(513) 601-0600", "TYPE": "REHABILITATION", "STATUS": "OPEN", "POPULATION": -999, "COUNTY": "HAMILTON", "COUNTYFIPS": "36091", "COUNTRY": "USA", "LATITUDE": 39.144704753, "LONGITUDE": -84.459165341000002, "NAICS_CODE": "622310", "NAICS_DESC": "SPECIALTY (EXCEPT PSYCHIATRIC AND SUBSTANCE ABUSE) HOSPITALS", "SOURCE": "http://publicapps.odh.ohio.gov/EID/Provider_Search.aspx", "SOURCEDATE": "2018-08-10T00:00:00.000Z", "VAL_METHOD": "IMAGERY", "VAL_DATE": "2019-05-09T00:00:00.000Z", "WEBSITE": "https://www.trihealthrehab.com", "STATE_ID": "1900", "ALT_NAME": "NOT AVAILABLE", "ST_FIPS": "39", "OWNER": "PROPRIETARY", "TTL_STAFF": -999, "BEDS": -999, "TRAUMA": "NOT AVAILABLE", "HELIPAD": "N" }, "geometry": { "type": "Polygon", "coordinates": [ [ [ -84.4640815, 39.0486582 ], [ -84.5620367, 39.091848300000031 ], [ -84.563120600000019, 39.145217500000044 ], [ -84.562973031141411, 39.159562345803167 ], [ -84.553193272625492, 39.167230847130433 ], [ -84.474157671006083, 39.212381577041469 ], [ -84.379093714811688, 39.226012641911346 ], [ -84.377593213820163, 39.226197743023882 ], [ -84.370179906365422, 39.226320947469461 ], [ -84.354883990929125, 39.226558756653681 ], [ -84.354375590239172, 39.226511756877905 ], [ -84.354150289843645, 39.226463056935586 ], [ -84.344866909539491, 39.204560728366722 ], [ -84.348838878977233, 39.193768710155467 ], [ -84.3827897, 39.103354499999973 ], [ -84.3872204, 39.096968 ], [ -84.4640815, 39.0486582 ] ] ] } }
]
}
