{
"type": "FeatureCollection",
"crs": { "type": "name", "properties": { "name": "urn:ogc:def:crs:OGC:1.3:CRS84" } },
"features": [
{ "type": "Feature", "properties": { "OBJECTID": 1089, "ID": "0002467029", "NAME": "COMANCHE COUNTY HOSPITAL", "ADDRESS": "202 S FRISCO AVE", "CITY": "COLDWATER", "STATE": "KS", "ZIP": "67029", "ZIP4": "NOT AVAILABLE", "TELEPHONE": "(620) 582-2144", "TYPE": "CRITICAL ACCESS", "STATUS": "OPEN", "POPULATION": 12, "COUNTY": "COMANCHE", "COUNTYFIPS": "20033", "COUNTRY": "USA", "LATITUDE": 37.268079413000102, "LONGITUDE": -99.332654648000002, "NAICS_CODE": "622110", "NAICS_DESC": "GENERAL MEDICAL AND SURGICAL HOSPITALS", "SOURCE": "http://www.kdheks.gov/bhfr/fac_list/", "SOURCEDATE": "2018-08-16T00:00:00.000Z", "VAL_METHOD": "IMAGERY", "VAL_DATE": "2014-02-10T00:00:00.000Z", "WEBSITE": "http://www.gpha.com", "STATE_ID": "H017001", "ALT_NAME": "COMANCHE COUNTY HOSPITAL", "ST_FIPS": "20", "OWNER": "GOVERNMENT - LOCAL", "TTL_STAFF": -999, "BEDS": 12, "TRAUMA": "LEVEL IV", "HELIPAD": "N" }, "geometry": { "type": "Polygon", "coordinates": [ [ [ -99.326538765577666, 37.164015153238132 ], [ -99.3815768, 37.192970600000038 ], [ -99.399057, 37.26645 ], [ -99.358943, 37.338431 ], [ -99.3269956, 37.3823513 ], [ -99.3202068, 37.387164099999978 ], [ -99.201981, 37.281352 ], [ -99.2913331, 37.193480199999989 ], [ -99.326538765577666, 37.164015153238132 ] ] ] } },
{ "type": "Feature", "properties": { "OBJECTID": 1495, "ID": "0015367214", "NAME": "WESLEY MEDICAL CENTER", "ADDRESS": "550 N HILLSIDE ST", "CITY": "WICHITA", "STATE": "KS", "ZIP": "67214", "ZIP4": "NOT AVAILABLE", "TELEPHONE": "(316) 962-2000", "TYPE": "GENERAL ACUTE CARE", "STATUS": "OPEN", "POPULATION": 595, "COUNTY": "SEDGWICK", "COUNTYFIPS": "20173", "COUNTRY": "USA", "LATITUDE": 37.694993032000099, "LONGITUDE": -97.297903461000004, "NAICS_CODE": "622110", "NAICS_DESC": "GENERAL MEDICAL AND SURGICAL HOSPITALS", "SOURCE": "http://www.kdheks.gov/bhfr/fac_list/", "SOURCEDATE": "2018-08-16T00:00:00.000Z", "VAL_METHOD": "IMAGERY", "VAL_DATE": "2014-03-12T00:00:00.000Z", "WEBSITE": "http://www.wesleymc.com", "STATE_ID": "H087004", "ALT_NAME": "WESLEY MEDICAL CENTER LLC", "ST_FIPS": "20", "OWNER": "PROPRIETARY", "TTL_STAFF": -999, "BEDS": 595, "TRAUMA": "LEVEL I", "HELIPAD": "Y" }, "geometry": { "type": "Polygon", "coordinates": [ [ [ -97.2820916, 37.583669199999953 ], [ -97.3341127, 37.59246140000004 ], [ -97.336483, 37.593528 ], [ -97.4507355, 37.668277 ], [ -97.432155, 37.694868 ], [ -97.41001150000001, 37.723393599999987 ], [ -97.3817858, 37.755169400000014 ], [ -97.342294100000018, 37.795916400000031 ], [ -97.335904, 37.8023 ], [ -97.280907, 37.801164 ], [ -97.2669813, 37.7958272 ], [ -97.154544, 37.69406 ], [ -97.153049, 37.681841 ], [ -97.15305, 37.679386 ], [ -97.1530595, 37.679015099999965 ], [ -97.2820916, 37.583669199999953 ] ] ] } },
{ "type": "Feature", "properties": { "OBJECTID": 1545, "ID": "0011767124", "NAME": "PRATT REGIONAL MEDICAL CENTER", "ADDRESS": "200 COMMODORE ST", "CITY": "PRATT", "STATE": "KS", "ZIP": "67124", "ZIP4": "NOT AVAILABLE", "TELEPHONE": "(620) 450-1160", "TYPE": "GENERAL ACUTE CARE", "STATUS": "OPEN", "POPULATION": 85, "COUNTY": "PRATT", "COUNTYFIPS": "20151", "COUNTRY": "USA", "LATITUDE": 37.644500187000098, "LONGITUDE": -98.729283513, "NAICS_CODE": "622110", "NAICS_DESC": "GENERAL MEDICAL AND SURGICAL HOSPITALS", "SOURCE": "http://www.kdheks.gov/bhfr/fac_list/", "SOURCEDATE": "2018-08-16T00:00:00.000Z", "VAL_METHOD": "IMAGERY", "VAL_DATE": "2014-02-10T00:00:00.000Z", "WEBSITE": "http://www.prmc.org", "STATE_ID": "H076001", "ALT_NAME": "PRATT REGIONAL MEDICAL CENTER CORPORATION", "ST_FIPS": "20", "OWNER": "NON-PROFIT", "TTL_STAFF": -999, "BEDS": 85, "TRAUMA": "LEVEL IV", "HELIPAD": "Y" }, "geometry": { "type": "Polygon", "coordinates": [ [ [ -98.720733, 37.527799 ], [ -98.7578811, 37.543155099999979 ], [ -98.8868103, 37.634808799999981 ], [ -98.8867319, 37.6381599 ], [ -98.7393394, 37.748070100000014 ], [ -98.622788500000013, 37.7328 ], [ -98.556821, 37.646312099999946 ], [ -98.5568249, 37.644298799999987 ], [ -98.720733, 37.527799 ] ] ] } },
{ "type": "Feature", "properties": { "OBJECTID": 1546, "ID": "0012267663", "NAME": "ROOKS COUNTY HEALTH CENTER", "ADDRESS": "1210 NORTH WASHINGTON", "CITY": "PLAINVILLE", "STATE": "KS", "ZIP": "67663", "ZIP4": "NOT AVAILABLE", "TELEPHONE": "(785) 434-4553", "TYPE": "GENERAL ACUTE CARE", "STATUS": "OPEN", "POPULATION": 20, "COUNTY": "ROOKS", "COUNTYFIPS": "20163", "COUNTRY": "USA", "LATITUDE": 39.247564946000097, "LONGITUDE": -99.296462442000006, "NAICS_CODE": "622110", "NAICS_DESC": "GENERAL MEDICAL AND SURGICAL HOSPITALS", "SOURCE": "http://www.kdheks.gov/bhfr/fac_list/", "SOURCEDATE": "2018-08-16T00:00:00.000Z", "VAL_METHOD": "IMAGERY", "VAL_DATE": "2014-01-10T00:00:00.000Z", "WEBSITE": "http://www.rookscountyhealthcenter.com", "STATE_ID": "H082001", "ALT_NAME": "PLAINVILLE RURAL HOSPITAL DICTRICT #1", "ST_FIPS": "20", "OWNER": "GOVERNMENT - DISTRICT/AUTHORITY", "TTL_STAFF": -999, "BEDS": 20, "TRAUMA": "LEVEL IV", "HELIPAD": "Y" }, "geometry": { "type": "Polygon", "coordinates": [ [ [ -99.2988324, 39.132353099999982 ], [ -99.300814, 39.132854 ], [ -99.4564261, 39.2341913 ], [ -99.296099, 39.390209 ], [ -99.158614, 39.249133 ], [ -99.1588131, 39.198101399999963 ], [ -99.294418, 39.132675 ], [ -99.2988324, 39.132353099999982 ] ] ] } },
{ "type": "Feature", "properties": { "OBJECTID": 1549, "ID": "0012967756", "NAME": "CHEYENNE COUNTY HOSPITAL", "ADDRESS": "210 WEST 1ST STREET", "CITY": "ST FRANCIS", "STATE": "KS", "ZIP": "67756", "ZIP4": "NOT AVAILABLE", "TELEPHONE": "(785) 332-2104", "TYPE": "GENERAL ACUTE CARE", "STATUS": "OPEN", "POPULATION": 16, "COUNTY": "CHEYENNE", "COUNTYFIPS": "20023", "COUNTRY": "USA", "LATITUDE": 39.771353271000102, "LONGITUDE": -101.803224297, "NAICS_CODE": "622110", "NAICS_DESC": "GENERAL MEDICAL AND SURGICAL HOSPITALS", "SOURCE": "http://www.kdheks.gov/bhfr/fac_list/", "SOURCEDATE": "2018-08-16T00:00:00.000Z", "VAL_METHOD": "IMAGERY", "VAL_DATE": "2014-02-10T00:00:00.000Z", "WEBSITE": "http://www.cheyennecountyhospital.com", "STATE_ID": "H012001", "ALT_NAME": "GREAT PLAINS OF CHEYENNE COUNTY HOSPITAL", "ST_FIPS": "20", "OWNER": "NON-PROFIT", "TTL_STAFF": -999, "BEDS": 16, "TRAUMA": "LEVEL IV", "HELIPAD": "N" }, "geometry": { "type": "Polygon", "coordinates": [ [ [ -101.804629, 39.693383 ], [ -101.806137, 39.693395 ], [ -101.843661, 39.702925 ], [ -101.944090986954407, 39.742013811055557 ], [ -101.974848076722012, 39.756599048277415 ], [ -101.89926, 39.814674 ], [ -101.842474, 39.848513 ], [ -101.78576, 39.850748 ], [ -101.76152, 39.843548 ], [ -101.636299, 39.756769 ], [ -101.71194, 39.713065 ], [ -101.804629, 39.693383 ] ] ] } },
{ "type": "Feature", "properties": { "OBJECTID": 1552, "ID": "0014367226", "NAME": "KANSAS HEART HOSPITAL", "ADDRESS": "3601 NORTH WEBB ROAD", "CITY": "WICHITA", "STATE": "KS", "ZIP": "67226", "ZIP4": "NOT AVAILABLE", "TELEPHONE": "(316) 630-5000", "TYPE": "SPECIAL", "STATUS": "OPEN", "POPULATION": 54, "COUNTY": "SEDGWICK", "COUNTYFIPS": "20173", "COUNTRY": "USA", "LATITUDE": 37.750038383000103, "LONGITUDE": -97.227543268000005, "NAICS_CODE": "622310", "NAICS_DESC": "SPECIALTY (EXCEPT PSYCHIATRIC AND SUBSTANCE ABUSE) HOSPITALS", "SOURCE": "http://www.kdheks.gov/bhfr/fac_list/", "SOURCEDATE": "2018-08-16T00:00:00.000Z", "VAL_METHOD": "IMAGERY", "VAL_DATE": "2014-01-10T00:00:00.000Z", "WEBSITE": "http://www.kansasheart.com", "STATE_ID": "H087009", "ALT_NAME": "KANSAS HEART HOSPITAL LLC", "ST_FIPS": "20", "OWNER": "PROPRIETARY", "TTL_STAFF": -999, "BEDS": 54, "TRAUMA": "NOT AVAILABLE", "HELIPAD": "N" }, "geometry": { "type": "Polygon", "coordinates": [ [ [ -97.227812, 37.646396 ], [ -97.229391, 37.646401 ], [ -97.231271, 37.647192 ], [ -97.236811, 37.650101 ], [ -97.321886, 37.697612 ], [ -97.3343515, 37.708066899999977 ], [ -97.365417, 37.73754 ], [ -97.364284, 37.757898 ], [ -97.335921, 37.795933 ], [ -97.3017021, 37.817214499999935 ], [ -97.2440413, 37.84022419999998 ], [ -97.207273, 37.854691 ], [ -97.0989295, 37.798138399999978 ], [ -97.0988701, 37.796224499999958 ], [ -97.1161419, 37.709812400000033 ], [ -97.126258800000016, 37.678440199999983 ], [ -97.1353423, 37.670372899999983 ], [ -97.171243, 37.650279 ], [ -97.227812, 37.646396 ] ] ] } },
{ "type": "Feature", "properties": { "OBJECTID": 1553, "ID": "0014467226", "NAME": "KANSAS SPINE HOSPITAL LLC", "ADDRESS": "3333 NORTH WEBB ROAD", "CITY": "WICHITA", "STATE": "KS", "ZIP": "67226", "ZIP4": "NOT AVAILABLE", "TELEPHONE": "(316) 462-5000", "TYPE": "GENERAL ACUTE CARE", "STATUS": "OPEN", "POPULATION": 38, "COUNTY": "SEDGWICK", "COUNTYFIPS": "20173", "COUNTRY": "USA", "LATITUDE": 37.743573018000099, "LONGITUDE": -97.227215189000006, "NAICS_CODE": "622110", "NAICS_DESC": "GENERAL MEDICAL AND SURGICAL HOSPITALS", "SOURCE": "http://www.kdheks.gov/bhfr/fac_list/", "SOURCEDATE": "2018-08-16T00:00:00.000Z", "VAL_METHOD": "IMAGERY", "VAL_DATE": "2014-01-10T00:00:00.000Z", "WEBSITE": "http://www.ksspine.com", "STATE_ID": "H087012", "ALT_NAME": "KANSAS SPINE HOSPITAL LLC", "ST_FIPS": "20", "OWNER": "PROPRIETARY", "TTL_STAFF": -999, "BEDS": 38, "TRAUMA": "NOT AVAILABLE", "HELIPAD": "N" }, "geometry": { "type": "Polygon", "coordinates": [ [ [ -97.226268, 37.635495 ], [ -97.328849, 37.697578 ], [ -97.3355773, 37.702563 ], [ -97.36308, 37.729157 ], [ -97.369409, 37.737523 ], [ -97.3760054, 37.756177799999961 ], [ -97.342294100000018, 37.795916400000031 ], [ -97.335904, 37.8023 ], [ -97.280732, 37.825016 ], [ -97.207273, 37.854691 ], [ -97.098919600000016, 37.7976625 ], [ -97.1083464, 37.7091383 ], [ -97.1169094, 37.678680299999989 ], [ -97.1353869, 37.6647002 ], [ -97.171243, 37.650279 ], [ -97.226268, 37.635495 ] ] ] } },
{ "type": "Feature", "properties": { "OBJECTID": 1554, "ID": "0014667214", "NAME": "VIA CHRISTI HOSPITALS WICHITA INC", "ADDRESS": "929 NORTH ST FRANCIS STREET", "CITY": "WICHITA", "STATE": "KS", "ZIP": "67214", "ZIP4": "NOT AVAILABLE", "TELEPHONE": "(316) 268-5000", "TYPE": "REHABILITATION", "STATUS": "OPEN", "POPULATION": 58, "COUNTY": "SEDGWICK", "COUNTYFIPS": "20173", "COUNTRY": "USA", "LATITUDE": 37.6998994530001, "LONGITUDE": -97.332278145000004, "NAICS_CODE": "622310", "NAICS_DESC": "REHABILITATION HOSPITALS (EXCEPT ALCOHOLISM, DRUG ADDICTION)", "SOURCE": "http://www.kdheks.gov/bhfr/fac_list/", "SOURCEDATE": "2018-08-16T00:00:00.000Z", "VAL_METHOD": "IMAGERY", "VAL_DATE": "2014-03-12T00:00:00.000Z", "WEBSITE": "http://www.via-christi.org", "STATE_ID": "H087001", "ALT_NAME": "VIA CHRISTI HOSPITALS WICHITA INC", "ST_FIPS": "20", "OWNER": "NON-PROFIT", "TTL_STAFF": -999, "BEDS": 58, "TRAUMA": "LEVEL I", "HELIPAD": "Y" }, "geometry": { "type": "Polygon", "coordinates": [ [ [ -97.333969700000011, 37.578948700000012 ], [ -97.335883, 37.578961 ], [ -97.4739752, 37.6646646 ], [ -97.444494, 37.723037 ], [ -97.441957, 37.726692 ], [ -97.4097003, 37.761874200000044 ], [ -97.3263744, 37.8209405 ], [ -97.2669813, 37.7958272 ], [ -97.2013491, 37.708442599999984 ], [ -97.1983297, 37.6791405 ], [ -97.2799641, 37.605328900000011 ], [ -97.2854258, 37.600572900000017 ], [ -97.333969700000011, 37.578948700000012 ] ] ] } },
{ "type": "Feature", "properties": { "OBJECTID": 1555, "ID": "0014767220", "NAME": "WESLEY WOODLAWN HOSPITAL", "ADDRESS": "2610 NORTH WOODLAWN", "CITY": "WICHITA", "STATE": "KS", "ZIP": "67220", "ZIP4": "NOT AVAILABLE", "TELEPHONE": "(316) 858-2610", "TYPE": "SPECIAL", "STATUS": "OPEN", "POPULATION": 82, "COUNTY": "SEDGWICK", "COUNTYFIPS": "20173", "COUNTRY": "USA", "LATITUDE": 37.731224649000097, "LONGITUDE": -97.260581969, "NAICS_CODE": "622310", "NAICS_DESC": "SPECIALTY (EXCEPT PSYCHIATRIC AND SUBSTANCE ABUSE) HOSPITALS", "SOURCE": "http://www.kdheks.gov/bhfr/fac_list/", "SOURCEDATE": "2018-08-16T00:00:00.000Z", "VAL_METHOD": "IMAGERY", "VAL_DATE": "2014-01-10T00:00:00.000Z", "WEBSITE": "http://wesleymc.com/location/wesley-woodlawn-hospital", "STATE_ID": "H087013", "ALT_NAME": "WESLEY MEDICAL CENTER  LLC DBA", "ST_FIPS": "20", "OWNER": "PROPRIETARY", "TTL_STAFF": -999, "BEDS": 82, "TRAUMA": "NOT AVAILABLE", "HELIPAD": "N" }, "geometry": { "type": "Polygon", "coordinates": [ [ [ -97.2444072, 37.629960900000022 ], [ -97.280257, 37.6297609 ], [ -97.2804662, 37.6297618 ], [ -97.3522684, 37.676244799999985 ], [ -97.3537, 37.677277 ], [ -97.3725591, 37.7017585 ], [ -97.3760089, 37.70879 ], [ -97.3865234, 37.755274200000024 ], [ -97.3263744, 37.8209405 ], [ -97.280732, 37.825016 ], [ -97.208364, 37.810546 ], [ -97.18983990000001, 37.796122800000063 ], [ -97.1496823, 37.737920900000034 ], [ -97.1436507, 37.70864 ], [ -97.166582, 37.67853 ], [ -97.2435468, 37.6299736 ], [ -97.2444072, 37.629960900000022 ] ] ] } },
{ "type": "Feature", "properties": { "OBJECTID": 1711, "ID": "0158067572", "NAME": "GRISELL MEMORIAL HOSPITAL LTCU", "ADDRESS": "330 S VERMONT, PO BOX 268", "CITY": "RANSOM", "STATE": "KS", "ZIP": "67572", "ZIP4": "NOT AVAILABLE", "TELEPHONE": "NOT AVAILABLE", "TYPE": "LONG TERM CARE", "STATUS": "OPEN", "POPULATION": -999, "COUNTY": "NESS", "COUNTYFIPS": "20135", "COUNTRY": "USA", "LATITUDE": 38.636009767000097, "LONGITUDE": -99.931247051, "NAICS_CODE": "622110", "NAICS_DESC": "GENERAL MEDICAL AND SURGICAL HOSPITALS", "SOURCE": "http://www.kdheks.gov/bhfr/fac_list/", "SOURCEDATE": "2018-08-16T00:00:00.000Z", "VAL_METHOD": "IMAGERY/OTHER", "VAL_DATE": "2015-05-30T00:00:00.000Z", "WEBSITE": "NOT AVAILABLE", "STATE_ID": "H068102", "ALT_NAME": "NOT AVAILABLE", "ST_FIPS": "20", "OWNER": "NOT AVAILABLE", "TTL_STAFF": -999, "BEDS": -999, "TRAUMA": "NOT AVAILABLE", "HELIPAD": "N" }, "geometry": { "type": "Polygon", "coordinates": [ [ [ -99.900196, 38.552032 ], [ -99.992344, 38.580288 ], [ -100.067332, 38.636783 ], [ -100.065493, 38.6384337 ], [ -99.8981396, 38.7255445 ], [ -99.857801, 38.696466 ], [ -99.807747, 38.639738 ], [ -99.881775, 38.566611 ], [ -99.900196, 38.552032 ] ] ] } },
{ "type": "Feature", "properties": { "OBJECTID": 1712, "ID": "0158667070", "NAME": "KIOWA DISTRICT HOSPITAL", "ADDRESS": "1002 SOUTH 4TH STREET", "CITY": "KIOWA", "STATE": "KS", "ZIP": "67070", "ZIP4": "NOT AVAILABLE", "TELEPHONE": "NOT AVAILABLE", "TYPE": "CRITICAL ACCESS", "STATUS": "OPEN", "POPULATION": 10, "COUNTY": "BARBER", "COUNTYFIPS": "20007", "COUNTRY": "USA", "LATITUDE": 37.007699609, "LONGITUDE": -98.48857262, "NAICS_CODE": "622110", "NAICS_DESC": "GENERAL MEDICAL AND SURGICAL HOSPITALS", "SOURCE": "http://www.kdheks.gov/bhfr/fac_list/", "SOURCEDATE": "2018-08-16T00:00:00.000Z", "VAL_METHOD": "IMAGERY/OTHER", "VAL_DATE": "2015-05-30T00:00:00.000Z", "WEBSITE": "http://www.k-d-h.com/", "STATE_ID": "H004001", "ALT_NAME": "NOT AVAILABLE", "ST_FIPS": "20", "OWNER": "NOT AVAILABLE", "TTL_STAFF": -999, "BEDS": 10, "TRAUMA": "NOT AVAILABLE", "HELIPAD": "Y" }, "geometry": { "type": "Polygon", "coordinates": [ [ [ -98.544676, 36.985778 ], [ -98.621994359512598, 37.014154705449215 ], [ -98.567781477622745, 37.06515527211463 ], [ -98.421111674669049, 37.093925412592505 ], [ -98.402668690718215, 37.095842437656025 ], [ -98.384032612242237, 37.035862246182795 ], [ -98.418693, 36.997911 ], [ -98.436398, 36.993108 ], [ -98.544676, 36.985778 ] ] ] } },
{ "type": "Feature", "properties": { "OBJECTID": 1725, "ID": "0000000008", "NAME": "IRWIN ARMY COMMUNITY HOSPITAL", "ADDRESS": "600 CAISSON HILL RD", "CITY": "FORT RILEY", "STATE": "KS", "ZIP": "66442", "ZIP4": "NOT AVAILABLE", "TELEPHONE": "NOT AVAILABLE", "TYPE": "MILITARY", "STATUS": "OPEN", "POPULATION": -999, "COUNTY": "GEARY", "COUNTYFIPS": "20061", "COUNTRY": "USA", "LATITUDE": 39.079192324000097, "LONGITUDE": -96.7724457099999, "NAICS_CODE": "622110", "NAICS_DESC": "GENERAL MEDICAL AND SURGICAL HOSPITALS", "SOURCE": "http://www.tricare.mil/mtf", "SOURCEDATE": "2019-04-02T00:00:00.000Z", "VAL_METHOD": "IMAGERY/OTHER", "VAL_DATE": "2015-07-25T00:00:00.000Z", "WEBSITE": "http://iach.amedd.army.mil/", "STATE_ID": "NOT AVAILABLE", "ALT_NAME": "NOT AVAILABLE", "ST_FIPS": "20", "OWNER": "GOVERNMENT - FEDERAL", "TTL_STAFF": -999, "BEDS": -999, "TRAUMA": "NOT AVAILABLE", "HELIPAD": "Y" }, "geometry": { "type": "Polygon", "coordinates": [ [ [ -96.8379187, 39.006426 ], [ -96.8522739, 39.055692299999983 ], [ -96.8477289, 39.0721845 ], [ -96.8264132, 39.088304 ], [ -96.783624, 39.088175800000016 ], [ -96.7584532, 39.088030199999956 ], [ -96.720256, 39.062561 ], [ -96.7216641, 39.052379700000031 ], [ -96.756658, 39.015141 ], [ -96.8379187, 39.006426 ] ] ] } },
{ "type": "Feature", "properties": { "OBJECTID": 1733, "ID": "0005367218", "NAME": "ROBERT J. DOLE VA MEDICAL CENTER", "ADDRESS": "5500 E KELLOGG AVE", "CITY": "WICHITA", "STATE": "KS", "ZIP": "67218", "ZIP4": "NOT AVAILABLE", "TELEPHONE": "(316) 685-2221", "TYPE": "GENERAL ACUTE CARE", "STATUS": "OPEN", "POPULATION": -999, "COUNTY": "SEDGWICK", "COUNTYFIPS": "20173", "COUNTRY": "USA", "LATITUDE": 37.681233797000097, "LONGITUDE": -97.274641263999996, "NAICS_CODE": "622110", "NAICS_DESC": "GENERAL MEDICAL AND SURGICAL HOSPITALS", "SOURCE": "https://www.va.gov/directory/guide/allstate.asp", "SOURCEDATE": "2018-09-26T00:00:00.000Z", "VAL_METHOD": "IMAGERY/OTHER", "VAL_DATE": "2015-05-20T00:00:00.000Z", "WEBSITE": "http://www.wichita.va.gov/", "STATE_ID": "NOT AVAILABLE", "ALT_NAME": "NOT AVAILABLE", "ST_FIPS": "20", "OWNER": "GOVERNMENT - FEDERAL", "TTL_STAFF": -999, "BEDS": -999, "TRAUMA": "NOT AVAILABLE", "HELIPAD": "N" }, "geometry": { "type": "Polygon", "coordinates": [ [ [ -97.271146, 37.577002 ], [ -97.27848, 37.576972 ], [ -97.280225, 37.57697719999998 ], [ -97.2828018, 37.577003900000022 ], [ -97.3341177, 37.599782399999981 ], [ -97.4053526, 37.643319599999984 ], [ -97.4410239, 37.671839100000021 ], [ -97.4090898, 37.7019998 ], [ -97.3253458, 37.7778334 ], [ -97.2806457, 37.791450899999951 ], [ -97.2441926, 37.772917300000024 ], [ -97.2357901, 37.767453899999978 ], [ -97.1169015, 37.679813900000028 ], [ -97.1168932, 37.6795693 ], [ -97.1169094, 37.678680299999989 ], [ -97.1353855, 37.664923199999976 ], [ -97.244359, 37.591754 ], [ -97.271146, 37.577002 ] ] ] } },
{ "type": "Feature", "properties": { "OBJECTID": 1751, "ID": "0000000071", "NAME": "SCOTT COUNTY HOSPITAL", "ADDRESS": "201 ALBERT AVE", "CITY": "SCOTT CITY", "STATE": "KS", "ZIP": "67871", "ZIP4": "NOT AVAILABLE", "TELEPHONE": "(620) 872-5811", "TYPE": "GENERAL ACUTE CARE", "STATUS": "OPEN", "POPULATION": 25, "COUNTY": "SCOTT", "COUNTYFIPS": "20171", "COUNTRY": "USA", "LATITUDE": 38.4666411850001, "LONGITUDE": -100.90365135099999, "NAICS_CODE": "622110", "NAICS_DESC": "GENERAL MEDICAL AND SURGICAL HOSPITALS", "SOURCE": "http://www.kdheks.gov/bhfr/fac_list/", "SOURCEDATE": "2018-08-16T00:00:00.000Z", "VAL_METHOD": "IMAGERY/OTHER", "VAL_DATE": "2015-05-22T00:00:00.000Z", "WEBSITE": "http://www.scotthospital.net/", "STATE_ID": "H086001", "ALT_NAME": "NOT AVAILABLE", "ST_FIPS": "20", "OWNER": "GOVERNMENT - LOCAL", "TTL_STAFF": -999, "BEDS": 25, "TRAUMA": "NOT AVAILABLE", "HELIPAD": "Y" }, "geometry": { "type": "Polygon", "coordinates": [ [ [ -100.905713, 38.352044 ], [ -100.924296, 38.366384 ], [ -101.054102, 38.482154 ], [ -101.054096, 38.482543 ], [ -100.907402, 38.583859 ], [ -100.902437, 38.585847 ], [ -100.7599419, 38.483099 ], [ -100.887634, 38.366604 ], [ -100.905713, 38.352044 ] ] ] } },
{ "type": "Feature", "properties": { "OBJECTID": 2044, "ID": "0000167410", "NAME": "MEMORIAL HOSPITAL", "ADDRESS": "511 NE 10TH ST", "CITY": "ABILENE", "STATE": "KS", "ZIP": "67410", "ZIP4": "NOT AVAILABLE", "TELEPHONE": "(785) 263-6610", "TYPE": "CRITICAL ACCESS", "STATUS": "OPEN", "POPULATION": 112, "COUNTY": "DICKINSON", "COUNTYFIPS": "20041", "COUNTRY": "USA", "LATITUDE": 38.9253529430001, "LONGITUDE": -97.205967254000001, "NAICS_CODE": "622110", "NAICS_DESC": "GENERAL MEDICAL AND SURGICAL HOSPITALS", "SOURCE": "http://www.kdheks.gov/bhfr/fac_list/", "SOURCEDATE": "2018-08-16T00:00:00.000Z", "VAL_METHOD": "IMAGERY", "VAL_DATE": "2014-01-09T00:00:00.000Z", "WEBSITE": "http://www.mhsks.org", "STATE_ID": "H021001", "ALT_NAME": "HOSPITAL DISTRICT NO. 1 OF DICKINSON COUNTY", "ST_FIPS": "20", "OWNER": "GOVERNMENT - DISTRICT/AUTHORITY", "TTL_STAFF": -999, "BEDS": 112, "TRAUMA": "NOT AVAILABLE", "HELIPAD": "Y" }, "geometry": { "type": "Polygon", "coordinates": [ [ [ -97.223596, 38.813197 ], [ -97.371768, 38.928428100000033 ], [ -97.3716967, 38.929578299999989 ], [ -97.3715967, 38.931075900000053 ], [ -97.203761, 39.020247 ], [ -97.202596, 39.020249 ], [ -97.111706, 38.988121 ], [ -97.074539, 38.958722 ], [ -97.0745363, 38.952437099999983 ], [ -97.109945, 38.898388 ], [ -97.111557, 38.897179 ], [ -97.223596, 38.813197 ] ] ] } },
{ "type": "Feature", "properties": { "OBJECTID": 2046, "ID": "0001167042", "NAME": "SUSAN B ALLEN MEMORIAL HOSPITAL", "ADDRESS": "720 W CENTRAL ST", "CITY": "EL DORADO", "STATE": "KS", "ZIP": "67042", "ZIP4": "NOT AVAILABLE", "TELEPHONE": "(316) 321-3300", "TYPE": "GENERAL ACUTE CARE", "STATUS": "OPEN", "POPULATION": 68, "COUNTY": "BUTLER", "COUNTYFIPS": "20015", "COUNTRY": "USA", "LATITUDE": 37.818284210000101, "LONGITUDE": -96.858900297000005, "NAICS_CODE": "622110", "NAICS_DESC": "GENERAL MEDICAL AND SURGICAL HOSPITALS", "SOURCE": "http://www.kdheks.gov/bhfr/fac_list/", "SOURCEDATE": "2018-08-16T00:00:00.000Z", "VAL_METHOD": "IMAGERY", "VAL_DATE": "2014-02-10T00:00:00.000Z", "WEBSITE": "http://www.sbamh.com", "STATE_ID": "H008002", "ALT_NAME": "SUSAN B ALLEN MEM HOSPITAL", "ST_FIPS": "20", "OWNER": "NON-PROFIT", "TTL_STAFF": -999, "BEDS": 68, "TRAUMA": "NOT AVAILABLE", "HELIPAD": "N" }, "geometry": { "type": "Polygon", "coordinates": [ [ [ -96.8442189, 37.69399959999997 ], [ -96.8447173, 37.693998700000023 ], [ -96.9856167, 37.7650746 ], [ -97.0214273, 37.79572090000002 ], [ -97.021444, 37.7959557 ], [ -97.0215099, 37.7977191 ], [ -96.9322681, 37.8899993 ], [ -96.8500199, 37.9326004 ], [ -96.7494113, 37.853894699999984 ], [ -96.7160976, 37.8105376 ], [ -96.8442189, 37.69399959999997 ] ] ] } },
{ "type": "Feature", "properties": { "OBJECTID": 2047, "ID": "0003267526", "NAME": "ELLINWOOD DISTRICT HOSPITAL", "ADDRESS": "605 N MAIN STREET", "CITY": "ELLINWOOD", "STATE": "KS", "ZIP": "67526", "ZIP4": "NOT AVAILABLE", "TELEPHONE": "(620) 564-2548", "TYPE": "CRITICAL ACCESS", "STATUS": "OPEN", "POPULATION": 25, "COUNTY": "BARTON", "COUNTYFIPS": "20009", "COUNTRY": "USA", "LATITUDE": 38.360328207000101, "LONGITUDE": -98.580649471999905, "NAICS_CODE": "622110", "NAICS_DESC": "GENERAL MEDICAL AND SURGICAL HOSPITALS", "SOURCE": "http://www.kdheks.gov/bhfr/fac_list/", "SOURCEDATE": "2018-08-16T00:00:00.000Z", "VAL_METHOD": "IMAGERY", "VAL_DATE": "2014-02-10T00:00:00.000Z", "WEBSITE": "http://www.ellinwood.org", "STATE_ID": "H005001", "ALT_NAME": "GREAT PLAINS HEALTH ALLIANCE INC", "ST_FIPS": "20", "OWNER": "NON-PROFIT", "TTL_STAFF": -999, "BEDS": 25, "TRAUMA": "NOT AVAILABLE", "HELIPAD": "Y" }, "geometry": { "type": "Polygon", "coordinates": [ [ [ -98.590678, 38.261078 ], [ -98.737469, 38.361689 ], [ -98.6637336, 38.4072583 ], [ -98.57273, 38.449344799999956 ], [ -98.517689, 38.4199251 ], [ -98.48057, 38.39105 ], [ -98.432292, 38.348229 ], [ -98.432335, 38.347606 ], [ -98.479576, 38.318367 ], [ -98.590678, 38.261078 ] ] ] } },
{ "type": "Feature", "properties": { "OBJECTID": 2048, "ID": "0003367439", "NAME": "ELLSWORTH COUNTY MEDICAL CENTER", "ADDRESS": "1604 AYLWARD AVENUE", "CITY": "ELLSWORTH", "STATE": "KS", "ZIP": "67439", "ZIP4": "NOT AVAILABLE", "TELEPHONE": "(785) 472-3111", "TYPE": "CRITICAL ACCESS", "STATUS": "OPEN", "POPULATION": 25, "COUNTY": "ELLSWORTH", "COUNTYFIPS": "20053", "COUNTRY": "USA", "LATITUDE": 38.742710972000097, "LONGITUDE": -98.219660482999998, "NAICS_CODE": "622110", "NAICS_DESC": "GENERAL MEDICAL AND SURGICAL HOSPITALS", "SOURCE": "http://www.kdheks.gov/bhfr/fac_list/", "SOURCEDATE": "2018-08-16T00:00:00.000Z", "VAL_METHOD": "IMAGERY", "VAL_DATE": "2014-02-10T00:00:00.000Z", "WEBSITE": "http://www.ellinwood.org", "STATE_ID": "H027001", "ALT_NAME": "ELLSWORTH COUNTY MEDICAL CENTER", "ST_FIPS": "20", "OWNER": "NON-PROFIT", "TTL_STAFF": -999, "BEDS": 25, "TRAUMA": "NOT AVAILABLE", "HELIPAD": "Y" }, "geometry": { "type": "Polygon", "coordinates": [ [ [ -98.238941, 38.638015 ], [ -98.3320673, 38.645259299999978 ], [ -98.3322595, 38.645491700000015 ], [ -98.337214, 38.748588 ], [ -98.337105, 38.754632 ], [ -98.230678, 38.856307 ], [ -98.225989, 38.856283 ], [ -98.113706, 38.8494763 ], [ -98.076626, 38.740131 ], [ -98.20195, 38.652752 ], [ -98.238941, 38.638015 ] ] ] } },
{ "type": "Feature", "properties": { "OBJECTID": 2051, "ID": "0006067951", "NAME": "STEVENS COUNTY HOSPITAL", "ADDRESS": "1006 S JACKSON", "CITY": "HUGOTON", "STATE": "KS", "ZIP": "67951", "ZIP4": "NOT AVAILABLE", "TELEPHONE": "(620) 544-6178", "TYPE": "CRITICAL ACCESS", "STATUS": "OPEN", "POPULATION": 100, "COUNTY": "STEVENS", "COUNTYFIPS": "20189", "COUNTRY": "USA", "LATITUDE": 37.1711117420001, "LONGITUDE": -101.349186295, "NAICS_CODE": "622110", "NAICS_DESC": "GENERAL MEDICAL AND SURGICAL HOSPITALS", "SOURCE": "http://www.kdheks.gov/bhfr/fac_list/", "SOURCEDATE": "2018-08-16T00:00:00.000Z", "VAL_METHOD": "IMAGERY", "VAL_DATE": "2014-02-10T00:00:00.000Z", "WEBSITE": "http://www.healthcarefor the heartland.org", "STATE_ID": "H095001", "ALT_NAME": "STEVENS COUNTY HOSPITAL", "ST_FIPS": "20", "OWNER": "GOVERNMENT - LOCAL", "TTL_STAFF": -999, "BEDS": 100, "TRAUMA": "NOT AVAILABLE", "HELIPAD": "N" }, "geometry": { "type": "Polygon", "coordinates": [ [ [ -101.320642, 37.112702 ], [ -101.483512, 37.126503 ], [ -101.50132, 37.139027 ], [ -101.501333300000013, 37.1451299 ], [ -101.5012664, 37.149435400000023 ], [ -101.483472, 37.170038 ], [ -101.3573907, 37.2717378 ], [ -101.339114, 37.279 ], [ -101.284619, 37.278764 ], [ -101.248827, 37.271576 ], [ -101.212337, 37.170084 ], [ -101.22139, 37.162773 ], [ -101.320642, 37.112702 ] ] ] } },
{ "type": "Feature", "properties": { "OBJECTID": 2053, "ID": "0008667455", "NAME": "LINCOLN COUNTY HOSPITAL", "ADDRESS": "624 N SECOND", "CITY": "LINCOLN", "STATE": "KS", "ZIP": "67455", "ZIP4": "NOT AVAILABLE", "TELEPHONE": "(785) 524-4403", "TYPE": "CRITICAL ACCESS", "STATUS": "OPEN", "POPULATION": 14, "COUNTY": "LINCOLN", "COUNTYFIPS": "20105", "COUNTRY": "USA", "LATITUDE": 39.045411836, "LONGITUDE": -98.143890584000005, "NAICS_CODE": "622110", "NAICS_DESC": "GENERAL MEDICAL AND SURGICAL HOSPITALS", "SOURCE": "http://www.kdheks.gov/bhfr/fac_list/", "SOURCEDATE": "2018-08-16T00:00:00.000Z", "VAL_METHOD": "IMAGERY", "VAL_DATE": "2014-01-09T00:00:00.000Z", "WEBSITE": "http://www.lchospital.org/", "STATE_ID": "H053001", "ALT_NAME": "LINCOLN COUNTY HOSPITAL", "ST_FIPS": "20", "OWNER": "GOVERNMENT - LOCAL", "TTL_STAFF": -999, "BEDS": 14, "TRAUMA": "NOT AVAILABLE", "HELIPAD": "N" }, "geometry": { "type": "Polygon", "coordinates": [ [ [ -98.151159, 38.942939 ], [ -98.310106, 39.044734 ], [ -98.1631656, 39.161394500000014 ], [ -98.153855, 39.161337 ], [ -98.107226, 39.132648 ], [ -97.974694, 39.030833 ], [ -97.9749391, 39.0240809 ], [ -98.0957234, 38.9578312 ], [ -98.151159, 38.942939 ] ] ] } },
{ "type": "Feature", "properties": { "OBJECTID": 2054, "ID": "0008367861", "NAME": "WICHITA COUNTY HEALTH CENTER", "ADDRESS": "211 E EARL STREET", "CITY": "LEOTI", "STATE": "KS", "ZIP": "67861", "ZIP4": "NOT AVAILABLE", "TELEPHONE": "(620) 375-2233", "TYPE": "GENERAL ACUTE CARE", "STATUS": "OPEN", "POPULATION": 37, "COUNTY": "WICHITA", "COUNTYFIPS": "20203", "COUNTRY": "USA", "LATITUDE": 38.475344481999997, "LONGITUDE": -101.35507830500001, "NAICS_CODE": "622110", "NAICS_DESC": "GENERAL MEDICAL AND SURGICAL HOSPITALS", "SOURCE": "http://www.kdheks.gov/bhfr/fac_list/", "SOURCEDATE": "2018-08-16T00:00:00.000Z", "VAL_METHOD": "IMAGERY", "VAL_DATE": "2014-02-10T00:00:00.000Z", "WEBSITE": "http://www.wichitacountyhealthcenter.com", "STATE_ID": "H102001", "ALT_NAME": "WICHITA COUNTY HEALTH CENTER", "ST_FIPS": "20", "OWNER": "GOVERNMENT - LOCAL", "TTL_STAFF": -999, "BEDS": 37, "TRAUMA": "NOT AVAILABLE", "HELIPAD": "N" }, "geometry": { "type": "Polygon", "coordinates": [ [ [ -101.347974, 38.394356 ], [ -101.403174, 38.394215 ], [ -101.50319, 38.48024 ], [ -101.368006, 38.597561 ], [ -101.183212, 38.481885 ], [ -101.314476, 38.405426 ], [ -101.347974, 38.394356 ] ] ] } },
{ "type": "Feature", "properties": { "OBJECTID": 2055, "ID": "0007467068", "NAME": "KINGMAN COMMUNITY HOSPITAL", "ADDRESS": "750 W AVE D", "CITY": "KINGMAN", "STATE": "KS", "ZIP": "67068", "ZIP4": "NOT AVAILABLE", "TELEPHONE": "(620) 532-3147", "TYPE": "CRITICAL ACCESS", "STATUS": "OPEN", "POPULATION": 25, "COUNTY": "KINGMAN", "COUNTYFIPS": "20095", "COUNTRY": "USA", "LATITUDE": 37.647648676000102, "LONGITUDE": -98.123219981000005, "NAICS_CODE": "622110", "NAICS_DESC": "GENERAL MEDICAL AND SURGICAL HOSPITALS", "SOURCE": "http://www.kdheks.gov/bhfr/fac_list/", "SOURCEDATE": "2018-08-16T00:00:00.000Z", "VAL_METHOD": "IMAGERY", "VAL_DATE": "2014-02-10T00:00:00.000Z", "WEBSITE": "http://www.kchks.com", "STATE_ID": "H048001", "ALT_NAME": "NINNESCAH VALLEY HEALTH SYSTEMS INC", "ST_FIPS": "20", "OWNER": "NON-PROFIT", "TTL_STAFF": -999, "BEDS": 25, "TRAUMA": "LEVEL IV", "HELIPAD": "Y" }, "geometry": { "type": "Polygon", "coordinates": [ [ [ -98.080915, 37.555739 ], [ -98.1174569, 37.5605801 ], [ -98.153815, 37.574742 ], [ -98.2824201, 37.630816599999982 ], [ -98.28796, 37.636717 ], [ -98.2911516, 37.645098 ], [ -98.2911418, 37.645390299999988 ], [ -98.190817, 37.718214 ], [ -98.118218, 37.729474 ], [ -98.026949, 37.697087 ], [ -97.9908534, 37.675802 ], [ -97.9864437, 37.668453800000016 ], [ -97.989536, 37.645526 ], [ -98.080915, 37.555739 ] ] ] } },
{ "type": "Feature", "properties": { "OBJECTID": 2359, "ID": "0008469021", "NAME": "DUNDY COUNTY HOSPITAL", "ADDRESS": "1313 NORTH CHEYENNE ST", "CITY": "BENKELMAN", "STATE": "NE", "ZIP": "69021", "ZIP4": "NOT AVAILABLE", "TELEPHONE": "(308) 423-2204", "TYPE": "CRITICAL ACCESS", "STATUS": "OPEN", "POPULATION": 14, "COUNTY": "DUNDY", "COUNTYFIPS": "31057", "COUNTRY": "USA", "LATITUDE": 40.056529178000098, "LONGITUDE": -101.537663485, "NAICS_CODE": "622110", "NAICS_DESC": "GENERAL MEDICAL AND SURGICAL HOSPITALS", "SOURCE": "http://dhhs.ne.gov/publichealth/Documents/Hospital%20Roster.pdf", "SOURCEDATE": "2018-08-09T00:00:00.000Z", "VAL_METHOD": "IMAGERY", "VAL_DATE": "2014-02-10T00:00:00.000Z", "WEBSITE": "http://www.bwtelcom.net/dch", "STATE_ID": "281340", "ALT_NAME": "NOT AVAILABLE", "ST_FIPS": "31", "OWNER": "GOVERNMENT - LOCAL", "TTL_STAFF": -999, "BEDS": 14, "TRAUMA": "LEVEL IV", "HELIPAD": "Y" }, "geometry": { "type": "Polygon", "coordinates": [ [ [ -101.487029972343421, 39.981120992540333 ], [ -101.505138964948486, 39.981128989977975 ], [ -101.575317901194097, 39.988768991694528 ], [ -101.627075, 40.002513 ], [ -101.6256867, 40.104936800000011 ], [ -101.587587, 40.148242 ], [ -101.530658, 40.192483 ], [ -101.362556, 40.124956 ], [ -101.419188, 40.046082 ], [ -101.432694, 40.031675 ], [ -101.487029972343421, 39.981120992540333 ] ] ] } },
{ "type": "Feature", "properties": { "OBJECTID": 2820, "ID": "0001767730", "NAME": "RAWLINS COUNTY HEALTH CENTER", "ADDRESS": "707 GRANT ST", "CITY": "ATWOOD", "STATE": "KS", "ZIP": "67730", "ZIP4": "NOT AVAILABLE", "TELEPHONE": "(785) 626-3211", "TYPE": "CRITICAL ACCESS", "STATUS": "OPEN", "POPULATION": 24, "COUNTY": "RAWLINS", "COUNTYFIPS": "20153", "COUNTRY": "USA", "LATITUDE": 39.813889604000103, "LONGITUDE": -101.038342587, "NAICS_CODE": "622110", "NAICS_DESC": "GENERAL MEDICAL AND SURGICAL HOSPITALS", "SOURCE": "http://www.kdheks.gov/bhfr/fac_list/", "SOURCEDATE": "2018-08-16T00:00:00.000Z", "VAL_METHOD": "IMAGERY", "VAL_DATE": "2014-02-10T00:00:00.000Z", "WEBSITE": "http://www.rchc.us", "STATE_ID": "H077001", "ALT_NAME": "RAWLINS COUNTY HEALTH CENTER", "ST_FIPS": "20", "OWNER": "GOVERNMENT - LOCAL", "TTL_STAFF": -999, "BEDS": 24, "TRAUMA": "LEVEL IV", "HELIPAD": "Y" }, "geometry": { "type": "Polygon", "coordinates": [ [ [ -101.056374, 39.712708 ], [ -101.2113582, 39.78490840000002 ], [ -101.051269268454845, 39.907654096141464 ], [ -101.046529273703939, 39.907663095680348 ], [ -100.962371, 39.877881 ], [ -100.8389532, 39.813263299999981 ], [ -101.056374, 39.712708 ] ] ] } },
{ "type": "Feature", "properties": { "OBJECTID": 2822, "ID": "0003067801", "NAME": "WESTERN PLAINS MEDICAL COMPLEX", "ADDRESS": "3001 AVENUE A", "CITY": "DODGE CITY", "STATE": "KS", "ZIP": "67801", "ZIP4": "NOT AVAILABLE", "TELEPHONE": "(620) 225-8400", "TYPE": "GENERAL ACUTE CARE", "STATUS": "OPEN", "POPULATION": 99, "COUNTY": "FORD", "COUNTYFIPS": "20057", "COUNTRY": "USA", "LATITUDE": 37.786276252999997, "LONGITUDE": -100.017405482, "NAICS_CODE": "622110", "NAICS_DESC": "GENERAL MEDICAL AND SURGICAL HOSPITALS", "SOURCE": "http://www.kdheks.gov/bhfr/fac_list/", "SOURCEDATE": "2018-08-16T00:00:00.000Z", "VAL_METHOD": "IMAGERY", "VAL_DATE": "2014-01-09T00:00:00.000Z", "WEBSITE": "http://www.westernplainsmc.com", "STATE_ID": "H029002", "ALT_NAME": "DODGE CITY HEALTHCARE GROUP LLC", "ST_FIPS": "20", "OWNER": "PROPRIETARY", "TTL_STAFF": -999, "BEDS": 99, "TRAUMA": "NOT AVAILABLE", "HELIPAD": "Y" }, "geometry": { "type": "Polygon", "coordinates": [ [ [ -100.015105, 37.677579 ], [ -100.069832, 37.707529 ], [ -100.0881735, 37.717610499999971 ], [ -100.16477, 37.777988 ], [ -100.045586, 37.869452 ], [ -99.972716, 37.84039 ], [ -99.869324, 37.794297 ], [ -99.869612, 37.778625 ], [ -99.930774, 37.728604 ], [ -100.015105, 37.677579 ] ] ] } },
{ "type": "Feature", "properties": { "OBJECTID": 2824, "ID": "0005267950", "NAME": "MORTON COUNTY HOSPITAL", "ADDRESS": "445 N HILLTOP", "CITY": "ELKHART", "STATE": "KS", "ZIP": "67950", "ZIP4": "NOT AVAILABLE", "TELEPHONE": "(620) 697-2141", "TYPE": "GENERAL ACUTE CARE", "STATUS": "OPEN", "POPULATION": 120, "COUNTY": "MORTON", "COUNTYFIPS": "20129", "COUNTRY": "USA", "LATITUDE": 37.0017836600001, "LONGITUDE": -101.90533469099999, "NAICS_CODE": "622110", "NAICS_DESC": "GENERAL MEDICAL AND SURGICAL HOSPITALS", "SOURCE": "http://www.kdheks.gov/bhfr/fac_list/", "SOURCEDATE": "2018-08-16T00:00:00.000Z", "VAL_METHOD": "IMAGERY", "VAL_DATE": "2014-02-10T00:00:00.000Z", "WEBSITE": "http://www.mchswecare.com", "STATE_ID": "H065001", "ALT_NAME": "MORTON COUNTY HOSPITAL", "ST_FIPS": "20", "OWNER": "GOVERNMENT - LOCAL", "TTL_STAFF": -999, "BEDS": 120, "TRAUMA": "NOT AVAILABLE", "HELIPAD": "N" }, "geometry": { "type": "Polygon", "coordinates": [ [ [ -101.885446, 36.993743700000039 ], [ -101.9022461, 36.993173 ], [ -101.9049684, 36.9936351 ], [ -101.989542998696564, 37.010395011782251 ], [ -101.989629994709304, 37.01227001563656 ], [ -101.93737891291083, 37.059541048204146 ], [ -101.899722908911784, 37.06861101808834 ], [ -101.772783155041708, 37.075398699776322 ], [ -101.77279914782909, 37.073879767601873 ], [ -101.808905014809966, 37.025173851177868 ], [ -101.82675103494725, 37.010622850480566 ], [ -101.885446, 36.993743700000039 ] ] ] } },
{ "type": "Feature", "properties": { "OBJECTID": 2825, "ID": "0004767735", "NAME": "GOODLAND REGIONAL MEDICAL CENTER", "ADDRESS": "220 WEST SECOND STREET", "CITY": "GOODLAND", "STATE": "KS", "ZIP": "67735", "ZIP4": "NOT AVAILABLE", "TELEPHONE": "(785) 890-3625", "TYPE": "CRITICAL ACCESS", "STATUS": "OPEN", "POPULATION": 25, "COUNTY": "SHERMAN", "COUNTYFIPS": "20181", "COUNTRY": "USA", "LATITUDE": 39.357975117000102, "LONGITUDE": -101.713749009, "NAICS_CODE": "622110", "NAICS_DESC": "GENERAL MEDICAL AND SURGICAL HOSPITALS", "SOURCE": "http://www.kdheks.gov/bhfr/fac_list/", "SOURCEDATE": "2018-08-16T00:00:00.000Z", "VAL_METHOD": "IMAGERY", "VAL_DATE": "2014-02-10T00:00:00.000Z", "WEBSITE": "http://www.goodlandregional.com", "STATE_ID": "H091001", "ALT_NAME": "GOODLAND REGIONAL MED CTR", "ST_FIPS": "20", "OWNER": "GOVERNMENT - LOCAL", "TTL_STAFF": -999, "BEDS": 25, "TRAUMA": "NOT AVAILABLE", "HELIPAD": "N" }, "geometry": { "type": "Polygon", "coordinates": [ [ [ -101.7258669, 39.2641662 ], [ -101.8714214, 39.3293835 ], [ -101.707393, 39.452622 ], [ -101.670131, 39.409362 ], [ -101.608336, 39.336911 ], [ -101.7258669, 39.2641662 ] ] ] } },
{ "type": "Feature", "properties": { "OBJECTID": 2826, "ID": "0005467063", "NAME": "HILLSBORO COMMUNITY HOSPITAL", "ADDRESS": "701 S MAIN STREET", "CITY": "HILLSBORO", "STATE": "KS", "ZIP": "67063", "ZIP4": "NOT AVAILABLE", "TELEPHONE": "(620) 947-3114", "TYPE": "CRITICAL ACCESS", "STATUS": "OPEN", "POPULATION": 15, "COUNTY": "MARION", "COUNTYFIPS": "20115", "COUNTRY": "USA", "LATITUDE": 38.3447802580001, "LONGITUDE": -97.204838542999894, "NAICS_CODE": "622110", "NAICS_DESC": "GENERAL MEDICAL AND SURGICAL HOSPITALS", "SOURCE": "http://www.kdheks.gov/bhfr/fac_list/", "SOURCEDATE": "2018-08-16T00:00:00.000Z", "VAL_METHOD": "IMAGERY", "VAL_DATE": "2014-01-09T00:00:00.000Z", "WEBSITE": "http://www.hchks.com", "STATE_ID": "H057002", "ALT_NAME": "CAH ACQUISITION COMPANY #5 LLC", "ST_FIPS": "20", "OWNER": "PROPRIETARY", "TTL_STAFF": -999, "BEDS": 15, "TRAUMA": "NOT AVAILABLE", "HELIPAD": "N" }, "geometry": { "type": "Polygon", "coordinates": [ [ [ -97.20718, 38.232973 ], [ -97.2436318, 38.26084190000001 ], [ -97.2796139, 38.2898461 ], [ -97.353316, 38.362522 ], [ -97.3533358, 38.3632891 ], [ -97.224652, 38.464116 ], [ -97.058688, 38.3629332 ], [ -97.05863, 38.350216 ], [ -97.058629, 38.34817 ], [ -97.169142, 38.260810799999952 ], [ -97.20718, 38.232973 ] ] ] } },
{ "type": "Feature", "properties": { "OBJECTID": 2827, "ID": "0005967740", "NAME": "SHERIDAN COUNTY HOSPITAL", "ADDRESS": "826  18TH STREET", "CITY": "HOXIE", "STATE": "KS", "ZIP": "67740", "ZIP4": "NOT AVAILABLE", "TELEPHONE": "(785) 675-3281", "TYPE": "CRITICAL ACCESS", "STATUS": "OPEN", "POPULATION": 53, "COUNTY": "SHERIDAN", "COUNTYFIPS": "20179", "COUNTRY": "USA", "LATITUDE": 39.354391809, "LONGITUDE": -100.43198935300001, "NAICS_CODE": "622110", "NAICS_DESC": "GENERAL MEDICAL AND SURGICAL HOSPITALS", "SOURCE": "http://www.kdheks.gov/bhfr/fac_list/", "SOURCEDATE": "2018-08-16T00:00:00.000Z", "VAL_METHOD": "IMAGERY", "VAL_DATE": "2014-02-10T00:00:00.000Z", "WEBSITE": "http://www.sheridancountyhospital.com", "STATE_ID": "H090001", "ALT_NAME": "SHERIDAN COUNTY HOSPITAL", "ST_FIPS": "20", "OWNER": "GOVERNMENT - LOCAL", "TTL_STAFF": -999, "BEDS": 53, "TRAUMA": "NOT AVAILABLE", "HELIPAD": "N" }, "geometry": { "type": "Polygon", "coordinates": [ [ [ -100.44271, 39.24909 ], [ -100.46108, 39.263533 ], [ -100.5904323, 39.3792661 ], [ -100.448299, 39.480904 ], [ -100.445436, 39.480911 ], [ -100.4417168, 39.480912 ], [ -100.255785, 39.356831 ], [ -100.2549901, 39.3538281 ], [ -100.255815, 39.352472 ], [ -100.44271, 39.24909 ] ] ] } },
{ "type": "Feature", "properties": { "OBJECTID": 2829, "ID": "0006367854", "NAME": "HODGEMAN COUNTY HEALTH CENTER", "ADDRESS": "809 BRAMLEY", "CITY": "JETMORE", "STATE": "KS", "ZIP": "67854", "ZIP4": "NOT AVAILABLE", "TELEPHONE": "(620) 357-8361", "TYPE": "CRITICAL ACCESS", "STATUS": "OPEN", "POPULATION": 38, "COUNTY": "HODGEMAN", "COUNTYFIPS": "20083", "COUNTRY": "USA", "LATITUDE": 38.083252739000002, "LONGITUDE": -99.903364398999898, "NAICS_CODE": "622110", "NAICS_DESC": "GENERAL MEDICAL AND SURGICAL HOSPITALS", "SOURCE": "http://www.kdheks.gov/bhfr/fac_list/", "SOURCEDATE": "2018-08-16T00:00:00.000Z", "VAL_METHOD": "IMAGERY", "VAL_DATE": "2014-02-10T00:00:00.000Z", "WEBSITE": "http://www.hchconline.org", "STATE_ID": "H042001", "ALT_NAME": "HODGEMAN COUNTY HEALTH CENTER", "ST_FIPS": "20", "OWNER": "GOVERNMENT - LOCAL", "TTL_STAFF": -999, "BEDS": 38, "TRAUMA": "NOT AVAILABLE", "HELIPAD": "N" }, "geometry": { "type": "Polygon", "coordinates": [ [ [ -99.899557, 37.95714 ], [ -100.04547, 38.05823 ], [ -100.045527, 38.087239 ], [ -99.899283, 38.189902 ], [ -99.739734, 38.102151 ], [ -99.899557, 37.95714 ] ] ] } },
{ "type": "Feature", "properties": { "OBJECTID": 2832, "ID": "0007667864", "NAME": "MEADE DISTRICT HOSPITAL", "ADDRESS": "510 E CARTHAGE", "CITY": "MEADE", "STATE": "KS", "ZIP": "67864", "ZIP4": "NOT AVAILABLE", "TELEPHONE": "(620) 873-2141", "TYPE": "CRITICAL ACCESS", "STATUS": "OPEN", "POPULATION": 20, "COUNTY": "MEADE", "COUNTYFIPS": "20119", "COUNTRY": "USA", "LATITUDE": 37.286599617, "LONGITUDE": -100.33408992, "NAICS_CODE": "622110", "NAICS_DESC": "GENERAL MEDICAL AND SURGICAL HOSPITALS", "SOURCE": "http://www.kdheks.gov/bhfr/fac_list/", "SOURCEDATE": "2018-08-16T00:00:00.000Z", "VAL_METHOD": "IMAGERY", "VAL_DATE": "2014-01-09T00:00:00.000Z", "WEBSITE": "http://www.meadehospital.com", "STATE_ID": "H060001", "ALT_NAME": "MEADE DISTRICT HOSPITAL", "ST_FIPS": "20", "OWNER": "GOVERNMENT - DISTRICT/AUTHORITY", "TTL_STAFF": -999, "BEDS": 20, "TRAUMA": "NOT AVAILABLE", "HELIPAD": "N" }, "geometry": { "type": "Polygon", "coordinates": [ [ [ -100.3444592, 37.169248500000016 ], [ -100.3454914, 37.16928379999996 ], [ -100.489542, 37.285782 ], [ -100.343347, 37.416598 ], [ -100.226825, 37.358676 ], [ -100.224537, 37.355379 ], [ -100.181878, 37.28534 ], [ -100.199728, 37.27175 ], [ -100.3444592, 37.169248500000016 ] ] ] } },
{ "type": "Feature", "properties": { "OBJECTID": 4033, "ID": "0014867214", "NAME": "SELECT SPECIALTY HOSPITAL WICHITA", "ADDRESS": "929 NORTH ST FRANCIS, 5TH & 6TH FLOORS", "CITY": "WICHITA", "STATE": "KS", "ZIP": "67214", "ZIP4": "NOT AVAILABLE", "TELEPHONE": "(316) 261-8303", "TYPE": "LONG TERM CARE", "STATUS": "OPEN", "POPULATION": 60, "COUNTY": "SEDGWICK", "COUNTYFIPS": "20173", "COUNTRY": "USA", "LATITUDE": 37.699470562999998, "LONGITUDE": -97.331306223, "NAICS_CODE": "622310", "NAICS_DESC": "SPECIALTY (EXCEPT PSYCHIATRIC AND SUBSTANCE ABUSE) HOSPITALS", "SOURCE": "http://www.kdheks.gov/bhfr/fac_list/", "SOURCEDATE": "2018-08-16T00:00:00.000Z", "VAL_METHOD": "IMAGERY", "VAL_DATE": "2014-03-12T00:00:00.000Z", "WEBSITE": "http://www.selectspecialtyhospitals.com/company/locations/wichita.a spx", "STATE_ID": "H087010", "ALT_NAME": "SELECT SPECIALTY HOSPITAL WICHITA", "ST_FIPS": "20", "OWNER": "PROPRIETARY", "TTL_STAFF": -999, "BEDS": 60, "TRAUMA": "NOT AVAILABLE", "HELIPAD": "Y" }, "geometry": { "type": "Polygon", "coordinates": [ [ [ -97.333969700000011, 37.578948700000012 ], [ -97.335883, 37.578961 ], [ -97.4739752, 37.6646646 ], [ -97.444494, 37.723037 ], [ -97.441957, 37.726692 ], [ -97.4097003, 37.761874200000044 ], [ -97.3263744, 37.8209405 ], [ -97.2669813, 37.7958272 ], [ -97.2013491, 37.708442599999984 ], [ -97.1983297, 37.6791405 ], [ -97.2799641, 37.605328900000011 ], [ -97.2854258, 37.600572900000017 ], [ -97.333969700000011, 37.578948700000012 ] ] ] } },
{ "type": "Feature", "properties": { "OBJECTID": 4204, "ID": "0008267107", "NAME": "MERCY HOSPITAL", "ADDRESS": "218 E PACK ST", "CITY": "MOUNDRIDGE", "STATE": "KS", "ZIP": "67107", "ZIP4": "NOT AVAILABLE", "TELEPHONE": "(620) 345-6391", "TYPE": "GENERAL ACUTE CARE", "STATUS": "OPEN", "POPULATION": 21, "COUNTY": "MCPHERSON", "COUNTYFIPS": "20113", "COUNTRY": "USA", "LATITUDE": 38.205281136000103, "LONGITUDE": -97.516893113999998, "NAICS_CODE": "622110", "NAICS_DESC": "GENERAL MEDICAL AND SURGICAL HOSPITALS", "SOURCE": "http://www.kdheks.gov/bhfr/fac_list/", "SOURCEDATE": "2018-08-16T00:00:00.000Z", "VAL_METHOD": "IMAGERY", "VAL_DATE": "2014-02-10T00:00:00.000Z", "WEBSITE": "http://www.mercyh.org/", "STATE_ID": "H059003", "ALT_NAME": "MERCY HOSPITAL INC", "ST_FIPS": "20", "OWNER": "NON-PROFIT", "TTL_STAFF": -999, "BEDS": 21, "TRAUMA": "NOT AVAILABLE", "HELIPAD": "N" }, "geometry": { "type": "Polygon", "coordinates": [ [ [ -97.5189399, 38.13051249999998 ], [ -97.5557536, 38.130497599999956 ], [ -97.610706, 38.170446 ], [ -97.6474111, 38.203029499999971 ], [ -97.647409, 38.217547 ], [ -97.630215, 38.289754 ], [ -97.611988, 38.3026 ], [ -97.521412, 38.320987 ], [ -97.519147, 38.320939 ], [ -97.4081998, 38.231920200000054 ], [ -97.390116, 38.217303 ], [ -97.39015, 38.18817 ], [ -97.4085781, 38.173676900000018 ], [ -97.4269443, 38.15931760000003 ], [ -97.445449900000014, 38.1448494 ], [ -97.5189399, 38.13051249999998 ] ] ] } },
{ "type": "Feature", "properties": { "OBJECTID": 4340, "ID": "0000267002", "NAME": "KANSAS MEDICAL CENTER LLC", "ADDRESS": "1124 WEST 21ST STREET", "CITY": "ANDOVER", "STATE": "KS", "ZIP": "67002", "ZIP4": "NOT AVAILABLE", "TELEPHONE": "(316) 300-4000", "TYPE": "GENERAL ACUTE CARE", "STATUS": "OPEN", "POPULATION": 58, "COUNTY": "BUTLER", "COUNTYFIPS": "20015", "COUNTRY": "USA", "LATITUDE": 37.724296641000102, "LONGITUDE": -97.147307462999905, "NAICS_CODE": "622110", "NAICS_DESC": "GENERAL MEDICAL AND SURGICAL HOSPITALS", "SOURCE": "http://www.kdheks.gov/bhfr/fac_list/", "SOURCEDATE": "2018-08-16T00:00:00.000Z", "VAL_METHOD": "IMAGERY", "VAL_DATE": "2014-01-09T00:00:00.000Z", "WEBSITE": "http://ksmedcenter.com/", "STATE_ID": "H008003", "ALT_NAME": "KANSAS MEDICAL CENTER LLC", "ST_FIPS": "20", "OWNER": "PROPRIETARY", "TTL_STAFF": -999, "BEDS": 58, "TRAUMA": "NOT AVAILABLE", "HELIPAD": "N" }, "geometry": { "type": "Polygon", "coordinates": [ [ [ -97.1353417, 37.621404399999982 ], [ -97.207839, 37.658581 ], [ -97.24445, 37.677891600000038 ], [ -97.271876, 37.708385 ], [ -97.295006200000017, 37.74365380000004 ], [ -97.280642, 37.752262 ], [ -97.2453304, 37.7730026 ], [ -97.1348089, 37.825195800000046 ], [ -96.9773421, 37.7672733 ], [ -97.0435452, 37.679607199999985 ], [ -97.1353417, 37.621404399999982 ] ] ] } },
{ "type": "Feature", "properties": { "OBJECTID": 4341, "ID": "0002667502", "NAME": "SUMMIT SURGICAL LLC", "ADDRESS": "1818 EAST 23RD AVENUE", "CITY": "HUTCHINSON", "STATE": "KS", "ZIP": "67502", "ZIP4": "NOT AVAILABLE", "TELEPHONE": "(620) 663-4800", "TYPE": "GENERAL ACUTE CARE", "STATUS": "OPEN", "POPULATION": 10, "COUNTY": "RENO", "COUNTYFIPS": "20155", "COUNTRY": "USA", "LATITUDE": 38.080216012999998, "LONGITUDE": -97.888505269999897, "NAICS_CODE": "622110", "NAICS_DESC": "GENERAL MEDICAL AND SURGICAL HOSPITALS", "SOURCE": "http://www.kdheks.gov/bhfr/fac_list/", "SOURCEDATE": "2018-08-16T00:00:00.000Z", "VAL_METHOD": "IMAGERY", "VAL_DATE": "2014-01-09T00:00:00.000Z", "WEBSITE": "http://summitks.com/", "STATE_ID": "H078004", "ALT_NAME": "SUMMIT SURGICAL LLC", "ST_FIPS": "20", "OWNER": "PROPRIETARY", "TTL_STAFF": -999, "BEDS": 10, "TRAUMA": "NOT AVAILABLE", "HELIPAD": "N" }, "geometry": { "type": "Polygon", "coordinates": [ [ [ -97.8669305, 37.9993897 ], [ -97.9402089, 38.0112603 ], [ -97.9431066, 38.013239900000038 ], [ -97.9449761, 38.014575799999989 ], [ -97.9727959, 38.07159979999998 ], [ -97.9776634, 38.1149268 ], [ -97.9714214, 38.121519200000037 ], [ -97.922132, 38.159165300000012 ], [ -97.867022, 38.17369 ], [ -97.830168, 38.175855 ], [ -97.8246665, 38.173615699999942 ], [ -97.7387216, 38.0866105 ], [ -97.8116691, 38.028296200000042 ], [ -97.8669305, 37.9993897 ] ] ] } },
{ "type": "Feature", "properties": { "OBJECTID": 4343, "ID": "0004267846", "NAME": "ST CATHERINE HOSPITAL", "ADDRESS": "401 EAST SPRUCE", "CITY": "GARDEN CITY", "STATE": "KS", "ZIP": "67846", "ZIP4": "NOT AVAILABLE", "TELEPHONE": "(620) 272-2222", "TYPE": "GENERAL ACUTE CARE", "STATUS": "OPEN", "POPULATION": 132, "COUNTY": "FINNEY", "COUNTYFIPS": "20055", "COUNTRY": "USA", "LATITUDE": 37.969866548, "LONGITUDE": -100.868387832, "NAICS_CODE": "622110", "NAICS_DESC": "GENERAL MEDICAL AND SURGICAL HOSPITALS", "SOURCE": "http://www.kdheks.gov/bhfr/fac_list/", "SOURCEDATE": "2018-08-16T00:00:00.000Z", "VAL_METHOD": "IMAGERY", "VAL_DATE": "2014-02-10T00:00:00.000Z", "WEBSITE": "http://www.stcath-hosp.org", "STATE_ID": "H028001", "ALT_NAME": "CATHOLIC HEALTH INITIATIVES", "ST_FIPS": "20", "OWNER": "NON-PROFIT", "TTL_STAFF": -999, "BEDS": 132, "TRAUMA": "NOT AVAILABLE", "HELIPAD": "Y" }, "geometry": { "type": "Polygon", "coordinates": [ [ [ -100.870517, 37.844151 ], [ -100.888278, 37.858791 ], [ -100.9474746, 37.916777200000055 ], [ -100.993251, 37.974026 ], [ -101.011661, 38.003587 ], [ -100.883502, 38.088658 ], [ -100.737273, 38.032073 ], [ -100.7193695, 37.9451287 ], [ -100.870517, 37.844151 ] ] ] } },
{ "type": "Feature", "properties": { "OBJECTID": 4344, "ID": "0008567114", "NAME": "NEWTON MEDICAL CENTER", "ADDRESS": "600 MEDICAL CENTER DRIVE", "CITY": "NEWTON", "STATE": "KS", "ZIP": "67114", "ZIP4": "NOT AVAILABLE", "TELEPHONE": "(316) 283-2700", "TYPE": "GENERAL ACUTE CARE", "STATUS": "OPEN", "POPULATION": 103, "COUNTY": "HARVEY", "COUNTYFIPS": "20079", "COUNTRY": "USA", "LATITUDE": 38.022969444000097, "LONGITUDE": -97.332904228000004, "NAICS_CODE": "622110", "NAICS_DESC": "GENERAL MEDICAL AND SURGICAL HOSPITALS", "SOURCE": "http://www.kdheks.gov/bhfr/fac_list/", "SOURCEDATE": "2018-08-16T00:00:00.000Z", "VAL_METHOD": "IMAGERY", "VAL_DATE": "2014-02-10T00:00:00.000Z", "WEBSITE": "http://www.newtonmedicalcenter.com", "STATE_ID": "H040002", "ALT_NAME": "NEWTON HEALTHCARE CORPORATION", "ST_FIPS": "20", "OWNER": "NON-PROFIT", "TTL_STAFF": -999, "BEDS": 103, "TRAUMA": "NOT AVAILABLE", "HELIPAD": "N" }, "geometry": { "type": "Polygon", "coordinates": [ [ [ -97.318054, 37.906213 ], [ -97.3472748, 37.912183 ], [ -97.4819376, 38.028490399999974 ], [ -97.3902991, 38.103128899999987 ], [ -97.3446288, 38.129862599999967 ], [ -97.2555087, 38.1200185 ], [ -97.2530795, 38.117715299999986 ], [ -97.2465491, 38.102094200000032 ], [ -97.2454759, 38.086761500000023 ], [ -97.2453661, 38.072197299999956 ], [ -97.245284400000017, 38.0434658 ], [ -97.2633228, 37.955635099999959 ], [ -97.318054, 37.906213 ] ] ] } },
{ "type": "Feature", "properties": { "OBJECTID": 4345, "ID": "0009467560", "NAME": "NESS COUNTY HOSPITAL", "ADDRESS": "312 CUSTER STREET", "CITY": "NESS CITY", "STATE": "KS", "ZIP": "67560", "ZIP4": "NOT AVAILABLE", "TELEPHONE": "(785) 798-2291", "TYPE": "GENERAL ACUTE CARE", "STATUS": "OPEN", "POPULATION": 63, "COUNTY": "NESS", "COUNTYFIPS": "20135", "COUNTRY": "USA", "LATITUDE": 38.458253386000003, "LONGITUDE": -99.901640767999893, "NAICS_CODE": "622110", "NAICS_DESC": "GENERAL MEDICAL AND SURGICAL HOSPITALS", "SOURCE": "http://www.kdheks.gov/bhfr/fac_list/", "SOURCEDATE": "2018-08-16T00:00:00.000Z", "VAL_METHOD": "IMAGERY", "VAL_DATE": "2014-01-09T00:00:00.000Z", "WEBSITE": "http://www.nesscountyhospital.com/", "STATE_ID": "H068001", "ALT_NAME": "NESS COUNTY HOSPITAL DISTRICT #2", "ST_FIPS": "20", "OWNER": "GOVERNMENT - DISTRICT/AUTHORITY", "TTL_STAFF": -999, "BEDS": 63, "TRAUMA": "NOT AVAILABLE", "HELIPAD": "N" }, "geometry": { "type": "Polygon", "coordinates": [ [ [ -99.897718, 38.333998 ], [ -100.0637258, 38.449890199999977 ], [ -99.900336, 38.566523 ], [ -99.733474, 38.451049399999974 ], [ -99.897718, 38.333998 ] ] ] } },
{ "type": "Feature", "properties": { "OBJECTID": 4346, "ID": "0009767748", "NAME": "LOGAN COUNTY HOSPITAL", "ADDRESS": "211 CHERRY AVENUE", "CITY": "OAKLEY", "STATE": "KS", "ZIP": "67748", "ZIP4": "NOT AVAILABLE", "TELEPHONE": "(785) 672-3211", "TYPE": "GENERAL ACUTE CARE", "STATUS": "OPEN", "POPULATION": 71, "COUNTY": "LOGAN", "COUNTYFIPS": "20109", "COUNTRY": "USA", "LATITUDE": 39.127100906000102, "LONGITUDE": -100.86295429899999, "NAICS_CODE": "622110", "NAICS_DESC": "GENERAL MEDICAL AND SURGICAL HOSPITALS", "SOURCE": "http://www.kdheks.gov/bhfr/fac_list/", "SOURCEDATE": "2018-08-16T00:00:00.000Z", "VAL_METHOD": "IMAGERY", "VAL_DATE": "2014-02-10T00:00:00.000Z", "WEBSITE": "http://www.logancountyhospital.org", "STATE_ID": "H055001", "ALT_NAME": "THE LOGAN COUNTY HEALTHCARE FOUNDATION INC", "ST_FIPS": "20", "OWNER": "GOVERNMENT - LOCAL", "TTL_STAFF": -999, "BEDS": 71, "TRAUMA": "NOT AVAILABLE", "HELIPAD": "N" }, "geometry": { "type": "Polygon", "coordinates": [ [ [ -100.8508808, 39.018130700000015 ], [ -100.86940890000001, 39.018037800000016 ], [ -101.0348363, 39.104092200000011 ], [ -100.870216, 39.263751 ], [ -100.7196109, 39.1189025 ], [ -100.7200191, 39.104444699999974 ], [ -100.7388838, 39.090770499999969 ], [ -100.8508808, 39.018130700000015 ] ] ] } },
{ "type": "Feature", "properties": { "OBJECTID": 4351, "ID": "0011867401", "NAME": "SALINA REGIONAL HEALTH CENTER", "ADDRESS": "400 SOUTH SANTA FE AVENUE", "CITY": "SALINA", "STATE": "KS", "ZIP": "67401", "ZIP4": "NOT AVAILABLE", "TELEPHONE": "(785) 452-7000", "TYPE": "GENERAL ACUTE CARE", "STATUS": "OPEN", "POPULATION": 198, "COUNTY": "SALINE", "COUNTYFIPS": "20169", "COUNTRY": "USA", "LATITUDE": 38.833433699000103, "LONGITUDE": -97.610031348000007, "NAICS_CODE": "622110", "NAICS_DESC": "GENERAL MEDICAL AND SURGICAL HOSPITALS", "SOURCE": "http://www.kdheks.gov/bhfr/fac_list/", "SOURCEDATE": "2018-08-16T00:00:00.000Z", "VAL_METHOD": "IMAGERY", "VAL_DATE": "2014-03-12T00:00:00.000Z", "WEBSITE": "http://www.srhc.com", "STATE_ID": "H085001", "ALT_NAME": "SALINA REGIONAL HEALTH CENTER INC", "ST_FIPS": "20", "OWNER": "NON-PROFIT", "TTL_STAFF": -999, "BEDS": 198, "TRAUMA": "LEVEL III", "HELIPAD": "Y" }, "geometry": { "type": "Polygon", "coordinates": [ [ [ -97.6132719, 38.7254014 ], [ -97.6316175, 38.725440299999988 ], [ -97.7429826, 38.80526940000005 ], [ -97.7428959, 38.8417695 ], [ -97.6404812, 38.957927200000022 ], [ -97.5934809, 38.9322121 ], [ -97.5016952, 38.881424200000055 ], [ -97.4834002, 38.8417398 ], [ -97.4913387, 38.812754199999986 ], [ -97.5946318, 38.737950799999943 ], [ -97.6132719, 38.7254014 ] ] ] } },
{ "type": "Feature", "properties": { "OBJECTID": 4352, "ID": "0011967752", "NAME": "GOVE COUNTY MEDICAL CENTER", "ADDRESS": "520 WEST 5TH STREET", "CITY": "QUINTER", "STATE": "KS", "ZIP": "67752", "ZIP4": "NOT AVAILABLE", "TELEPHONE": "(785) 754-3341", "TYPE": "GENERAL ACUTE CARE", "STATUS": "OPEN", "POPULATION": 70, "COUNTY": "GOVE", "COUNTYFIPS": "20063", "COUNTRY": "USA", "LATITUDE": 39.067573568999997, "LONGITUDE": -100.240715854, "NAICS_CODE": "622110", "NAICS_DESC": "GENERAL MEDICAL AND SURGICAL HOSPITALS", "SOURCE": "http://www.kdheks.gov/bhfr/fac_list/", "SOURCEDATE": "2018-08-16T00:00:00.000Z", "VAL_METHOD": "IMAGERY", "VAL_DATE": "2014-02-10T00:00:00.000Z", "WEBSITE": "http://www.gcmc.ws", "STATE_ID": "H032001", "ALT_NAME": "GOVE COUNTY MEDICAL CENTER", "ST_FIPS": "20", "OWNER": "GOVERNMENT - LOCAL", "TTL_STAFF": -999, "BEDS": 70, "TRAUMA": "NOT AVAILABLE", "HELIPAD": "N" }, "geometry": { "type": "Polygon", "coordinates": [ [ [ -100.2240231, 38.97308 ], [ -100.2425204, 38.973187 ], [ -100.2792865, 38.988078199999954 ], [ -100.4303776, 39.100171500000037 ], [ -100.3693306, 39.1190031 ], [ -100.312519, 39.133524 ], [ -100.275387, 39.139908 ], [ -100.209266, 39.117877 ], [ -100.156053, 39.074398 ], [ -100.140004, 39.045439 ], [ -100.1675796, 39.016291400000028 ], [ -100.2052237, 38.987457100000022 ], [ -100.2240231, 38.97308 ] ] ] } },
{ "type": "Feature", "properties": { "OBJECTID": 4353, "ID": "0012167572", "NAME": "GRISELL MEMORIAL HOSPITAL", "ADDRESS": "210 SOUTH VERMONT AVENUE", "CITY": "RANSOM", "STATE": "KS", "ZIP": "67572", "ZIP4": "NOT AVAILABLE", "TELEPHONE": "(785) 731-2231", "TYPE": "GENERAL ACUTE CARE", "STATUS": "OPEN", "POPULATION": 46, "COUNTY": "NESS", "COUNTYFIPS": "20135", "COUNTRY": "USA", "LATITUDE": 38.635988624, "LONGITUDE": -99.931152411, "NAICS_CODE": "622110", "NAICS_DESC": "GENERAL MEDICAL AND SURGICAL HOSPITALS", "SOURCE": "http://www.kdheks.gov/bhfr/fac_list/", "SOURCEDATE": "2018-08-16T00:00:00.000Z", "VAL_METHOD": "IMAGERY", "VAL_DATE": "2014-01-10T00:00:00.000Z", "WEBSITE": "http://www.grisellmemorialhospital.org", "STATE_ID": "H068002", "ALT_NAME": "GRISELL MEM HOSPITAL DISTRICT #1", "ST_FIPS": "20", "OWNER": "GOVERNMENT - DISTRICT/AUTHORITY", "TTL_STAFF": -999, "BEDS": 46, "TRAUMA": "NOT AVAILABLE", "HELIPAD": "N" }, "geometry": { "type": "Polygon", "coordinates": [ [ [ -99.900196, 38.552032 ], [ -99.992344, 38.580288 ], [ -100.067332, 38.636783 ], [ -100.065493, 38.6384337 ], [ -99.8981396, 38.7255445 ], [ -99.857801, 38.696466 ], [ -99.807747, 38.639738 ], [ -99.881775, 38.566611 ], [ -99.900196, 38.552032 ] ] ] } },
{ "type": "Feature", "properties": { "OBJECTID": 4354, "ID": "0013067578", "NAME": "STAFFORD COUNTY HOSPITAL", "ADDRESS": "502 S BUCKEYE", "CITY": "STAFFORD", "STATE": "KS", "ZIP": "67578", "ZIP4": "NOT AVAILABLE", "TELEPHONE": "(620) 234-5221", "TYPE": "GENERAL ACUTE CARE", "STATUS": "OPEN", "POPULATION": 25, "COUNTY": "STAFFORD", "COUNTYFIPS": "20185", "COUNTRY": "USA", "LATITUDE": 37.956683315000099, "LONGITUDE": -98.595443808, "NAICS_CODE": "622110", "NAICS_DESC": "GENERAL MEDICAL AND SURGICAL HOSPITALS", "SOURCE": "http://www.kdheks.gov/bhfr/fac_list/", "SOURCEDATE": "2018-08-16T00:00:00.000Z", "VAL_METHOD": "IMAGERY", "VAL_DATE": "2014-01-10T00:00:00.000Z", "WEBSITE": "http://www.staffordcountyhospital.org", "STATE_ID": "H093002", "ALT_NAME": "STAFFORD COUNTY HOSPITAL", "ST_FIPS": "20", "OWNER": "GOVERNMENT - DISTRICT/AUTHORITY", "TTL_STAFF": -999, "BEDS": 25, "TRAUMA": "NOT AVAILABLE", "HELIPAD": "Y" }, "geometry": { "type": "Polygon", "coordinates": [ [ [ -98.600578, 37.838776 ], [ -98.618787, 37.851123 ], [ -98.756278, 37.955885 ], [ -98.756311, 37.956938 ], [ -98.600793, 38.057812 ], [ -98.599078, 38.057773 ], [ -98.582538, 38.056337 ], [ -98.472351, 37.98419 ], [ -98.4541949, 37.969794400000019 ], [ -98.4358622, 37.955233399999983 ], [ -98.4720276, 37.926017400000021 ], [ -98.600578, 37.838776 ] ] ] } },
{ "type": "Feature", "properties": { "OBJECTID": 4356, "ID": "0014267152", "NAME": "SUMNER REGIONAL MEDICAL CENTER", "ADDRESS": "1323 NORTH A ST", "CITY": "WELLINGTON", "STATE": "KS", "ZIP": "67152", "ZIP4": "NOT AVAILABLE", "TELEPHONE": "(620) 399-1299", "TYPE": "GENERAL ACUTE CARE", "STATUS": "OPEN", "POPULATION": 61, "COUNTY": "SUMNER", "COUNTYFIPS": "20191", "COUNTRY": "USA", "LATITUDE": 37.2786452060001, "LONGITUDE": -97.392978967000005, "NAICS_CODE": "622110", "NAICS_DESC": "GENERAL MEDICAL AND SURGICAL HOSPITALS", "SOURCE": "http://www.kdheks.gov/bhfr/fac_list/", "SOURCEDATE": "2018-08-16T00:00:00.000Z", "VAL_METHOD": "IMAGERY", "VAL_DATE": "2014-03-12T00:00:00.000Z", "WEBSITE": "http://www.srmcks.org", "STATE_ID": "H096002", "ALT_NAME": "SUMNER REG MED CENTER", "ST_FIPS": "20", "OWNER": "GOVERNMENT - LOCAL", "TTL_STAFF": -999, "BEDS": 61, "TRAUMA": "NOT AVAILABLE", "HELIPAD": "Y" }, "geometry": { "type": "Polygon", "coordinates": [ [ [ -97.402277215640055, 37.158276738712864 ], [ -97.4756937, 37.215145199999931 ], [ -97.5302334, 37.258031700000011 ], [ -97.530278, 37.272539 ], [ -97.403365, 37.390589 ], [ -97.385591, 37.405646 ], [ -97.3219914, 37.369521900000031 ], [ -97.240543, 37.275706 ], [ -97.258147, 37.261192 ], [ -97.402277215640055, 37.158276738712864 ] ] ] } },
{ "type": "Feature", "properties": { "OBJECTID": 4357, "ID": "0015567207", "NAME": "AMG SPECIALTY HOSPITAL-WICHITA", "ADDRESS": "8080 E PAWNEE", "CITY": "WICHITA", "STATE": "KS", "ZIP": "67207", "ZIP4": "NOT AVAILABLE", "TELEPHONE": "(316) 682-0004", "TYPE": "LONG TERM CARE", "STATUS": "OPEN", "POPULATION": 26, "COUNTY": "SEDGWICK", "COUNTYFIPS": "20173", "COUNTRY": "USA", "LATITUDE": 37.655087708000103, "LONGITUDE": -97.242694037999996, "NAICS_CODE": "622310", "NAICS_DESC": "SPECIALTY (EXCEPT PSYCHIATRIC AND SUBSTANCE ABUSE) HOSPITALS", "SOURCE": "http://www.kdheks.gov/bhfr/fac_list/", "SOURCEDATE": "2018-08-16T00:00:00.000Z", "VAL_METHOD": "IMAGERY", "VAL_DATE": "2014-02-10T00:00:00.000Z", "WEBSITE": "http://www.amgwichita.com/", "STATE_ID": "H087007", "ALT_NAME": "LTAC HOSPITLA OF WICHITA LLC", "ST_FIPS": "20", "OWNER": "PROPRIETARY", "TTL_STAFF": -999, "BEDS": 26, "TRAUMA": "NOT AVAILABLE", "HELIPAD": "N" }, "geometry": { "type": "Polygon", "coordinates": [ [ [ -97.244203, 37.544829 ], [ -97.32434, 37.599315 ], [ -97.3320653, 37.607927300000014 ], [ -97.367489, 37.651392 ], [ -97.3712436, 37.6758272 ], [ -97.371122, 37.67671 ], [ -97.3177197, 37.725244100000019 ], [ -97.2638446, 37.752215400000019 ], [ -97.2447204, 37.754010200000046 ], [ -97.207903, 37.735969 ], [ -97.1530428, 37.703145 ], [ -97.1352212, 37.6923001 ], [ -97.1169015, 37.679813900000028 ], [ -97.1168932, 37.6795693 ], [ -97.1170426, 37.650333500000045 ], [ -97.1485413, 37.6066845 ], [ -97.164643, 37.59216 ], [ -97.203226, 37.564264 ], [ -97.244203, 37.544829 ] ] ] } },
{ "type": "Feature", "properties": { "OBJECTID": 4359, "ID": "0015767156", "NAME": "WILLIAM NEWTON HOSPITAL", "ADDRESS": "1300 EAST FIFTH AVENUE", "CITY": "WINFIELD", "STATE": "KS", "ZIP": "67156", "ZIP4": "NOT AVAILABLE", "TELEPHONE": "(620) 221-2300", "TYPE": "GENERAL ACUTE CARE", "STATUS": "OPEN", "POPULATION": 25, "COUNTY": "COWLEY", "COUNTYFIPS": "20035", "COUNTRY": "USA", "LATITUDE": 37.245168072000098, "LONGITUDE": -96.982101553000007, "NAICS_CODE": "622110", "NAICS_DESC": "GENERAL MEDICAL AND SURGICAL HOSPITALS", "SOURCE": "http://www.kdheks.gov/bhfr/fac_list/", "SOURCEDATE": "2018-08-16T00:00:00.000Z", "VAL_METHOD": "IMAGERY", "VAL_DATE": "2014-03-12T00:00:00.000Z", "WEBSITE": "http://www.wnmh.org", "STATE_ID": "H018002", "ALT_NAME": "WILLIAM NEWTON HEALTHCARE FOUNDATION INC", "ST_FIPS": "20", "OWNER": "GOVERNMENT - LOCAL", "TTL_STAFF": -999, "BEDS": 25, "TRAUMA": "LEVEL IV", "HELIPAD": "Y" }, "geometry": { "type": "Polygon", "coordinates": [ [ [ -97.03510178028759, 37.128867644275942 ], [ -97.035415580290049, 37.128866544791244 ], [ -97.113621, 37.230814 ], [ -97.13411, 37.260111 ], [ -97.0158172, 37.361111099999988 ], [ -97.0073017, 37.360980599999976 ], [ -96.948806, 37.337469 ], [ -96.81041, 37.244043 ], [ -96.810937, 37.242585 ], [ -97.03510178028759, 37.128867644275942 ] ] ] } },
{ "type": "Feature", "properties": { "OBJECTID": 4959, "ID": "0002766846", "NAME": "MORRIS COUNTY HOSPITAL", "ADDRESS": "600 N WASHINGTON ST", "CITY": "COUNCIL GROVE", "STATE": "KS", "ZIP": "66846", "ZIP4": "NOT AVAILABLE", "TELEPHONE": "(620) 767-6811", "TYPE": "CRITICAL ACCESS", "STATUS": "OPEN", "POPULATION": 25, "COUNTY": "MORRIS", "COUNTYFIPS": "20127", "COUNTRY": "USA", "LATITUDE": 38.665817146000101, "LONGITUDE": -96.499643871999993, "NAICS_CODE": "622110", "NAICS_DESC": "GENERAL MEDICAL AND SURGICAL HOSPITALS", "SOURCE": "http://www.kdheks.gov/bhfr/fac_list/", "SOURCEDATE": "2018-08-16T00:00:00.000Z", "VAL_METHOD": "IMAGERY", "VAL_DATE": "2014-02-10T00:00:00.000Z", "WEBSITE": "http://www.mrcohosp.com", "STATE_ID": "H064001", "ALT_NAME": "MORRIS COUNTY HOSPITAL", "ST_FIPS": "20", "OWNER": "GOVERNMENT - LOCAL", "TTL_STAFF": -999, "BEDS": 25, "TRAUMA": "NOT AVAILABLE", "HELIPAD": "N" }, "geometry": { "type": "Polygon", "coordinates": [ [ [ -96.5193908, 38.5719061 ], [ -96.634624, 38.6383 ], [ -96.653029, 38.652995900000015 ], [ -96.575272, 38.718703 ], [ -96.5011833, 38.768321399999927 ], [ -96.3531968, 38.66679989999998 ], [ -96.353179, 38.664731 ], [ -96.416335, 38.608921 ], [ -96.5193908, 38.5719061 ] ] ] } },
{ "type": "Feature", "properties": { "OBJECTID": 4962, "ID": "0005067058", "NAME": "HARPER HOSPITAL DISTRICT NO 5", "ADDRESS": "700 WEST 13TH", "CITY": "HARPER", "STATE": "KS", "ZIP": "67058", "ZIP4": "NOT AVAILABLE", "TELEPHONE": "(620) 896-7324", "TYPE": "CRITICAL ACCESS", "STATUS": "OPEN", "POPULATION": 25, "COUNTY": "HARPER", "COUNTYFIPS": "20077", "COUNTRY": "USA", "LATITUDE": 37.283989122000001, "LONGITUDE": -98.032926243999995, "NAICS_CODE": "622110", "NAICS_DESC": "GENERAL MEDICAL AND SURGICAL HOSPITALS", "SOURCE": "http://www.kdheks.gov/bhfr/fac_list/", "SOURCEDATE": "2018-08-16T00:00:00.000Z", "VAL_METHOD": "IMAGERY", "VAL_DATE": "2014-01-09T00:00:00.000Z", "WEBSITE": "http://www.hhd5.com", "STATE_ID": "H039003", "ALT_NAME": "HARPER HOSPITAL DISTRICT NO.5", "ST_FIPS": "20", "OWNER": "GOVERNMENT - DISTRICT/AUTHORITY", "TTL_STAFF": -999, "BEDS": 25, "TRAUMA": "NOT AVAILABLE", "HELIPAD": "N" }, "geometry": { "type": "Polygon", "coordinates": [ [ [ -98.039247180147598, 37.173985954366188 ], [ -98.044948396743393, 37.177475051159533 ], [ -98.129737, 37.238697 ], [ -98.112338, 37.31161 ], [ -98.094401, 37.355508 ], [ -98.069298, 37.384815 ], [ -97.929671, 37.357425 ], [ -97.876285, 37.284232 ], [ -98.039247180147598, 37.173985954366188 ] ] ] } },
{ "type": "Feature", "properties": { "OBJECTID": 4963, "ID": "0005367642", "NAME": "GRAHAM COUNTY HOSPITAL", "ADDRESS": "304 WEST PROUT STREET", "CITY": "HILL CITY", "STATE": "KS", "ZIP": "67642", "ZIP4": "NOT AVAILABLE", "TELEPHONE": "(785) 421-2121", "TYPE": "CRITICAL ACCESS", "STATUS": "OPEN", "POPULATION": 25, "COUNTY": "GRAHAM", "COUNTYFIPS": "20065", "COUNTRY": "USA", "LATITUDE": 39.372122686000097, "LONGITUDE": -99.844606329000001, "NAICS_CODE": "622110", "NAICS_DESC": "GENERAL MEDICAL AND SURGICAL HOSPITALS", "SOURCE": "http://www.kdheks.gov/bhfr/fac_list/", "SOURCEDATE": "2018-08-16T00:00:00.000Z", "VAL_METHOD": "IMAGERY", "VAL_DATE": "2014-02-10T00:00:00.000Z", "WEBSITE": "http://www.grahamcountyhospital.org", "STATE_ID": "H033001", "ALT_NAME": "GRAHAM COUNTY HOSPITAL", "ST_FIPS": "20", "OWNER": "GOVERNMENT - LOCAL", "TTL_STAFF": -999, "BEDS": 25, "TRAUMA": "NOT AVAILABLE", "HELIPAD": "N" }, "geometry": { "type": "Polygon", "coordinates": [ [ [ -99.8473168, 39.248371 ], [ -100.0134358, 39.36367019999998 ], [ -99.8448312, 39.495499699999975 ], [ -99.684668, 39.379557500000033 ], [ -99.8473168, 39.248371 ] ] ] } },
{ "type": "Feature", "properties": { "OBJECTID": 4964, "ID": "0006666441", "NAME": "GEARY COMMUNITY HOSPITAL", "ADDRESS": "1102 ST MARY'S ROAD", "CITY": "JUNCTION CITY", "STATE": "KS", "ZIP": "66441", "ZIP4": "NOT AVAILABLE", "TELEPHONE": "(785) 210-3301", "TYPE": "GENERAL ACUTE CARE", "STATUS": "OPEN", "POPULATION": 92, "COUNTY": "GEARY", "COUNTYFIPS": "20061", "COUNTRY": "USA", "LATITUDE": 39.013905780000101, "LONGITUDE": -96.850892202999901, "NAICS_CODE": "622110", "NAICS_DESC": "GENERAL MEDICAL AND SURGICAL HOSPITALS", "SOURCE": "http://www.kdheks.gov/bhfr/fac_list/", "SOURCEDATE": "2018-08-16T00:00:00.000Z", "VAL_METHOD": "IMAGERY", "VAL_DATE": "2014-02-10T00:00:00.000Z", "WEBSITE": "http://www.gchks.org", "STATE_ID": "H031001", "ALT_NAME": "GEARY COMMUNITY HOSPITAL", "ST_FIPS": "20", "OWNER": "GOVERNMENT - LOCAL", "TTL_STAFF": -999, "BEDS": 92, "TRAUMA": "NOT AVAILABLE", "HELIPAD": "Y" }, "geometry": { "type": "Polygon", "coordinates": [ [ [ -96.8531354, 38.90620449999998 ], [ -96.885356, 38.926489 ], [ -96.9635732, 38.987096799999975 ], [ -96.963057800000016, 39.045116799999981 ], [ -96.8802834, 39.121102099999987 ], [ -96.8787503, 39.1210818 ], [ -96.720256, 39.062561 ], [ -96.7216641, 39.052379700000031 ], [ -96.7334852, 39.007925 ], [ -96.8531354, 38.90620449999998 ] ] ] } },
{ "type": "Feature", "properties": { "OBJECTID": 4966, "ID": "0007167070", "NAME": "KIOWA DISTRICT HOSPITAL", "ADDRESS": "810 DRUMM STREET", "CITY": "KIOWA", "STATE": "KS", "ZIP": "67070", "ZIP4": "NOT AVAILABLE", "TELEPHONE": "(620) 825-4131", "TYPE": "GENERAL ACUTE CARE", "STATUS": "CLOSED", "POPULATION": 58, "COUNTY": "BARBER", "COUNTYFIPS": "20007", "COUNTRY": "USA", "LATITUDE": 37.015110530000101, "LONGITUDE": -98.483617212999903, "NAICS_CODE": "622110", "NAICS_DESC": "GENERAL MEDICAL AND SURGICAL HOSPITALS", "SOURCE": "http://www.kdheks.gov/bhfr/fac_list/", "SOURCEDATE": "2013-05-30T00:00:00.000Z", "VAL_METHOD": "IMAGERY", "VAL_DATE": "2014-02-10T00:00:00.000Z", "WEBSITE": "NOT AVAILABLE", "STATE_ID": "H004001", "ALT_NAME": "KIOWA DISTRICT HOSPITAL", "ST_FIPS": "20", "OWNER": "GOVERNMENT - DISTRICT/AUTHORITY", "TTL_STAFF": -999, "BEDS": 58, "TRAUMA": "NOT AVAILABLE", "HELIPAD": "Y" }, "geometry": { "type": "Polygon", "coordinates": [ [ [ -98.544676, 36.985778 ], [ -98.581457, 36.998266 ], [ -98.621994359512598, 37.014154705449215 ], [ -98.567781477622745, 37.06515527211463 ], [ -98.439396661451028, 37.093831394131627 ], [ -98.402668690718215, 37.095842437656025 ], [ -98.398854690143963, 37.09362143357562 ], [ -98.397484689621393, 37.092619431398482 ], [ -98.384032612242237, 37.035862246182795 ], [ -98.418693, 36.997911 ], [ -98.436398, 36.993108 ], [ -98.544676, 36.985778 ] ] ] } },
{ "type": "Feature", "properties": { "OBJECTID": 4969, "ID": "0008966861", "NAME": "ST. LUKE LIVING CENTER", "ADDRESS": "535 SOUTH FREEBRON", "CITY": "MARION", "STATE": "KS", "ZIP": "66861", "ZIP4": "NOT AVAILABLE", "TELEPHONE": "(620) 382-2177", "TYPE": "GENERAL ACUTE CARE", "STATUS": "OPEN", "POPULATION": 37, "COUNTY": "MARION", "COUNTYFIPS": "20115", "COUNTRY": "USA", "LATITUDE": 38.34268709, "LONGITUDE": -97.010508334999898, "NAICS_CODE": "622110", "NAICS_DESC": "GENERAL MEDICAL AND SURGICAL HOSPITALS", "SOURCE": "http://www.kdheks.gov/bhfr/fac_list/", "SOURCEDATE": "2018-08-16T00:00:00.000Z", "VAL_METHOD": "IMAGERY", "VAL_DATE": "2014-01-09T00:00:00.000Z", "WEBSITE": "http://www.slhmarion.org", "STATE_ID": "H057003", "ALT_NAME": "HOSPITAL DISTRICT #1 MARION COUNTY", "ST_FIPS": "20", "OWNER": "GOVERNMENT - DISTRICT/AUTHORITY", "TTL_STAFF": -999, "BEDS": 37, "TRAUMA": "LEVEL IV", "HELIPAD": "Y" }, "geometry": { "type": "Polygon", "coordinates": [ [ [ -96.9505552, 38.2522786 ], [ -97.02479, 38.260188 ], [ -97.132299, 38.348068 ], [ -97.132381, 38.3627486 ], [ -97.040277, 38.420586 ], [ -96.9576785, 38.435318099999968 ], [ -96.8746813, 38.362911900000029 ], [ -96.944213, 38.26119 ], [ -96.9505552, 38.2522786 ] ] ] } },
{ "type": "Feature", "properties": { "OBJECTID": 4971, "ID": "0004367548", "NAME": "RUSH COUNTY MEMORIAL HOSPITAL", "ADDRESS": "801 LOCUST ST", "CITY": "LA CROSSE", "STATE": "KS", "ZIP": "67548", "ZIP4": "NOT AVAILABLE", "TELEPHONE": "(785) 222-2545", "TYPE": "CRITICAL ACCESS", "STATUS": "OPEN", "POPULATION": 36, "COUNTY": "RUSH", "COUNTYFIPS": "20165", "COUNTRY": "USA", "LATITUDE": 38.530542308000101, "LONGITUDE": -99.317027108999994, "NAICS_CODE": "622110", "NAICS_DESC": "GENERAL MEDICAL AND SURGICAL HOSPITALS", "SOURCE": "http://www.kdheks.gov/bhfr/fac_list/", "SOURCEDATE": "2018-08-16T00:00:00.000Z", "VAL_METHOD": "IMAGERY", "VAL_DATE": "2014-02-10T00:00:00.000Z", "WEBSITE": "http://www.rushcountymemorialhospital.com", "STATE_ID": "H083001", "ALT_NAME": "RUSH COUNTY MEMORIAL HOSPITAL", "ST_FIPS": "20", "OWNER": "GOVERNMENT - LOCAL", "TTL_STAFF": -999, "BEDS": 36, "TRAUMA": "NOT AVAILABLE", "HELIPAD": "N" }, "geometry": { "type": "Polygon", "coordinates": [ [ [ -99.307856, 38.4080205 ], [ -99.382502, 38.469462 ], [ -99.4355372, 38.5385467 ], [ -99.319018, 38.645602 ], [ -99.179903, 38.552032 ], [ -99.161260700000014, 38.537378499999988 ], [ -99.307856, 38.4080205 ] ] ] } },
{ "type": "Feature", "properties": { "OBJECTID": 4972, "ID": "0009267104", "NAME": "MEDICINE LODGE MEMORIAL HOSPITAL", "ADDRESS": "710 N WALNUT STREET", "CITY": "MEDICINE LODGE", "STATE": "KS", "ZIP": "67104", "ZIP4": "NOT AVAILABLE", "TELEPHONE": "(620) 886-3771", "TYPE": "CRITICAL ACCESS", "STATUS": "OPEN", "POPULATION": 25, "COUNTY": "BARBER", "COUNTYFIPS": "20007", "COUNTRY": "USA", "LATITUDE": 37.289174637000002, "LONGITUDE": -98.577244166999904, "NAICS_CODE": "622110", "NAICS_DESC": "GENERAL MEDICAL AND SURGICAL HOSPITALS", "SOURCE": "http://www.kdheks.gov/bhfr/fac_list/", "SOURCEDATE": "2018-08-16T00:00:00.000Z", "VAL_METHOD": "IMAGERY", "VAL_DATE": "2014-01-09T00:00:00.000Z", "WEBSITE": "http://mlmh.net/", "STATE_ID": "H004002", "ALT_NAME": "MEDICINE LODGE CITY TOWNSHIP", "ST_FIPS": "20", "OWNER": "GOVERNMENT - DISTRICT/AUTHORITY", "TTL_STAFF": -999, "BEDS": 25, "TRAUMA": "NOT AVAILABLE", "HELIPAD": "N" }, "geometry": { "type": "Polygon", "coordinates": [ [ [ -98.586681, 37.195886 ], [ -98.696437, 37.275428 ], [ -98.6905333, 37.324186599999962 ], [ -98.615796, 37.391444 ], [ -98.592819, 37.387762 ], [ -98.586607, 37.384116 ], [ -98.550578, 37.353626 ], [ -98.459515, 37.253338 ], [ -98.513719, 37.22485 ], [ -98.580515, 37.196276 ], [ -98.586681, 37.195886 ] ] ] } },
{ "type": "Feature", "properties": { "OBJECTID": 160, "ID": "0007567860", "NAME": "KEARNY COUNTY HOSPITAL", "ADDRESS": "500 THORPE STREET", "CITY": "LAKIN", "STATE": "KS", "ZIP": "67860", "ZIP4": "NOT AVAILABLE", "TELEPHONE": "(620) 355-7111", "TYPE": "CRITICAL ACCESS", "STATUS": "OPEN", "POPULATION": 25, "COUNTY": "KEARNY", "COUNTYFIPS": "20093", "COUNTRY": "USA", "LATITUDE": 37.946593269000097, "LONGITUDE": -101.25192991199999, "NAICS_CODE": "622110", "NAICS_DESC": "GENERAL MEDICAL AND SURGICAL HOSPITALS", "SOURCE": "http://www.kdheks.gov/bhfr/fac_list/", "SOURCEDATE": "2018-08-16T00:00:00.000Z", "VAL_METHOD": "IMAGERY", "VAL_DATE": "2014-02-10T00:00:00.000Z", "WEBSITE": "http://www.kearnycountyhospital.com", "STATE_ID": "H047001", "ALT_NAME": "KEARNY COUNTY HEALTH CARE FOUNDATION", "ST_FIPS": "20", "OWNER": "GOVERNMENT - LOCAL", "TTL_STAFF": -999, "BEDS": 25, "TRAUMA": "NOT AVAILABLE", "HELIPAD": "N" }, "geometry": { "type": "Polygon", "coordinates": [ [ [ -101.249631, 37.842849 ], [ -101.299782, 37.840958 ], [ -101.300632, 37.841334 ], [ -101.4318035, 37.944046500000042 ], [ -101.267451, 38.053576 ], [ -101.176137, 38.031995 ], [ -101.1040534, 38.0030969 ], [ -101.102992, 37.988993 ], [ -101.102993, 37.973985 ], [ -101.1487, 37.915796 ], [ -101.157865, 37.908695 ], [ -101.241164, 37.848926 ], [ -101.249631, 37.842849 ] ] ] } },
{ "type": "Feature", "properties": { "OBJECTID": 161, "ID": "0008467901", "NAME": "SOUTHWEST MEDICAL CENTER", "ADDRESS": "315 WEST 15TH STREET", "CITY": "LIBERAL", "STATE": "KS", "ZIP": "67901", "ZIP4": "NOT AVAILABLE", "TELEPHONE": "(620) 629-6291", "TYPE": "GENERAL ACUTE CARE", "STATUS": "OPEN", "POPULATION": 101, "COUNTY": "SEWARD", "COUNTYFIPS": "20175", "COUNTRY": "USA", "LATITUDE": 37.056683076000098, "LONGITUDE": -100.92678828699999, "NAICS_CODE": "622110", "NAICS_DESC": "GENERAL MEDICAL AND SURGICAL HOSPITALS", "SOURCE": "http://www.kdheks.gov/bhfr/fac_list/", "SOURCEDATE": "2018-08-16T00:00:00.000Z", "VAL_METHOD": "IMAGERY", "VAL_DATE": "2014-02-10T00:00:00.000Z", "WEBSITE": "http://www.swmedcenter.com", "STATE_ID": "H088001", "ALT_NAME": "SOUTHWEST MEDICAL CENTER", "ST_FIPS": "20", "OWNER": "GOVERNMENT - LOCAL", "TTL_STAFF": -999, "BEDS": 101, "TRAUMA": "NOT AVAILABLE", "HELIPAD": "N" }, "geometry": { "type": "Polygon", "coordinates": [ [ [ -100.8914485, 36.9984728 ], [ -100.958227, 36.998363 ], [ -100.9861157, 37.0001607 ], [ -100.9888852, 37.0021633 ], [ -101.048928420333198, 37.068508613831199 ], [ -100.92375, 37.170166 ], [ -100.922897, 37.17018 ], [ -100.821893391494001, 37.091062525047604 ], [ -100.796101718948478, 37.068208396059042 ], [ -100.832323916746091, 37.010692565091524 ], [ -100.8914485, 36.9984728 ] ] ] } },
{ "type": "Feature", "properties": { "OBJECTID": 162, "ID": "0006967547", "NAME": "EDWARDS COUNTY HOSPITAL", "ADDRESS": "620 WEST EIGHTH STREET", "CITY": "KINSLEY", "STATE": "KS", "ZIP": "67547", "ZIP4": "NOT AVAILABLE", "TELEPHONE": "(620) 659-3621", "TYPE": "CRITICAL ACCESS", "STATUS": "OPEN", "POPULATION": 22, "COUNTY": "EDWARDS", "COUNTYFIPS": "20047", "COUNTRY": "USA", "LATITUDE": 37.921246424000103, "LONGITUDE": -99.420222120999895, "NAICS_CODE": "622110", "NAICS_DESC": "GENERAL MEDICAL AND SURGICAL HOSPITALS", "SOURCE": "http://www.kdheks.gov/bhfr/fac_list/", "SOURCEDATE": "2018-08-16T00:00:00.000Z", "VAL_METHOD": "IMAGERY", "VAL_DATE": "2014-02-10T00:00:00.000Z", "WEBSITE": "http://www.edwardscohospital.com", "STATE_ID": "H024001", "ALT_NAME": "EDWARDS COUNTY HOSPITAL", "ST_FIPS": "20", "OWNER": "GOVERNMENT - LOCAL", "TTL_STAFF": -999, "BEDS": 22, "TRAUMA": "NOT AVAILABLE", "HELIPAD": "Y" }, "geometry": { "type": "Polygon", "coordinates": [ [ [ -99.385648, 37.825689 ], [ -99.390412, 37.825708 ], [ -99.514826, 37.854597 ], [ -99.551581, 37.869113 ], [ -99.5884686, 37.885658200000016 ], [ -99.551254, 37.927464 ], [ -99.514244, 37.956738 ], [ -99.405484, 38.015181 ], [ -99.387107, 38.015206 ], [ -99.314079, 38.015063 ], [ -99.310646, 38.014955 ], [ -99.295638, 38.000477100000012 ], [ -99.277546, 37.927552 ], [ -99.369376, 37.840199 ], [ -99.385648, 37.825689 ] ] ] } },
{ "type": "Feature", "properties": { "OBJECTID": 163, "ID": "0007767467", "NAME": "OTTAWA COUNTY HEALTH CENTER", "ADDRESS": "215 E 8TH STREET", "CITY": "MINNEAPOLIS", "STATE": "KS", "ZIP": "67467", "ZIP4": "NOT AVAILABLE", "TELEPHONE": "(785) 392-2122", "TYPE": "CRITICAL ACCESS", "STATUS": "OPEN", "POPULATION": 42, "COUNTY": "OTTAWA", "COUNTYFIPS": "20143", "COUNTRY": "USA", "LATITUDE": 39.129331964000102, "LONGITUDE": -97.703944250999896, "NAICS_CODE": "622110", "NAICS_DESC": "GENERAL MEDICAL AND SURGICAL HOSPITALS", "SOURCE": "http://www.kdheks.gov/bhfr/fac_list/", "SOURCEDATE": "2018-08-16T00:00:00.000Z", "VAL_METHOD": "IMAGERY", "VAL_DATE": "2014-02-10T00:00:00.000Z", "WEBSITE": "http://www.ottawacountyhealthcenter.com", "STATE_ID": "H072001", "ALT_NAME": "GREAT PLAINS HEALTH ALLIANCE INC", "ST_FIPS": "20", "OWNER": "NON-PROFIT", "TTL_STAFF": -999, "BEDS": 42, "TRAUMA": "NOT AVAILABLE", "HELIPAD": "N" }, "geometry": { "type": "Polygon", "coordinates": [ [ [ -97.6406853, 39.013115199999966 ], [ -97.724021, 39.030633 ], [ -97.742547, 39.045158 ], [ -97.8180762, 39.147149099999965 ], [ -97.7428443, 39.2194687 ], [ -97.6682859, 39.2484629 ], [ -97.6680031, 39.248460299999941 ], [ -97.649587, 39.234124 ], [ -97.5753898, 39.1320121 ], [ -97.5805566, 39.102143800000015 ], [ -97.6406853, 39.013115199999966 ] ] ] } },
{ "type": "Feature", "properties": { "OBJECTID": 682, "ID": "0001567530", "NAME": "GREAT BEND REGIONAL HOSPITAL", "ADDRESS": "514 CLEVELAND STREET", "CITY": "GREAT BEND", "STATE": "KS", "ZIP": "67530", "ZIP4": "NOT AVAILABLE", "TELEPHONE": "(620) 792-8833", "TYPE": "GENERAL ACUTE CARE", "STATUS": "OPEN", "POPULATION": 33, "COUNTY": "BARTON", "COUNTYFIPS": "20009", "COUNTRY": "USA", "LATITUDE": 38.356165687999997, "LONGITUDE": -98.790712688, "NAICS_CODE": "622110", "NAICS_DESC": "GENERAL MEDICAL AND SURGICAL HOSPITALS", "SOURCE": "http://www.kdheks.gov/bhfr/fac_list/", "SOURCEDATE": "2018-08-16T00:00:00.000Z", "VAL_METHOD": "IMAGERY", "VAL_DATE": "2014-01-09T00:00:00.000Z", "WEBSITE": "http://www.greatbendsurgical.com", "STATE_ID": "H005004", "ALT_NAME": "GREAT BEND REGIONAL HOSPITAL LLC", "ST_FIPS": "20", "OWNER": "PROPRIETARY", "TTL_STAFF": -999, "BEDS": 33, "TRAUMA": "LEVEL IV", "HELIPAD": "Y" }, "geometry": { "type": "Polygon", "coordinates": [ [ [ -98.756104, 38.275431100000027 ], [ -98.921718, 38.289071 ], [ -98.922175, 38.376193 ], [ -98.890524, 38.423666 ], [ -98.867014, 38.437067 ], [ -98.811624, 38.463435 ], [ -98.793052, 38.463414 ], [ -98.772685, 38.454665 ], [ -98.6765697, 38.391011199999987 ], [ -98.66418, 38.376483 ], [ -98.663975, 38.364648 ], [ -98.663948, 38.361945 ], [ -98.700814, 38.318932 ], [ -98.756104, 38.275431100000027 ] ] ] } },
{ "type": "Feature", "properties": { "OBJECTID": 684, "ID": "0001867601", "NAME": "HAYS MEDICAL CENTER", "ADDRESS": "2220 CANTERBURY DRIVE", "CITY": "HAYS", "STATE": "KS", "ZIP": "67601", "ZIP4": "NOT AVAILABLE", "TELEPHONE": "(785) 623-5000", "TYPE": "GENERAL ACUTE CARE", "STATUS": "OPEN", "POPULATION": 172, "COUNTY": "ELLIS", "COUNTYFIPS": "20051", "COUNTRY": "USA", "LATITUDE": 38.880565501, "LONGITUDE": -99.2960939499999, "NAICS_CODE": "622110", "NAICS_DESC": "GENERAL MEDICAL AND SURGICAL HOSPITALS", "SOURCE": "http://www.kdheks.gov/bhfr/fac_list/", "SOURCEDATE": "2018-08-16T00:00:00.000Z", "VAL_METHOD": "IMAGERY", "VAL_DATE": "2014-03-13T00:00:00.000Z", "WEBSITE": "http://www.haysmed.com", "STATE_ID": "H026001", "ALT_NAME": "HAYS MEDICAL CENTER INC", "ST_FIPS": "20", "OWNER": "NON-PROFIT", "TTL_STAFF": -999, "BEDS": 172, "TRAUMA": "LEVEL III", "HELIPAD": "Y" }, "geometry": { "type": "Polygon", "coordinates": [ [ [ -99.326256, 38.782581 ], [ -99.428678, 38.914275 ], [ -99.430436, 38.916626 ], [ -99.4318798, 38.924186099999957 ], [ -99.428531, 38.9293 ], [ -99.3167045, 38.987822199999961 ], [ -99.3164442, 38.9878284 ], [ -99.150653, 38.90052 ], [ -99.139598, 38.885972 ], [ -99.1445573, 38.860998400000042 ], [ -99.146439, 38.856933 ], [ -99.151372, 38.851345 ], [ -99.319111, 38.784009 ], [ -99.326256, 38.782581 ] ] ] } },
{ "type": "Feature", "properties": { "OBJECTID": 685, "ID": "0001967449", "NAME": "HERINGTON MUNICIPAL HOSPITAL", "ADDRESS": "100 E HELEN STREET", "CITY": "HERINGTON", "STATE": "KS", "ZIP": "67449", "ZIP4": "NOT AVAILABLE", "TELEPHONE": "(785) 258-2207", "TYPE": "CRITICAL ACCESS", "STATUS": "OPEN", "POPULATION": 25, "COUNTY": "DICKINSON", "COUNTYFIPS": "20041", "COUNTRY": "USA", "LATITUDE": 38.680102005000002, "LONGITUDE": -96.942265078999995, "NAICS_CODE": "622110", "NAICS_DESC": "GENERAL MEDICAL AND SURGICAL HOSPITALS", "SOURCE": "http://www.kdheks.gov/bhfr/fac_list/", "SOURCEDATE": "2018-08-16T00:00:00.000Z", "VAL_METHOD": "IMAGERY", "VAL_DATE": "2014-01-09T00:00:00.000Z", "WEBSITE": "http://www.heringtonhospital.org", "STATE_ID": "H021002", "ALT_NAME": "HERINGTON MUNICIPAL HOSPITAL FOUNDATION", "ST_FIPS": "20", "OWNER": "GOVERNMENT - LOCAL", "TTL_STAFF": -999, "BEDS": 25, "TRAUMA": "NOT AVAILABLE", "HELIPAD": "Y" }, "geometry": { "type": "Polygon", "coordinates": [ [ [ -96.9575439, 38.551455 ], [ -97.077755, 38.663607 ], [ -97.07779, 38.667254 ], [ -97.077786, 38.668937 ], [ -97.0592133, 38.696081 ], [ -96.9271225, 38.7897848 ], [ -96.8532658, 38.725126800000012 ], [ -96.7972878, 38.653061099999974 ], [ -96.9575439, 38.551455 ] ] ] } },
{ "type": "Feature", "properties": { "OBJECTID": 686, "ID": "0004667005", "NAME": "SOUTH CENTRAL KS  MED CENTER", "ADDRESS": "6401 PATTERSON PARKWAY", "CITY": "ARKANSAS CITY", "STATE": "KS", "ZIP": "67005", "ZIP4": "NOT AVAILABLE", "TELEPHONE": "(620) 442-2500", "TYPE": "GENERAL ACUTE CARE", "STATUS": "OPEN", "POPULATION": 37, "COUNTY": "COWLEY", "COUNTYFIPS": "20035", "COUNTRY": "USA", "LATITUDE": 37.132996817, "LONGITUDE": -97.038503288999905, "NAICS_CODE": "622110", "NAICS_DESC": "GENERAL MEDICAL AND SURGICAL HOSPITALS", "SOURCE": "http://www.kdheks.gov/bhfr/fac_list/", "SOURCEDATE": "2018-08-16T00:00:00.000Z", "VAL_METHOD": "IMAGERY", "VAL_DATE": "2014-01-09T00:00:00.000Z", "WEBSITE": "http://www.sckrmc.org", "STATE_ID": "H018001", "ALT_NAME": "SOUTH CENTRAL KANSAS MEDICAL CENTER", "ST_FIPS": "20", "OWNER": "GOVERNMENT - LOCAL", "TTL_STAFF": -999, "BEDS": 37, "TRAUMA": "NOT AVAILABLE", "HELIPAD": "Y" }, "geometry": { "type": "Polygon", "coordinates": [ [ [ -97.048693721852175, 37.020163448654564 ], [ -97.048977321841477, 37.020168249269013 ], [ -97.130722945306346, 37.099609453979326 ], [ -97.131138029117224, 37.106894566661104 ], [ -97.122244880680967, 37.128690887718086 ], [ -97.095172951381755, 37.186875547730885 ], [ -97.0323481, 37.240920699999975 ], [ -97.0256021, 37.24425979999998 ], [ -96.9933788, 37.2434487 ], [ -96.9857475, 37.2415548 ], [ -96.9603418, 37.2306848 ], [ -96.941394746472582, 37.07797135770722 ], [ -96.968243826910054, 37.054840467359867 ], [ -97.039543116946135, 37.022371133658069 ], [ -97.048693721852175, 37.020163448654564 ] ] ] } },
{ "type": "Feature", "properties": { "OBJECTID": 688, "ID": "0007367460", "NAME": "MCPHERSON HOSPITAL INC", "ADDRESS": "1000 HOSPITAL DRIVE", "CITY": "MCPHERSON", "STATE": "KS", "ZIP": "67460", "ZIP4": "NOT AVAILABLE", "TELEPHONE": "(620) 241-2250", "TYPE": "GENERAL ACUTE CARE", "STATUS": "OPEN", "POPULATION": 41, "COUNTY": "MCPHERSON", "COUNTYFIPS": "20113", "COUNTRY": "USA", "LATITUDE": 38.378782746000098, "LONGITUDE": -97.673461742000001, "NAICS_CODE": "622110", "NAICS_DESC": "GENERAL MEDICAL AND SURGICAL HOSPITALS", "SOURCE": "http://www.kdheks.gov/bhfr/fac_list/", "SOURCEDATE": "2018-08-16T00:00:00.000Z", "VAL_METHOD": "IMAGERY", "VAL_DATE": "2014-02-10T00:00:00.000Z", "WEBSITE": "http://www.mcphersonmemorial.org", "STATE_ID": "H059002", "ALT_NAME": "MCPHERSON HOSPITAL INC", "ST_FIPS": "20", "OWNER": "NON-PROFIT", "TTL_STAFF": -999, "BEDS": 41, "TRAUMA": "LEVEL IV", "HELIPAD": "N" }, "geometry": { "type": "Polygon", "coordinates": [ [ [ -97.677191, 38.274437 ], [ -97.7376835, 38.289589699999979 ], [ -97.777854, 38.333361 ], [ -97.814111, 38.375893 ], [ -97.666867, 38.492798 ], [ -97.648368, 38.478465 ], [ -97.518975, 38.377109 ], [ -97.5861349, 38.287623299999971 ], [ -97.593019, 38.28338 ], [ -97.666924, 38.275239 ], [ -97.677191, 38.274437 ] ] ] } },
{ "type": "Feature", "properties": { "OBJECTID": 689, "ID": "0009167114", "NAME": "PRAIRIE VIEW INC", "ADDRESS": "1901 E FIRST STREET, PO BOX 467", "CITY": "NEWTON", "STATE": "KS", "ZIP": "67114", "ZIP4": "NOT AVAILABLE", "TELEPHONE": "(316) 284-6400", "TYPE": "GENERAL ACUTE CARE", "STATUS": "OPEN", "POPULATION": 38, "COUNTY": "HARVEY", "COUNTYFIPS": "20079", "COUNTRY": "USA", "LATITUDE": 38.040276564000102, "LONGITUDE": -97.313078963999899, "NAICS_CODE": "622110", "NAICS_DESC": "GENERAL MEDICAL AND SURGICAL HOSPITALS", "SOURCE": "http://www.kdheks.gov/bhfr/fac_list/", "SOURCEDATE": "2018-08-16T00:00:00.000Z", "VAL_METHOD": "IMAGERY", "VAL_DATE": "2014-02-10T00:00:00.000Z", "WEBSITE": "http://www.prairieview.org", "STATE_ID": "M040001", "ALT_NAME": "PRAIRIE VIEW INC", "ST_FIPS": "20", "OWNER": "NON-PROFIT", "TTL_STAFF": -999, "BEDS": 38, "TRAUMA": "NOT AVAILABLE", "HELIPAD": "N" }, "geometry": { "type": "Polygon", "coordinates": [ [ [ -97.318054, 37.906213 ], [ -97.3472748, 37.912183 ], [ -97.4819376, 38.028490399999974 ], [ -97.4378563, 38.144810900000053 ], [ -97.4298186, 38.148598600000049 ], [ -97.4262098, 38.149837199999986 ], [ -97.3529638, 38.158823 ], [ -97.3437411, 38.158786200000023 ], [ -97.3344757, 38.1586965 ], [ -97.2273572, 38.14548090000001 ], [ -97.2263314, 38.144537099999958 ], [ -97.209719, 38.1021525 ], [ -97.1901595, 38.043454300000022 ], [ -97.2633228, 37.955635099999959 ], [ -97.318054, 37.906213 ] ] ] } },
{ "type": "Feature", "properties": { "OBJECTID": 696, "ID": "0012067401", "NAME": "SALINA SURGICAL HOSPITAL", "ADDRESS": "401 SOUTH SANTA FE AVENUE", "CITY": "SALINA", "STATE": "KS", "ZIP": "67401", "ZIP4": "NOT AVAILABLE", "TELEPHONE": "(785) 452-7000", "TYPE": "SPECIAL", "STATUS": "OPEN", "POPULATION": 16, "COUNTY": "SALINE", "COUNTYFIPS": "20169", "COUNTRY": "USA", "LATITUDE": 38.833613346000099, "LONGITUDE": -97.608446627000006, "NAICS_CODE": "622310", "NAICS_DESC": "SPECIALTY (EXCEPT PSYCHIATRIC AND SUBSTANCE ABUSE) HOSPITALS", "SOURCE": "http://www.kdheks.gov/bhfr/fac_list/", "SOURCEDATE": "2018-08-16T00:00:00.000Z", "VAL_METHOD": "IMAGERY", "VAL_DATE": "2014-01-10T00:00:00.000Z", "WEBSITE": "http://www.salinasurgical.com/", "STATE_ID": "H085002", "ALT_NAME": "SALINA SURGICAL CENTER LLC", "ST_FIPS": "20", "OWNER": "PROPRIETARY", "TTL_STAFF": -999, "BEDS": 16, "TRAUMA": "NOT AVAILABLE", "HELIPAD": "Y" }, "geometry": { "type": "Polygon", "coordinates": [ [ [ -97.6132719, 38.7254014 ], [ -97.6316175, 38.725440299999988 ], [ -97.7429826, 38.80526940000005 ], [ -97.7429649, 38.805521300000031 ], [ -97.737669, 38.841768 ], [ -97.6404812, 38.957927200000022 ], [ -97.5016952, 38.881424200000055 ], [ -97.4834002, 38.8417398 ], [ -97.4913387, 38.812754199999986 ], [ -97.5946318, 38.737950799999943 ], [ -97.6132719, 38.7254014 ] ] ] } },
{ "type": "Feature", "properties": { "OBJECTID": 698, "ID": "0013767879", "NAME": "GREELEY COUNTY HOSPITAL", "ADDRESS": "506 3RD STREET", "CITY": "TRIBUNE", "STATE": "KS", "ZIP": "67879", "ZIP4": "NOT AVAILABLE", "TELEPHONE": "(620) 376-4221", "TYPE": "GENERAL ACUTE CARE", "STATUS": "OPEN", "POPULATION": 50, "COUNTY": "GREELEY", "COUNTYFIPS": "20071", "COUNTRY": "USA", "LATITUDE": 38.470335949000102, "LONGITUDE": -101.749394946, "NAICS_CODE": "622110", "NAICS_DESC": "GENERAL MEDICAL AND SURGICAL HOSPITALS", "SOURCE": "http://www.kdheks.gov/bhfr/fac_list/", "SOURCEDATE": "2018-08-16T00:00:00.000Z", "VAL_METHOD": "IMAGERY", "VAL_DATE": "2014-02-10T00:00:00.000Z", "WEBSITE": "http://www.mygchs.com", "STATE_ID": "H036001", "ALT_NAME": "GREELEY COUNTY HEALTH SERVICES", "ST_FIPS": "20", "OWNER": "NON-PROFIT", "TTL_STAFF": -999, "BEDS": 50, "TRAUMA": "NOT AVAILABLE", "HELIPAD": "N" }, "geometry": { "type": "Polygon", "coordinates": [ [ [ -101.751721, 38.364067 ], [ -101.918933639946005, 38.465692874269038 ], [ -101.752436, 38.584571 ], [ -101.604233, 38.466028 ], [ -101.604256, 38.463755 ], [ -101.678093, 38.393199 ], [ -101.751721, 38.364067 ] ] ] } },
{ "type": "Feature", "properties": { "OBJECTID": 7310, "ID": "0001667054", "NAME": "KIOWA COUNTY MEMORIAL HOSPITAL", "ADDRESS": "721 WEST KANSAS", "CITY": "GREENSBURG", "STATE": "KS", "ZIP": "67054", "ZIP4": "NOT AVAILABLE", "TELEPHONE": "(620) 723-3341", "TYPE": "CRITICAL ACCESS", "STATUS": "OPEN", "POPULATION": 15, "COUNTY": "KIOWA", "COUNTYFIPS": "20097", "COUNTRY": "USA", "LATITUDE": 37.605552782000103, "LONGITUDE": -99.301437562000004, "NAICS_CODE": "622110", "NAICS_DESC": "GENERAL MEDICAL AND SURGICAL HOSPITALS", "SOURCE": "http://www.kdheks.gov/bhfr/fac_list/", "SOURCEDATE": "2018-08-16T00:00:00.000Z", "VAL_METHOD": "IMAGERY", "VAL_DATE": "2014-02-10T00:00:00.000Z", "WEBSITE": "http://www.kcmh.net", "STATE_ID": "H049001", "ALT_NAME": "GREAT PLAINS OF KIOWA COUNTY INC.", "ST_FIPS": "20", "OWNER": "NON-PROFIT", "TTL_STAFF": -999, "BEDS": 15, "TRAUMA": "NOT AVAILABLE", "HELIPAD": "Y" }, "geometry": { "type": "Polygon", "coordinates": [ [ [ -99.320119, 37.480404 ], [ -99.475719, 37.586241 ], [ -99.323177, 37.733699 ], [ -99.1412766, 37.615643699999978 ], [ -99.141149, 37.612292 ], [ -99.320119, 37.480404 ] ] ] } },
{ "type": "Feature", "properties": { "OBJECTID": 7316, "ID": "0007967865", "NAME": "MINNEOLA DISTRICT HOSPITAL", "ADDRESS": "212 MAIN", "CITY": "MINNEOLA", "STATE": "KS", "ZIP": "67865", "ZIP4": "NOT AVAILABLE", "TELEPHONE": "(620) 885-4264", "TYPE": "GENERAL ACUTE CARE", "STATUS": "OPEN", "POPULATION": 54, "COUNTY": "CLARK", "COUNTYFIPS": "20025", "COUNTRY": "USA", "LATITUDE": 37.441527628000102, "LONGITUDE": -100.013320208, "NAICS_CODE": "622110", "NAICS_DESC": "GENERAL MEDICAL AND SURGICAL HOSPITALS", "SOURCE": "http://www.kdheks.gov/bhfr/fac_list/", "SOURCEDATE": "2018-08-16T00:00:00.000Z", "VAL_METHOD": "IMAGERY", "VAL_DATE": "2014-01-09T00:00:00.000Z", "WEBSITE": "http://www.minneolahealthcare.com", "STATE_ID": "H013002", "ALT_NAME": "MINNEOLA DISTRICT HOSPITAL #2", "ST_FIPS": "20", "OWNER": "GOVERNMENT - DISTRICT/AUTHORITY", "TTL_STAFF": -999, "BEDS": 54, "TRAUMA": "NOT AVAILABLE", "HELIPAD": "N" }, "geometry": { "type": "Polygon", "coordinates": [ [ [ -100.000840900000014, 37.341234599999972 ], [ -100.128006, 37.387126 ], [ -100.1325601, 37.4008912 ], [ -100.125622, 37.475026 ], [ -100.070858, 37.518012 ], [ -100.034027, 37.54672 ], [ -99.997272, 37.546185 ], [ -99.996176, 37.546165 ], [ -99.917099, 37.485588 ], [ -99.9227446, 37.441813900000021 ], [ -99.9408134, 37.384056699999974 ], [ -100.000840900000014, 37.341234599999972 ] ] ] } },
{ "type": "Feature", "properties": { "OBJECTID": 7317, "ID": "0009867749", "NAME": "DECATUR COUNTY HOSPITAL", "ADDRESS": "810 W  COLUMBIA STREET", "CITY": "OBERLIN", "STATE": "KS", "ZIP": "67749", "ZIP4": "NOT AVAILABLE", "TELEPHONE": "(785) 475-2208", "TYPE": "GENERAL ACUTE CARE", "STATUS": "OPEN", "POPULATION": 61, "COUNTY": "DECATUR", "COUNTYFIPS": "20039", "COUNTRY": "USA", "LATITUDE": 39.815920865000102, "LONGITUDE": -100.538341531, "NAICS_CODE": "622110", "NAICS_DESC": "GENERAL MEDICAL AND SURGICAL HOSPITALS", "SOURCE": "http://www.kdheks.gov/bhfr/fac_list/", "SOURCEDATE": "2018-08-16T00:00:00.000Z", "VAL_METHOD": "IMAGERY", "VAL_DATE": "2014-02-10T00:00:00.000Z", "WEBSITE": "http://www.decaturhealthsystems.org", "STATE_ID": "H020001", "ALT_NAME": "DECATUR HEALTH SYSTEMS INC", "ST_FIPS": "20", "OWNER": "GOVERNMENT - LOCAL", "TTL_STAFF": -999, "BEDS": 61, "TRAUMA": "NOT AVAILABLE", "HELIPAD": "N" }, "geometry": { "type": "Polygon", "coordinates": [ [ [ -100.535165, 39.697762 ], [ -100.6842515, 39.82864740000003 ], [ -100.533843079156583, 39.933227069673968 ], [ -100.3851655, 39.828342100000029 ], [ -100.535165, 39.697762 ] ] ] } },
{ "type": "Feature", "properties": { "OBJECTID": 7319, "ID": "0010167473", "NAME": "OSBORNE COUNTY MEMORIAL HOSPITAL", "ADDRESS": "424 W NEW HAMPSHIRE", "CITY": "OSBORNE", "STATE": "KS", "ZIP": "67473", "ZIP4": "NOT AVAILABLE", "TELEPHONE": "(785) 346-2121", "TYPE": "GENERAL ACUTE CARE", "STATUS": "OPEN", "POPULATION": 25, "COUNTY": "OSBORNE", "COUNTYFIPS": "20141", "COUNTRY": "USA", "LATITUDE": 39.437175946000004, "LONGITUDE": -98.70148391, "NAICS_CODE": "622110", "NAICS_DESC": "GENERAL MEDICAL AND SURGICAL HOSPITALS", "SOURCE": "http://www.kdheks.gov/bhfr/fac_list/", "SOURCEDATE": "2018-08-16T00:00:00.000Z", "VAL_METHOD": "IMAGERY", "VAL_DATE": "2014-02-10T00:00:00.000Z", "WEBSITE": "http://www.ocmh.org", "STATE_ID": "H071001", "ALT_NAME": "OSBORNE COUNTY MEMORIAL HOSPITAL", "ST_FIPS": "20", "OWNER": "GOVERNMENT - LOCAL", "TTL_STAFF": -999, "BEDS": 25, "TRAUMA": "NOT AVAILABLE", "HELIPAD": "N" }, "geometry": { "type": "Polygon", "coordinates": [ [ [ -98.6950638, 39.3216802 ], [ -98.8401769, 39.465986700000016 ], [ -98.6922695, 39.55211030000001 ], [ -98.67408, 39.539 ], [ -98.655575, 39.524481 ], [ -98.6372176, 39.509793800000018 ], [ -98.619638, 39.452239 ], [ -98.620035, 39.423295 ], [ -98.638996, 39.394383 ], [ -98.681191, 39.334612 ], [ -98.6950638, 39.3216802 ] ] ] } },
{ "type": "Feature", "properties": { "OBJECTID": 7324, "ID": "0013667878", "NAME": "HAMILTON COUNTY HOSPITAL", "ADDRESS": "700 NORTH HUSER", "CITY": "SYRACUSE", "STATE": "KS", "ZIP": "67878", "ZIP4": "NOT AVAILABLE", "TELEPHONE": "(620) 384-7461", "TYPE": "GENERAL ACUTE CARE", "STATUS": "OPEN", "POPULATION": 69, "COUNTY": "HAMILTON", "COUNTYFIPS": "20075", "COUNTRY": "USA", "LATITUDE": 37.984863151000098, "LONGITUDE": -101.74243240600001, "NAICS_CODE": "622110", "NAICS_DESC": "GENERAL MEDICAL AND SURGICAL HOSPITALS", "SOURCE": "http://www.kdheks.gov/bhfr/fac_list/", "SOURCEDATE": "2018-08-16T00:00:00.000Z", "VAL_METHOD": "IMAGERY", "VAL_DATE": "2014-02-10T00:00:00.000Z", "WEBSITE": "http://www.hamiltoncountyhospital.net", "STATE_ID": "H038001", "ALT_NAME": "HAMILTON COUNTY HOSPITAL", "ST_FIPS": "20", "OWNER": "GOVERNMENT - LOCAL", "TTL_STAFF": -999, "BEDS": 69, "TRAUMA": "NOT AVAILABLE", "HELIPAD": "N" }, "geometry": { "type": "Polygon", "coordinates": [ [ [ -101.761913, 37.885048 ], [ -101.894431349199081, 38.015740012418405 ], [ -101.79859233817146, 38.059060679852983 ], [ -101.725004, 38.073909 ], [ -101.633024, 38.001479699999955 ], [ -101.6519283, 37.944959900000015 ], [ -101.761913, 37.885048 ] ] ] } },
{ "type": "Feature", "properties": { "OBJECTID": 7325, "ID": "0013867880", "NAME": "BOB WILSON MEMORIAL GRANT COUNTY HOSPITAL", "ADDRESS": "415 N MAIN STREET", "CITY": "ULYSSES", "STATE": "KS", "ZIP": "67880", "ZIP4": "NOT AVAILABLE", "TELEPHONE": "(620) 356-1266", "TYPE": "GENERAL ACUTE CARE", "STATUS": "OPEN", "POPULATION": 26, "COUNTY": "GRANT", "COUNTYFIPS": "20067", "COUNTRY": "USA", "LATITUDE": 37.584672037000097, "LONGITUDE": -101.358667172, "NAICS_CODE": "622110", "NAICS_DESC": "GENERAL MEDICAL AND SURGICAL HOSPITALS", "SOURCE": "http://www.kdheks.gov/bhfr/fac_list/", "SOURCEDATE": "2018-08-16T00:00:00.000Z", "VAL_METHOD": "IMAGERY", "VAL_DATE": "2014-02-10T00:00:00.000Z", "WEBSITE": "http://www.bwmgch.com", "STATE_ID": "H034001", "ALT_NAME": "BOB WILSON MEMORIAL \u001e GRANT COUNTY HOSPITAL", "ST_FIPS": "20", "OWNER": "GOVERNMENT - LOCAL", "TTL_STAFF": -999, "BEDS": 26, "TRAUMA": "NOT AVAILABLE", "HELIPAD": "N" }, "geometry": { "type": "Polygon", "coordinates": [ [ [ -101.36215, 37.460346 ], [ -101.471755, 37.547574 ], [ -101.5083698, 37.5767436 ], [ -101.363788, 37.707197 ], [ -101.195606, 37.561899 ], [ -101.36215, 37.460346 ] ] ] } },
{ "type": "Feature", "properties": { "OBJECTID": 7326, "ID": "0013967672", "NAME": "TREGO COUNTY LEMKE MEMORIAL HOSPITAL", "ADDRESS": "320 THIRTEENTH ST", "CITY": "WA KEENEY", "STATE": "KS", "ZIP": "67672", "ZIP4": "NOT AVAILABLE", "TELEPHONE": "(785) 743-2182", "TYPE": "GENERAL ACUTE CARE", "STATUS": "OPEN", "POPULATION": 62, "COUNTY": "TREGO", "COUNTYFIPS": "20195", "COUNTRY": "USA", "LATITUDE": 39.027311586000103, "LONGITUDE": -99.871094779000003, "NAICS_CODE": "622110", "NAICS_DESC": "GENERAL MEDICAL AND SURGICAL HOSPITALS", "SOURCE": "http://www.kdheks.gov/bhfr/fac_list/", "SOURCEDATE": "2018-08-16T00:00:00.000Z", "VAL_METHOD": "IMAGERY", "VAL_DATE": "2014-02-10T00:00:00.000Z", "WEBSITE": "http://www.tclmh.org", "STATE_ID": "H098001", "ALT_NAME": "TREGO CO LEMKE MEM HOSP", "ST_FIPS": "20", "OWNER": "GOVERNMENT - LOCAL", "TTL_STAFF": -999, "BEDS": 62, "TRAUMA": "NOT AVAILABLE", "HELIPAD": "Y" }, "geometry": { "type": "Polygon", "coordinates": [ [ [ -99.891624, 38.913864 ], [ -100.034971, 39.015814 ], [ -100.037076, 39.030295 ], [ -99.872239, 39.132116 ], [ -99.741815, 39.015436 ], [ -99.723555, 38.986684 ], [ -99.743048, 38.957945 ], [ -99.891624, 38.913864 ] ] ] } },
{ "type": "Feature", "properties": { "OBJECTID": 7328, "ID": "0014567226", "NAME": "KANSAS SURGERY & RECOVERY CENTER", "ADDRESS": "2770 N WEBB ROAD", "CITY": "WICHITA", "STATE": "KS", "ZIP": "67226", "ZIP4": "NOT AVAILABLE", "TELEPHONE": "(316) 634-0090", "TYPE": "GENERAL ACUTE CARE", "STATUS": "OPEN", "POPULATION": 34, "COUNTY": "SEDGWICK", "COUNTYFIPS": "20173", "COUNTRY": "USA", "LATITUDE": 37.733061345000102, "LONGITUDE": -97.225013765, "NAICS_CODE": "622110", "NAICS_DESC": "GENERAL MEDICAL AND SURGICAL HOSPITALS", "SOURCE": "http://www.kdheks.gov/bhfr/fac_list/", "SOURCEDATE": "2018-08-16T00:00:00.000Z", "VAL_METHOD": "IMAGERY", "VAL_DATE": "2014-01-10T00:00:00.000Z", "WEBSITE": "http://www.ksrc.org", "STATE_ID": "H087008", "ALT_NAME": "KANSAS SURGERY & RECOVERY CENTER LLC", "ST_FIPS": "20", "OWNER": "PROPRIETARY", "TTL_STAFF": -999, "BEDS": 34, "TRAUMA": "NOT AVAILABLE", "HELIPAD": "N" }, "geometry": { "type": "Polygon", "coordinates": [ [ [ -97.226273, 37.629395 ], [ -97.2466321, 37.641452199999968 ], [ -97.3069938, 37.679373499999969 ], [ -97.363109, 37.733946 ], [ -97.365417, 37.73754 ], [ -97.364284, 37.757898 ], [ -97.335921, 37.795933 ], [ -97.3283021, 37.799051899999988 ], [ -97.207342, 37.8402 ], [ -97.1298014, 37.7964534 ], [ -97.1076572, 37.72309460000001 ], [ -97.1083464, 37.7091383 ], [ -97.1169094, 37.678680299999989 ], [ -97.1184053, 37.6766811 ], [ -97.1353385, 37.6615288 ], [ -97.1713184, 37.642996699999983 ], [ -97.226273, 37.629395 ] ] ] } },
{ "type": "Feature", "properties": { "OBJECTID": 7329, "ID": "0014967235", "NAME": "VIA CHRISTI HOSPITAL WICHITA ST TERESA INC", "ADDRESS": "14800 WEST ST TERESA", "CITY": "WICHITA", "STATE": "KS", "ZIP": "67235", "ZIP4": "NOT AVAILABLE", "TELEPHONE": "(316) 268-5000", "TYPE": "GENERAL ACUTE CARE", "STATUS": "OPEN", "POPULATION": 68, "COUNTY": "SEDGWICK", "COUNTYFIPS": "20173", "COUNTRY": "USA", "LATITUDE": 37.725746881000099, "LONGITUDE": -97.513210484999902, "NAICS_CODE": "622110", "NAICS_DESC": "GENERAL MEDICAL AND SURGICAL HOSPITALS", "SOURCE": "http://www.kdheks.gov/bhfr/fac_list/", "SOURCEDATE": "2018-08-16T00:00:00.000Z", "VAL_METHOD": "IMAGERY", "VAL_DATE": "2014-02-10T00:00:00.000Z", "WEBSITE": "http://www.via-christi.org/st-teresa", "STATE_ID": "H087109", "ALT_NAME": "VIA CHRISTI HOSPITAL ST TERESA INC", "ST_FIPS": "20", "OWNER": "NON-PROFIT", "TTL_STAFF": -999, "BEDS": 68, "TRAUMA": "NOT AVAILABLE", "HELIPAD": "Y" }, "geometry": { "type": "Polygon", "coordinates": [ [ [ -97.498719, 37.635974 ], [ -97.517202, 37.635865 ], [ -97.535637, 37.635831 ], [ -97.5611486, 37.646980899999981 ], [ -97.571291, 37.651935 ], [ -97.5910123, 37.6639513 ], [ -97.662066, 37.721229 ], [ -97.626187, 37.754124 ], [ -97.6079433, 37.770336600000029 ], [ -97.554612, 37.808516 ], [ -97.500282, 37.816423 ], [ -97.481941, 37.809834 ], [ -97.4448808, 37.781026499999982 ], [ -97.3897523, 37.731629799999936 ], [ -97.387828, 37.708798 ], [ -97.390628, 37.705216 ], [ -97.460732, 37.65259 ], [ -97.461942, 37.651757 ], [ -97.498719, 37.635974 ] ] ] } },
{ "type": "Feature", "properties": { "OBJECTID": 7330, "ID": "0015267206", "NAME": "VIA CHRISTI REHABILITATION HOSPITAL INC", "ADDRESS": "1151 N ROCK ROAD", "CITY": "WICHITA", "STATE": "KS", "ZIP": "67206", "ZIP4": "NOT AVAILABLE", "TELEPHONE": "(316) 634-3400", "TYPE": "REHABILITATION", "STATUS": "OPEN", "POPULATION": 60, "COUNTY": "SEDGWICK", "COUNTYFIPS": "20173", "COUNTRY": "USA", "LATITUDE": 37.703921561000101, "LONGITUDE": -97.246028866000003, "NAICS_CODE": "622310", "NAICS_DESC": "REHABILITATION HOSPITALS (EXCEPT ALCOHOLISM, DRUG ADDICTION)", "SOURCE": "http://www.kdheks.gov/bhfr/fac_list/", "SOURCEDATE": "2018-08-16T00:00:00.000Z", "VAL_METHOD": "IMAGERY", "VAL_DATE": "2014-02-10T00:00:00.000Z", "WEBSITE": "http://www.via-christi.org", "STATE_ID": "H087006", "ALT_NAME": "VIA CHRISTI REHABILITATION HOSPITAL INC", "ST_FIPS": "20", "OWNER": "NON-PROFIT", "TTL_STAFF": -999, "BEDS": 60, "TRAUMA": "NOT AVAILABLE", "HELIPAD": "N" }, "geometry": { "type": "Polygon", "coordinates": [ [ [ -97.244358, 37.594508 ], [ -97.294208, 37.610635 ], [ -97.3704434, 37.675891499999985 ], [ -97.38055, 37.708793 ], [ -97.3228366, 37.766245700000056 ], [ -97.2806457, 37.791450899999951 ], [ -97.2625545, 37.797919399999977 ], [ -97.2456561, 37.8027186 ], [ -97.245088, 37.802761900000014 ], [ -97.2267315, 37.7962095 ], [ -97.208313, 37.784014 ], [ -97.1129796, 37.709118500000045 ], [ -97.1129099, 37.708508400000014 ], [ -97.11997, 37.679397900000026 ], [ -97.226217, 37.606371 ], [ -97.244358, 37.594508 ] ] ] } },
{ "type": "Feature", "properties": { "OBJECTID": 7331, "ID": "0015467212", "NAME": "WESLEY REHABILITATION HOSPITAL", "ADDRESS": "8338 WEST 13TH STREET", "CITY": "WICHITA", "STATE": "KS", "ZIP": "67212", "ZIP4": "NOT AVAILABLE", "TELEPHONE": "(316) 729-9999", "TYPE": "REHABILITATION", "STATUS": "OPEN", "POPULATION": 65, "COUNTY": "SEDGWICK", "COUNTYFIPS": "20173", "COUNTRY": "USA", "LATITUDE": 37.709581837000002, "LONGITUDE": -97.438822768999998, "NAICS_CODE": "622310", "NAICS_DESC": "REHABILITATION HOSPITALS (EXCEPT ALCOHOLISM, DRUG ADDICTION)", "SOURCE": "http://www.kdheks.gov/bhfr/fac_list/", "SOURCEDATE": "2018-08-16T00:00:00.000Z", "VAL_METHOD": "IMAGERY", "VAL_DATE": "2014-01-10T00:00:00.000Z", "WEBSITE": "http://www.wesleyrehabhospital.com", "STATE_ID": "H087005", "ALT_NAME": "HCA WESLEY REHABILITATION HOSPITAL INC", "ST_FIPS": "20", "OWNER": "PROPRIETARY", "TTL_STAFF": -999, "BEDS": 65, "TRAUMA": "NOT AVAILABLE", "HELIPAD": "N" }, "geometry": { "type": "Polygon", "coordinates": [ [ [ -97.388976, 37.613745 ], [ -97.4658176, 37.620579600000056 ], [ -97.4705667, 37.623233 ], [ -97.516708, 37.649769 ], [ -97.534859, 37.663748 ], [ -97.553279700000019, 37.700071899999983 ], [ -97.563998, 37.721605 ], [ -97.4811053, 37.795353 ], [ -97.463474, 37.795913 ], [ -97.445111, 37.795972 ], [ -97.426756, 37.796021 ], [ -97.3708665, 37.7744368 ], [ -97.3371633, 37.756743700000037 ], [ -97.3360763, 37.754767300000033 ], [ -97.3219197, 37.7080063 ], [ -97.3300817, 37.6787403 ], [ -97.356398, 37.627927 ], [ -97.388976, 37.613745 ] ] ] } },
{ "type": "Feature", "properties": { "OBJECTID": 5334, "ID": "0011667665", "NAME": "RUSSELL REGIONAL HOSPITAL", "ADDRESS": "200 S MAIN STREET", "CITY": "RUSSELL", "STATE": "KS", "ZIP": "67665", "ZIP4": "NOT AVAILABLE", "TELEPHONE": "(785) 483-3131", "TYPE": "GENERAL ACUTE CARE", "STATUS": "OPEN", "POPULATION": 46, "COUNTY": "RUSSELL", "COUNTYFIPS": "20167", "COUNTRY": "USA", "LATITUDE": 38.8827571160001, "LONGITUDE": -98.859704574999995, "NAICS_CODE": "622110", "NAICS_DESC": "GENERAL MEDICAL AND SURGICAL HOSPITALS", "SOURCE": "http://www.kdheks.gov/bhfr/fac_list/", "SOURCEDATE": "2018-08-16T00:00:00.000Z", "VAL_METHOD": "IMAGERY", "VAL_DATE": "2014-02-10T00:00:00.000Z", "WEBSITE": "http://www.russellhospital.org", "STATE_ID": "H084001", "ALT_NAME": "WEST CENTRAL KANSAS ASSOCIATION INC", "ST_FIPS": "20", "OWNER": "NON-PROFIT", "TTL_STAFF": -999, "BEDS": 46, "TRAUMA": "NOT AVAILABLE", "HELIPAD": "Y" }, "geometry": { "type": "Polygon", "coordinates": [ [ [ -98.8547976, 38.769269599999966 ], [ -99.0213053, 38.86288 ], [ -99.0212942, 38.864167799999969 ], [ -98.9169544, 38.950537800000021 ], [ -98.8539942, 39.0017996 ], [ -98.8357105, 38.9873318 ], [ -98.701851100000013, 38.857124699999964 ], [ -98.8547976, 38.769269599999966 ] ] ] } },
{ "type": "Feature", "properties": { "OBJECTID": 5386, "ID": "0000000073", "NAME": "VIA CHRISTI HOSPITAL ST. JOSEPH", "ADDRESS": "3600 E HARRY ST", "CITY": "WICHITA", "STATE": "KS", "ZIP": "67218", "ZIP4": "NOT AVAILABLE", "TELEPHONE": "(316) 685-1111", "TYPE": "GENERAL ACUTE CARE", "STATUS": "OPEN", "POPULATION": -999, "COUNTY": "SEDGWICK", "COUNTYFIPS": "20173", "COUNTRY": "USA", "LATITUDE": 37.666158122000098, "LONGITUDE": -97.292596552000006, "NAICS_CODE": "622110", "NAICS_DESC": "GENERAL MEDICAL AND SURGICAL HOSPITALS", "SOURCE": "http://www.kdheks.gov/bhfr/fac_list/", "SOURCEDATE": "2018-08-16T00:00:00.000Z", "VAL_METHOD": "IMAGERY/OTHER", "VAL_DATE": "2015-05-22T00:00:00.000Z", "WEBSITE": "http://www.via-christi.org/location/via-christi-hospital-st-joseph", "STATE_ID": "NOT AVAILABLE", "ALT_NAME": "VIA CHRISTI HOSPITAL HARRY", "ST_FIPS": "20", "OWNER": "NOT AVAILABLE", "TTL_STAFF": -999, "BEDS": -999, "TRAUMA": "NOT AVAILABLE", "HELIPAD": "N" }, "geometry": { "type": "Polygon", "coordinates": [ [ [ -97.2750224, 37.5611964 ], [ -97.325909800000019, 37.563128099999957 ], [ -97.4410239, 37.671839100000021 ], [ -97.4090898, 37.7019998 ], [ -97.3253458, 37.7778334 ], [ -97.299034, 37.769892899999938 ], [ -97.280048, 37.762369 ], [ -97.15305, 37.679531 ], [ -97.15305, 37.679386 ], [ -97.273136, 37.56247 ], [ -97.2750224, 37.5611964 ] ] ] } },
{ "type": "Feature", "properties": { "OBJECTID": 5511, "ID": "0012767870", "NAME": "SATANTA DISTRICT HOSPITAL", "ADDRESS": "401 CHEYENNE AVE", "CITY": "SATANTA", "STATE": "KS", "ZIP": "67870", "ZIP4": "NOT AVAILABLE", "TELEPHONE": "(620) 649-2761", "TYPE": "GENERAL ACUTE CARE", "STATUS": "OPEN", "POPULATION": 13, "COUNTY": "HASKELL", "COUNTYFIPS": "20081", "COUNTRY": "USA", "LATITUDE": 37.437092915999997, "LONGITUDE": -100.986562879, "NAICS_CODE": "622110", "NAICS_DESC": "GENERAL MEDICAL AND SURGICAL HOSPITALS", "SOURCE": "http://www.kdheks.gov/bhfr/fac_list/", "SOURCEDATE": "2018-08-16T00:00:00.000Z", "VAL_METHOD": "IMAGERY", "VAL_DATE": "2014-01-10T00:00:00.000Z", "WEBSITE": "http://www.satantahospital.org", "STATE_ID": "H041001", "ALT_NAME": "SATANTA DISTRICT HOSPITAL & LTCU", "ST_FIPS": "20", "OWNER": "GOVERNMENT - DISTRICT/AUTHORITY", "TTL_STAFF": -999, "BEDS": 13, "TRAUMA": "LEVEL IV", "HELIPAD": "Y" }, "geometry": { "type": "Polygon", "coordinates": [ [ [ -101.050229, 37.347625 ], [ -101.1225933, 37.370911899999989 ], [ -101.098571, 37.489541300000013 ], [ -100.980694, 37.533133 ], [ -100.943826, 37.532869 ], [ -100.870815, 37.518605 ], [ -100.842203, 37.489502 ], [ -100.830484, 37.474877 ], [ -100.852747, 37.431297 ], [ -100.9234663, 37.373385900000052 ], [ -100.941664, 37.366248 ], [ -100.977601, 37.358589 ], [ -101.050229, 37.347625 ] ] ] } },
{ "type": "Feature", "properties": { "OBJECTID": 5512, "ID": "0013367871", "NAME": "SCOTT COUNTY HOSPITAL", "ADDRESS": "201 SOUTH COLLEGE ST", "CITY": "SCOTT CITY", "STATE": "KS", "ZIP": "67871", "ZIP4": "NOT AVAILABLE", "TELEPHONE": "(620) 872-5811", "TYPE": "GENERAL ACUTE CARE", "STATUS": "CLOSED", "POPULATION": 25, "COUNTY": "SCOTT", "COUNTYFIPS": "20171", "COUNTRY": "USA", "LATITUDE": 38.484885261000002, "LONGITUDE": -100.903889373, "NAICS_CODE": "622110", "NAICS_DESC": "GENERAL MEDICAL AND SURGICAL HOSPITALS", "SOURCE": "http://www.kdheks.gov/bhfr/fac_list/", "SOURCEDATE": "2013-05-30T00:00:00.000Z", "VAL_METHOD": "IMAGERY", "VAL_DATE": "2014-02-10T00:00:00.000Z", "WEBSITE": "http://www.scotthospital.net", "STATE_ID": "H086001", "ALT_NAME": "SCOTT COUNTY HOSPITAL INC", "ST_FIPS": "20", "OWNER": "NON-PROFIT", "TTL_STAFF": -999, "BEDS": 25, "TRAUMA": "NOT AVAILABLE", "HELIPAD": "N" }, "geometry": { "type": "Polygon", "coordinates": [ [ [ -100.905824, 38.366549 ], [ -100.91262, 38.36649 ], [ -101.082529, 38.482421 ], [ -100.902131, 38.601962 ], [ -100.899953, 38.60145 ], [ -100.718804, 38.482855 ], [ -100.905824, 38.366549 ] ] ] } },
{ "type": "Feature", "properties": { "OBJECTID": 5541, "ID": "0002267701", "NAME": "CITIZENS MEDICAL CENTER", "ADDRESS": "100 E COLLEGE DRIVE", "CITY": "COLBY", "STATE": "KS", "ZIP": "67701", "ZIP4": "NOT AVAILABLE", "TELEPHONE": "(785) 462-7511", "TYPE": "CRITICAL ACCESS", "STATUS": "OPEN", "POPULATION": 88, "COUNTY": "THOMAS", "COUNTYFIPS": "20193", "COUNTRY": "USA", "LATITUDE": 39.378719419, "LONGITUDE": -101.044389188, "NAICS_CODE": "622110", "NAICS_DESC": "GENERAL MEDICAL AND SURGICAL HOSPITALS", "SOURCE": "http://www.kdheks.gov/bhfr/fac_list/", "SOURCEDATE": "2018-08-16T00:00:00.000Z", "VAL_METHOD": "IMAGERY", "VAL_DATE": "2014-02-10T00:00:00.000Z", "WEBSITE": "http://www.nwkshealthcare.com", "STATE_ID": "H097001", "ALT_NAME": "CITIZENS MEDICAL CENTER INC", "ST_FIPS": "20", "OWNER": "NON-PROFIT", "TTL_STAFF": -999, "BEDS": 88, "TRAUMA": "LEVEL IV", "HELIPAD": "Y" }, "geometry": { "type": "Polygon", "coordinates": [ [ [ -100.9398096, 39.275411199999986 ], [ -101.055594, 39.278086 ], [ -101.2080766, 39.366149400000047 ], [ -101.204222, 39.380909 ], [ -101.055019, 39.475586 ], [ -100.9069351, 39.394290900000016 ], [ -100.9398096, 39.275411199999986 ] ] ] } },
{ "type": "Feature", "properties": { "OBJECTID": 5542, "ID": "0001467003", "NAME": "ANTHONY MEDICAL CENTER", "ADDRESS": "1101 E SPRING STREET", "CITY": "ANTHONY", "STATE": "KS", "ZIP": "67003", "ZIP4": "NOT AVAILABLE", "TELEPHONE": "(620) 842-5111", "TYPE": "CRITICAL ACCESS", "STATUS": "OPEN", "POPULATION": 25, "COUNTY": "HARPER", "COUNTYFIPS": "20077", "COUNTRY": "USA", "LATITUDE": 37.154992587000002, "LONGITUDE": -98.017349087999904, "NAICS_CODE": "622110", "NAICS_DESC": "GENERAL MEDICAL AND SURGICAL HOSPITALS", "SOURCE": "http://www.kdheks.gov/bhfr/fac_list/", "SOURCEDATE": "2018-08-16T00:00:00.000Z", "VAL_METHOD": "IMAGERY", "VAL_DATE": "2016-04-28T00:00:00.000Z", "WEBSITE": "http://amcks.org/", "STATE_ID": "H039001", "ALT_NAME": "HOSPITAL DIST #6 HARPER COUNTY", "ST_FIPS": "20", "OWNER": "GOVERNMENT - DISTRICT/AUTHORITY", "TTL_STAFF": -999, "BEDS": 25, "TRAUMA": "LEVEL IV", "HELIPAD": "Y" }, "geometry": { "type": "Polygon", "coordinates": [ [ [ -98.038137342638024, 37.065394982418823 ], [ -98.13024058826484, 37.137307896167414 ], [ -98.148433648529647, 37.151803898412929 ], [ -98.130382617357739, 37.166337947465507 ], [ -98.039333, 37.239311 ], [ -97.874770185433363, 37.153546036260778 ], [ -98.038137342638024, 37.065394982418823 ] ] ] } },
{ "type": "Feature", "properties": { "OBJECTID": 5543, "ID": "0000367831", "NAME": "ASHLAND HEALTH CENTER", "ADDRESS": "709 OAK STREET", "CITY": "ASHLAND", "STATE": "KS", "ZIP": "67831", "ZIP4": "NOT AVAILABLE", "TELEPHONE": "(620) 635-2241", "TYPE": "CRITICAL ACCESS", "STATUS": "OPEN", "POPULATION": 45, "COUNTY": "CLARK", "COUNTYFIPS": "20025", "COUNTRY": "USA", "LATITUDE": 37.189180111, "LONGITUDE": -99.772421574000006, "NAICS_CODE": "622110", "NAICS_DESC": "GENERAL MEDICAL AND SURGICAL HOSPITALS", "SOURCE": "http://www.kdheks.gov/bhfr/fac_list/", "SOURCEDATE": "2018-08-16T00:00:00.000Z", "VAL_METHOD": "IMAGERY", "VAL_DATE": "2014-01-09T00:00:00.000Z", "WEBSITE": "http://www.ashlandhc.org", "STATE_ID": "H013001", "ALT_NAME": "ASHLAND HEALTH DISTRICT #3", "ST_FIPS": "20", "OWNER": "GOVERNMENT - DISTRICT/AUTHORITY", "TTL_STAFF": -999, "BEDS": 45, "TRAUMA": "LEVEL IV", "HELIPAD": "Y" }, "geometry": { "type": "Polygon", "coordinates": [ [ [ -99.777262157572608, 37.089905454852165 ], [ -99.839921116447869, 37.13157570345227 ], [ -99.889027, 37.164617 ], [ -99.926851, 37.194208900000028 ], [ -99.7976757, 37.257388500000026 ], [ -99.7536884, 37.269159600000037 ], [ -99.652625, 37.221256 ], [ -99.641293, 37.177571 ], [ -99.650534, 37.162992 ], [ -99.777262157572608, 37.089905454852165 ] ] ] } },
{ "type": "Feature", "properties": { "OBJECTID": 5544, "ID": "0002067420", "NAME": "MITCHELL COUNTY HOSPITAL HEALTH SYSTEMS", "ADDRESS": "400 W 8TH STREET, P O BOX 399", "CITY": "BELOIT", "STATE": "KS", "ZIP": "67420", "ZIP4": "NOT AVAILABLE", "TELEPHONE": "(785) 738-2266", "TYPE": "CRITICAL ACCESS", "STATUS": "OPEN", "POPULATION": 75, "COUNTY": "MITCHELL", "COUNTYFIPS": "20123", "COUNTRY": "USA", "LATITUDE": 39.467203816999998, "LONGITUDE": -98.114379796999998, "NAICS_CODE": "622110", "NAICS_DESC": "GENERAL MEDICAL AND SURGICAL HOSPITALS", "SOURCE": "http://www.kdheks.gov/bhfr/fac_list/", "SOURCEDATE": "2018-08-16T00:00:00.000Z", "VAL_METHOD": "IMAGERY", "VAL_DATE": "2014-02-10T00:00:00.000Z", "WEBSITE": "http://www.mchks.com", "STATE_ID": "H062001", "ALT_NAME": "COUNTY OF MITCHELL COURTHOUSE", "ST_FIPS": "20", "OWNER": "GOVERNMENT - LOCAL", "TTL_STAFF": -999, "BEDS": 75, "TRAUMA": "LEVEL IV", "HELIPAD": "N" }, "geometry": { "type": "Polygon", "coordinates": [ [ [ -98.1161357, 39.3555498 ], [ -98.2831202, 39.496123899999965 ], [ -98.133916, 39.567113 ], [ -98.115139, 39.567127 ], [ -98.0041519, 39.51005990000003 ], [ -97.9666242, 39.48114820000005 ], [ -97.9719093, 39.415371200000017 ], [ -97.9764438, 39.408024899999958 ], [ -98.1161357, 39.3555498 ] ] ] } },
{ "type": "Feature", "properties": { "OBJECTID": 5545, "ID": "0002167022", "NAME": "SUMNER COUNTY HOSPITAL", "ADDRESS": "601 SOUTH OSAGE STREET", "CITY": "CALDWELL", "STATE": "KS", "ZIP": "67022", "ZIP4": "NOT AVAILABLE", "TELEPHONE": "(620) 845-6492", "TYPE": "CRITICAL ACCESS", "STATUS": "OPEN", "POPULATION": 15, "COUNTY": "SUMNER", "COUNTYFIPS": "20191", "COUNTRY": "USA", "LATITUDE": 37.026134138000003, "LONGITUDE": -97.610264222999902, "NAICS_CODE": "622110", "NAICS_DESC": "GENERAL MEDICAL AND SURGICAL HOSPITALS", "SOURCE": "http://www.kdheks.gov/bhfr/fac_list/", "SOURCEDATE": "2018-08-16T00:00:00.000Z", "VAL_METHOD": "IMAGERY", "VAL_DATE": "2014-01-09T00:00:00.000Z", "WEBSITE": "http://www.schd1.com", "STATE_ID": "H096001", "ALT_NAME": "SUMNER COUNTY HOSPITAL DISTRICT NO 1", "ST_FIPS": "20", "OWNER": "GOVERNMENT - DISTRICT/AUTHORITY", "TTL_STAFF": -999, "BEDS": 15, "TRAUMA": "NOT AVAILABLE", "HELIPAD": "N" }, "geometry": { "type": "Polygon", "coordinates": [ [ [ -97.570216, 36.98525 ], [ -97.6425718, 36.985230699999988 ], [ -97.673060058537601, 37.024343782739976 ], [ -97.673159041795699, 37.0388067968128 ], [ -97.655252961420103, 37.069478809111331 ], [ -97.61951282078131, 37.113877817222217 ], [ -97.601669761784493, 37.126499812009961 ], [ -97.528669630018513, 37.084721701070052 ], [ -97.473546853495904, 37.041148028507457 ], [ -97.472011564241868, 37.030269617757511 ], [ -97.510211, 36.998617 ], [ -97.570216, 36.98525 ] ] ] } },
{ "type": "Feature", "properties": { "OBJECTID": 5546, "ID": "0000767432", "NAME": "CLAY COUNTY MEDICAL CENTER", "ADDRESS": "617 LIBERTY", "CITY": "CLAY CENTER", "STATE": "KS", "ZIP": "67432", "ZIP4": "NOT AVAILABLE", "TELEPHONE": "(785) 632-2144", "TYPE": "CRITICAL ACCESS", "STATUS": "OPEN", "POPULATION": 25, "COUNTY": "CLAY", "COUNTYFIPS": "20027", "COUNTRY": "USA", "LATITUDE": 39.391700798000002, "LONGITUDE": -97.123570657000002, "NAICS_CODE": "622110", "NAICS_DESC": "GENERAL MEDICAL AND SURGICAL HOSPITALS", "SOURCE": "http://www.kdheks.gov/bhfr/fac_list/", "SOURCEDATE": "2018-08-16T00:00:00.000Z", "VAL_METHOD": "IMAGERY", "VAL_DATE": "2014-02-10T00:00:00.000Z", "WEBSITE": "http://www.ccmcks.org", "STATE_ID": "H014001", "ALT_NAME": "CLAY COUNTY MEDICAL CENTER", "ST_FIPS": "20", "OWNER": "GOVERNMENT - LOCAL", "TTL_STAFF": -999, "BEDS": 25, "TRAUMA": "NOT AVAILABLE", "HELIPAD": "Y" }, "geometry": { "type": "Polygon", "coordinates": [ [ [ -97.128436, 39.290078 ], [ -97.2754468, 39.378941199999979 ], [ -97.204623, 39.46646 ], [ -97.1277552, 39.524707700000015 ], [ -97.104008, 39.509917 ], [ -97.0712969, 39.480731199999987 ], [ -96.978512, 39.394289 ], [ -96.966119, 39.379349 ], [ -96.966225, 39.378138 ], [ -97.047595, 39.318993 ], [ -97.128436, 39.290078 ] ] ] } },
{ "type": "Feature", "properties": { "OBJECTID": 5547, "ID": "0002867839", "NAME": "LANE COUNTY HOSPITAL", "ADDRESS": "235 WEST VINE, PO BOX 969", "CITY": "DIGHTON", "STATE": "KS", "ZIP": "67839", "ZIP4": "NOT AVAILABLE", "TELEPHONE": "(620) 397-5321", "TYPE": "CRITICAL ACCESS", "STATUS": "OPEN", "POPULATION": 17, "COUNTY": "LANE", "COUNTYFIPS": "20101", "COUNTRY": "USA", "LATITUDE": 38.480468071000097, "LONGITUDE": -100.46915380599999, "NAICS_CODE": "622110", "NAICS_DESC": "GENERAL MEDICAL AND SURGICAL HOSPITALS", "SOURCE": "http://www.kdheks.gov/bhfr/fac_list/", "SOURCEDATE": "2018-08-16T00:00:00.000Z", "VAL_METHOD": "IMAGERY", "VAL_DATE": "2016-04-28T00:00:00.000Z", "WEBSITE": "http://www.lchospital.com", "STATE_ID": "H051001", "ALT_NAME": "LANE COUNTY HOSPITAL", "ST_FIPS": "20", "OWNER": "GOVERNMENT - LOCAL", "TTL_STAFF": -999, "BEDS": 17, "TRAUMA": "NOT AVAILABLE", "HELIPAD": "N" }, "geometry": { "type": "Polygon", "coordinates": [ [ [ -100.447494, 38.394597 ], [ -100.484142, 38.394782 ], [ -100.649882300000016, 38.4820907 ], [ -100.4687792, 38.588582800000012 ], [ -100.464665, 38.587874 ], [ -100.293598, 38.480101 ], [ -100.29313, 38.478453 ], [ -100.447494, 38.394597 ] ] ] } },
{ "type": "Feature", "properties": { "OBJECTID": 5548, "ID": "0003566801", "NAME": "NEWMAN REGIONAL HEALTH", "ADDRESS": "1201 WEST 12TH AVENUE", "CITY": "EMPORIA", "STATE": "KS", "ZIP": "66801", "ZIP4": "NOT AVAILABLE", "TELEPHONE": "(620) 343-6800", "TYPE": "CRITICAL ACCESS", "STATUS": "OPEN", "POPULATION": 59, "COUNTY": "LYON", "COUNTYFIPS": "20111", "COUNTRY": "USA", "LATITUDE": 38.411722873000002, "LONGITUDE": -96.196198549000002, "NAICS_CODE": "622110", "NAICS_DESC": "GENERAL MEDICAL AND SURGICAL HOSPITALS", "SOURCE": "http://www.kdheks.gov/bhfr/fac_list/", "SOURCEDATE": "2018-08-16T00:00:00.000Z", "VAL_METHOD": "IMAGERY", "VAL_DATE": "2014-02-10T00:00:00.000Z", "WEBSITE": "http://www.newmanrh.org", "STATE_ID": "H056001", "ALT_NAME": "NEWMAN MEMORIAL COUNTY HOSPITAL", "ST_FIPS": "20", "OWNER": "GOVERNMENT - LOCAL", "TTL_STAFF": -999, "BEDS": 59, "TRAUMA": "LEVEL IV", "HELIPAD": "Y" }, "geometry": { "type": "Polygon", "coordinates": [ [ [ -96.181536, 38.31151 ], [ -96.208007, 38.317998 ], [ -96.354786, 38.404936 ], [ -96.354732, 38.406769 ], [ -96.2528889, 38.4848143 ], [ -96.1705068, 38.5065708 ], [ -96.1692148, 38.506534700000024 ], [ -96.123069, 38.477507 ], [ -96.042818, 38.419975 ], [ -96.032733, 38.41252 ], [ -96.04267, 38.404905 ], [ -96.1803903, 38.3115705 ], [ -96.181536, 38.31151 ] ] ] } },
{ "type": "Feature", "properties": { "OBJECTID": 5550, "ID": "0002567502", "NAME": "HUTCHINSON REGIONAL MEDICAL CENTER INC", "ADDRESS": "1701 E 23RD AVENUE", "CITY": "HUTCHINSON", "STATE": "KS", "ZIP": "67502", "ZIP4": "NOT AVAILABLE", "TELEPHONE": "(620) 665-2001", "TYPE": "GENERAL ACUTE CARE", "STATUS": "OPEN", "POPULATION": 213, "COUNTY": "RENO", "COUNTYFIPS": "20155", "COUNTRY": "USA", "LATITUDE": 38.079918147999997, "LONGITUDE": -97.891615541999997, "NAICS_CODE": "622110", "NAICS_DESC": "GENERAL MEDICAL AND SURGICAL HOSPITALS", "SOURCE": "http://www.kdheks.gov/bhfr/fac_list/", "SOURCEDATE": "2018-08-16T00:00:00.000Z", "VAL_METHOD": "IMAGERY", "VAL_DATE": "2014-02-10T00:00:00.000Z", "WEBSITE": "http://www.promiseregional.com", "STATE_ID": "H078001", "ALT_NAME": "HUTCHINSON REGIONAL MEDICAL CENTER INC", "ST_FIPS": "20", "OWNER": "NON-PROFIT", "TTL_STAFF": -999, "BEDS": 213, "TRAUMA": "LEVEL III", "HELIPAD": "Y" }, "geometry": { "type": "Polygon", "coordinates": [ [ [ -97.8669305, 37.9993897 ], [ -97.9595032, 38.013564299999977 ], [ -97.9772375, 38.05728029999996 ], [ -97.9780523, 38.1004034 ], [ -97.9776634, 38.1149268 ], [ -97.9592488, 38.144465500000038 ], [ -97.9220988, 38.173720300000042 ], [ -97.830168, 38.175855 ], [ -97.8246665, 38.173615699999942 ], [ -97.7570234, 38.086585199999966 ], [ -97.8102257, 38.042915599999944 ], [ -97.8669305, 37.9993897 ] ] ] } },
{ "type": "Feature", "properties": { "OBJECTID": 5551, "ID": "0005667544", "NAME": "CLARA BARTON HOSPITAL", "ADDRESS": "250 W 9TH STREET", "CITY": "HOISINGTON", "STATE": "KS", "ZIP": "67544", "ZIP4": "NOT AVAILABLE", "TELEPHONE": "(620) 653-2114", "TYPE": "CRITICAL ACCESS", "STATUS": "OPEN", "POPULATION": 23, "COUNTY": "BARTON", "COUNTYFIPS": "20009", "COUNTRY": "USA", "LATITUDE": 38.522435328, "LONGITUDE": -98.778463242000001, "NAICS_CODE": "622110", "NAICS_DESC": "GENERAL MEDICAL AND SURGICAL HOSPITALS", "SOURCE": "http://www.kdheks.gov/bhfr/fac_list/", "SOURCEDATE": "2018-08-16T00:00:00.000Z", "VAL_METHOD": "IMAGERY", "VAL_DATE": "2014-02-10T00:00:00.000Z", "WEBSITE": "http://www.clarabartonhospital.org", "STATE_ID": "H005003", "ALT_NAME": "CLARA BARTON HOSPITAL ASSOCIATION INC", "ST_FIPS": "20", "OWNER": "NON-PROFIT", "TTL_STAFF": -999, "BEDS": 23, "TRAUMA": "LEVEL IV", "HELIPAD": "Y" }, "geometry": { "type": "Polygon", "coordinates": [ [ [ -98.767562, 38.404637 ], [ -98.7759708, 38.40534 ], [ -98.90408, 38.50687 ], [ -98.922457, 38.521424 ], [ -98.9409981, 38.536376 ], [ -98.922721, 38.550866 ], [ -98.904221, 38.56479 ], [ -98.830336, 38.60867 ], [ -98.775763, 38.623331 ], [ -98.6091279, 38.52185690000006 ], [ -98.7563453, 38.405353599999977 ], [ -98.767562, 38.404637 ] ] ] } },
{ "type": "Feature", "properties": { "OBJECTID": 5555, "ID": "0007867550", "NAME": "LARNED STATE HOSPITAL", "ADDRESS": "1301 KS HIGHWAY 264", "CITY": "LARNED", "STATE": "KS", "ZIP": "67550", "ZIP4": "NOT AVAILABLE", "TELEPHONE": "(620) 285-4360", "TYPE": "GENERAL ACUTE CARE", "STATUS": "OPEN", "POPULATION": 613, "COUNTY": "PAWNEE", "COUNTYFIPS": "20145", "COUNTRY": "USA", "LATITUDE": 38.171490008, "LONGITUDE": -99.15095108, "NAICS_CODE": "622110", "NAICS_DESC": "GENERAL MEDICAL AND SURGICAL HOSPITALS", "SOURCE": "http://www.kdheks.gov/bhfr/fac_list/", "SOURCEDATE": "2018-08-16T00:00:00.000Z", "VAL_METHOD": "IMAGERY", "VAL_DATE": "2014-01-09T00:00:00.000Z", "WEBSITE": "http://www.larnedstatehospital.org", "STATE_ID": "M073001", "ALT_NAME": "STATE OF KANSAS\u001eACCOUNTING SERVICES", "ST_FIPS": "20", "OWNER": "GOVERNMENT - STATE", "TTL_STAFF": -999, "BEDS": 613, "TRAUMA": "NOT AVAILABLE", "HELIPAD": "N" }, "geometry": { "type": "Polygon", "coordinates": [ [ [ -99.2057412, 38.101634 ], [ -99.277584, 38.189103 ], [ -99.259452, 38.20333 ], [ -99.170448, 38.262012 ], [ -99.0297146, 38.232552600000012 ], [ -99.040387, 38.160095 ], [ -99.0952732, 38.1307379 ], [ -99.2057412, 38.101634 ] ] ] } },
{ "type": "Feature", "properties": { "OBJECTID": 5556, "ID": "0005567550", "NAME": "PAWNEE  VALLEY COMMUNITY HOSPITAL", "ADDRESS": "923 CARROLL AVENUE", "CITY": "LARNED", "STATE": "KS", "ZIP": "67550", "ZIP4": "NOT AVAILABLE", "TELEPHONE": "(620) 285-3161", "TYPE": "CRITICAL ACCESS", "STATUS": "OPEN", "POPULATION": 25, "COUNTY": "PAWNEE", "COUNTYFIPS": "20145", "COUNTRY": "USA", "LATITUDE": 38.183758933999997, "LONGITUDE": -99.107670221000006, "NAICS_CODE": "622110", "NAICS_DESC": "GENERAL MEDICAL AND SURGICAL HOSPITALS", "SOURCE": "http://www.kdheks.gov/bhfr/fac_list/", "SOURCEDATE": "2018-08-16T00:00:00.000Z", "VAL_METHOD": "IMAGERY", "VAL_DATE": "2014-02-10T00:00:00.000Z", "WEBSITE": "http://www.pawneevalleyhospital.com", "STATE_ID": "H073002", "ALT_NAME": "HAYSMED PARTNERS INC", "ST_FIPS": "20", "OWNER": "GOVERNMENT - LOCAL", "TTL_STAFF": -999, "BEDS": 25, "TRAUMA": "LEVEL IV", "HELIPAD": "Y" }, "geometry": { "type": "Polygon", "coordinates": [ [ [ -99.0954007, 38.087227400000039 ], [ -99.2057412, 38.101634 ], [ -99.2591221, 38.188715499999972 ], [ -99.170035, 38.246867 ], [ -99.168939, 38.247544 ], [ -99.077743, 38.261302 ], [ -99.045387, 38.265783 ], [ -98.984465, 38.2685 ], [ -98.977067, 38.267667 ], [ -98.9770613, 38.2662382 ], [ -98.977064, 38.265369 ], [ -98.9859484, 38.1601466 ], [ -99.077181, 38.092718 ], [ -99.0954007, 38.087227400000039 ] ] ] } },
{ "type": "Feature", "properties": { "OBJECTID": 5558, "ID": "0006867456", "NAME": "LINDSBORG COMMUNITY HOSPITAL", "ADDRESS": "605 W LINCOLN STREET", "CITY": "LINDSBORG", "STATE": "KS", "ZIP": "67456", "ZIP4": "NOT AVAILABLE", "TELEPHONE": "(785) 227-3308", "TYPE": "CRITICAL ACCESS", "STATUS": "OPEN", "POPULATION": 25, "COUNTY": "MCPHERSON", "COUNTYFIPS": "20113", "COUNTRY": "USA", "LATITUDE": 38.572953978000001, "LONGITUDE": -97.68353216, "NAICS_CODE": "622110", "NAICS_DESC": "GENERAL MEDICAL AND SURGICAL HOSPITALS", "SOURCE": "http://www.kdheks.gov/bhfr/fac_list/", "SOURCEDATE": "2018-08-16T00:00:00.000Z", "VAL_METHOD": "IMAGERY", "VAL_DATE": "2014-02-10T00:00:00.000Z", "WEBSITE": "http://www.lindsborghospital.org", "STATE_ID": "H059001", "ALT_NAME": "LINDSBORG COMMUNITY HOSPITAL ASSOCIATION", "ST_FIPS": "20", "OWNER": "NON-PROFIT", "TTL_STAFF": -999, "BEDS": 25, "TRAUMA": "LEVEL IV", "HELIPAD": "Y" }, "geometry": { "type": "Polygon", "coordinates": [ [ [ -97.666948, 38.468017 ], [ -97.7766675, 38.514624400000031 ], [ -97.851085, 38.558156 ], [ -97.8511585, 38.5658789 ], [ -97.814184, 38.587711 ], [ -97.6215365, 38.678245899999986 ], [ -97.5751276, 38.5944785 ], [ -97.5748349, 38.550938100000039 ], [ -97.6211011, 38.488849599999988 ], [ -97.666948, 38.468017 ] ] ] } },
{ "type": "Feature", "properties": { "OBJECTID": 5559, "ID": "0008767554", "NAME": "HOSPITAL DISTRICT 1 OF RICE COUNTY", "ADDRESS": "619 SOUTH CLARK AVENUE", "CITY": "LYONS", "STATE": "KS", "ZIP": "67554", "ZIP4": "NOT AVAILABLE", "TELEPHONE": "(620) 257-5173", "TYPE": "CRITICAL ACCESS", "STATUS": "OPEN", "POPULATION": 25, "COUNTY": "RICE", "COUNTYFIPS": "20159", "COUNTRY": "USA", "LATITUDE": 38.3414255100001, "LONGITUDE": -98.216776648999897, "NAICS_CODE": "622110", "NAICS_DESC": "GENERAL MEDICAL AND SURGICAL HOSPITALS", "SOURCE": "http://www.kdheks.gov/bhfr/fac_list/", "SOURCEDATE": "2018-08-16T00:00:00.000Z", "VAL_METHOD": "IMAGERY", "VAL_DATE": "2014-01-09T00:00:00.000Z", "WEBSITE": "http://www.ricecountyhospital.com", "STATE_ID": "H080001", "ALT_NAME": "HOSPITAL DISTRICT #1 RICE COUNTY", "ST_FIPS": "20", "OWNER": "GOVERNMENT - DISTRICT/AUTHORITY", "TTL_STAFF": -999, "BEDS": 25, "TRAUMA": "LEVEL IV", "HELIPAD": "Y" }, "geometry": { "type": "Polygon", "coordinates": [ [ [ -98.215929, 38.231655 ], [ -98.275619, 38.27255 ], [ -98.353792, 38.333147 ], [ -98.369412, 38.347659 ], [ -98.349516, 38.362169 ], [ -98.219787, 38.449675 ], [ -98.0905251, 38.383884500000043 ], [ -98.0905405, 38.37657889999997 ], [ -98.0906727, 38.347477 ], [ -98.0909195, 38.333135800000036 ], [ -98.1791442, 38.2604638 ], [ -98.215929, 38.231655 ] ] ] } },
{ "type": "Feature", "properties": { "OBJECTID": 5560, "ID": "0006467855", "NAME": "STANTON COUNTY HOSPITAL", "ADDRESS": "404 N CHESTNUT", "CITY": "JOHNSON", "STATE": "KS", "ZIP": "67855", "ZIP4": "NOT AVAILABLE", "TELEPHONE": "(620) 492-6250", "TYPE": "CRITICAL ACCESS", "STATUS": "OPEN", "POPULATION": 34, "COUNTY": "STANTON", "COUNTYFIPS": "20187", "COUNTRY": "USA", "LATITUDE": 37.574075574000098, "LONGITUDE": -101.749896627, "NAICS_CODE": "622110", "NAICS_DESC": "GENERAL MEDICAL AND SURGICAL HOSPITALS", "SOURCE": "http://www.kdheks.gov/bhfr/fac_list/", "SOURCEDATE": "2018-08-16T00:00:00.000Z", "VAL_METHOD": "IMAGERY", "VAL_DATE": "2014-02-10T00:00:00.000Z", "WEBSITE": "http://www.stantoncountyhospital.com", "STATE_ID": "H094001", "ALT_NAME": "STANTON COUNTY HOSPITAL", "ST_FIPS": "20", "OWNER": "GOVERNMENT - LOCAL", "TTL_STAFF": -999, "BEDS": 34, "TRAUMA": "NOT AVAILABLE", "HELIPAD": "N" }, "geometry": { "type": "Polygon", "coordinates": [ [ [ -101.744013, 37.475739 ], [ -101.76205381278389, 37.475764647693957 ], [ -101.887048745324805, 37.522120755543128 ], [ -101.925177335643738, 37.578379570889531 ], [ -101.816288419968075, 37.63624725412793 ], [ -101.761622, 37.664666 ], [ -101.7265815, 37.6645342 ], [ -101.63509, 37.620707 ], [ -101.5628703, 37.5769765 ], [ -101.6897012, 37.504663099999981 ], [ -101.744013, 37.475739 ] ] ] } }
]
}
