{
"type": "FeatureCollection",
"crs": { "type": "name", "properties": { "name": "urn:ogc:def:crs:OGC:1.3:CRS84" } },
"features": [
{ "type": "Feature", "properties": { "OBJECTID": 1456, "ID": "0003447150", "NAME": "FLOYD MEMORIAL HOSPITAL AND HEALTH SERVICES", "ADDRESS": "1850 STATE ST", "CITY": "NEW ALBANY", "STATE": "IN", "ZIP": "47150", "ZIP4": "NOT AVAILABLE", "TELEPHONE": "(812) 949-5500", "TYPE": "GENERAL ACUTE CARE", "STATUS": "OPEN", "POPULATION": 225, "COUNTY": "FLOYD", "COUNTYFIPS": "18043", "COUNTRY": "USA", "LATITUDE": 38.301364386000003, "LONGITUDE": -85.834335191999998, "NAICS_CODE": "622110", "NAICS_DESC": "GENERAL MEDICAL AND SURGICAL HOSPITALS", "SOURCE": "http://www.in.gov/isdh/reports/QAMIS/hosdir", "SOURCEDATE": "2018-08-16T00:00:00.000Z", "VAL_METHOD": "IMAGERY", "VAL_DATE": "2014-03-12T00:00:00.000Z", "WEBSITE": "http://www.floydmemorial.com", "STATE_ID": "17-005040-1", "ALT_NAME": "NOT AVAILABLE", "ST_FIPS": "18", "OWNER": "GOVERNMENT - LOCAL", "TTL_STAFF": -999, "BEDS": 225, "TRAUMA": "NOT AVAILABLE", "HELIPAD": "Y" }, "geometry": { "type": "Polygon", "coordinates": [ [ [ -85.858206, 38.225384 ], [ -85.9563977, 38.277330100000036 ], [ -85.9280763, 38.3486856 ], [ -85.8098742, 38.389997199999989 ], [ -85.7688091, 38.3681059 ], [ -85.76812, 38.367535 ], [ -85.767654, 38.366726 ], [ -85.767723, 38.36462 ], [ -85.770872, 38.353301 ], [ -85.771404, 38.351432 ], [ -85.7912269, 38.301005399999951 ], [ -85.797009, 38.289605 ], [ -85.858206, 38.225384 ] ] ] } },
{ "type": "Feature", "properties": { "OBJECTID": 1457, "ID": "0011047150", "NAME": "PHYSICIANS' MEDICAL CENTER LLC", "ADDRESS": "4023 REAS LN", "CITY": "NEW ALBANY", "STATE": "IN", "ZIP": "47150", "ZIP4": "NOT AVAILABLE", "TELEPHONE": "(812) 206-7660", "TYPE": "SPECIAL", "STATUS": "OPEN", "POPULATION": 12, "COUNTY": "FLOYD", "COUNTYFIPS": "18043", "COUNTRY": "USA", "LATITUDE": 38.339954129, "LONGITUDE": -85.827989949, "NAICS_CODE": "622110", "NAICS_DESC": "GENERAL MEDICAL AND SURGICAL HOSPITALS", "SOURCE": "http://www.in.gov/isdh/reports/QAMIS/hosdir", "SOURCEDATE": "2018-08-16T00:00:00.000Z", "VAL_METHOD": "IMAGERY", "VAL_DATE": "2014-01-23T00:00:00.000Z", "WEBSITE": "http://www.pmcindiana.com", "STATE_ID": "17-011352-1", "ALT_NAME": "NOT AVAILABLE", "ST_FIPS": "18", "OWNER": "GOVERNMENT - STATE", "TTL_STAFF": -999, "BEDS": 12, "TRAUMA": "NOT AVAILABLE", "HELIPAD": "N" }, "geometry": { "type": "Polygon", "coordinates": [ [ [ -85.849482, 38.268223 ], [ -85.9107165, 38.280054500000013 ], [ -85.9162409, 38.284282099999977 ], [ -85.921695, 38.288898 ], [ -85.920334, 38.293423 ], [ -85.9080342, 38.320986599999969 ], [ -85.904893, 38.3263 ], [ -85.899454, 38.335157 ], [ -85.845705, 38.386004 ], [ -85.8201758, 38.4043007 ], [ -85.8076189, 38.404984900000038 ], [ -85.7729398, 38.3820882 ], [ -85.757431, 38.363415 ], [ -85.7607334, 38.350140400000015 ], [ -85.797009, 38.289605 ], [ -85.802816, 38.28642 ], [ -85.8352255, 38.268682 ], [ -85.844857, 38.268038 ], [ -85.849482, 38.268223 ] ] ] } },
{ "type": "Feature", "properties": { "OBJECTID": 1506, "ID": "0004140065", "NAME": "JEWISH HOSPITAL SHELBYVILLE", "ADDRESS": "727 HOSPITAL DRIVE", "CITY": "SHELBYVILLE", "STATE": "KY", "ZIP": "40065", "ZIP4": "NOT AVAILABLE", "TELEPHONE": "(502) 647-4300", "TYPE": "GENERAL ACUTE CARE", "STATUS": "OPEN", "POPULATION": 70, "COUNTY": "SHELBY", "COUNTYFIPS": "21211", "COUNTRY": "USA", "LATITUDE": 38.209027706000001, "LONGITUDE": -85.23592218, "NAICS_CODE": "622110", "NAICS_DESC": "GENERAL MEDICAL AND SURGICAL HOSPITALS", "SOURCE": "https://chfs.ky.gov/agencies/os/oig/dhc/Documents/Directories/Hospital_Directory.pdf", "SOURCEDATE": "2018-08-11T00:00:00.000Z", "VAL_METHOD": "IMAGERY", "VAL_DATE": "2014-02-10T00:00:00.000Z", "WEBSITE": "http://www.kentuckyonehealth.org/jewish-hospital-shelbyville", "STATE_ID": "100385", "ALT_NAME": "NOT AVAILABLE", "ST_FIPS": "21", "OWNER": "NON-PROFIT", "TTL_STAFF": -999, "BEDS": 70, "TRAUMA": "NOT AVAILABLE", "HELIPAD": "Y" }, "geometry": { "type": "Polygon", "coordinates": [ [ [ -85.247422, 38.139718 ], [ -85.317002, 38.149713 ], [ -85.3547724, 38.2068221 ], [ -85.352442, 38.218885 ], [ -85.266565, 38.291494 ], [ -85.205461, 38.276635 ], [ -85.178789, 38.251691 ], [ -85.145019, 38.218577 ], [ -85.125909, 38.19711 ], [ -85.126775, 38.1953 ], [ -85.151216, 38.170319 ], [ -85.247422, 38.139718 ] ] ] } },
{ "type": "Feature", "properties": { "OBJECTID": 1561, "ID": "0012540202", "NAME": "KOSAIR CHILDREN'S HOSPITAL", "ADDRESS": "231 EAST CHESTNUT STREET", "CITY": "LOUISVILLE", "STATE": "KY", "ZIP": "40202", "ZIP4": "NOT AVAILABLE", "TELEPHONE": "NOT AVAILABLE", "TYPE": "CHILDREN", "STATUS": "OPEN", "POPULATION": 271, "COUNTY": "JEFFERSON", "COUNTYFIPS": "21111", "COUNTRY": "USA", "LATITUDE": 38.248470296999997, "LONGITUDE": -85.74959418, "NAICS_CODE": "622110", "NAICS_DESC": "CHILDREN'S HOSPITALS, GENERAL", "SOURCE": "https://chfs.ky.gov/agencies/os/oig/dhc/Documents/Directories/Hospital_Directory.pdf", "SOURCEDATE": "2018-08-11T00:00:00.000Z", "VAL_METHOD": "IMAGERY/OTHER", "VAL_DATE": "2014-02-10T00:00:00.000Z", "WEBSITE": "http://www.kosairchildrenshospital.com/", "STATE_ID": "NOT AVAILABLE", "ALT_NAME": "NOT AVAILABLE", "ST_FIPS": "21", "OWNER": "NON-PROFIT", "TTL_STAFF": -999, "BEDS": 271, "TRAUMA": "LEVEL I PEDIATRIC", "HELIPAD": "Y" }, "geometry": { "type": "Polygon", "coordinates": [ [ [ -85.7034784, 38.1307332 ], [ -85.8143747, 38.183441600000016 ], [ -85.818057, 38.186016 ], [ -85.8286112, 38.213604400000015 ], [ -85.832464, 38.245216 ], [ -85.832365, 38.248701 ], [ -85.8323286, 38.249635599999976 ], [ -85.830927, 38.258951 ], [ -85.826288, 38.267497 ], [ -85.7566609, 38.373830300000023 ], [ -85.652324, 38.310456 ], [ -85.6336895, 38.28064 ], [ -85.6223892, 38.23730089999998 ], [ -85.7034784, 38.1307332 ] ] ] } },
{ "type": "Feature", "properties": { "OBJECTID": 2080, "ID": "0003042701", "NAME": "HARDIN MEMORIAL HOSPITAL", "ADDRESS": "913 N DIXIE AVENUE", "CITY": "ELIZABETHTOWN", "STATE": "KY", "ZIP": "42701", "ZIP4": "NOT AVAILABLE", "TELEPHONE": "(270) 706-1212", "TYPE": "GENERAL ACUTE CARE", "STATUS": "OPEN", "POPULATION": 285, "COUNTY": "HARDIN", "COUNTYFIPS": "21093", "COUNTRY": "USA", "LATITUDE": 37.7099441, "LONGITUDE": -85.876296327999995, "NAICS_CODE": "622110", "NAICS_DESC": "GENERAL MEDICAL AND SURGICAL HOSPITALS", "SOURCE": "https://chfs.ky.gov/agencies/os/oig/dhc/Documents/Directories/Hospital_Directory.pdf", "SOURCEDATE": "2018-08-11T00:00:00.000Z", "VAL_METHOD": "IMAGERY/OTHER", "VAL_DATE": "2014-02-10T00:00:00.000Z", "WEBSITE": "http://www.hmh.net/HMHWebsite/Location.aspx?PageID=4", "STATE_ID": "100160", "ALT_NAME": "NOT AVAILABLE", "ST_FIPS": "21", "OWNER": "GOVERNMENT - LOCAL", "TTL_STAFF": -999, "BEDS": 285, "TRAUMA": "NOT AVAILABLE", "HELIPAD": "Y" }, "geometry": { "type": "Polygon", "coordinates": [ [ [ -85.8675, 37.602504 ], [ -85.9407227, 37.657780299999978 ], [ -85.9409116, 37.657951899999972 ], [ -85.973176, 37.698843 ], [ -85.97615, 37.752684 ], [ -85.9314786, 37.797966699999982 ], [ -85.920142, 37.806207 ], [ -85.919907, 37.80626 ], [ -85.9036233, 37.798613500000037 ], [ -85.831766, 37.764799 ], [ -85.7923897, 37.7361305 ], [ -85.7876091, 37.7301622 ], [ -85.7871189, 37.728649299999951 ], [ -85.805333, 37.628979 ], [ -85.808792, 37.61822 ], [ -85.811405, 37.613985 ], [ -85.820458, 37.608908 ], [ -85.8675, 37.602504 ] ] ] } },
{ "type": "Feature", "properties": { "OBJECTID": 2351, "ID": "0008847250", "NAME": "MADISON STATE HOSPITAL", "ADDRESS": "711 GREEN RD", "CITY": "MADISON", "STATE": "IN", "ZIP": "47250", "ZIP4": "NOT AVAILABLE", "TELEPHONE": "(812) 265-2611", "TYPE": "PSYCHIATRIC", "STATUS": "OPEN", "POPULATION": 150, "COUNTY": "JEFFERSON", "COUNTYFIPS": "18077", "COUNTRY": "USA", "LATITUDE": 38.746061514000097, "LONGITUDE": -85.401992921000002, "NAICS_CODE": "622210", "NAICS_DESC": "PSYCHIATRIC AND SUBSTANCE ABUSE HOSPITALS", "SOURCE": "http://www.in.gov/isdh/reports/QAMIS/hosdir", "SOURCEDATE": "2018-08-16T00:00:00.000Z", "VAL_METHOD": "IMAGERY", "VAL_DATE": "2014-02-10T00:00:00.000Z", "WEBSITE": "http://www.in.gov/fssa/msh", "STATE_ID": "NOT AVAILABLE", "ALT_NAME": "NOT AVAILABLE", "ST_FIPS": "18", "OWNER": "GOVERNMENT - STATE", "TTL_STAFF": -999, "BEDS": 150, "TRAUMA": "NOT AVAILABLE", "HELIPAD": "N" }, "geometry": { "type": "Polygon", "coordinates": [ [ [ -85.458972, 38.72667 ], [ -85.461585, 38.727866 ], [ -85.468628, 38.767198 ], [ -85.469733, 38.78178 ], [ -85.462358, 38.816634 ], [ -85.383132, 38.818872 ], [ -85.382784, 38.818843 ], [ -85.350905, 38.807211 ], [ -85.336445, 38.745427 ], [ -85.335917, 38.736548 ], [ -85.33645, 38.736173 ], [ -85.370493, 38.724357500000032 ], [ -85.45269, 38.726298 ], [ -85.458972, 38.72667 ] ] ] } },
{ "type": "Feature", "properties": { "OBJECTID": 2388, "ID": "0012647111", "NAME": "SAINT CATHERINE REGIONAL HOSPITAL", "ADDRESS": "2200 MARKET ST", "CITY": "CHARLESTOWN", "STATE": "IN", "ZIP": "47111", "ZIP4": "NOT AVAILABLE", "TELEPHONE": "(812) 256-3301", "TYPE": "GENERAL ACUTE CARE", "STATUS": "CLOSED", "POPULATION": 64, "COUNTY": "CLARK", "COUNTYFIPS": "18019", "COUNTRY": "USA", "LATITUDE": 38.473937736000003, "LONGITUDE": -85.670036755999902, "NAICS_CODE": "622110", "NAICS_DESC": "GENERAL MEDICAL AND SURGICAL HOSPITALS", "SOURCE": "http://www.state.in.us/isdh/reports/QAMIS/hosdir/wdirhos.htm", "SOURCEDATE": "2012-11-06T00:00:00.000Z", "VAL_METHOD": "IMAGERY", "VAL_DATE": "2014-01-22T00:00:00.000Z", "WEBSITE": "http://www.saintcatherinehospital.com", "STATE_ID": "12-004975-1", "ALT_NAME": "NOT AVAILABLE", "ST_FIPS": "18", "OWNER": "PROPRIETARY", "TTL_STAFF": -999, "BEDS": 64, "TRAUMA": "NOT AVAILABLE", "HELIPAD": "N" }, "geometry": { "type": "Polygon", "coordinates": [ [ [ -85.688339, 38.382751 ], [ -85.744888, 38.411327 ], [ -85.721567, 38.489158 ], [ -85.704152, 38.517273 ], [ -85.684731, 38.54207 ], [ -85.669399, 38.556799 ], [ -85.667023, 38.555247 ], [ -85.5995151, 38.475830600000023 ], [ -85.626259, 38.418015 ], [ -85.629478, 38.41531 ], [ -85.6740877, 38.386471399999969 ], [ -85.688339, 38.382751 ] ] ] } },
{ "type": "Feature", "properties": { "OBJECTID": 2411, "ID": "0015147167", "NAME": "ST VINCENT SALEM HOSPITAL INC", "ADDRESS": "911 N SHELBY ST", "CITY": "SALEM", "STATE": "IN", "ZIP": "47167", "ZIP4": "NOT AVAILABLE", "TELEPHONE": "(812) 883-5881", "TYPE": "CRITICAL ACCESS", "STATUS": "OPEN", "POPULATION": 25, "COUNTY": "WASHINGTON", "COUNTYFIPS": "18175", "COUNTRY": "USA", "LATITUDE": 38.613268825, "LONGITUDE": -86.107079115000005, "NAICS_CODE": "622110", "NAICS_DESC": "GENERAL MEDICAL AND SURGICAL HOSPITALS", "SOURCE": "http://www.in.gov/isdh/reports/QAMIS/hosdir", "SOURCEDATE": "2018-08-16T00:00:00.000Z", "VAL_METHOD": "IMAGERY", "VAL_DATE": "2014-03-12T00:00:00.000Z", "WEBSITE": "http://www.stvincent.org/St-Vincent-Salem/Default.aspx", "STATE_ID": "17-005087-1", "ALT_NAME": "NOT AVAILABLE", "ST_FIPS": "18", "OWNER": "NON-PROFIT", "TTL_STAFF": -999, "BEDS": 25, "TRAUMA": "NOT AVAILABLE", "HELIPAD": "Y" }, "geometry": { "type": "Polygon", "coordinates": [ [ [ -86.100458, 38.528919 ], [ -86.187645, 38.570715 ], [ -86.206562, 38.628346 ], [ -86.206546, 38.628702 ], [ -86.101591, 38.6928 ], [ -86.008698, 38.64182 ], [ -86.008616, 38.641668 ], [ -86.024272, 38.588991 ], [ -86.0489601, 38.56921940000003 ], [ -86.100458, 38.528919 ] ] ] } },
{ "type": "Feature", "properties": { "OBJECTID": 2501, "ID": "0000640143", "NAME": "BRECKINRIDGE MEMORIAL HOSPITAL", "ADDRESS": "1011 OLD HWY 60", "CITY": "HARDINSBURG", "STATE": "KY", "ZIP": "40143", "ZIP4": "NOT AVAILABLE", "TELEPHONE": "(270) 756-7000", "TYPE": "CRITICAL ACCESS", "STATUS": "OPEN", "POPULATION": 25, "COUNTY": "BRECKINRIDGE", "COUNTYFIPS": "21027", "COUNTRY": "USA", "LATITUDE": 37.766570137000002, "LONGITUDE": -86.440390448000002, "NAICS_CODE": "622110", "NAICS_DESC": "GENERAL MEDICAL AND SURGICAL HOSPITALS", "SOURCE": "https://chfs.ky.gov/agencies/os/oig/dhc/Documents/Directories/Hospital_Directory.pdf", "SOURCEDATE": "2018-08-11T00:00:00.000Z", "VAL_METHOD": "IMAGERY/OTHER", "VAL_DATE": "2014-02-10T00:00:00.000Z", "WEBSITE": "http://www.breckhealth.org", "STATE_ID": "600070", "ALT_NAME": "NOT AVAILABLE", "ST_FIPS": "21", "OWNER": "NON-PROFIT", "TTL_STAFF": -999, "BEDS": 25, "TRAUMA": "NOT AVAILABLE", "HELIPAD": "Y" }, "geometry": { "type": "Polygon", "coordinates": [ [ [ -86.500208, 37.692599 ], [ -86.536303, 37.707118 ], [ -86.539587, 37.825371 ], [ -86.503699, 37.829656 ], [ -86.450565, 37.826858 ], [ -86.332765, 37.796398 ], [ -86.356252, 37.726713 ], [ -86.404259, 37.695213 ], [ -86.407895, 37.694613 ], [ -86.490407, 37.692147 ], [ -86.500208, 37.692599 ] ] ] } },
{ "type": "Feature", "properties": { "OBJECTID": 6032, "ID": "0000947130", "NAME": "CLARK MEMORIAL HOSPITAL", "ADDRESS": "1220 MISSOURI AVE", "CITY": "JEFFERSONVILLE", "STATE": "IN", "ZIP": "47130", "ZIP4": "NOT AVAILABLE", "TELEPHONE": "(812) 283-2142", "TYPE": "GENERAL ACUTE CARE", "STATUS": "OPEN", "POPULATION": 236, "COUNTY": "CLARK", "COUNTYFIPS": "18019", "COUNTRY": "USA", "LATITUDE": 38.282255723, "LONGITUDE": -85.748631848999906, "NAICS_CODE": "622110", "NAICS_DESC": "GENERAL MEDICAL AND SURGICAL HOSPITALS", "SOURCE": "http://www.in.gov/isdh/reports/QAMIS/hosdir", "SOURCEDATE": "2018-08-16T00:00:00.000Z", "VAL_METHOD": "IMAGERY", "VAL_DATE": "2014-01-22T00:00:00.000Z", "WEBSITE": "http://www.clarkmemorial.org", "STATE_ID": "17-005009-1", "ALT_NAME": "NOT AVAILABLE", "ST_FIPS": "18", "OWNER": "GOVERNMENT - LOCAL", "TTL_STAFF": -999, "BEDS": 236, "TRAUMA": "NOT AVAILABLE", "HELIPAD": "N" }, "geometry": { "type": "Polygon", "coordinates": [ [ [ -85.7200733, 38.174285899999987 ], [ -85.764892, 38.191177 ], [ -85.782645, 38.199725 ], [ -85.813587, 38.239278 ], [ -85.819209, 38.250268 ], [ -85.82194, 38.258296 ], [ -85.82224, 38.269583 ], [ -85.7743, 38.389931 ], [ -85.761543, 38.403809 ], [ -85.7523183, 38.406086100000017 ], [ -85.6674576, 38.35000729999998 ], [ -85.6421859, 38.290503800000025 ], [ -85.6339943, 38.236163699999977 ], [ -85.7200733, 38.174285899999987 ] ] ] } },
{ "type": "Feature", "properties": { "OBJECTID": 6092, "ID": "0008447250", "NAME": "KING'S DAUGHTERS' HOSPITAL AND HEALTH SERVICES,THE", "ADDRESS": "1 KINGS DAUGHTERS DR", "CITY": "MADISON", "STATE": "IN", "ZIP": "47250", "ZIP4": "NOT AVAILABLE", "TELEPHONE": "(812) 265-5211", "TYPE": "GENERAL ACUTE CARE", "STATUS": "CLOSED", "POPULATION": 77, "COUNTY": "JEFFERSON", "COUNTYFIPS": "18077", "COUNTRY": "USA", "LATITUDE": 38.73870715, "LONGITUDE": -85.381351085999896, "NAICS_CODE": "622110", "NAICS_DESC": "GENERAL MEDICAL AND SURGICAL HOSPITALS", "SOURCE": "http://www.state.in.us/isdh/reports/QAMIS/hosdir/wdirhos.htm", "SOURCEDATE": "2012-11-06T00:00:00.000Z", "VAL_METHOD": "IMAGERY", "VAL_DATE": "2014-03-12T00:00:00.000Z", "WEBSITE": "http://www.kdhhs.org", "STATE_ID": "12-055063-1", "ALT_NAME": "NOT AVAILABLE", "ST_FIPS": "18", "OWNER": "NON-PROFIT", "TTL_STAFF": -999, "BEDS": 77, "TRAUMA": "NOT AVAILABLE", "HELIPAD": "Y" }, "geometry": { "type": "Polygon", "coordinates": [ [ [ -85.474919, 38.708166 ], [ -85.486436, 38.713463 ], [ -85.485932, 38.738063 ], [ -85.442956, 38.796464 ], [ -85.383132, 38.818872 ], [ -85.382784, 38.818843 ], [ -85.341874, 38.804165 ], [ -85.29944, 38.755933 ], [ -85.2941488, 38.743548600000025 ], [ -85.370493, 38.724357500000032 ], [ -85.474919, 38.708166 ] ] ] } },
{ "type": "Feature", "properties": { "OBJECTID": 6103, "ID": "0005247112", "NAME": "HARRISON COUNTY HOSPITAL", "ADDRESS": "1141 HOSPITAL DR NW", "CITY": "CORYDON", "STATE": "IN", "ZIP": "47112", "ZIP4": "NOT AVAILABLE", "TELEPHONE": "(812) 738-4251", "TYPE": "CRITICAL ACCESS", "STATUS": "OPEN", "POPULATION": 25, "COUNTY": "HARRISON", "COUNTYFIPS": "18061", "COUNTRY": "USA", "LATITUDE": 38.237875285000001, "LONGITUDE": -86.147688988, "NAICS_CODE": "622110", "NAICS_DESC": "GENERAL MEDICAL AND SURGICAL HOSPITALS", "SOURCE": "http://www.in.gov/isdh/reports/QAMIS/hosdir", "SOURCEDATE": "2018-08-16T00:00:00.000Z", "VAL_METHOD": "IMAGERY", "VAL_DATE": "2014-01-22T00:00:00.000Z", "WEBSITE": "http://www.hchin.org", "STATE_ID": "17-004773-1", "ALT_NAME": "NOT AVAILABLE", "ST_FIPS": "18", "OWNER": "GOVERNMENT - LOCAL", "TTL_STAFF": -999, "BEDS": 25, "TRAUMA": "NOT AVAILABLE", "HELIPAD": "Y" }, "geometry": { "type": "Polygon", "coordinates": [ [ [ -86.14791, 38.139671600000014 ], [ -86.1792209, 38.169673800000055 ], [ -86.2065617, 38.2053322 ], [ -86.2145219, 38.2372234 ], [ -86.2158248, 38.274293200000024 ], [ -86.208909, 38.29081 ], [ -86.19671, 38.294314 ], [ -86.1858987, 38.295508700000028 ], [ -86.1718663, 38.2967173 ], [ -86.0973468, 38.3015388 ], [ -86.0017904, 38.271255200000013 ], [ -85.9973316, 38.2666084 ], [ -86.0017848, 38.255378 ], [ -86.0763042, 38.184498700000027 ], [ -86.1129706, 38.160383899999971 ], [ -86.14791, 38.139671600000014 ] ] ] } },
{ "type": "Feature", "properties": { "OBJECTID": 6201, "ID": "0013447150", "NAME": "SOUTHERN INDIANA REHABILITATION HOSPITAL", "ADDRESS": "3104 BLACKISTON BLVD", "CITY": "NEW ALBANY", "STATE": "IN", "ZIP": "47150", "ZIP4": "NOT AVAILABLE", "TELEPHONE": "(812) 941-6106", "TYPE": "REHABILITATION", "STATUS": "OPEN", "POPULATION": 60, "COUNTY": "FLOYD", "COUNTYFIPS": "18043", "COUNTRY": "USA", "LATITUDE": 38.336701324000003, "LONGITUDE": -85.794721706999994, "NAICS_CODE": "622310", "NAICS_DESC": "REHABILITATION HOSPITALS (EXCEPT ALCOHOLISM, DRUG ADDICTION)", "SOURCE": "http://www.in.gov/isdh/reports/QAMIS/hosdir", "SOURCEDATE": "2018-08-16T00:00:00.000Z", "VAL_METHOD": "IMAGERY", "VAL_DATE": "2014-02-10T00:00:00.000Z", "WEBSITE": "http://www.sirh.org", "STATE_ID": "17-006205-1", "ALT_NAME": "NOT AVAILABLE", "ST_FIPS": "18", "OWNER": "NON-PROFIT", "TTL_STAFF": -999, "BEDS": 60, "TRAUMA": "NOT AVAILABLE", "HELIPAD": "N" }, "geometry": { "type": "Polygon", "coordinates": [ [ [ -85.8375776, 38.274427800000041 ], [ -85.894937, 38.301505 ], [ -85.898771, 38.314297 ], [ -85.810561100000015, 38.398142300000025 ], [ -85.8098118, 38.3980726 ], [ -85.8086677, 38.397966099999977 ], [ -85.773308, 38.390514 ], [ -85.7660379, 38.387924299999966 ], [ -85.7464009, 38.370963300000042 ], [ -85.7454895, 38.365644099999976 ], [ -85.797009, 38.289605 ], [ -85.802816, 38.28642 ], [ -85.832431, 38.274945 ], [ -85.8375776, 38.274427800000041 ] ] ] } },
{ "type": "Feature", "properties": { "OBJECTID": 4096, "ID": "0016647130", "NAME": "WELLSTONE REGIONAL HOSPITAL", "ADDRESS": "2700 VISSING PARK RD", "CITY": "JEFFERSONVILLE", "STATE": "IN", "ZIP": "47130", "ZIP4": "NOT AVAILABLE", "TELEPHONE": "(812) 284-8000", "TYPE": "PSYCHIATRIC", "STATUS": "OPEN", "POPULATION": 100, "COUNTY": "CLARK", "COUNTYFIPS": "18019", "COUNTRY": "USA", "LATITUDE": 38.326907294000101, "LONGITUDE": -85.709325225000001, "NAICS_CODE": "622210", "NAICS_DESC": "PSYCHIATRIC AND SUBSTANCE ABUSE HOSPITALS", "SOURCE": "http://www.in.gov/isdh/reports/QAMIS/hosdir", "SOURCEDATE": "2018-08-16T00:00:00.000Z", "VAL_METHOD": "IMAGERY", "VAL_DATE": "2014-02-10T00:00:00.000Z", "WEBSITE": "http://www.wellstonehospital.com", "STATE_ID": "NOT AVAILABLE", "ALT_NAME": "NOT AVAILABLE", "ST_FIPS": "18", "OWNER": "PROPRIETARY", "TTL_STAFF": -999, "BEDS": 100, "TRAUMA": "NOT AVAILABLE", "HELIPAD": "N" }, "geometry": { "type": "Polygon", "coordinates": [ [ [ -85.75223, 38.249011 ], [ -85.7609494, 38.258812099999972 ], [ -85.7855201, 38.302640400000037 ], [ -85.7841119, 38.330807500000027 ], [ -85.778061, 38.379032 ], [ -85.7743, 38.389931 ], [ -85.761543, 38.403809 ], [ -85.663193, 38.433071 ], [ -85.662621, 38.432873 ], [ -85.662468, 38.432819 ], [ -85.6468045, 38.3588831 ], [ -85.648872, 38.338963 ], [ -85.652107, 38.331661 ], [ -85.652412, 38.33099 ], [ -85.653694, 38.329182 ], [ -85.672157, 38.307655 ], [ -85.680565, 38.29837 ], [ -85.7313036, 38.261025 ], [ -85.75223, 38.249011 ] ] ] } },
{ "type": "Feature", "properties": { "OBJECTID": 4371, "ID": "0012440232", "NAME": "NORTON HEALTHCARE PAVILION", "ADDRESS": "315 EAST BROADWAY", "CITY": "LOUISVILLE", "STATE": "KY", "ZIP": "40232", "ZIP4": "NOT AVAILABLE", "TELEPHONE": "(502) 629-2000", "TYPE": "GENERAL ACUTE CARE", "STATUS": "OPEN", "POPULATION": 264, "COUNTY": "JEFFERSON", "COUNTYFIPS": "21111", "COUNTRY": "USA", "LATITUDE": 38.2460051750001, "LONGITUDE": -85.748718538999995, "NAICS_CODE": "622110", "NAICS_DESC": "GENERAL MEDICAL AND SURGICAL HOSPITALS", "SOURCE": "https://chfs.ky.gov/agencies/os/oig/dhc/Documents/Directories/Hospital_Directory.pdf", "SOURCEDATE": "2018-08-11T00:00:00.000Z", "VAL_METHOD": "IMAGERY/OTHER", "VAL_DATE": "2017-12-13T00:00:00.000Z", "WEBSITE": "http://www.nortonhealthcare.com/Pavilion", "STATE_ID": "NOT AVAILABLE", "ALT_NAME": "NOT AVAILABLE", "ST_FIPS": "21", "OWNER": "NON-PROFIT", "TTL_STAFF": -999, "BEDS": 264, "TRAUMA": "NOT AVAILABLE", "HELIPAD": "N" }, "geometry": { "type": "Polygon", "coordinates": [ [ [ -85.7034784, 38.1307332 ], [ -85.8160735, 38.1808824 ], [ -85.8161823, 38.180933200000055 ], [ -85.8276403, 38.2066837 ], [ -85.828895, 38.209744 ], [ -85.83013, 38.213602 ], [ -85.832464, 38.245216 ], [ -85.832365, 38.248701 ], [ -85.8323286, 38.249635599999976 ], [ -85.830927, 38.258951 ], [ -85.826288, 38.267497 ], [ -85.755, 38.370324800000013 ], [ -85.7546022, 38.370320100000015 ], [ -85.656595, 38.307229 ], [ -85.6421859, 38.290503800000025 ], [ -85.6354915, 38.280533500000033 ], [ -85.6328812, 38.27636830000003 ], [ -85.6223892, 38.23730089999998 ], [ -85.7034784, 38.1307332 ] ] ] } },
{ "type": "Feature", "properties": { "OBJECTID": 4993, "ID": "0006540359", "NAME": "ST. ELIZABETH OWEN", "ADDRESS": "330 ROLAND AVE.", "CITY": "OWENTON", "STATE": "KY", "ZIP": "40359", "ZIP4": "NOT AVAILABLE", "TELEPHONE": "(502) 484-3663", "TYPE": "CRITICAL ACCESS", "STATUS": "OPEN", "POPULATION": 25, "COUNTY": "OWEN", "COUNTYFIPS": "21187", "COUNTRY": "USA", "LATITUDE": 38.542398757999997, "LONGITUDE": -84.841139431000002, "NAICS_CODE": "622110", "NAICS_DESC": "GENERAL MEDICAL AND SURGICAL HOSPITALS", "SOURCE": "https://chfs.ky.gov/agencies/os/oig/dhc/Documents/Directories/Hospital_Directory.pdf", "SOURCEDATE": "2018-08-11T00:00:00.000Z", "VAL_METHOD": "IMAGERY", "VAL_DATE": "2014-02-10T00:00:00.000Z", "WEBSITE": "http://www.stelizabeth.com/", "STATE_ID": "600063", "ALT_NAME": "NEW HORIZONS MEDICAL CENTER", "ST_FIPS": "21", "OWNER": "NON-PROFIT", "TTL_STAFF": -999, "BEDS": 25, "TRAUMA": "NOT AVAILABLE", "HELIPAD": "Y" }, "geometry": { "type": "Polygon", "coordinates": [ [ [ -84.8616485, 38.461261699999973 ], [ -84.9151093, 38.500818 ], [ -84.9227078, 38.5368865 ], [ -84.896607, 38.568845 ], [ -84.851745, 38.615620700000029 ], [ -84.7860873, 38.6128542 ], [ -84.747162, 38.5555392 ], [ -84.76483, 38.500528 ], [ -84.7892987, 38.477465799999983 ], [ -84.8616485, 38.461261699999973 ] ] ] } },
{ "type": "Feature", "properties": { "OBJECTID": 220, "ID": "0007140207", "NAME": "NORTON WOMEN'S AND KOSAIR CHILDREN'S HOSPITAL", "ADDRESS": "4001 DUTCHMANS LANE", "CITY": "LOUISVILLE", "STATE": "KY", "ZIP": "40207", "ZIP4": "NOT AVAILABLE", "TELEPHONE": "(502) 893-1102", "TYPE": "WOMEN", "STATUS": "OPEN", "POPULATION": 373, "COUNTY": "JEFFERSON", "COUNTYFIPS": "21111", "COUNTRY": "USA", "LATITUDE": 38.235330085999998, "LONGITUDE": -85.632936927999907, "NAICS_CODE": "622110", "NAICS_DESC": "GENERAL MEDICAL AND SURGICAL HOSPITALS", "SOURCE": "https://chfs.ky.gov/agencies/os/oig/dhc/Documents/Directories/Hospital_Directory.pdf", "SOURCEDATE": "2018-08-11T00:00:00.000Z", "VAL_METHOD": "IMAGERY/OTHER", "VAL_DATE": "2014-02-10T00:00:00.000Z", "WEBSITE": "https://nortonhealthcare.com/pages/nwkch.aspx", "STATE_ID": "100255", "ALT_NAME": "NORTON SUBURBAN HOSPITAL", "ST_FIPS": "21", "OWNER": "NON-PROFIT", "TTL_STAFF": -999, "BEDS": 373, "TRAUMA": "NOT AVAILABLE", "HELIPAD": "N" }, "geometry": { "type": "Polygon", "coordinates": [ [ [ -85.659853, 38.164393 ], [ -85.7200733, 38.174285899999987 ], [ -85.760137, 38.190231 ], [ -85.7502715, 38.2590962 ], [ -85.627679, 38.324539 ], [ -85.621736, 38.327463 ], [ -85.58061, 38.315348 ], [ -85.5506544, 38.296898200000044 ], [ -85.495944, 38.243055 ], [ -85.493526, 38.240535 ], [ -85.506084, 38.189459 ], [ -85.508521, 38.183673 ], [ -85.597938, 38.164216 ], [ -85.659853, 38.164393 ] ] ] } },
{ "type": "Feature", "properties": { "OBJECTID": 221, "ID": "0009440215", "NAME": "SAINTS MARY & ELIZABETH HOSPITAL", "ADDRESS": "1850 BLUEGRASS AVENUE", "CITY": "LOUISVILLE", "STATE": "KY", "ZIP": "40215", "ZIP4": "NOT AVAILABLE", "TELEPHONE": "(502) 361-6000", "TYPE": "GENERAL ACUTE CARE", "STATUS": "OPEN", "POPULATION": 298, "COUNTY": "JEFFERSON", "COUNTYFIPS": "21111", "COUNTRY": "USA", "LATITUDE": 38.178264384000002, "LONGITUDE": -85.793916413999995, "NAICS_CODE": "622110", "NAICS_DESC": "GENERAL MEDICAL AND SURGICAL HOSPITALS", "SOURCE": "https://chfs.ky.gov/agencies/os/oig/dhc/Documents/Directories/Hospital_Directory.pdf", "SOURCEDATE": "2018-08-11T00:00:00.000Z", "VAL_METHOD": "IMAGERY", "VAL_DATE": "2014-02-10T00:00:00.000Z", "WEBSITE": "http://www.kentuckyonehealth.org/body.cfm?id=3288&fr=true", "STATE_ID": "100254", "ALT_NAME": "NOT AVAILABLE", "ST_FIPS": "21", "OWNER": "NON-PROFIT", "TTL_STAFF": -999, "BEDS": 331, "TRAUMA": "NOT AVAILABLE", "HELIPAD": "N" }, "geometry": { "type": "Polygon", "coordinates": [ [ [ -85.7590902, 38.10528110000002 ], [ -85.85734, 38.119289 ], [ -85.8719829, 38.144741700000068 ], [ -85.87742, 38.168181 ], [ -85.876364, 38.176428 ], [ -85.872475, 38.191901 ], [ -85.859937, 38.208378 ], [ -85.819775, 38.242154 ], [ -85.818505, 38.242908 ], [ -85.765291, 38.256158700000022 ], [ -85.765029, 38.256136 ], [ -85.6698002, 38.211471 ], [ -85.675743, 38.192416 ], [ -85.708337, 38.139333 ], [ -85.7476888, 38.1125699 ], [ -85.7590902, 38.10528110000002 ] ] ] } },
{ "type": "Feature", "properties": { "OBJECTID": 222, "ID": "0010640207", "NAME": "THE BROOK - DUPONT", "ADDRESS": "1405 BROWNS LANE", "CITY": "LOUISVILLE", "STATE": "KY", "ZIP": "40207", "ZIP4": "NOT AVAILABLE", "TELEPHONE": "(502) 896-0495", "TYPE": "PSYCHIATRIC", "STATUS": "OPEN", "POPULATION": 88, "COUNTY": "JEFFERSON", "COUNTYFIPS": "21111", "COUNTRY": "USA", "LATITUDE": 38.235696632, "LONGITUDE": -85.627340946999894, "NAICS_CODE": "622110", "NAICS_DESC": "GENERAL MEDICAL AND SURGICAL HOSPITALS", "SOURCE": "https://chfs.ky.gov/agencies/os/oig/dhc/Documents/Directories/Hospital_Directory.pdf", "SOURCEDATE": "2018-08-11T00:00:00.000Z", "VAL_METHOD": "IMAGERY", "VAL_DATE": "2014-02-10T00:00:00.000Z", "WEBSITE": "http://www.thebrookhospitals.com/", "STATE_ID": "100595", "ALT_NAME": "NOT AVAILABLE", "ST_FIPS": "21", "OWNER": "PROPRIETARY", "TTL_STAFF": -999, "BEDS": 88, "TRAUMA": "NOT AVAILABLE", "HELIPAD": "N" }, "geometry": { "type": "Polygon", "coordinates": [ [ [ -85.659692, 38.154295 ], [ -85.7209296, 38.165099299999987 ], [ -85.7714955, 38.189806699999963 ], [ -85.7369534, 38.260671700000017 ], [ -85.624397, 38.316349 ], [ -85.564846, 38.29111 ], [ -85.505425, 38.223428 ], [ -85.504949, 38.222596 ], [ -85.506113, 38.218808 ], [ -85.5915661, 38.158879900000059 ], [ -85.659692, 38.154295 ] ] ] } },
{ "type": "Feature", "properties": { "OBJECTID": 223, "ID": "0000240031", "NAME": "BAPTIST HEALTH LA GRANGE", "ADDRESS": "1025 NEW MOODY LANE", "CITY": "LAGRANGE", "STATE": "KY", "ZIP": "40031", "ZIP4": "NOT AVAILABLE", "TELEPHONE": "(502) 222-5388", "TYPE": "GENERAL ACUTE CARE", "STATUS": "OPEN", "POPULATION": 90, "COUNTY": "OLDHAM", "COUNTYFIPS": "21185", "COUNTRY": "USA", "LATITUDE": 38.394890193999998, "LONGITUDE": -85.376065153999903, "NAICS_CODE": "622110", "NAICS_DESC": "GENERAL MEDICAL AND SURGICAL HOSPITALS", "SOURCE": "https://chfs.ky.gov/agencies/os/oig/dhc/Documents/Directories/Hospital_Directory.pdf", "SOURCEDATE": "2018-08-11T00:00:00.000Z", "VAL_METHOD": "IMAGERY", "VAL_DATE": "2014-02-10T00:00:00.000Z", "WEBSITE": "https://www.baptisthealth.com/lagrange/pages/default.aspx", "STATE_ID": "100575", "ALT_NAME": "BAPTIST HOSPITAL NORTHEAST", "ST_FIPS": "21", "OWNER": "NON-PROFIT", "TTL_STAFF": -999, "BEDS": 90, "TRAUMA": "NOT AVAILABLE", "HELIPAD": "Y" }, "geometry": { "type": "Polygon", "coordinates": [ [ [ -85.475803, 38.32642 ], [ -85.5016449, 38.332035 ], [ -85.511113, 38.365742 ], [ -85.468497, 38.419005 ], [ -85.434945, 38.451997 ], [ -85.4141431, 38.464420400000058 ], [ -85.4111882, 38.465720299999987 ], [ -85.401305, 38.464853 ], [ -85.364646600000015, 38.460875900000033 ], [ -85.348633, 38.458762 ], [ -85.344032, 38.4574 ], [ -85.2990548, 38.414140800000027 ], [ -85.302208, 38.365803 ], [ -85.322126, 38.343809 ], [ -85.348657, 38.328949 ], [ -85.351988, 38.328004 ], [ -85.475803, 38.32642 ] ] ] } },
{ "type": "Feature", "properties": { "OBJECTID": 402, "ID": "0002440601", "NAME": "FRANKFORT REGIONAL MEDICAL CENTER", "ADDRESS": "299 KINGS DAUGHTERS DRIVE", "CITY": "FRANKFORT", "STATE": "KY", "ZIP": "40601", "ZIP4": "NOT AVAILABLE", "TELEPHONE": "(502) 875-5240", "TYPE": "LONG TERM CARE", "STATUS": "OPEN", "POPULATION": 173, "COUNTY": "FRANKLIN", "COUNTYFIPS": "21073", "COUNTRY": "USA", "LATITUDE": 38.160661745, "LONGITUDE": -84.906893698000005, "NAICS_CODE": "622110", "NAICS_DESC": "GENERAL MEDICAL AND SURGICAL HOSPITALS", "SOURCE": "https://chfs.ky.gov/agencies/os/oig/dhc/Documents/Directories/Hospital_Directory.pdf", "SOURCEDATE": "2018-08-11T00:00:00.000Z", "VAL_METHOD": "IMAGERY", "VAL_DATE": "2014-02-10T00:00:00.000Z", "WEBSITE": "http://www.frankfortregional.com", "STATE_ID": "100130", "ALT_NAME": "NOT AVAILABLE", "ST_FIPS": "21", "OWNER": "PROPRIETARY", "TTL_STAFF": -999, "BEDS": 173, "TRAUMA": "LEVEL III", "HELIPAD": "Y" }, "geometry": { "type": "Polygon", "coordinates": [ [ [ -84.93059, 38.102641 ], [ -84.931984, 38.103291700000014 ], [ -84.944591, 38.109189 ], [ -84.976154, 38.125892 ], [ -85.006512, 38.157276 ], [ -85.00695, 38.158048 ], [ -85.00695, 38.158218 ], [ -84.944715799999983, 38.213356799999957 ], [ -84.9404646, 38.216673299999961 ], [ -84.916381, 38.228567 ], [ -84.8511604, 38.228349600000016 ], [ -84.848631, 38.22817 ], [ -84.847961, 38.227936 ], [ -84.8468502, 38.227547499999979 ], [ -84.819293, 38.217798 ], [ -84.8168767, 38.2157771 ], [ -84.759726, 38.167734 ], [ -84.896307, 38.109901 ], [ -84.93059, 38.102641 ] ] ] } },
{ "type": "Feature", "properties": { "OBJECTID": 467, "ID": "0000440383", "NAME": "BLUEGRASS COMMUNITY HOSPITAL", "ADDRESS": "360 AMSDEN AVE.", "CITY": "VERSAILLES", "STATE": "KY", "ZIP": "40383", "ZIP4": "NOT AVAILABLE", "TELEPHONE": "(859) 873-3111", "TYPE": "GENERAL ACUTE CARE", "STATUS": "OPEN", "POPULATION": 25, "COUNTY": "WOODFORD", "COUNTYFIPS": "21239", "COUNTRY": "USA", "LATITUDE": 38.054765689000099, "LONGITUDE": -84.723788339999899, "NAICS_CODE": "622110", "NAICS_DESC": "GENERAL MEDICAL AND SURGICAL HOSPITALS", "SOURCE": "https://chfs.ky.gov/agencies/os/oig/dhc/Documents/Directories/Hospital_Directory.pdf", "SOURCEDATE": "2018-08-11T00:00:00.000Z", "VAL_METHOD": "IMAGERY", "VAL_DATE": "2014-02-10T00:00:00.000Z", "WEBSITE": "http://www.bluegrasscommunityhospital.com", "STATE_ID": "600059", "ALT_NAME": "NOT AVAILABLE", "ST_FIPS": "21", "OWNER": "NON-PROFIT", "TTL_STAFF": -999, "BEDS": 25, "TRAUMA": "NOT AVAILABLE", "HELIPAD": "Y" }, "geometry": { "type": "Polygon", "coordinates": [ [ [ -84.681109, 37.973743 ], [ -84.720113, 37.97842 ], [ -84.7657133, 38.002750100000029 ], [ -84.819085, 38.032076 ], [ -84.801765, 38.113976 ], [ -84.787598, 38.137016 ], [ -84.7874724, 38.13708410000001 ], [ -84.699814, 38.123334 ], [ -84.666576, 38.109147 ], [ -84.64968, 38.057602 ], [ -84.657505, 38.017813 ], [ -84.681109, 37.973743 ] ] ] } },
{ "type": "Feature", "properties": { "OBJECTID": 511, "ID": "0000140207", "NAME": "BAPTIST HOSPITAL LOUISVILLE", "ADDRESS": "4000 KRESGE WAY", "CITY": "LOUISVILLE", "STATE": "KY", "ZIP": "40207", "ZIP4": "NOT AVAILABLE", "TELEPHONE": "(502) 897-8100", "TYPE": "GENERAL ACUTE CARE", "STATUS": "OPEN", "POPULATION": 519, "COUNTY": "JEFFERSON", "COUNTYFIPS": "21111", "COUNTRY": "USA", "LATITUDE": 38.238118248, "LONGITUDE": -85.637144295, "NAICS_CODE": "622110", "NAICS_DESC": "GENERAL MEDICAL AND SURGICAL HOSPITALS", "SOURCE": "https://chfs.ky.gov/agencies/os/oig/dhc/Documents/Directories/Hospital_Directory.pdf", "SOURCEDATE": "2018-08-11T00:00:00.000Z", "VAL_METHOD": "IMAGERY/OTHER", "VAL_DATE": "2014-02-10T00:00:00.000Z", "WEBSITE": "https://www.baptisthealth.com/louisville/pages/default.aspx", "STATE_ID": "100451", "ALT_NAME": "BAPTIST HOSPITAL EAST", "ST_FIPS": "21", "OWNER": "NON-PROFIT", "TTL_STAFF": -999, "BEDS": 519, "TRAUMA": "NOT AVAILABLE", "HELIPAD": "Y" }, "geometry": { "type": "Polygon", "coordinates": [ [ [ -85.6599723, 38.159976200000024 ], [ -85.7200733, 38.174285899999987 ], [ -85.760137, 38.190231 ], [ -85.7544979, 38.258519300000017 ], [ -85.7544576, 38.258654300000032 ], [ -85.7450528, 38.268585600000016 ], [ -85.624397, 38.316349 ], [ -85.622201, 38.31678 ], [ -85.5735729, 38.296728899999955 ], [ -85.563061, 38.291952 ], [ -85.504949, 38.222596 ], [ -85.595217, 38.162437 ], [ -85.6599723, 38.159976200000024 ] ] ] } },
{ "type": "Feature", "properties": { "OBJECTID": 512, "ID": "0004040202", "NAME": "JEWISH HOSPITAL & ST. MARY'S HEALTHCARE", "ADDRESS": "200 ABRAHAM FLEXNER WAY", "CITY": "LOUISVILLE", "STATE": "KY", "ZIP": "40202", "ZIP4": "NOT AVAILABLE", "TELEPHONE": "(502) 587-4011", "TYPE": "GENERAL ACUTE CARE", "STATUS": "OPEN", "POPULATION": 462, "COUNTY": "JEFFERSON", "COUNTYFIPS": "21111", "COUNTRY": "USA", "LATITUDE": 38.249131647000098, "LONGITUDE": -85.751189499000006, "NAICS_CODE": "622110", "NAICS_DESC": "GENERAL MEDICAL AND SURGICAL HOSPITALS", "SOURCE": "https://chfs.ky.gov/agencies/os/oig/dhc/Documents/Directories/Hospital_Directory.pdf", "SOURCEDATE": "2018-08-11T00:00:00.000Z", "VAL_METHOD": "IMAGERY", "VAL_DATE": "2013-12-18T00:00:00.000Z", "WEBSITE": "http://www.kentuckyonehealth.org/body.cfm?id=3299&fr=true", "STATE_ID": "100215", "ALT_NAME": "NOT AVAILABLE", "ST_FIPS": "21", "OWNER": "PROPRIETARY", "TTL_STAFF": -999, "BEDS": 462, "TRAUMA": "NOT AVAILABLE", "HELIPAD": "Y" }, "geometry": { "type": "Polygon", "coordinates": [ [ [ -85.7034784, 38.1307332 ], [ -85.8143747, 38.183441600000016 ], [ -85.818057, 38.186016 ], [ -85.8278093, 38.2085781 ], [ -85.828159, 38.209436 ], [ -85.829303, 38.213484 ], [ -85.832464, 38.245216 ], [ -85.832365, 38.248701 ], [ -85.8323286, 38.249635599999976 ], [ -85.830927, 38.258951 ], [ -85.826288, 38.267497 ], [ -85.7566609, 38.373830300000023 ], [ -85.652324, 38.310456 ], [ -85.6336895, 38.28064 ], [ -85.6223892, 38.23730089999998 ], [ -85.7034784, 38.1307332 ] ] ] } },
{ "type": "Feature", "properties": { "OBJECTID": 513, "ID": "0004440204", "NAME": "KINDRED HOSPITAL - LOUISVILLE", "ADDRESS": "1313 SAINT ANTHONY PLACE", "CITY": "LOUISVILLE", "STATE": "KY", "ZIP": "40204", "ZIP4": "NOT AVAILABLE", "TELEPHONE": "(502) 587-7001", "TYPE": "LONG TERM CARE", "STATUS": "OPEN", "POPULATION": 337, "COUNTY": "JEFFERSON", "COUNTYFIPS": "21111", "COUNTRY": "USA", "LATITUDE": 38.242656516000103, "LONGITUDE": -85.731237729, "NAICS_CODE": "622110", "NAICS_DESC": "GENERAL MEDICAL AND SURGICAL HOSPITALS", "SOURCE": "https://chfs.ky.gov/agencies/os/oig/dhc/Documents/Directories/Hospital_Directory.pdf", "SOURCEDATE": "2018-08-11T00:00:00.000Z", "VAL_METHOD": "IMAGERY", "VAL_DATE": "2014-02-10T00:00:00.000Z", "WEBSITE": "http://www.kindredlouisville.com/", "STATE_ID": "100251", "ALT_NAME": "NOT AVAILABLE", "ST_FIPS": "21", "OWNER": "PROPRIETARY", "TTL_STAFF": -999, "BEDS": 337, "TRAUMA": "NOT AVAILABLE", "HELIPAD": "N" }, "geometry": { "type": "Polygon", "coordinates": [ [ [ -85.716321, 38.153559 ], [ -85.727952, 38.157587 ], [ -85.783669, 38.182467 ], [ -85.789456, 38.187046 ], [ -85.7990543, 38.196756399999977 ], [ -85.814456, 38.221381 ], [ -85.825266, 38.24174 ], [ -85.826966, 38.25053 ], [ -85.816164, 38.272562 ], [ -85.754189, 38.350571 ], [ -85.661632, 38.303698 ], [ -85.6421859, 38.290503800000025 ], [ -85.6172532, 38.249735 ], [ -85.6138396, 38.234626599999984 ], [ -85.6477039, 38.1906602 ], [ -85.659417, 38.176791 ], [ -85.716321, 38.153559 ] ] ] } },
{ "type": "Feature", "properties": { "OBJECTID": 515, "ID": "0007540205", "NAME": "OUR LADY OF PEACE", "ADDRESS": "2020 NEWBURG RD", "CITY": "LOUISVILLE", "STATE": "KY", "ZIP": "40205", "ZIP4": "NOT AVAILABLE", "TELEPHONE": "(502) 451-3330", "TYPE": "PSYCHIATRIC", "STATUS": "OPEN", "POPULATION": 396, "COUNTY": "JEFFERSON", "COUNTYFIPS": "21111", "COUNTRY": "USA", "LATITUDE": 38.218809, "LONGITUDE": -85.71059213, "NAICS_CODE": "622110", "NAICS_DESC": "GENERAL MEDICAL AND SURGICAL HOSPITALS", "SOURCE": "https://chfs.ky.gov/agencies/os/oig/dhc/Documents/Directories/Hospital_Directory.pdf", "SOURCEDATE": "2018-08-11T00:00:00.000Z", "VAL_METHOD": "IMAGERY", "VAL_DATE": "2014-02-10T00:00:00.000Z", "WEBSITE": "http://www.kentuckyonehealth.org/body.cfm?id=3289&fr=true", "STATE_ID": "100236", "ALT_NAME": "NOT AVAILABLE", "ST_FIPS": "21", "OWNER": "NON-PROFIT", "TTL_STAFF": -999, "BEDS": 396, "TRAUMA": "NOT AVAILABLE", "HELIPAD": "N" }, "geometry": { "type": "Polygon", "coordinates": [ [ [ -85.708337, 38.139333 ], [ -85.8052282, 38.18592519999995 ], [ -85.801363, 38.238198 ], [ -85.796589, 38.249519 ], [ -85.7847502, 38.272677 ], [ -85.7658095, 38.293432800000033 ], [ -85.760589, 38.297658 ], [ -85.7535547, 38.2988972 ], [ -85.694172, 38.283409 ], [ -85.623748, 38.264935399999978 ], [ -85.611947, 38.254227 ], [ -85.6065816, 38.248818800000045 ], [ -85.591528, 38.227349 ], [ -85.616606, 38.175661 ], [ -85.660069, 38.145767 ], [ -85.708337, 38.139333 ] ] ] } },
{ "type": "Feature", "properties": { "OBJECTID": 516, "ID": "0011740202", "NAME": "UNIVERSITY OF LOUISVILLE HOSPITAL", "ADDRESS": "530 S JACKSON ST", "CITY": "LOUISVILLE", "STATE": "KY", "ZIP": "40202", "ZIP4": "NOT AVAILABLE", "TELEPHONE": "(502) 562-3000", "TYPE": "GENERAL ACUTE CARE", "STATUS": "OPEN", "POPULATION": 404, "COUNTY": "JEFFERSON", "COUNTYFIPS": "21111", "COUNTRY": "USA", "LATITUDE": 38.248322961, "LONGITUDE": -85.744335964999905, "NAICS_CODE": "622110", "NAICS_DESC": "GENERAL MEDICAL AND SURGICAL HOSPITALS", "SOURCE": "https://chfs.ky.gov/agencies/os/oig/dhc/Documents/Directories/Hospital_Directory.pdf", "SOURCEDATE": "2018-08-11T00:00:00.000Z", "VAL_METHOD": "IMAGERY", "VAL_DATE": "2014-02-10T00:00:00.000Z", "WEBSITE": "http://www.ulh.org", "STATE_ID": "100220", "ALT_NAME": "NOT AVAILABLE", "ST_FIPS": "21", "OWNER": "NON-PROFIT", "TTL_STAFF": -999, "BEDS": 404, "TRAUMA": "LEVEL I", "HELIPAD": "Y" }, "geometry": { "type": "Polygon", "coordinates": [ [ [ -85.708337, 38.139333 ], [ -85.8119558, 38.18658080000003 ], [ -85.830662, 38.238667 ], [ -85.832365, 38.248701 ], [ -85.8323286, 38.249635599999976 ], [ -85.830927, 38.258951 ], [ -85.826288, 38.267497 ], [ -85.760262, 38.372135 ], [ -85.7566609, 38.373830300000023 ], [ -85.74865410000001, 38.370715 ], [ -85.649099, 38.313881 ], [ -85.6305219, 38.2825189 ], [ -85.6138396, 38.234626599999984 ], [ -85.708337, 38.139333 ] ] ] } },
{ "type": "Feature", "properties": { "OBJECTID": 7118, "ID": "0003442701", "NAME": "HEALTHSOUTH LAKEVIEW REHABILITATION HOSPITAL OF CENTRAL KENTUCKY", "ADDRESS": "134 HEARTLAND DRIVE", "CITY": "ELIZABETHTOWN", "STATE": "KY", "ZIP": "42701", "ZIP4": "NOT AVAILABLE", "TELEPHONE": "(270) 769-3100", "TYPE": "REHABILITATION", "STATUS": "OPEN", "POPULATION": 40, "COUNTY": "HARDIN", "COUNTYFIPS": "21093", "COUNTRY": "USA", "LATITUDE": 37.714635563999998, "LONGITUDE": -85.8750721709999, "NAICS_CODE": "622110", "NAICS_DESC": "GENERAL MEDICAL AND SURGICAL HOSPITALS", "SOURCE": "https://chfs.ky.gov/agencies/os/oig/dhc/Documents/Directories/Hospital_Directory.pdf", "SOURCEDATE": "2018-08-11T00:00:00.000Z", "VAL_METHOD": "IMAGERY/OTHER", "VAL_DATE": "2013-12-17T00:00:00.000Z", "WEBSITE": "http://www.healthsouthlakeview.com", "STATE_ID": "100601", "ALT_NAME": "NOT AVAILABLE", "ST_FIPS": "21", "OWNER": "PROPRIETARY", "TTL_STAFF": -999, "BEDS": 40, "TRAUMA": "NOT AVAILABLE", "HELIPAD": "N" }, "geometry": { "type": "Polygon", "coordinates": [ [ [ -85.811405, 37.613985 ], [ -85.912291, 37.65253 ], [ -85.9341764, 37.661545300000029 ], [ -85.966222, 37.698257 ], [ -85.9680334, 37.75010420000006 ], [ -85.933727, 37.800499400000014 ], [ -85.9327293, 37.801183099999989 ], [ -85.9228044, 37.807751 ], [ -85.9209154, 37.808178799999972 ], [ -85.9207046, 37.8082265 ], [ -85.830026, 37.766792 ], [ -85.7910314, 37.731980100000023 ], [ -85.808792, 37.61822 ], [ -85.811405, 37.613985 ] ] ] } },
{ "type": "Feature", "properties": { "OBJECTID": 7222, "ID": "0002240004", "NAME": "FLAGET MEMORIAL HOSPITAL", "ADDRESS": "4305 NEW SHEPHERDSVILLE ROAD", "CITY": "BARDSTOWN", "STATE": "KY", "ZIP": "40004", "ZIP4": "NOT AVAILABLE", "TELEPHONE": "(502) 350-5000", "TYPE": "GENERAL ACUTE CARE", "STATUS": "OPEN", "POPULATION": 40, "COUNTY": "NELSON", "COUNTYFIPS": "21179", "COUNTRY": "USA", "LATITUDE": 37.861651018000003, "LONGITUDE": -85.523785833999995, "NAICS_CODE": "622110", "NAICS_DESC": "GENERAL MEDICAL AND SURGICAL HOSPITALS", "SOURCE": "https://chfs.ky.gov/agencies/os/oig/dhc/Documents/Directories/Hospital_Directory.pdf", "SOURCEDATE": "2018-08-11T00:00:00.000Z", "VAL_METHOD": "IMAGERY", "VAL_DATE": "2014-02-10T00:00:00.000Z", "WEBSITE": "http://www.flaget.com", "STATE_ID": "100348", "ALT_NAME": "NOT AVAILABLE", "ST_FIPS": "21", "OWNER": "NON-PROFIT", "TTL_STAFF": -999, "BEDS": 40, "TRAUMA": "NOT AVAILABLE", "HELIPAD": "Y" }, "geometry": { "type": "Polygon", "coordinates": [ [ [ -85.473167, 37.798068 ], [ -85.533221, 37.818406 ], [ -85.592229, 37.910933 ], [ -85.596412, 37.918303 ], [ -85.594078, 37.919277 ], [ -85.537994, 37.930341 ], [ -85.4683721, 37.9059059 ], [ -85.464742, 37.901866 ], [ -85.418556, 37.829036 ], [ -85.4284027, 37.810283400000017 ], [ -85.4322894, 37.803278500000019 ], [ -85.446538, 37.800944 ], [ -85.471657, 37.798026 ], [ -85.473167, 37.798068 ] ] ] } },
{ "type": "Feature", "properties": { "OBJECTID": 7578, "ID": "0181840121", "NAME": "IRELAND ARMY COMMUNITY HOSPITAL", "ADDRESS": "289 IRELAND AVE.", "CITY": "FORT KNOX", "STATE": "KY", "ZIP": "40121", "ZIP4": "NOT AVAILABLE", "TELEPHONE": "(502) 624-9333", "TYPE": "MILITARY", "STATUS": "OPEN", "POPULATION": -999, "COUNTY": "HARDIN", "COUNTYFIPS": "21093", "COUNTRY": "USA", "LATITUDE": 37.9003532, "LONGITUDE": -85.9414375, "NAICS_CODE": "622110", "NAICS_DESC": "GENERAL MEDICAL AND SURGICAL HOSPITALS", "SOURCE": "http://www.tricare.mil/mtf", "SOURCEDATE": "2019-04-02T00:00:00.000Z", "VAL_METHOD": "IMAGERY/OTHER", "VAL_DATE": "2019-05-16T00:00:00.000Z", "WEBSITE": "NOT AVAILABLE", "STATE_ID": "NOT AVAILABLE", "ALT_NAME": "NOT AVAILABLE", "ST_FIPS": "21", "OWNER": "GOVERNMENT - FEDERAL", "TTL_STAFF": -999, "BEDS": -999, "TRAUMA": "NOT AVAILABLE", "HELIPAD": "Y" }, "geometry": { "type": "Polygon", "coordinates": [ [ [ -85.925551, 37.819933900000052 ], [ -85.9855462, 37.8325327 ], [ -85.9864254, 37.832822300000011 ], [ -85.989864, 37.850458 ], [ -85.995282, 37.8982409 ], [ -85.995311, 37.901968 ], [ -85.9849751, 37.9238544 ], [ -85.97741, 37.936254 ], [ -85.950436, 37.947103 ], [ -85.94951, 37.947264 ], [ -85.8822726, 37.9353979 ], [ -85.87363, 37.91358730000006 ], [ -85.9063565, 37.85237309999998 ], [ -85.922629, 37.823772 ], [ -85.9253513, 37.819976 ], [ -85.925551, 37.819933900000052 ] ] ] } },
{ "type": "Feature", "properties": { "OBJECTID": 5272, "ID": "0007040202", "NAME": "NORTON HOSPITAL", "ADDRESS": "200 EAST CHESTNUT STREET", "CITY": "LOUISVILLE", "STATE": "KY", "ZIP": "40202", "ZIP4": "NOT AVAILABLE", "TELEPHONE": "(502) 629-8000", "TYPE": "GENERAL ACUTE CARE", "STATUS": "OPEN", "POPULATION": 370, "COUNTY": "JEFFERSON", "COUNTYFIPS": "21111", "COUNTRY": "USA", "LATITUDE": 38.247723146000098, "LONGITUDE": -85.750460303999901, "NAICS_CODE": "622110", "NAICS_DESC": "GENERAL MEDICAL AND SURGICAL HOSPITALS", "SOURCE": "https://chfs.ky.gov/agencies/os/oig/dhc/Documents/Directories/Hospital_Directory.pdf", "SOURCEDATE": "2018-08-11T00:00:00.000Z", "VAL_METHOD": "IMAGERY/OTHER", "VAL_DATE": "2014-02-10T00:00:00.000Z", "WEBSITE": "http://www.nortonhealthcare.com/nortonhospital", "STATE_ID": "100234", "ALT_NAME": "NOT AVAILABLE", "ST_FIPS": "21", "OWNER": "NON-PROFIT", "TTL_STAFF": -999, "BEDS": 370, "TRAUMA": "NOT AVAILABLE", "HELIPAD": "Y" }, "geometry": { "type": "Polygon", "coordinates": [ [ [ -85.7034784, 38.1307332 ], [ -85.8143747, 38.183441600000016 ], [ -85.818057, 38.186016 ], [ -85.8286112, 38.213604400000015 ], [ -85.832464, 38.245216 ], [ -85.832365, 38.248701 ], [ -85.8323286, 38.249635599999976 ], [ -85.830927, 38.258951 ], [ -85.826288, 38.267497 ], [ -85.7566609, 38.373830300000023 ], [ -85.652324, 38.310456 ], [ -85.6336895, 38.28064 ], [ -85.6223892, 38.23730089999998 ], [ -85.7034784, 38.1307332 ] ] ] } },
{ "type": "Feature", "properties": { "OBJECTID": 5298, "ID": "0000941008", "NAME": "CARROLL COUNTY MEMORIAL HOSPITAL", "ADDRESS": "309 ELEVENTH STREET", "CITY": "CARROLLTON", "STATE": "KY", "ZIP": "41008", "ZIP4": "NOT AVAILABLE", "TELEPHONE": "(502) 732-4321", "TYPE": "CRITICAL ACCESS", "STATUS": "OPEN", "POPULATION": 25, "COUNTY": "CARROLL", "COUNTYFIPS": "21041", "COUNTRY": "USA", "LATITUDE": 38.680312339000103, "LONGITUDE": -85.168786100999995, "NAICS_CODE": "622110", "NAICS_DESC": "GENERAL MEDICAL AND SURGICAL HOSPITALS", "SOURCE": "https://chfs.ky.gov/agencies/os/oig/dhc/Documents/Directories/Hospital_Directory.pdf", "SOURCEDATE": "2018-08-11T00:00:00.000Z", "VAL_METHOD": "IMAGERY", "VAL_DATE": "2014-02-10T00:00:00.000Z", "WEBSITE": "http://www.ccmhosp.com", "STATE_ID": "600061", "ALT_NAME": "NOT AVAILABLE", "ST_FIPS": "21", "OWNER": "GOVERNMENT - DISTRICT/AUTHORITY", "TTL_STAFF": -999, "BEDS": 25, "TRAUMA": "NOT AVAILABLE", "HELIPAD": "Y" }, "geometry": { "type": "Polygon", "coordinates": [ [ [ -85.191161, 38.62415 ], [ -85.229081, 38.632014 ], [ -85.252607, 38.656851 ], [ -85.243851, 38.714409 ], [ -85.0855643, 38.722047699999962 ], [ -85.072278, 38.679045 ], [ -85.073543, 38.674373 ], [ -85.088499, 38.621535 ], [ -85.191161, 38.62415 ] ] ] } },
{ "type": "Feature", "properties": { "OBJECTID": 5315, "ID": "0004240031", "NAME": "KENTUCKY CORRECTIONAL PSYCHIATRIC CENTER", "ADDRESS": "1612 DAWKINS ROAD", "CITY": "LAGRANGE", "STATE": "KY", "ZIP": "40031", "ZIP4": "NOT AVAILABLE", "TELEPHONE": "(502) 222-7161", "TYPE": "PSYCHIATRIC", "STATUS": "OPEN", "POPULATION": 97, "COUNTY": "OLDHAM", "COUNTYFIPS": "21185", "COUNTRY": "USA", "LATITUDE": 38.412076794000001, "LONGITUDE": -85.422126726000002, "NAICS_CODE": "622110", "NAICS_DESC": "GENERAL MEDICAL AND SURGICAL HOSPITALS", "SOURCE": "https://chfs.ky.gov/agencies/os/oig/dhc/Documents/Directories/Hospital_Directory.pdf", "SOURCEDATE": "2018-08-11T00:00:00.000Z", "VAL_METHOD": "IMAGERY", "VAL_DATE": "2014-02-10T00:00:00.000Z", "WEBSITE": "http://kentucky.gov/Pages/home.aspx", "STATE_ID": "100528", "ALT_NAME": "NOT AVAILABLE", "ST_FIPS": "21", "OWNER": "GOVERNMENT - STATE", "TTL_STAFF": -999, "BEDS": 97, "TRAUMA": "NOT AVAILABLE", "HELIPAD": "Y" }, "geometry": { "type": "Polygon", "coordinates": [ [ [ -85.4206011, 38.3624125 ], [ -85.445457, 38.364573 ], [ -85.452582, 38.365913 ], [ -85.462283, 38.378568 ], [ -85.468497, 38.419005 ], [ -85.458524, 38.425392 ], [ -85.440138, 38.434325 ], [ -85.367824, 38.446174 ], [ -85.3414273, 38.432343899999964 ], [ -85.329617, 38.400573 ], [ -85.357228, 38.369838 ], [ -85.39597, 38.364232 ], [ -85.4206011, 38.3624125 ] ] ] } },
{ "type": "Feature", "properties": { "OBJECTID": 5476, "ID": "0019247250", "NAME": "KING'S DAUGHTERS' HEALTH", "ADDRESS": "1373 EAST SR 62", "CITY": "MADISON", "STATE": "IN", "ZIP": "47250", "ZIP4": "NOT AVAILABLE", "TELEPHONE": "(812) 801-0105", "TYPE": "GENERAL ACUTE CARE", "STATUS": "OPEN", "POPULATION": 72, "COUNTY": "JEFFERSON", "COUNTYFIPS": "18077", "COUNTRY": "USA", "LATITUDE": 38.792507239000003, "LONGITUDE": -85.364297964999906, "NAICS_CODE": "622110", "NAICS_DESC": "GENERAL MEDICAL AND SURGICAL HOSPITALS", "SOURCE": "http://www.in.gov/isdh/reports/QAMIS/hosdir", "SOURCEDATE": "2018-08-16T00:00:00.000Z", "VAL_METHOD": "IMAGERY", "VAL_DATE": "2016-04-27T00:00:00.000Z", "WEBSITE": "http://www.kdhmadison.org/", "STATE_ID": "17-005063-1", "ALT_NAME": "NOT AVAILABLE", "ST_FIPS": "18", "OWNER": "NON-PROFIT", "TTL_STAFF": -999, "BEDS": 72, "TRAUMA": "NOT AVAILABLE", "HELIPAD": "Y" }, "geometry": { "type": "Polygon", "coordinates": [ [ [ -85.370493, 38.724357500000032 ], [ -85.404301, 38.737686 ], [ -85.449975, 38.759514 ], [ -85.456898, 38.767387 ], [ -85.462358, 38.816634 ], [ -85.375605, 38.876487 ], [ -85.34544, 38.850509 ], [ -85.344634, 38.849669 ], [ -85.313259, 38.806248 ], [ -85.312593, 38.804278 ], [ -85.316253, 38.780779 ], [ -85.326097, 38.767707 ], [ -85.3535127, 38.733256800000042 ], [ -85.370493, 38.724357500000032 ] ] ] } },
{ "type": "Feature", "properties": { "OBJECTID": 3149, "ID": "0013147170", "NAME": "SCOTT COUNTY MEMORIAL HOSPITAL AKA SCOTT MEMORIAL", "ADDRESS": "1451 N GARDNER ST", "CITY": "SCOTTSBURG", "STATE": "IN", "ZIP": "47170", "ZIP4": "NOT AVAILABLE", "TELEPHONE": "(812) 752-3456", "TYPE": "CRITICAL ACCESS", "STATUS": "OPEN", "POPULATION": 25, "COUNTY": "SCOTT", "COUNTYFIPS": "18143", "COUNTRY": "USA", "LATITUDE": 38.704989842000003, "LONGITUDE": -85.786184974999998, "NAICS_CODE": "622110", "NAICS_DESC": "GENERAL MEDICAL AND SURGICAL HOSPITALS", "SOURCE": "http://www.in.gov/isdh/reports/QAMIS/hosdir", "SOURCEDATE": "2018-08-16T00:00:00.000Z", "VAL_METHOD": "IMAGERY", "VAL_DATE": "2014-01-23T00:00:00.000Z", "WEBSITE": "http://www.scottmemorial.com", "STATE_ID": "17-004778-1", "ALT_NAME": "NOT AVAILABLE", "ST_FIPS": "18", "OWNER": "GOVERNMENT - LOCAL", "TTL_STAFF": -999, "BEDS": 25, "TRAUMA": "NOT AVAILABLE", "HELIPAD": "Y" }, "geometry": { "type": "Polygon", "coordinates": [ [ [ -85.774779, 38.597135 ], [ -85.775417, 38.597203 ], [ -85.786493, 38.60488 ], [ -85.86912, 38.681682 ], [ -85.8437578, 38.74275760000004 ], [ -85.8230754, 38.771329700000017 ], [ -85.788542, 38.772206 ], [ -85.781262, 38.772226 ], [ -85.7392571, 38.753024600000046 ], [ -85.72762, 38.743707 ], [ -85.691619, 38.686134 ], [ -85.774779, 38.597135 ] ] ] } },
{ "type": "Feature", "properties": { "OBJECTID": 3326, "ID": "0004840160", "NAME": "LINCOLN TRAIL BEHAVIORAL HEALTH SYSTEM", "ADDRESS": "3909 SOUTH WILSON ROAD", "CITY": "RADCLIFF", "STATE": "KY", "ZIP": "40160", "ZIP4": "NOT AVAILABLE", "TELEPHONE": "(270) 351-9444", "TYPE": "PSYCHIATRIC", "STATUS": "OPEN", "POPULATION": 140, "COUNTY": "HARDIN", "COUNTYFIPS": "21093", "COUNTRY": "USA", "LATITUDE": 37.787923683000002, "LONGITUDE": -85.9147806349999, "NAICS_CODE": "622110", "NAICS_DESC": "GENERAL MEDICAL AND SURGICAL HOSPITALS", "SOURCE": "https://chfs.ky.gov/agencies/os/oig/dhc/Documents/Directories/Hospital_Directory.pdf", "SOURCEDATE": "2018-08-11T00:00:00.000Z", "VAL_METHOD": "IMAGERY", "VAL_DATE": "2014-02-10T00:00:00.000Z", "WEBSITE": "http://www.lincolnbehavioral.com", "STATE_ID": "100574", "ALT_NAME": "NOT AVAILABLE", "ST_FIPS": "21", "OWNER": "PROPRIETARY", "TTL_STAFF": -999, "BEDS": 140, "TRAUMA": "NOT AVAILABLE", "HELIPAD": "N" }, "geometry": { "type": "Polygon", "coordinates": [ [ [ -85.868909, 37.688172 ], [ -85.893009, 37.693703 ], [ -85.89607, 37.694551 ], [ -85.9773376, 37.742652600000021 ], [ -86.0307104, 37.82670369999996 ], [ -86.0301201, 37.829671799999971 ], [ -85.969576, 37.883385 ], [ -85.9621994, 37.8824283 ], [ -85.9390009, 37.8773997 ], [ -85.9388489, 37.877351399999988 ], [ -85.8295667, 37.825427799999986 ], [ -85.77971, 37.801674 ], [ -85.857934, 37.692836 ], [ -85.868909, 37.688172 ] ] ] } },
{ "type": "Feature", "properties": { "OBJECTID": 3445, "ID": "0001340223", "NAME": "CENTRAL STATE HOSPITAL", "ADDRESS": "10510 LAGRANGE ROAD", "CITY": "LOUISVILLE", "STATE": "KY", "ZIP": "40223", "ZIP4": "NOT AVAILABLE", "TELEPHONE": "(502) 253-7045", "TYPE": "PSYCHIATRIC", "STATUS": "OPEN", "POPULATION": 192, "COUNTY": "JEFFERSON", "COUNTYFIPS": "21111", "COUNTRY": "USA", "LATITUDE": 38.27219096, "LONGITUDE": -85.55809622, "NAICS_CODE": "622110", "NAICS_DESC": "GENERAL MEDICAL AND SURGICAL HOSPITALS", "SOURCE": "https://chfs.ky.gov/agencies/os/oig/dhc/Documents/Directories/Hospital_Directory.pdf", "SOURCEDATE": "2018-08-11T00:00:00.000Z", "VAL_METHOD": "IMAGERY", "VAL_DATE": "2014-02-10T00:00:00.000Z", "WEBSITE": "NOT AVAILABLE", "STATE_ID": "100198", "ALT_NAME": "NOT AVAILABLE", "ST_FIPS": "21", "OWNER": "GOVERNMENT - STATE", "TTL_STAFF": -999, "BEDS": 192, "TRAUMA": "NOT AVAILABLE", "HELIPAD": "N" }, "geometry": { "type": "Polygon", "coordinates": [ [ [ -85.6046355, 38.1941072 ], [ -85.6544086, 38.221721900000027 ], [ -85.6636012, 38.23760260000001 ], [ -85.66217, 38.253443 ], [ -85.6503033, 38.291582199999986 ], [ -85.6327777, 38.326808300000017 ], [ -85.62432, 38.337131 ], [ -85.619459, 38.339514 ], [ -85.560455, 38.336678 ], [ -85.559789, 38.336527 ], [ -85.4839, 38.317134 ], [ -85.478132, 38.289117 ], [ -85.4697133, 38.236470499999989 ], [ -85.5382855, 38.200567400000011 ], [ -85.548425800000018, 38.195392799999972 ], [ -85.6046355, 38.1941072 ] ] ] } },
{ "type": "Feature", "properties": { "OBJECTID": 3448, "ID": "0002540202", "NAME": "FRAZIER REHAB INSTITUTE", "ADDRESS": "220 ABRAHAM FLEXNER WAY", "CITY": "LOUISVILLE", "STATE": "KY", "ZIP": "40202", "ZIP4": "NOT AVAILABLE", "TELEPHONE": "(502) 407-3242", "TYPE": "REHABILITATION", "STATUS": "OPEN", "POPULATION": 135, "COUNTY": "JEFFERSON", "COUNTYFIPS": "21111", "COUNTRY": "USA", "LATITUDE": 38.248955758000101, "LONGITUDE": -85.750218461000003, "NAICS_CODE": "622110", "NAICS_DESC": "GENERAL MEDICAL AND SURGICAL HOSPITALS", "SOURCE": "https://chfs.ky.gov/agencies/os/oig/dhc/Documents/Directories/Hospital_Directory.pdf", "SOURCEDATE": "2018-08-11T00:00:00.000Z", "VAL_METHOD": "IMAGERY", "VAL_DATE": "2014-02-10T00:00:00.000Z", "WEBSITE": "http://www.frazierrehab.org", "STATE_ID": "100244", "ALT_NAME": "NOT AVAILABLE", "ST_FIPS": "21", "OWNER": "NON-PROFIT", "TTL_STAFF": -999, "BEDS": 135, "TRAUMA": "NOT AVAILABLE", "HELIPAD": "Y" }, "geometry": { "type": "Polygon", "coordinates": [ [ [ -85.7034784, 38.1307332 ], [ -85.818057, 38.186016 ], [ -85.832464, 38.245216 ], [ -85.832365, 38.248701 ], [ -85.8323286, 38.249635599999976 ], [ -85.830927, 38.258951 ], [ -85.826288, 38.267497 ], [ -85.7588737, 38.3713223 ], [ -85.7566609, 38.373830300000023 ], [ -85.7512581, 38.37075320000001 ], [ -85.652324, 38.310456 ], [ -85.632495, 38.283882 ], [ -85.6223892, 38.23730089999998 ], [ -85.7034784, 38.1307332 ] ] ] } },
{ "type": "Feature", "properties": { "OBJECTID": 3449, "ID": "0006840217", "NAME": "NORTON AUDUBON HOSPITAL", "ADDRESS": "ONE AUDUBON PLAZA DRIVE", "CITY": "LOUISVILLE", "STATE": "KY", "ZIP": "40217", "ZIP4": "NOT AVAILABLE", "TELEPHONE": "(502) 636-7001", "TYPE": "GENERAL ACUTE CARE", "STATUS": "OPEN", "POPULATION": 432, "COUNTY": "JEFFERSON", "COUNTYFIPS": "21111", "COUNTRY": "USA", "LATITUDE": 38.215127395000003, "LONGITUDE": -85.722813645000002, "NAICS_CODE": "622110", "NAICS_DESC": "GENERAL MEDICAL AND SURGICAL HOSPITALS", "SOURCE": "https://chfs.ky.gov/agencies/os/oig/dhc/Documents/Directories/Hospital_Directory.pdf", "SOURCEDATE": "2018-08-11T00:00:00.000Z", "VAL_METHOD": "IMAGERY", "VAL_DATE": "2014-03-12T00:00:00.000Z", "WEBSITE": "http://www.nortonhealthcare.com/NortonAudubonHospital", "STATE_ID": "100252", "ALT_NAME": "NOT AVAILABLE", "ST_FIPS": "21", "OWNER": "NON-PROFIT", "TTL_STAFF": -999, "BEDS": 432, "TRAUMA": "NOT AVAILABLE", "HELIPAD": "Y" }, "geometry": { "type": "Polygon", "coordinates": [ [ [ -85.702997, 38.117788 ], [ -85.819298, 38.177895800000023 ], [ -85.8153531, 38.239805900000015 ], [ -85.7681752, 38.292914599999982 ], [ -85.76809, 38.293 ], [ -85.760589, 38.297658 ], [ -85.7535547, 38.2988972 ], [ -85.613952, 38.249364199999988 ], [ -85.6138396, 38.234626599999984 ], [ -85.6160666, 38.2194388 ], [ -85.62563, 38.180533 ], [ -85.6457289, 38.1577111 ], [ -85.660027, 38.146537 ], [ -85.702997, 38.117788 ] ] ] } },
{ "type": "Feature", "properties": { "OBJECTID": 3450, "ID": "0006940241", "NAME": "NORTON BROWNSBORO HOSPITAL", "ADDRESS": "4960 NORTON HEALTHCARE BOULEVARD", "CITY": "LOUISVILLE", "STATE": "KY", "ZIP": "40241", "ZIP4": "NOT AVAILABLE", "TELEPHONE": "(502) 394-6464", "TYPE": "GENERAL ACUTE CARE", "STATUS": "OPEN", "POPULATION": 127, "COUNTY": "JEFFERSON", "COUNTYFIPS": "21111", "COUNTRY": "USA", "LATITUDE": 38.3153256800001, "LONGITUDE": -85.575894453999993, "NAICS_CODE": "622110", "NAICS_DESC": "GENERAL MEDICAL AND SURGICAL HOSPITALS", "SOURCE": "https://chfs.ky.gov/agencies/os/oig/dhc/Documents/Directories/Hospital_Directory.pdf", "SOURCEDATE": "2018-08-11T00:00:00.000Z", "VAL_METHOD": "IMAGERY", "VAL_DATE": "2014-02-10T00:00:00.000Z", "WEBSITE": "http://www.nortonhealthcare.com/nortonbrownsborohospital", "STATE_ID": "100475", "ALT_NAME": "NOT AVAILABLE", "ST_FIPS": "21", "OWNER": "NON-PROFIT", "TTL_STAFF": -999, "BEDS": 127, "TRAUMA": "NOT AVAILABLE", "HELIPAD": "Y" }, "geometry": { "type": "Polygon", "coordinates": [ [ [ -85.506113, 38.218808 ], [ -85.6226666, 38.240814500000013 ], [ -85.7016793, 38.2722086 ], [ -85.7015948, 38.275785 ], [ -85.631736, 38.357888 ], [ -85.617079, 38.368712 ], [ -85.5940096, 38.36646770000003 ], [ -85.593306, 38.366324 ], [ -85.466086, 38.329354 ], [ -85.473706, 38.267551 ], [ -85.4794567, 38.236497200000031 ], [ -85.506113, 38.218808 ] ] ] } },
{ "type": "Feature", "properties": { "OBJECTID": 3452, "ID": "0010740242", "NAME": "THE BROOK HOSPITAL - KMI", "ADDRESS": "8521 LAGRANGE RD", "CITY": "LOUISVILLE", "STATE": "KY", "ZIP": "40242", "ZIP4": "NOT AVAILABLE", "TELEPHONE": "(502) 426-6380", "TYPE": "PSYCHIATRIC", "STATUS": "OPEN", "POPULATION": 94, "COUNTY": "JEFFERSON", "COUNTYFIPS": "21111", "COUNTRY": "USA", "LATITUDE": 38.2725393000001, "LONGITUDE": -85.596478774999994, "NAICS_CODE": "622110", "NAICS_DESC": "GENERAL MEDICAL AND SURGICAL HOSPITALS", "SOURCE": "https://chfs.ky.gov/agencies/os/oig/dhc/Documents/Directories/Hospital_Directory.pdf", "SOURCEDATE": "2018-08-11T00:00:00.000Z", "VAL_METHOD": "IMAGERY/OTHER", "VAL_DATE": "2014-02-10T00:00:00.000Z", "WEBSITE": "http://www.thebrookhospitals.com/", "STATE_ID": "100241", "ALT_NAME": "NOT AVAILABLE", "ST_FIPS": "21", "OWNER": "PROPRIETARY", "TTL_STAFF": -999, "BEDS": 94, "TRAUMA": "NOT AVAILABLE", "HELIPAD": "N" }, "geometry": { "type": "Polygon", "coordinates": [ [ [ -85.665314200000012, 38.203829 ], [ -85.671452, 38.206155 ], [ -85.678189, 38.209488 ], [ -85.6984764, 38.2449105 ], [ -85.706296, 38.273033 ], [ -85.7016287, 38.280171499999987 ], [ -85.637928, 38.328148 ], [ -85.62432, 38.337131 ], [ -85.619459, 38.339514 ], [ -85.5612437, 38.328732300000013 ], [ -85.5164639, 38.309414699999962 ], [ -85.514583, 38.308355 ], [ -85.514135, 38.3078 ], [ -85.508484, 38.297236299999987 ], [ -85.500649, 38.275601 ], [ -85.5439986, 38.233901200000034 ], [ -85.582563, 38.21705 ], [ -85.622398, 38.202571 ], [ -85.665314200000012, 38.203829 ] ] ] } },
{ "type": "Feature", "properties": { "OBJECTID": 3714, "ID": "0007947129", "NAME": "KENTUCKIANA MEDICAL CENTER LLC", "ADDRESS": "4601 MEDICAL PLAZA WAY", "CITY": "CLARKSVILLE", "STATE": "IN", "ZIP": "47129", "ZIP4": "NOT AVAILABLE", "TELEPHONE": "(812) 280-3300", "TYPE": "GENERAL ACUTE CARE", "STATUS": "OPEN", "POPULATION": 42, "COUNTY": "CLARK", "COUNTYFIPS": "18019", "COUNTRY": "USA", "LATITUDE": 38.333085593000099, "LONGITUDE": -85.752433815000003, "NAICS_CODE": "622110", "NAICS_DESC": "GENERAL MEDICAL AND SURGICAL HOSPITALS", "SOURCE": "http://www.in.gov/isdh/reports/QAMIS/hosdir", "SOURCEDATE": "2018-08-16T00:00:00.000Z", "VAL_METHOD": "IMAGERY", "VAL_DATE": "2014-01-22T00:00:00.000Z", "WEBSITE": "http://kentuckianamedcen.com/", "STATE_ID": "17-011788-1", "ALT_NAME": "NOT AVAILABLE", "ST_FIPS": "18", "OWNER": "PROPRIETARY", "TTL_STAFF": -999, "BEDS": 42, "TRAUMA": "NOT AVAILABLE", "HELIPAD": "N" }, "geometry": { "type": "Polygon", "coordinates": [ [ [ -85.753919, 38.2371 ], [ -85.7661677, 38.249861599999974 ], [ -85.767414, 38.252228 ], [ -85.7923341, 38.3005339 ], [ -85.7961918, 38.331735 ], [ -85.8062202, 38.424687200000037 ], [ -85.7726327, 38.490923599999974 ], [ -85.7712719, 38.493440100000015 ], [ -85.6714297, 38.414409 ], [ -85.648872, 38.338963 ], [ -85.652107, 38.331661 ], [ -85.652412, 38.33099 ], [ -85.653694, 38.329182 ], [ -85.7198123, 38.2543412 ], [ -85.753919, 38.2371 ] ] ] } },
{ "type": "Feature", "properties": { "OBJECTID": 3752, "ID": "0006947454", "NAME": "INDIANA UNIVERSITY HEALTH PAOLI HOSPITAL", "ADDRESS": "642 W HOSPITAL RD", "CITY": "PAOLI", "STATE": "IN", "ZIP": "47454", "ZIP4": "NOT AVAILABLE", "TELEPHONE": "(812) 723-2811", "TYPE": "CRITICAL ACCESS", "STATUS": "OPEN", "POPULATION": 24, "COUNTY": "ORANGE", "COUNTYFIPS": "18117", "COUNTRY": "USA", "LATITUDE": 38.568361438000103, "LONGITUDE": -86.475163718000005, "NAICS_CODE": "622110", "NAICS_DESC": "GENERAL MEDICAL AND SURGICAL HOSPITALS", "SOURCE": "http://www.in.gov/isdh/reports/QAMIS/hosdir", "SOURCEDATE": "2018-08-16T00:00:00.000Z", "VAL_METHOD": "IMAGERY", "VAL_DATE": "2014-03-12T00:00:00.000Z", "WEBSITE": "http://www.iuhealth.org/paoli", "STATE_ID": "17-005065-1", "ALT_NAME": "NOT AVAILABLE", "ST_FIPS": "18", "OWNER": "NON-PROFIT", "TTL_STAFF": -999, "BEDS": 24, "TRAUMA": "NOT AVAILABLE", "HELIPAD": "Y" }, "geometry": { "type": "Polygon", "coordinates": [ [ [ -86.43977, 38.501217 ], [ -86.483566, 38.511885 ], [ -86.487867, 38.513242 ], [ -86.557998, 38.562902 ], [ -86.577224, 38.580505 ], [ -86.577601, 38.583957 ], [ -86.456571, 38.648473 ], [ -86.407745, 38.587275 ], [ -86.392236, 38.55736 ], [ -86.391141, 38.517325 ], [ -86.43977, 38.501217 ] ] ] } },
{ "type": "Feature", "properties": { "OBJECTID": 3879, "ID": "0173640206", "NAME": "ROBLEY REX VA MEDICAL CENTER", "ADDRESS": "800 ZORN AVENUE", "CITY": "LOUISVILLE", "STATE": "KY", "ZIP": "40206", "ZIP4": "NOT AVAILABLE", "TELEPHONE": "(502) 287-4000", "TYPE": "MILITARY", "STATUS": "OPEN", "POPULATION": -999, "COUNTY": "JEFFERSON", "COUNTYFIPS": "21111", "COUNTRY": "USA", "LATITUDE": 38.270259, "LONGITUDE": -85.696895, "NAICS_CODE": "622110", "NAICS_DESC": "GENERAL MEDICAL AND SURGICAL HOSPITALS", "SOURCE": "https://www.va.gov/directory/guide/allstate.asp", "SOURCEDATE": "2018-09-26T00:00:00.000Z", "VAL_METHOD": "IMAGERY", "VAL_DATE": "2019-05-09T00:00:00.000Z", "WEBSITE": "https://www.louisville.va.gov/", "STATE_ID": "NOT AVAILABLE", "ALT_NAME": "NOT AVAILABLE", "ST_FIPS": "21", "OWNER": "GOVERNMENT - FEDERAL", "TTL_STAFF": -999, "BEDS": -999, "TRAUMA": "NOT AVAILABLE", "HELIPAD": "N" }, "geometry": { "type": "Polygon", "coordinates": [ [ [ -85.7508455, 38.197605 ], [ -85.779085, 38.218477 ], [ -85.7903582, 38.236504900000014 ], [ -85.798277, 38.249567 ], [ -85.8097702, 38.271690700000036 ], [ -85.809808, 38.27283 ], [ -85.789379, 38.301011 ], [ -85.753715, 38.333422699999964 ], [ -85.628631, 38.334334 ], [ -85.58061, 38.315348 ], [ -85.5701038, 38.3109211 ], [ -85.569128, 38.307501 ], [ -85.6138396, 38.234626599999984 ], [ -85.632682, 38.222458 ], [ -85.666242, 38.214001 ], [ -85.7508455, 38.197605 ] ] ] } }
]
}
