{
"type": "FeatureCollection",
"crs": { "type": "name", "properties": { "name": "urn:ogc:def:crs:OGC:1.3:CRS84" } },
"features": [
{ "type": "Feature", "properties": { "OBJECTID": 1060, "ID": "0152254720", "NAME": "OAKLEAF SURGICAL HOSPITAL", "ADDRESS": "1000 OAKLEAF WAY", "CITY": "ALTOONA", "STATE": "WI", "ZIP": "54720", "ZIP4": "NOT AVAILABLE", "TELEPHONE": "(715) 831-8130", "TYPE": "GENERAL ACUTE CARE", "STATUS": "OPEN", "POPULATION": 13, "COUNTY": "EAU CLAIRE", "COUNTYFIPS": "55035", "COUNTRY": "USA", "LATITUDE": 44.815716188000103, "LONGITUDE": -91.452710482000001, "NAICS_CODE": "622110", "NAICS_DESC": "GENERAL MEDICAL AND SURGICAL HOSPITALS", "SOURCE": "https://www.dhs.wisconsin.gov/guide/hospital.htm", "SOURCEDATE": "2018-08-13T00:00:00.000Z", "VAL_METHOD": "IMAGERY/OTHER", "VAL_DATE": "2015-03-27T00:00:00.000Z", "WEBSITE": "http://www.oakleafsurgical.com", "STATE_ID": "303", "ALT_NAME": "NOT AVAILABLE", "ST_FIPS": "55", "OWNER": "NOT AVAILABLE", "TTL_STAFF": -999, "BEDS": 13, "TRAUMA": "NOT AVAILABLE", "HELIPAD": "N" }, "geometry": { "type": "Polygon", "coordinates": [ [ [ -91.4481891, 44.7055939 ], [ -91.5387523, 44.764163800000013 ], [ -91.5608073, 44.7895345 ], [ -91.5799844, 44.812522 ], [ -91.579737, 44.81443890000002 ], [ -91.5698489, 44.84369 ], [ -91.5693221, 44.8440889 ], [ -91.5489758, 44.857096399999968 ], [ -91.4886405, 44.895166800000027 ], [ -91.4397708, 44.924319300000036 ], [ -91.4281141, 44.927012399999981 ], [ -91.4230614, 44.927319 ], [ -91.4179233, 44.927229299999958 ], [ -91.3607221, 44.924012799999986 ], [ -91.346748, 44.919819 ], [ -91.3318703, 44.836795500000022 ], [ -91.3399626, 44.782037200000033 ], [ -91.3663038, 44.724463500000013 ], [ -91.4481891, 44.7055939 ] ] ] } },
{ "type": "Feature", "properties": { "OBJECTID": 1496, "ID": "0000655102", "NAME": "UNITED HOSPITAL", "ADDRESS": "333 NORTH SMITH AVENUE", "CITY": "ST PAUL", "STATE": "MN", "ZIP": "55102", "ZIP4": "NOT AVAILABLE", "TELEPHONE": "(651) 241-8000", "TYPE": "GENERAL ACUTE CARE", "STATUS": "OPEN", "POPULATION": 546, "COUNTY": "RAMSEY", "COUNTYFIPS": "27123", "COUNTRY": "USA", "LATITUDE": 44.943379813, "LONGITUDE": -93.107144934999994, "NAICS_CODE": "622110", "NAICS_DESC": "GENERAL MEDICAL AND SURGICAL HOSPITALS", "SOURCE": "http://www.health.state.mn.us/divs/fpc/directory/providerselect.cfm", "SOURCEDATE": "2018-08-09T00:00:00.000Z", "VAL_METHOD": "IMAGERY", "VAL_DATE": "2014-03-12T00:00:00.000Z", "WEBSITE": "https://www.allinahealth.org/United-Hospital/", "STATE_ID": "525", "ALT_NAME": "NOT AVAILABLE", "ST_FIPS": "27", "OWNER": "NON-PROFIT", "TTL_STAFF": -999, "BEDS": 546, "TRAUMA": "LEVEL III", "HELIPAD": "Y" }, "geometry": { "type": "Polygon", "coordinates": [ [ [ -93.1224548, 44.843327099999968 ], [ -93.1550021, 44.847641800000012 ], [ -93.1679122, 44.8612482 ], [ -93.172234, 44.866186 ], [ -93.2076604, 44.919390799999988 ], [ -93.2282557, 44.962772400000048 ], [ -93.2279009, 44.964238 ], [ -93.2164748, 44.987940799999983 ], [ -93.2060018, 45.0006205 ], [ -93.106325, 45.056653 ], [ -93.057713, 45.053825 ], [ -93.0374852, 45.037313599999941 ], [ -93.012524, 45.011894 ], [ -92.968482, 44.963208 ], [ -92.9716099, 44.926166899999977 ], [ -93.006459, 44.891210500000014 ], [ -93.059362, 44.86094 ], [ -93.1224548, 44.843327099999968 ] ] ] } },
{ "type": "Feature", "properties": { "OBJECTID": 1497, "ID": "0003555422", "NAME": "REGENCY HOSPITAL OF MPLS LLC", "ADDRESS": "1300 HIDDEN LAKES PARKWAY", "CITY": "GOLDEN VALLEY", "STATE": "MN", "ZIP": "55422", "ZIP4": "NOT AVAILABLE", "TELEPHONE": "(763) 588-2750", "TYPE": "GENERAL ACUTE CARE", "STATUS": "OPEN", "POPULATION": 92, "COUNTY": "HENNEPIN", "COUNTYFIPS": "27053", "COUNTRY": "USA", "LATITUDE": 44.992303208000102, "LONGITUDE": -93.333675737999997, "NAICS_CODE": "622110", "NAICS_DESC": "GENERAL MEDICAL AND SURGICAL HOSPITALS", "SOURCE": "http://www.health.state.mn.us/divs/fpc/directory/providerselect.cfm", "SOURCEDATE": "2018-08-09T00:00:00.000Z", "VAL_METHOD": "IMAGERY", "VAL_DATE": "2014-01-03T00:00:00.000Z", "WEBSITE": "http://www.regencyhospital.com", "STATE_ID": "158", "ALT_NAME": "NOT AVAILABLE", "ST_FIPS": "27", "OWNER": "GOVERNMENT - DISTRICT/AUTHORITY", "TTL_STAFF": -999, "BEDS": 92, "TRAUMA": "NOT AVAILABLE", "HELIPAD": "N" }, "geometry": { "type": "Polygon", "coordinates": [ [ [ -93.3499844, 44.900659400000023 ], [ -93.3987282, 44.93445119999997 ], [ -93.43378, 44.965979899999965 ], [ -93.4391075, 44.9710967 ], [ -93.4512435, 44.996646100000021 ], [ -93.4512463, 44.9967598 ], [ -93.4487514, 45.002442400000028 ], [ -93.3806084, 45.088997299999932 ], [ -93.3801481, 45.08914189999998 ], [ -93.298996, 45.081841 ], [ -93.2707561, 45.068744 ], [ -93.239708, 44.998712 ], [ -93.255823, 44.965923 ], [ -93.3499844, 44.900659400000023 ] ] ] } },
{ "type": "Feature", "properties": { "OBJECTID": 1978, "ID": "0002554701", "NAME": "SACRED HEART HSPTL", "ADDRESS": "900 W CLAIREMONT AVE", "CITY": "EAU CLAIRE", "STATE": "WI", "ZIP": "54701", "ZIP4": "NOT AVAILABLE", "TELEPHONE": "(715) 717-4131", "TYPE": "GENERAL ACUTE CARE", "STATUS": "OPEN", "POPULATION": 344, "COUNTY": "EAU CLAIRE", "COUNTYFIPS": "55035", "COUNTRY": "USA", "LATITUDE": 44.794465774000102, "LONGITUDE": -91.510666756000006, "NAICS_CODE": "622110", "NAICS_DESC": "GENERAL MEDICAL AND SURGICAL HOSPITALS", "SOURCE": "https://www.dhs.wisconsin.gov/guide/hospital.htm", "SOURCEDATE": "2018-08-13T00:00:00.000Z", "VAL_METHOD": "IMAGERY", "VAL_DATE": "2014-03-12T00:00:00.000Z", "WEBSITE": "http://www.sacredhearteauclaire.org", "STATE_ID": "17", "ALT_NAME": "NOT AVAILABLE", "ST_FIPS": "55", "OWNER": "NON-PROFIT", "TTL_STAFF": -999, "BEDS": 344, "TRAUMA": "NOT AVAILABLE", "HELIPAD": "Y" }, "geometry": { "type": "Polygon", "coordinates": [ [ [ -91.5694801, 44.712671200000038 ], [ -91.6001754, 44.734446200000022 ], [ -91.6116175, 44.7451976 ], [ -91.6352188, 44.7978501 ], [ -91.6404239, 44.814027799999977 ], [ -91.6305915, 44.84327940000005 ], [ -91.6201803, 44.853442600000044 ], [ -91.5497031, 44.89081 ], [ -91.5489551, 44.891040700000033 ], [ -91.412137200000018, 44.8862297 ], [ -91.363503, 44.785368900000023 ], [ -91.3747738, 44.731686799999949 ], [ -91.377418500000019, 44.730067400000046 ], [ -91.4482763, 44.712724300000055 ], [ -91.519821, 44.712433300000022 ], [ -91.5433648, 44.712405599999975 ], [ -91.5694801, 44.712671200000038 ] ] ] } },
{ "type": "Feature", "properties": { "OBJECTID": 1988, "ID": "0009854736", "NAME": "CHIPPEWA VALLEY HSPTL", "ADDRESS": "1220 3RD AVE W, PO BOX 224", "CITY": "DURAND", "STATE": "WI", "ZIP": "54736", "ZIP4": "NOT AVAILABLE", "TELEPHONE": "(715) 672-4211", "TYPE": "GENERAL ACUTE CARE", "STATUS": "OPEN", "POPULATION": 25, "COUNTY": "PEPIN", "COUNTYFIPS": "55091", "COUNTRY": "USA", "LATITUDE": 44.620507537000002, "LONGITUDE": -91.962332922000002, "NAICS_CODE": "622110", "NAICS_DESC": "GENERAL MEDICAL AND SURGICAL HOSPITALS", "SOURCE": "https://www.dhs.wisconsin.gov/guide/hospital.htm", "SOURCEDATE": "2018-08-13T00:00:00.000Z", "VAL_METHOD": "IMAGERY", "VAL_DATE": "2014-03-12T00:00:00.000Z", "WEBSITE": "http://www.chippewavalleyhospital.com/", "STATE_ID": "1008", "ALT_NAME": "NOT AVAILABLE", "ST_FIPS": "55", "OWNER": "NON-PROFIT", "TTL_STAFF": -999, "BEDS": 25, "TRAUMA": "LEVEL IV", "HELIPAD": "Y" }, "geometry": { "type": "Polygon", "coordinates": [ [ [ -92.0434227, 44.589686700000044 ], [ -92.1018852, 44.639584099999944 ], [ -92.0441577, 44.667125799999987 ], [ -91.948402, 44.705658 ], [ -91.8809711, 44.683741499999982 ], [ -91.8525189, 44.654005 ], [ -91.863083, 44.596575 ], [ -92.0434227, 44.589686700000044 ] ] ] } },
{ "type": "Feature", "properties": { "OBJECTID": 1989, "ID": "0010054001", "NAME": "AMERY REGIONAL MEDICAL CENTER", "ADDRESS": "265 GRIFFIN STREET EAST", "CITY": "AMERY", "STATE": "WI", "ZIP": "54001", "ZIP4": "NOT AVAILABLE", "TELEPHONE": "(715) 268-0300", "TYPE": "GENERAL ACUTE CARE", "STATUS": "OPEN", "POPULATION": 25, "COUNTY": "POLK", "COUNTYFIPS": "55095", "COUNTRY": "USA", "LATITUDE": 45.296828098, "LONGITUDE": -92.360915832000003, "NAICS_CODE": "622110", "NAICS_DESC": "GENERAL MEDICAL AND SURGICAL HOSPITALS", "SOURCE": "https://www.dhs.wisconsin.gov/guide/hospital.htm", "SOURCEDATE": "2018-08-13T00:00:00.000Z", "VAL_METHOD": "IMAGERY", "VAL_DATE": "2014-02-10T00:00:00.000Z", "WEBSITE": "http://www.amerymedicalcenter.org", "STATE_ID": "1010", "ALT_NAME": "NOT AVAILABLE", "ST_FIPS": "55", "OWNER": "NON-PROFIT", "TTL_STAFF": -999, "BEDS": 25, "TRAUMA": "LEVEL IV", "HELIPAD": "Y" }, "geometry": { "type": "Polygon", "coordinates": [ [ [ -92.401172, 45.209284 ], [ -92.487724, 45.295589 ], [ -92.4283692, 45.361502 ], [ -92.366676, 45.395923 ], [ -92.356160300000013, 45.3963055 ], [ -92.3519704, 45.3958256 ], [ -92.240354, 45.30977 ], [ -92.355534, 45.223667 ], [ -92.382517, 45.208918 ], [ -92.401172, 45.209284 ] ] ] } },
{ "type": "Feature", "properties": { "OBJECTID": 1990, "ID": "0010154001", "NAME": "ARMC BEHAVIORAL HEALTH CENTER", "ADDRESS": "230 DERONDA STREET", "CITY": "AMERY", "STATE": "WI", "ZIP": "54001", "ZIP4": "NOT AVAILABLE", "TELEPHONE": "(715) 268-0060", "TYPE": "PSYCHIATRIC", "STATUS": "OPEN", "POPULATION": 10, "COUNTY": "POLK", "COUNTYFIPS": "55095", "COUNTRY": "USA", "LATITUDE": 45.302448416000097, "LONGITUDE": -92.36616471000001, "NAICS_CODE": "622210", "NAICS_DESC": "PSYCHIATRIC AND SUBSTANCE ABUSE HOSPITALS", "SOURCE": "https://www.dhs.wisconsin.gov/guide/hospital.htm", "SOURCEDATE": "2018-08-13T00:00:00.000Z", "VAL_METHOD": "IMAGERY", "VAL_DATE": "2014-02-10T00:00:00.000Z", "WEBSITE": "http://www.amerymedicalcenter.org", "STATE_ID": "1069", "ALT_NAME": "NOT AVAILABLE", "ST_FIPS": "55", "OWNER": "NON-PROFIT", "TTL_STAFF": -999, "BEDS": 10, "TRAUMA": "NOT AVAILABLE", "HELIPAD": "N" }, "geometry": { "type": "Polygon", "coordinates": [ [ [ -92.401172, 45.209284 ], [ -92.4944, 45.295598 ], [ -92.48011, 45.331622 ], [ -92.437983, 45.361212 ], [ -92.361615, 45.40419 ], [ -92.361222, 45.404171 ], [ -92.240311, 45.313385 ], [ -92.240354, 45.30977 ], [ -92.355534, 45.223667 ], [ -92.382517, 45.208918 ], [ -92.401172, 45.209284 ] ] ] } },
{ "type": "Feature", "properties": { "OBJECTID": 1993, "ID": "0011654002", "NAME": "BALDWIN AREA MED CTR", "ADDRESS": "730 10TH AVE", "CITY": "BALDWIN", "STATE": "WI", "ZIP": "54002", "ZIP4": "NOT AVAILABLE", "TELEPHONE": "(715) 684-3311", "TYPE": "GENERAL ACUTE CARE", "STATUS": "OPEN", "POPULATION": 25, "COUNTY": "ST. CROIX", "COUNTYFIPS": "55109", "COUNTRY": "USA", "LATITUDE": 44.970893898, "LONGITUDE": -92.374103746999893, "NAICS_CODE": "622110", "NAICS_DESC": "GENERAL MEDICAL AND SURGICAL HOSPITALS", "SOURCE": "https://www.dhs.wisconsin.gov/guide/hospital.htm", "SOURCEDATE": "2018-08-13T00:00:00.000Z", "VAL_METHOD": "IMAGERY", "VAL_DATE": "2014-02-10T00:00:00.000Z", "WEBSITE": "http://www.baldwinhospital.com", "STATE_ID": "1052", "ALT_NAME": "NOT AVAILABLE", "ST_FIPS": "55", "OWNER": "NON-PROFIT", "TTL_STAFF": -999, "BEDS": 25, "TRAUMA": "NOT AVAILABLE", "HELIPAD": "N" }, "geometry": { "type": "Polygon", "coordinates": [ [ [ -92.374905, 44.862246 ], [ -92.4556921, 44.9199395 ], [ -92.486645100000018, 44.948500900000042 ], [ -92.4969955, 44.9636102 ], [ -92.4968322, 44.992488400000013 ], [ -92.395579900000016, 45.0790838 ], [ -92.3753798, 45.093405799999978 ], [ -92.3088741, 45.033508600000012 ], [ -92.2780704, 45.003456900000032 ], [ -92.237277, 44.959169 ], [ -92.237269, 44.949942 ], [ -92.2784594, 44.916445899999985 ], [ -92.374905, 44.862246 ] ] ] } },
{ "type": "Feature", "properties": { "OBJECTID": 2128, "ID": "0001955103", "NAME": "HEALTHEAST BETHESDA HOSPITAL", "ADDRESS": "559 CAPITOL BOULEVARD", "CITY": "ST PAUL", "STATE": "MN", "ZIP": "55103", "ZIP4": "NOT AVAILABLE", "TELEPHONE": "(651) 232-2000", "TYPE": "GENERAL ACUTE CARE", "STATUS": "OPEN", "POPULATION": 254, "COUNTY": "RAMSEY", "COUNTYFIPS": "27123", "COUNTRY": "USA", "LATITUDE": 44.958432862000102, "LONGITUDE": -93.102843025, "NAICS_CODE": "622110", "NAICS_DESC": "GENERAL MEDICAL AND SURGICAL HOSPITALS", "SOURCE": "http://www.health.state.mn.us/divs/fpc/directory/providerselect.cfm", "SOURCEDATE": "2018-08-09T00:00:00.000Z", "VAL_METHOD": "IMAGERY", "VAL_DATE": "2014-02-10T00:00:00.000Z", "WEBSITE": "https://www.fairview.org/Locations/Bethesda-Hospital", "STATE_ID": "976", "ALT_NAME": "NOT AVAILABLE", "ST_FIPS": "27", "OWNER": "NON-PROFIT", "TTL_STAFF": -999, "BEDS": 254, "TRAUMA": "NOT AVAILABLE", "HELIPAD": "N" }, "geometry": { "type": "Polygon", "coordinates": [ [ [ -93.129621, 44.865847 ], [ -93.129858, 44.86586 ], [ -93.1861332, 44.896909800000053 ], [ -93.187697, 44.898957400000043 ], [ -93.2268789, 44.962780800000033 ], [ -93.2256949, 44.967843199999969 ], [ -93.2060018, 45.0006205 ], [ -93.1311586, 45.058604300000027 ], [ -93.1063754, 45.062041 ], [ -93.052256699999987, 45.053845 ], [ -93.0453464, 45.050325200000032 ], [ -93.0022731, 45.011726099999962 ], [ -92.968482, 44.963208 ], [ -92.967856, 44.929436499999966 ], [ -92.9703143, 44.9259086 ], [ -93.006459, 44.891210500000014 ], [ -93.060299, 44.866224 ], [ -93.129621, 44.865847 ] ] ] } },
{ "type": "Feature", "properties": { "OBJECTID": 2129, "ID": "0002055109", "NAME": "HEALTHEAST ST JOHNS HOSPITAL", "ADDRESS": "1575 BEAM AVENUE", "CITY": "ST PAUL", "STATE": "MN", "ZIP": "55109", "ZIP4": "NOT AVAILABLE", "TELEPHONE": "(651) 232-7000", "TYPE": "GENERAL ACUTE CARE", "STATUS": "OPEN", "POPULATION": 192, "COUNTY": "RAMSEY", "COUNTYFIPS": "27123", "COUNTRY": "USA", "LATITUDE": 45.029112053000098, "LONGITUDE": -93.033933528000006, "NAICS_CODE": "622110", "NAICS_DESC": "GENERAL MEDICAL AND SURGICAL HOSPITALS", "SOURCE": "http://www.health.state.mn.us/divs/fpc/directory/providerselect.cfm", "SOURCEDATE": "2018-08-09T00:00:00.000Z", "VAL_METHOD": "IMAGERY", "VAL_DATE": "2014-02-10T00:00:00.000Z", "WEBSITE": "http://www.healtheast.org/st-johns-hospital/about/about.html", "STATE_ID": "224", "ALT_NAME": "NOT AVAILABLE", "ST_FIPS": "27", "OWNER": "NON-PROFIT", "TTL_STAFF": -999, "BEDS": 192, "TRAUMA": "NOT AVAILABLE", "HELIPAD": "N" }, "geometry": { "type": "Polygon", "coordinates": [ [ [ -93.025139, 44.941945899999936 ], [ -93.0924652, 44.943640900000013 ], [ -93.0942816, 44.943727100000018 ], [ -93.1073648, 44.944696 ], [ -93.1181025, 44.9515856 ], [ -93.186807, 45.009787 ], [ -93.186991, 45.010287 ], [ -93.187599, 45.015897 ], [ -93.1864472, 45.0672061 ], [ -93.1854233, 45.071621 ], [ -93.037419, 45.138425 ], [ -93.035551, 45.138431 ], [ -93.0031997, 45.122704400000018 ], [ -92.8833926, 45.036107100000038 ], [ -92.8833926, 45.03557739999998 ], [ -92.9196644, 44.99637139999998 ], [ -92.9595644, 44.962807199999951 ], [ -93.023953100000014, 44.942066699999941 ], [ -93.025139, 44.941945899999936 ] ] ] } },
{ "type": "Feature", "properties": { "OBJECTID": 2449, "ID": "0011155009", "NAME": "MAYO CLINIC HEALTH SYS CF", "ADDRESS": "1116 WEST MILL STREET", "CITY": "CANNON FALLS", "STATE": "MN", "ZIP": "55009", "ZIP4": "NOT AVAILABLE", "TELEPHONE": "(507) 263-4220", "TYPE": "GENERAL ACUTE CARE", "STATUS": "CLOSED", "POPULATION": 21, "COUNTY": "GOODHUE", "COUNTYFIPS": "27049", "COUNTRY": "USA", "LATITUDE": 44.508251589000103, "LONGITUDE": -92.916436862999902, "NAICS_CODE": "622110", "NAICS_DESC": "GENERAL MEDICAL AND SURGICAL HOSPITALS", "SOURCE": "http://www.health.state.mn.us/divs/fpc/directory/fpcdir.html", "SOURCEDATE": "2012-08-06T00:00:00.000Z", "VAL_METHOD": "IMAGERY", "VAL_DATE": "2014-01-03T00:00:00.000Z", "WEBSITE": "http://mayoclinichealthsystem.org/locations/cannon-falls", "STATE_ID": "140", "ALT_NAME": "NOT AVAILABLE", "ST_FIPS": "27", "OWNER": "GOVERNMENT - DISTRICT/AUTHORITY", "TTL_STAFF": -999, "BEDS": 21, "TRAUMA": "NOT AVAILABLE", "HELIPAD": "N" }, "geometry": { "type": "Polygon", "coordinates": [ [ [ -92.870969, 44.388372 ], [ -92.922624, 44.389599 ], [ -92.979009, 44.427071800000029 ], [ -93.0109273, 44.4501448 ], [ -93.039927, 44.486438 ], [ -93.0131001, 44.5160859 ], [ -92.913836, 44.5434142 ], [ -92.906799, 44.543268 ], [ -92.8307198, 44.532141900000049 ], [ -92.825495, 44.531049 ], [ -92.772367, 44.506907 ], [ -92.830794200000014, 44.399193099999984 ], [ -92.870969, 44.388372 ] ] ] } },
{ "type": "Feature", "properties": { "OBJECTID": 2600, "ID": "0013354871", "NAME": "INDIANHEAD MED CTR", "ADDRESS": "113 4TH AVE", "CITY": "SHELL LAKE", "STATE": "WI", "ZIP": "54871", "ZIP4": "NOT AVAILABLE", "TELEPHONE": "(715) 468-7833", "TYPE": "GENERAL ACUTE CARE", "STATUS": "OPEN", "POPULATION": 25, "COUNTY": "WASHBURN", "COUNTYFIPS": "55129", "COUNTRY": "USA", "LATITUDE": 45.741895163000002, "LONGITUDE": -91.924971743, "NAICS_CODE": "622110", "NAICS_DESC": "GENERAL MEDICAL AND SURGICAL HOSPITALS", "SOURCE": "https://www.dhs.wisconsin.gov/guide/hospital.htm", "SOURCEDATE": "2018-08-13T00:00:00.000Z", "VAL_METHOD": "IMAGERY", "VAL_DATE": "2014-03-12T00:00:00.000Z", "WEBSITE": "http://www.indianheadmedicalcenter.com", "STATE_ID": "1047", "ALT_NAME": "NOT AVAILABLE", "ST_FIPS": "55", "OWNER": "PROPRIETARY", "TTL_STAFF": -999, "BEDS": 25, "TRAUMA": "NOT AVAILABLE", "HELIPAD": "N" }, "geometry": { "type": "Polygon", "coordinates": [ [ [ -91.991237, 45.63933 ], [ -92.011168, 45.654125 ], [ -92.031524, 45.679697 ], [ -92.0369912, 45.768649 ], [ -92.0351856, 45.774326500000015 ], [ -92.000998, 45.797116 ], [ -91.8877147, 45.8514249 ], [ -91.855863, 45.854646 ], [ -91.785063, 45.753119 ], [ -91.80524, 45.718105 ], [ -91.866846, 45.681981 ], [ -91.9844784, 45.639402700000055 ], [ -91.991237, 45.63933 ] ] ] } },
{ "type": "Feature", "properties": { "OBJECTID": 2765, "ID": "0001054724", "NAME": "MAYO CLINIC HEALTH SYSTEM- CHIPPEWA VALLEY  INC", "ADDRESS": "1501 THOMPSON ST", "CITY": "BLOOMER", "STATE": "WI", "ZIP": "54724", "ZIP4": "NOT AVAILABLE", "TELEPHONE": "(715) 568-2000", "TYPE": "GENERAL ACUTE CARE", "STATUS": "OPEN", "POPULATION": 25, "COUNTY": "CHIPPEWA", "COUNTYFIPS": "55017", "COUNTRY": "USA", "LATITUDE": 45.101677208000098, "LONGITUDE": -91.5014832479999, "NAICS_CODE": "622110", "NAICS_DESC": "GENERAL MEDICAL AND SURGICAL HOSPITALS", "SOURCE": "https://www.dhs.wisconsin.gov/guide/hospital.htm", "SOURCEDATE": "2018-08-13T00:00:00.000Z", "VAL_METHOD": "IMAGERY", "VAL_DATE": "2014-03-12T00:00:00.000Z", "WEBSITE": "http://www.bloomermedicalcenter.org", "STATE_ID": "1017", "ALT_NAME": "NOT AVAILABLE", "ST_FIPS": "55", "OWNER": "NON-PROFIT", "TTL_STAFF": -999, "BEDS": 25, "TRAUMA": "LEVEL IV", "HELIPAD": "Y" }, "geometry": { "type": "Polygon", "coordinates": [ [ [ -91.430671, 44.9703 ], [ -91.509549, 45.00219 ], [ -91.56701, 45.038149 ], [ -91.6317914, 45.0876699 ], [ -91.624634, 45.142994 ], [ -91.582932, 45.203621 ], [ -91.5744961, 45.2070757 ], [ -91.5625568, 45.209910400000012 ], [ -91.470848, 45.178055 ], [ -91.4400928, 45.163471 ], [ -91.377034, 45.120236 ], [ -91.389038, 45.078537 ], [ -91.430671, 44.9703 ] ] ] } },
{ "type": "Feature", "properties": { "OBJECTID": 2767, "ID": "0001854829", "NAME": "CUMBERLAND MEMORIAL HOSPITAL", "ADDRESS": "1110 7TH AVENUE", "CITY": "CUMBERLAND", "STATE": "WI", "ZIP": "54829", "ZIP4": "NOT AVAILABLE", "TELEPHONE": "(715) 822-2741", "TYPE": "GENERAL ACUTE CARE", "STATUS": "OPEN", "POPULATION": 25, "COUNTY": "BARRON", "COUNTYFIPS": "55005", "COUNTRY": "USA", "LATITUDE": 45.530849973000002, "LONGITUDE": -92.028589617999998, "NAICS_CODE": "622110", "NAICS_DESC": "GENERAL MEDICAL AND SURGICAL HOSPITALS", "SOURCE": "https://www.dhs.wisconsin.gov/guide/hospital.htm", "SOURCEDATE": "2018-08-13T00:00:00.000Z", "VAL_METHOD": "IMAGERY", "VAL_DATE": "2014-02-10T00:00:00.000Z", "WEBSITE": "http://www.cumberlandhealthcare.com", "STATE_ID": "1058", "ALT_NAME": "NOT AVAILABLE", "ST_FIPS": "55", "OWNER": "NON-PROFIT", "TTL_STAFF": -999, "BEDS": 25, "TRAUMA": "LEVEL IV", "HELIPAD": "Y" }, "geometry": { "type": "Polygon", "coordinates": [ [ [ -92.1202215, 45.441850799999983 ], [ -92.1212632, 45.443320699999951 ], [ -92.155228, 45.525211 ], [ -92.154916, 45.564295 ], [ -92.154896, 45.565781 ], [ -92.144425, 45.571401 ], [ -91.9927197, 45.639377600000032 ], [ -91.889043, 45.538685 ], [ -91.87131, 45.518509 ], [ -92.0221804, 45.452995400000027 ], [ -92.1202215, 45.441850799999983 ] ] ] } },
{ "type": "Feature", "properties": { "OBJECTID": 2779, "ID": "0009954022", "NAME": "RIVER FALLS AREA HSPTL", "ADDRESS": "1629 E DIVISION ST", "CITY": "RIVER FALLS", "STATE": "WI", "ZIP": "54022", "ZIP4": "NOT AVAILABLE", "TELEPHONE": "(715) 307-6135", "TYPE": "GENERAL ACUTE CARE", "STATUS": "OPEN", "POPULATION": 25, "COUNTY": "ST. CROIX", "COUNTYFIPS": "55109", "COUNTRY": "USA", "LATITUDE": 44.864675075999997, "LONGITUDE": -92.602720763999997, "NAICS_CODE": "622110", "NAICS_DESC": "GENERAL MEDICAL AND SURGICAL HOSPITALS", "SOURCE": "https://www.dhs.wisconsin.gov/guide/hospital.htm", "SOURCEDATE": "2018-08-13T00:00:00.000Z", "VAL_METHOD": "IMAGERY", "VAL_DATE": "2014-03-12T00:00:00.000Z", "WEBSITE": "http://www.allina.com", "STATE_ID": "1054", "ALT_NAME": "NOT AVAILABLE", "ST_FIPS": "55", "OWNER": "NON-PROFIT", "TTL_STAFF": -999, "BEDS": 25, "TRAUMA": "LEVEL IV", "HELIPAD": "Y" }, "geometry": { "type": "Polygon", "coordinates": [ [ [ -92.578447, 44.797657 ], [ -92.644684, 44.811931 ], [ -92.7108597, 44.876821399999969 ], [ -92.710591, 44.930572400000038 ], [ -92.7064257, 44.9495809 ], [ -92.701793100000017, 44.963993499999958 ], [ -92.6867399, 44.963749499999984 ], [ -92.5605942, 44.941711 ], [ -92.5306121, 44.934999299999987 ], [ -92.4862882, 44.905801599999954 ], [ -92.4357099, 44.870364500000022 ], [ -92.4357099, 44.869610300000033 ], [ -92.556215, 44.801589 ], [ -92.578447, 44.797657 ] ] ] } },
{ "type": "Feature", "properties": { "OBJECTID": 2783, "ID": "0011754016", "NAME": "HUDSON HOSPITAL", "ADDRESS": "405 STAGELINE ROAD", "CITY": "HUDSON", "STATE": "WI", "ZIP": "54016", "ZIP4": "NOT AVAILABLE", "TELEPHONE": "(715) 531-6000", "TYPE": "GENERAL ACUTE CARE", "STATUS": "OPEN", "POPULATION": 25, "COUNTY": "ST. CROIX", "COUNTYFIPS": "55109", "COUNTRY": "USA", "LATITUDE": 44.960809683999997, "LONGITUDE": -92.717610006000001, "NAICS_CODE": "622110", "NAICS_DESC": "GENERAL MEDICAL AND SURGICAL HOSPITALS", "SOURCE": "https://www.dhs.wisconsin.gov/guide/hospital.htm", "SOURCEDATE": "2018-08-13T00:00:00.000Z", "VAL_METHOD": "IMAGERY", "VAL_DATE": "2014-03-12T00:00:00.000Z", "WEBSITE": "http://www.hudsonhospital.org", "STATE_ID": "1039", "ALT_NAME": "NOT AVAILABLE", "ST_FIPS": "55", "OWNER": "NON-PROFIT", "TTL_STAFF": -999, "BEDS": 25, "TRAUMA": "LEVEL IV", "HELIPAD": "Y" }, "geometry": { "type": "Polygon", "coordinates": [ [ [ -92.6062282, 44.8624321 ], [ -92.7311089, 44.8657349 ], [ -92.7615491, 44.896139199999979 ], [ -92.763604, 44.997967 ], [ -92.7629097, 45.0042073 ], [ -92.7595279, 45.0096776 ], [ -92.7448725, 45.016169299999987 ], [ -92.7434857, 45.0167806 ], [ -92.6499326, 45.0355312 ], [ -92.5567698, 44.978101400000028 ], [ -92.5375692, 44.963571599999959 ], [ -92.6043076, 44.86267609999998 ], [ -92.6062282, 44.8624321 ] ] ] } },
{ "type": "Feature", "properties": { "OBJECTID": 6422, "ID": "0004455313", "NAME": "BUFFALO HOSPITAL", "ADDRESS": "303 CATLIN STREET", "CITY": "BUFFALO", "STATE": "MN", "ZIP": "55313", "ZIP4": "NOT AVAILABLE", "TELEPHONE": "(763) 682-1212", "TYPE": "GENERAL ACUTE CARE", "STATUS": "OPEN", "POPULATION": 65, "COUNTY": "WRIGHT", "COUNTYFIPS": "27171", "COUNTRY": "USA", "LATITUDE": 45.194842666000099, "LONGITUDE": -93.871193774999895, "NAICS_CODE": "622110", "NAICS_DESC": "GENERAL MEDICAL AND SURGICAL HOSPITALS", "SOURCE": "http://www.health.state.mn.us/divs/fpc/directory/providerselect.cfm", "SOURCEDATE": "2018-08-09T00:00:00.000Z", "VAL_METHOD": "IMAGERY", "VAL_DATE": "2014-02-10T00:00:00.000Z", "WEBSITE": "https://www.allinahealth.org/Buffalo-Hospital/", "STATE_ID": "860", "ALT_NAME": "NOT AVAILABLE", "ST_FIPS": "27", "OWNER": "NON-PROFIT", "TTL_STAFF": -999, "BEDS": 65, "TRAUMA": "LEVEL IV", "HELIPAD": "Y" }, "geometry": { "type": "Polygon", "coordinates": [ [ [ -93.8688745, 45.082897099999975 ], [ -93.9514835, 45.148119800000039 ], [ -93.9697627, 45.1874927 ], [ -93.9880727, 45.228465700000015 ], [ -93.8033476, 45.290578400000022 ], [ -93.756941, 45.1947889 ], [ -93.7902642, 45.114893 ], [ -93.8688745, 45.082897099999975 ] ] ] } },
{ "type": "Feature", "properties": { "OBJECTID": 6424, "ID": "0007155362", "NAME": "CENTRACARE HEALTH MONTICELLO", "ADDRESS": "1013 HART BOULEVARD", "CITY": "MONTICELLO", "STATE": "MN", "ZIP": "55362", "ZIP4": "NOT AVAILABLE", "TELEPHONE": "(763) 295-2945", "TYPE": "GENERAL ACUTE CARE", "STATUS": "OPEN", "POPULATION": 39, "COUNTY": "WRIGHT", "COUNTYFIPS": "27171", "COUNTRY": "USA", "LATITUDE": 45.30035709, "LONGITUDE": -93.778631443999998, "NAICS_CODE": "622110", "NAICS_DESC": "GENERAL MEDICAL AND SURGICAL HOSPITALS", "SOURCE": "http://www.health.state.mn.us/divs/fpc/directory/providerselect.cfm", "SOURCEDATE": "2018-08-09T00:00:00.000Z", "VAL_METHOD": "IMAGERY", "VAL_DATE": "2014-01-07T00:00:00.000Z", "WEBSITE": "http://www.centracare.com/locations/monticello/", "STATE_ID": "717", "ALT_NAME": "NEW RIVER MEDICAL", "ST_FIPS": "27", "OWNER": "NON-PROFIT", "TTL_STAFF": -999, "BEDS": 39, "TRAUMA": "LEVEL IV", "HELIPAD": "Y" }, "geometry": { "type": "Polygon", "coordinates": [ [ [ -93.6648063, 45.2101655 ], [ -93.8493208, 45.219182 ], [ -93.882063, 45.268310099999979 ], [ -93.8966367, 45.3040498 ], [ -93.8907584, 45.3465794 ], [ -93.8871567, 45.349640799999982 ], [ -93.6135783, 45.2916648 ], [ -93.6071852, 45.289771299999977 ], [ -93.6003125, 45.220616599999985 ], [ -93.6648063, 45.2101655 ] ] ] } },
{ "type": "Feature", "properties": { "OBJECTID": 6436, "ID": "0000455415", "NAME": "HENNEPIN COUNTY MEDICAL CTR", "ADDRESS": "701 PARK AVENUE SOUTH", "CITY": "MINNEAPOLIS", "STATE": "MN", "ZIP": "55415", "ZIP4": "NOT AVAILABLE", "TELEPHONE": "(612) 873-3000", "TYPE": "GENERAL ACUTE CARE", "STATUS": "OPEN", "POPULATION": 894, "COUNTY": "HENNEPIN", "COUNTYFIPS": "27053", "COUNTRY": "USA", "LATITUDE": 44.9721324940001, "LONGITUDE": -93.262235959999899, "NAICS_CODE": "622110", "NAICS_DESC": "GENERAL MEDICAL AND SURGICAL HOSPITALS", "SOURCE": "http://www.health.state.mn.us/divs/fpc/directory/providerselect.cfm", "SOURCEDATE": "2018-08-09T00:00:00.000Z", "VAL_METHOD": "IMAGERY", "VAL_DATE": "2014-01-07T00:00:00.000Z", "WEBSITE": "https://www.hennepinhealthcare.org/", "STATE_ID": "211", "ALT_NAME": "NOT AVAILABLE", "ST_FIPS": "27", "OWNER": "GOVERNMENT - DISTRICT/AUTHORITY", "TTL_STAFF": -999, "BEDS": 894, "TRAUMA": "LEVEL I, LEVEL I PEDIATRIC", "HELIPAD": "Y" }, "geometry": { "type": "Polygon", "coordinates": [ [ [ -93.278266, 44.8638262 ], [ -93.2996126, 44.865453199999941 ], [ -93.385764199999983, 44.934217099999984 ], [ -93.4320185, 44.971595099999988 ], [ -93.3069039, 45.0724184 ], [ -93.2901006, 45.081842199999961 ], [ -93.2880068, 45.082334900000014 ], [ -93.2876931, 45.0823305 ], [ -93.1996406, 45.050227200000016 ], [ -93.197985700000018, 45.049584200000076 ], [ -93.185173, 45.042924 ], [ -93.178466, 45.036958 ], [ -93.177497, 45.035737 ], [ -93.1660392, 45.010061199999974 ], [ -93.141412100000011, 44.951668499999975 ], [ -93.141551, 44.950316 ], [ -93.194655, 44.8954204 ], [ -93.278266, 44.8638262 ] ] ] } },
{ "type": "Feature", "properties": { "OBJECTID": 6442, "ID": "0005555066", "NAME": "MAYO CLINIC HEALTH SYSTEM IN RED WING", "ADDRESS": "701 HEWITT BOULEVARD", "CITY": "RED WING", "STATE": "MN", "ZIP": "55066", "ZIP4": "NOT AVAILABLE", "TELEPHONE": "(651) 267-5050", "TYPE": "GENERAL ACUTE CARE", "STATUS": "OPEN", "POPULATION": 50, "COUNTY": "GOODHUE", "COUNTYFIPS": "27049", "COUNTRY": "USA", "LATITUDE": 44.560229588, "LONGITUDE": -92.571945808999899, "NAICS_CODE": "622110", "NAICS_DESC": "GENERAL MEDICAL AND SURGICAL HOSPITALS", "SOURCE": "http://www.health.state.mn.us/divs/fpc/directory/providerselect.cfm", "SOURCEDATE": "2018-08-09T00:00:00.000Z", "VAL_METHOD": "IMAGERY", "VAL_DATE": "2014-03-12T00:00:00.000Z", "WEBSITE": "http://www.mayoclinichealthsystem.org/locations/red-wing", "STATE_ID": "21423", "ALT_NAME": "NOT AVAILABLE", "ST_FIPS": "27", "OWNER": "NON-PROFIT", "TTL_STAFF": -999, "BEDS": 50, "TRAUMA": "LEVEL III", "HELIPAD": "Y" }, "geometry": { "type": "Polygon", "coordinates": [ [ [ -92.630354, 44.487375200000024 ], [ -92.676893, 44.5233257 ], [ -92.7218412, 44.600667799999989 ], [ -92.721843300000018, 44.6008998 ], [ -92.6717784, 44.620189799999984 ], [ -92.461095, 44.561439 ], [ -92.429624, 44.546793 ], [ -92.4195377, 44.5393424 ], [ -92.512444, 44.506059 ], [ -92.630354, 44.487375200000024 ] ] ] } },
{ "type": "Feature", "properties": { "OBJECTID": 6443, "ID": "0006356071", "NAME": "MCHS NEW PRAGUE", "ADDRESS": "301 SECOND STREET NORTHEAST", "CITY": "NEW PRAGUE", "STATE": "MN", "ZIP": "56071", "ZIP4": "NOT AVAILABLE", "TELEPHONE": "(952) 758-4431", "TYPE": "CRITICAL ACCESS", "STATUS": "OPEN", "POPULATION": 49, "COUNTY": "SCOTT", "COUNTYFIPS": "27139", "COUNTRY": "USA", "LATITUDE": 44.54625695, "LONGITUDE": -93.574329167000002, "NAICS_CODE": "622110", "NAICS_DESC": "GENERAL MEDICAL AND SURGICAL HOSPITALS", "SOURCE": "http://www.health.state.mn.us/divs/fpc/directory/providerselect.cfm", "SOURCEDATE": "2018-08-09T00:00:00.000Z", "VAL_METHOD": "IMAGERY", "VAL_DATE": "2014-02-11T00:00:00.000Z", "WEBSITE": "http://mayoclinichealthsystem.org/locations/new-prague", "STATE_ID": "607", "ALT_NAME": "QUEEN OF PEACE HOSPITAL", "ST_FIPS": "27", "OWNER": "NON-PROFIT", "TTL_STAFF": -999, "BEDS": 49, "TRAUMA": "LEVEL IV", "HELIPAD": "Y" }, "geometry": { "type": "Polygon", "coordinates": [ [ [ -93.5851467, 44.4388149 ], [ -93.6262278, 44.4642141 ], [ -93.6564443, 44.485951300000011 ], [ -93.6667076, 44.514897 ], [ -93.6667506, 44.529415700000015 ], [ -93.6655227, 44.557660500000019 ], [ -93.6314071, 44.655956099999962 ], [ -93.6282818, 44.658301899999962 ], [ -93.5558635, 44.637423799999951 ], [ -93.5015171, 44.616151099999975 ], [ -93.4404704, 44.572703799999985 ], [ -93.4404278, 44.569913100000029 ], [ -93.514236, 44.486065 ], [ -93.5811808, 44.4409477 ], [ -93.5851467, 44.4388149 ] ] ] } },
{ "type": "Feature", "properties": { "OBJECTID": 6758, "ID": "0008255981", "NAME": "ST ELIZABETHS MEDICAL CENTER", "ADDRESS": "1200 GRANT BOULEVARD WEST", "CITY": "WABASHA", "STATE": "MN", "ZIP": "55981", "ZIP4": "NOT AVAILABLE", "TELEPHONE": "(651) 565-4531", "TYPE": "CRITICAL ACCESS", "STATUS": "OPEN", "POPULATION": 25, "COUNTY": "WABASHA", "COUNTYFIPS": "27157", "COUNTRY": "USA", "LATITUDE": 44.387788722000003, "LONGITUDE": -92.047386588999998, "NAICS_CODE": "622110", "NAICS_DESC": "GENERAL MEDICAL AND SURGICAL HOSPITALS", "SOURCE": "http://www.health.state.mn.us/divs/fpc/directory/providerselect.cfm", "SOURCEDATE": "2018-08-09T00:00:00.000Z", "VAL_METHOD": "IMAGERY", "VAL_DATE": "2014-03-12T00:00:00.000Z", "WEBSITE": "https://healthcare.ascension.org/Locations/Wisconsin/WIAPM/Wabasha%20Saint%20Elizabeths%20Medical%20Center", "STATE_ID": "675", "ALT_NAME": "NOT AVAILABLE", "ST_FIPS": "27", "OWNER": "NON-PROFIT", "TTL_STAFF": -999, "BEDS": 25, "TRAUMA": "LEVEL IV", "HELIPAD": "Y" }, "geometry": { "type": "Polygon", "coordinates": [ [ [ -91.988264, 44.27547 ], [ -92.025928, 44.280528 ], [ -92.172247, 44.409649 ], [ -92.170785, 44.412692 ], [ -92.1550388, 44.412218899999957 ], [ -92.1305583, 44.4113731 ], [ -92.114101, 44.410338 ], [ -92.0964846, 44.408768800000054 ], [ -92.029827, 44.389174 ], [ -91.967902, 44.354783 ], [ -91.96042, 44.344655 ], [ -91.95796, 44.340918 ], [ -91.987979, 44.275515 ], [ -91.988264, 44.27547 ] ] ] } },
{ "type": "Feature", "properties": { "OBJECTID": 6795, "ID": "0000355407", "NAME": "ABBOTT NORTHWESTERN HOSPITAL", "ADDRESS": "800 EAST 28TH STREET", "CITY": "MINNEAPOLIS", "STATE": "MN", "ZIP": "55407", "ZIP4": "NOT AVAILABLE", "TELEPHONE": "(612) 863-4000", "TYPE": "GENERAL ACUTE CARE", "STATUS": "OPEN", "POPULATION": 952, "COUNTY": "HENNEPIN", "COUNTYFIPS": "27053", "COUNTRY": "USA", "LATITUDE": 44.954114314000002, "LONGITUDE": -93.261357012999994, "NAICS_CODE": "622110", "NAICS_DESC": "GENERAL MEDICAL AND SURGICAL HOSPITALS", "SOURCE": "http://www.health.state.mn.us/divs/fpc/directory/providerselect.cfm", "SOURCEDATE": "2018-08-09T00:00:00.000Z", "VAL_METHOD": "IMAGERY", "VAL_DATE": "2014-03-12T00:00:00.000Z", "WEBSITE": "https://www.allinahealth.org/Abbott-Northwestern-Hospital/", "STATE_ID": "242", "ALT_NAME": "NOT AVAILABLE", "ST_FIPS": "27", "OWNER": "NON-PROFIT", "TTL_STAFF": -999, "BEDS": 952, "TRAUMA": "LEVEL III", "HELIPAD": "Y" }, "geometry": { "type": "Polygon", "coordinates": [ [ [ -93.2982486, 44.857868900000064 ], [ -93.3040333, 44.862113799999982 ], [ -93.33317820000002, 44.8870346 ], [ -93.3739861, 44.937304400000045 ], [ -93.3849359, 44.9732587 ], [ -93.3491742, 45.003715300000039 ], [ -93.287614, 45.04491 ], [ -93.202137, 45.033097 ], [ -93.198187, 45.02779 ], [ -93.1669491, 44.9512429 ], [ -93.1896935, 44.892713699999987 ], [ -93.2475009, 44.870102899999956 ], [ -93.2765057, 44.8595634 ], [ -93.2783023, 44.859063099999986 ], [ -93.2982486, 44.857868900000064 ] ] ] } },
{ "type": "Feature", "properties": { "OBJECTID": 6796, "ID": "0001255435", "NAME": "FAIRVIEW SOUTHDALE HOSPITAL", "ADDRESS": "6401 FRANCE AVENUE SOUTH", "CITY": "EDINA", "STATE": "MN", "ZIP": "55435", "ZIP4": "NOT AVAILABLE", "TELEPHONE": "(952) 924-5000", "TYPE": "GENERAL ACUTE CARE", "STATUS": "OPEN", "POPULATION": 390, "COUNTY": "HENNEPIN", "COUNTYFIPS": "27053", "COUNTRY": "USA", "LATITUDE": 44.886040423000097, "LONGITUDE": -93.326901422000006, "NAICS_CODE": "622110", "NAICS_DESC": "GENERAL MEDICAL AND SURGICAL HOSPITALS", "SOURCE": "http://www.health.state.mn.us/divs/fpc/directory/providerselect.cfm", "SOURCEDATE": "2018-08-09T00:00:00.000Z", "VAL_METHOD": "IMAGERY", "VAL_DATE": "2014-03-12T00:00:00.000Z", "WEBSITE": "http://www.fairview.org", "STATE_ID": "201", "ALT_NAME": "NOT AVAILABLE", "ST_FIPS": "27", "OWNER": "NON-PROFIT", "TTL_STAFF": -999, "BEDS": 390, "TRAUMA": "LEVEL III", "HELIPAD": "Y" }, "geometry": { "type": "Polygon", "coordinates": [ [ [ -93.332146, 44.79599 ], [ -93.3999146, 44.808223599999963 ], [ -93.4832344, 44.861893399999978 ], [ -93.4959274, 44.892072199999973 ], [ -93.495936, 44.8921938 ], [ -93.4523637, 44.929536099999986 ], [ -93.4005456, 44.96787529999996 ], [ -93.3483089, 44.99936669999996 ], [ -93.2662475, 44.97305889999997 ], [ -93.255823, 44.965923 ], [ -93.183625800000016, 44.892908899999973 ], [ -93.1944545, 44.875453899999968 ], [ -93.1978199, 44.8701076 ], [ -93.2029025, 44.8621574 ], [ -93.254303, 44.82357 ], [ -93.2654878, 44.816151800000021 ], [ -93.2887394, 44.802798 ], [ -93.332146, 44.79599 ] ] ] } },
{ "type": "Feature", "properties": { "OBJECTID": 6797, "ID": "0004955101", "NAME": "GILLETTE CHILDRENS SPEC HOSP", "ADDRESS": "200 UNIVERSITY AVENUE EAST", "CITY": "ST PAUL", "STATE": "MN", "ZIP": "55101", "ZIP4": "NOT AVAILABLE", "TELEPHONE": "(651) 229-1726", "TYPE": "CHILDREN", "STATUS": "OPEN", "POPULATION": 60, "COUNTY": "RAMSEY", "COUNTYFIPS": "27123", "COUNTRY": "USA", "LATITUDE": 44.95673249, "LONGITUDE": -93.096549438999901, "NAICS_CODE": "622110", "NAICS_DESC": "GENERAL MEDICAL AND SURGICAL HOSPITALS", "SOURCE": "http://www.health.state.mn.us/divs/fpc/directory/providerselect.cfm", "SOURCEDATE": "2018-08-09T00:00:00.000Z", "VAL_METHOD": "IMAGERY", "VAL_DATE": "2014-02-10T00:00:00.000Z", "WEBSITE": "http://www.gillettechildrens.org", "STATE_ID": "488", "ALT_NAME": "NOT AVAILABLE", "ST_FIPS": "27", "OWNER": "NON-PROFIT", "TTL_STAFF": -999, "BEDS": 60, "TRAUMA": "LEVEL I PEDIATRIC", "HELIPAD": "Y" }, "geometry": { "type": "Polygon", "coordinates": [ [ [ -93.059362, 44.86094 ], [ -93.129669, 44.864433 ], [ -93.129891, 44.8645 ], [ -93.1322391, 44.8655259 ], [ -93.1861332, 44.896909800000053 ], [ -93.187697, 44.898957400000043 ], [ -93.2268789, 44.962780800000033 ], [ -93.2256949, 44.967843199999969 ], [ -93.2060018, 45.0006205 ], [ -93.142189700000017, 45.05867729999995 ], [ -93.131609, 45.06293 ], [ -93.1305733, 45.0632696 ], [ -93.111836, 45.06792 ], [ -93.052418, 45.075151100000042 ], [ -93.01194, 45.037098200000045 ], [ -92.9577661, 44.963199899999964 ], [ -92.9623872, 44.925672599999949 ], [ -92.9626512, 44.924808400000032 ], [ -92.9627035, 44.924657399999973 ], [ -93.006459, 44.891210500000014 ], [ -93.059362, 44.86094 ] ] ] } },
{ "type": "Feature", "properties": { "OBJECTID": 6798, "ID": "0000755422", "NAME": "NORTH MEMORIAL MEDICAL CENTER", "ADDRESS": "3300 OAKDALE NORTH", "CITY": "ROBBINSDALE", "STATE": "MN", "ZIP": "55422", "ZIP4": "NOT AVAILABLE", "TELEPHONE": "(763) 520-5200", "TYPE": "GENERAL ACUTE CARE", "STATUS": "OPEN", "POPULATION": 518, "COUNTY": "HENNEPIN", "COUNTYFIPS": "27053", "COUNTRY": "USA", "LATITUDE": 45.01369286, "LONGITUDE": -93.322776911999895, "NAICS_CODE": "622110", "NAICS_DESC": "GENERAL MEDICAL AND SURGICAL HOSPITALS", "SOURCE": "http://www.health.state.mn.us/divs/fpc/directory/providerselect.cfm", "SOURCEDATE": "2018-08-09T00:00:00.000Z", "VAL_METHOD": "IMAGERY", "VAL_DATE": "2014-03-12T00:00:00.000Z", "WEBSITE": "http://www.northmemorial.com", "STATE_ID": "240", "ALT_NAME": "NOT AVAILABLE", "ST_FIPS": "27", "OWNER": "NON-PROFIT", "TTL_STAFF": -999, "BEDS": 518, "TRAUMA": "LEVEL I", "HELIPAD": "N" }, "geometry": { "type": "Polygon", "coordinates": [ [ [ -93.3495625, 44.926544700000036 ], [ -93.3579725, 44.927769499999975 ], [ -93.3739861, 44.937304400000045 ], [ -93.4207649, 44.972377300000019 ], [ -93.4323426, 44.989774700000019 ], [ -93.433571, 44.991943 ], [ -93.4495438, 45.028035600000045 ], [ -93.4339884, 45.09009630000002 ], [ -93.43144, 45.093201300000047 ], [ -93.4037955, 45.117229700000067 ], [ -93.4021818, 45.118176099999978 ], [ -93.3889117, 45.1232798 ], [ -93.286861, 45.10148430000006 ], [ -93.2626805, 45.093741199999954 ], [ -93.243116, 45.082453 ], [ -93.238994, 45.077600599999954 ], [ -93.224217, 45.0132464 ], [ -93.2417266, 44.9642534 ], [ -93.2477278, 44.960443599999977 ], [ -93.2741239, 44.948365300000013 ], [ -93.3495625, 44.926544700000036 ] ] ] } },
{ "type": "Feature", "properties": { "OBJECTID": 6800, "ID": "0001155102", "NAME": "ST JOSEPHS HOSPITAL", "ADDRESS": "45 W 10TH STREET", "CITY": "ST PAUL", "STATE": "MN", "ZIP": "55102", "ZIP4": "NOT AVAILABLE", "TELEPHONE": "(651) 232-3000", "TYPE": "GENERAL ACUTE CARE", "STATUS": "OPEN", "POPULATION": 401, "COUNTY": "RAMSEY", "COUNTYFIPS": "27123", "COUNTRY": "USA", "LATITUDE": 44.948554948999998, "LONGITUDE": -93.099900203999894, "NAICS_CODE": "622110", "NAICS_DESC": "GENERAL MEDICAL AND SURGICAL HOSPITALS", "SOURCE": "http://www.health.state.mn.us/divs/fpc/directory/providerselect.cfm", "SOURCEDATE": "2018-08-09T00:00:00.000Z", "VAL_METHOD": "IMAGERY", "VAL_DATE": "2014-02-10T00:00:00.000Z", "WEBSITE": "https://www.healtheast.org/st-josephs-hospital/about/about.html", "STATE_ID": "524", "ALT_NAME": "NOT AVAILABLE", "ST_FIPS": "27", "OWNER": "NON-PROFIT", "TTL_STAFF": -999, "BEDS": 401, "TRAUMA": "LEVEL IV", "HELIPAD": "Y" }, "geometry": { "type": "Polygon", "coordinates": [ [ [ -93.129858, 44.852145 ], [ -93.1461231, 44.8587015 ], [ -93.1516133, 44.8617927 ], [ -93.1637837, 44.8737676 ], [ -93.1861332, 44.896909800000053 ], [ -93.187697, 44.898957400000043 ], [ -93.2298327, 44.962774 ], [ -93.2271408, 44.968877499999984 ], [ -93.2177506, 44.9879271 ], [ -93.2060018, 45.0006205 ], [ -93.1313401, 45.061146400000041 ], [ -93.106366, 45.06477 ], [ -93.052256699999987, 45.053845 ], [ -93.0413633, 45.050327800000012 ], [ -93.024137, 45.037081400000027 ], [ -92.9989875, 45.01278339999994 ], [ -92.9562461, 44.9633174 ], [ -92.9562434, 44.963164700000021 ], [ -92.9563768, 44.962442600000017 ], [ -92.9661198, 44.925191700000028 ], [ -93.006459, 44.891210500000014 ], [ -93.0598575, 44.852504300000028 ], [ -93.129858, 44.852145 ] ] ] } },
{ "type": "Feature", "properties": { "OBJECTID": 6801, "ID": "0000155454", "NAME": "UNIVERSITY OF MN MED CTR", "ADDRESS": "2450 RIVERSIDE AVENUE", "CITY": "MINNEAPOLIS", "STATE": "MN", "ZIP": "55454", "ZIP4": "NOT AVAILABLE", "TELEPHONE": "(612) 273-3000", "TYPE": "GENERAL ACUTE CARE", "STATUS": "OPEN", "POPULATION": 825, "COUNTY": "HENNEPIN", "COUNTYFIPS": "27053", "COUNTRY": "USA", "LATITUDE": 44.967733932999998, "LONGITUDE": -93.238075174000002, "NAICS_CODE": "622110", "NAICS_DESC": "GENERAL MEDICAL AND SURGICAL HOSPITALS", "SOURCE": "http://www.health.state.mn.us/divs/fpc/directory/providerselect.cfm", "SOURCEDATE": "2018-08-09T00:00:00.000Z", "VAL_METHOD": "IMAGERY", "VAL_DATE": "2014-03-12T00:00:00.000Z", "WEBSITE": "https://www.mhealth.org", "STATE_ID": "200", "ALT_NAME": "NOT AVAILABLE", "ST_FIPS": "27", "OWNER": "NON-PROFIT", "TTL_STAFF": -999, "BEDS": 825, "TRAUMA": "LEVEL II", "HELIPAD": "Y" }, "geometry": { "type": "Polygon", "coordinates": [ [ [ -93.278183, 44.874504 ], [ -93.2967634, 44.8797464 ], [ -93.3022775, 44.8833824 ], [ -93.3899031, 44.9742386 ], [ -93.39084960000001, 44.9753118 ], [ -93.3909174, 44.975411799999968 ], [ -93.3909082, 44.975510700000022 ], [ -93.286865, 45.055669899999977 ], [ -93.197947, 45.045681 ], [ -93.1890401, 45.04399529999997 ], [ -93.1035758, 44.9500749 ], [ -93.1982291, 44.8956105 ], [ -93.278183, 44.874504 ] ] ] } },
{ "type": "Feature", "properties": { "OBJECTID": 6803, "ID": "0003655369", "NAME": "MAPLE GROVE HOSPITAL", "ADDRESS": "9875 HOSPITAL DRIVE", "CITY": "MAPLE GROVE", "STATE": "MN", "ZIP": "55369", "ZIP4": "NOT AVAILABLE", "TELEPHONE": "(763) 581-1000", "TYPE": "GENERAL ACUTE CARE", "STATUS": "OPEN", "POPULATION": 130, "COUNTY": "HENNEPIN", "COUNTYFIPS": "27053", "COUNTRY": "USA", "LATITUDE": 45.132889202000101, "LONGITUDE": -93.481212666000005, "NAICS_CODE": "622110", "NAICS_DESC": "GENERAL MEDICAL AND SURGICAL HOSPITALS", "SOURCE": "http://www.health.state.mn.us/divs/fpc/directory/providerselect.cfm", "SOURCEDATE": "2018-08-09T00:00:00.000Z", "VAL_METHOD": "IMAGERY", "VAL_DATE": "2014-02-10T00:00:00.000Z", "WEBSITE": "http://maplegrovehospital.org", "STATE_ID": "25593", "ALT_NAME": "NOT AVAILABLE", "ST_FIPS": "27", "OWNER": "NON-PROFIT", "TTL_STAFF": -999, "BEDS": 130, "TRAUMA": "LEVEL IV", "HELIPAD": "Y" }, "geometry": { "type": "Polygon", "coordinates": [ [ [ -93.4570903, 45.015004500000025 ], [ -93.5248115, 45.0491999 ], [ -93.615399, 45.130841299999965 ], [ -93.5862986, 45.21048160000003 ], [ -93.564674, 45.21941 ], [ -93.5491767, 45.22446359999995 ], [ -93.51844, 45.229881 ], [ -93.442772, 45.214764 ], [ -93.3955514, 45.191405900000021 ], [ -93.360649, 45.165925700000045 ], [ -93.3133715, 45.1309832 ], [ -93.301183, 45.1092887 ], [ -93.301176, 45.108806699999981 ], [ -93.301176, 45.108689900000023 ], [ -93.301412, 45.10772 ], [ -93.33962, 45.075834099999959 ], [ -93.400911799999989, 45.037707 ], [ -93.4570903, 45.015004500000025 ] ] ] } },
{ "type": "Feature", "properties": { "OBJECTID": 6804, "ID": "0011755404", "NAME": "PHILLIPS EYE INSTITUTE", "ADDRESS": "2215 PARK AVENUE SOUTH", "CITY": "MINNEAPOLIS", "STATE": "MN", "ZIP": "55404", "ZIP4": "NOT AVAILABLE", "TELEPHONE": "(612) 775-8896", "TYPE": "GENERAL ACUTE CARE", "STATUS": "OPEN", "POPULATION": 20, "COUNTY": "HENNEPIN", "COUNTYFIPS": "27053", "COUNTRY": "USA", "LATITUDE": 44.959489432000098, "LONGITUDE": -93.264240913999998, "NAICS_CODE": "622110", "NAICS_DESC": "GENERAL MEDICAL AND SURGICAL HOSPITALS", "SOURCE": "http://www.health.state.mn.us/divs/fpc/directory/providerselect.cfm", "SOURCEDATE": "2018-08-09T00:00:00.000Z", "VAL_METHOD": "IMAGERY", "VAL_DATE": "2014-02-10T00:00:00.000Z", "WEBSITE": "http://www.allinahealth.org/ahs/pei.nsf/", "STATE_ID": "231", "ALT_NAME": "NOT AVAILABLE", "ST_FIPS": "27", "OWNER": "NON-PROFIT", "TTL_STAFF": -999, "BEDS": 20, "TRAUMA": "NOT AVAILABLE", "HELIPAD": "N" }, "geometry": { "type": "Polygon", "coordinates": [ [ [ -93.278275, 44.862808 ], [ -93.2988812, 44.8646416 ], [ -93.3010616, 44.865594399999942 ], [ -93.3290544, 44.887353600000019 ], [ -93.4005726, 44.973585399999926 ], [ -93.3887756, 44.984909100000017 ], [ -93.3492398, 45.016706899999988 ], [ -93.2857089, 45.06450889999995 ], [ -93.197928, 45.04147 ], [ -93.189189, 45.035744 ], [ -93.1534858, 44.951673699999986 ], [ -93.1979199, 44.8942786 ], [ -93.1980312, 44.894161100000041 ], [ -93.278275, 44.862808 ] ] ] } },
{ "type": "Feature", "properties": { "OBJECTID": 6818, "ID": "0004855092", "NAME": "FAIRVIEW LAKES MEDICAL CENTER", "ADDRESS": "5200 FAIRVIEW BLVD", "CITY": "WYOMING", "STATE": "MN", "ZIP": "55092", "ZIP4": "NOT AVAILABLE", "TELEPHONE": "(651) 982-7000", "TYPE": "GENERAL ACUTE CARE", "STATUS": "OPEN", "POPULATION": 61, "COUNTY": "CHISAGO", "COUNTYFIPS": "27025", "COUNTRY": "USA", "LATITUDE": 45.321720519000102, "LONGITUDE": -93.000467541999996, "NAICS_CODE": "622110", "NAICS_DESC": "GENERAL MEDICAL AND SURGICAL HOSPITALS", "SOURCE": "http://www.health.state.mn.us/divs/fpc/directory/providerselect.cfm", "SOURCEDATE": "2018-08-09T00:00:00.000Z", "VAL_METHOD": "IMAGERY", "VAL_DATE": "2014-02-10T00:00:00.000Z", "WEBSITE": "http://www.fairview.org/", "STATE_ID": "6", "ALT_NAME": "NOT AVAILABLE", "ST_FIPS": "27", "OWNER": "NON-PROFIT", "TTL_STAFF": -999, "BEDS": 61, "TRAUMA": "LEVEL IV", "HELIPAD": "Y" }, "geometry": { "type": "Polygon", "coordinates": [ [ [ -92.982495, 45.225013 ], [ -93.0259592, 45.249951299999978 ], [ -93.1058008, 45.3659673 ], [ -92.990726, 45.454889300000055 ], [ -92.979873, 45.450871800000037 ], [ -92.90925, 45.35941 ], [ -92.8983362, 45.318888900000026 ], [ -92.93798, 45.260674 ], [ -92.981847, 45.225008 ], [ -92.982495, 45.225013 ] ] ] } },
{ "type": "Feature", "properties": { "OBJECTID": 6825, "ID": "0003455379", "NAME": "ST FRANCIS REGIONAL MED CENTER", "ADDRESS": "1455 ST FRANCIS AVENUE", "CITY": "SHAKOPEE", "STATE": "MN", "ZIP": "55379", "ZIP4": "NOT AVAILABLE", "TELEPHONE": "(952) 403-3000", "TYPE": "GENERAL ACUTE CARE", "STATUS": "OPEN", "POPULATION": 93, "COUNTY": "SCOTT", "COUNTYFIPS": "27139", "COUNTRY": "USA", "LATITUDE": 44.771262998000097, "LONGITUDE": -93.502897280999903, "NAICS_CODE": "622110", "NAICS_DESC": "GENERAL MEDICAL AND SURGICAL HOSPITALS", "SOURCE": "http://www.health.state.mn.us/divs/fpc/directory/providerselect.cfm", "SOURCEDATE": "2018-08-09T00:00:00.000Z", "VAL_METHOD": "IMAGERY", "VAL_DATE": "2014-02-10T00:00:00.000Z", "WEBSITE": "http://www.stfrancis-shakopee.com", "STATE_ID": "458", "ALT_NAME": "NOT AVAILABLE", "ST_FIPS": "27", "OWNER": "NON-PROFIT", "TTL_STAFF": -999, "BEDS": 93, "TRAUMA": "LEVEL III", "HELIPAD": "Y" }, "geometry": { "type": "Polygon", "coordinates": [ [ [ -93.501187, 44.652566299999975 ], [ -93.5975299, 44.6997266 ], [ -93.5993025, 44.783076 ], [ -93.5324555, 44.8058493 ], [ -93.4814213, 44.802349800000037 ], [ -93.476552, 44.801801200000014 ], [ -93.4253861, 44.796004499999967 ], [ -93.4204569, 44.795146199999976 ], [ -93.3363933, 44.779140200000029 ], [ -93.3364036, 44.7784189 ], [ -93.4064965, 44.7051546 ], [ -93.4994804, 44.652560699999967 ], [ -93.501187, 44.652566299999975 ] ] ] } },
{ "type": "Feature", "properties": { "OBJECTID": 6829, "ID": "0001755433", "NAME": "MERCY HOSPITAL", "ADDRESS": "4050 COON RAPIDS BLVD", "CITY": "COON RAPIDS", "STATE": "MN", "ZIP": "55433", "ZIP4": "NOT AVAILABLE", "TELEPHONE": "(763) 236-6000", "TYPE": "GENERAL ACUTE CARE", "STATUS": "OPEN", "POPULATION": 271, "COUNTY": "ANOKA", "COUNTYFIPS": "27003", "COUNTRY": "USA", "LATITUDE": 45.183215085, "LONGITUDE": -93.369645617999893, "NAICS_CODE": "622110", "NAICS_DESC": "GENERAL MEDICAL AND SURGICAL HOSPITALS", "SOURCE": "http://www.health.state.mn.us/divs/fpc/directory/providerselect.cfm", "SOURCEDATE": "2018-08-09T00:00:00.000Z", "VAL_METHOD": "IMAGERY", "VAL_DATE": "2014-03-12T00:00:00.000Z", "WEBSITE": "https://www.allinahealth.org/Mercy-Hospital/", "STATE_ID": "9", "ALT_NAME": "NOT AVAILABLE", "ST_FIPS": "27", "OWNER": "NON-PROFIT", "TTL_STAFF": -999, "BEDS": 271, "TRAUMA": "LEVEL II", "HELIPAD": "Y" }, "geometry": { "type": "Polygon", "coordinates": [ [ [ -93.3923836, 45.1082901 ], [ -93.428661, 45.130461699999927 ], [ -93.4620582, 45.1667437 ], [ -93.470726, 45.181866 ], [ -93.5082886, 45.249373 ], [ -93.3885408, 45.28443989999996 ], [ -93.346871, 45.274474 ], [ -93.2973957, 45.2492805 ], [ -93.2362426, 45.197122500000013 ], [ -93.2421728, 45.13608540000002 ], [ -93.248511, 45.123607 ], [ -93.262444, 45.1151731 ], [ -93.277602, 45.109736600000026 ], [ -93.3923836, 45.1082901 ] ] ] } },
{ "type": "Feature", "properties": { "OBJECTID": 6835, "ID": "0002855387", "NAME": "RIDGEVIEW MEDICAL CENTER", "ADDRESS": "500 MAPLE ST S", "CITY": "WACONIA", "STATE": "MN", "ZIP": "55387", "ZIP4": "NOT AVAILABLE", "TELEPHONE": "(952) 442-3187", "TYPE": "GENERAL ACUTE CARE", "STATUS": "OPEN", "POPULATION": 109, "COUNTY": "CARVER", "COUNTYFIPS": "27019", "COUNTRY": "USA", "LATITUDE": 44.843165515000102, "LONGITUDE": -93.79237948, "NAICS_CODE": "622110", "NAICS_DESC": "GENERAL MEDICAL AND SURGICAL HOSPITALS", "SOURCE": "http://www.health.state.mn.us/divs/fpc/directory/providerselect.cfm", "SOURCEDATE": "2018-08-09T00:00:00.000Z", "VAL_METHOD": "IMAGERY", "VAL_DATE": "2014-02-10T00:00:00.000Z", "WEBSITE": "http://www.ridgeviewmedical.org", "STATE_ID": "55", "ALT_NAME": "NOT AVAILABLE", "ST_FIPS": "27", "OWNER": "NON-PROFIT", "TTL_STAFF": -999, "BEDS": 109, "TRAUMA": "NOT AVAILABLE", "HELIPAD": "Y" }, "geometry": { "type": "Polygon", "coordinates": [ [ [ -93.787582, 44.756114 ], [ -93.8489352, 44.7677069 ], [ -93.922974, 44.781985 ], [ -93.914807, 44.848112 ], [ -93.8881, 44.87961 ], [ -93.828865, 44.924003 ], [ -93.6760131, 44.868810700000054 ], [ -93.656206, 44.859937 ], [ -93.6777541, 44.8116528 ], [ -93.787582, 44.756114 ] ] ] } },
{ "type": "Feature", "properties": { "OBJECTID": 6840, "ID": "0000856303", "NAME": "ST CLOUD HOSPITAL", "ADDRESS": "1406 SIXTH AVENUE NORTH", "CITY": "ST CLOUD", "STATE": "MN", "ZIP": "56303", "ZIP4": "NOT AVAILABLE", "TELEPHONE": "(320) 251-2700", "TYPE": "GENERAL ACUTE CARE", "STATUS": "OPEN", "POPULATION": 485, "COUNTY": "STEARNS", "COUNTYFIPS": "27145", "COUNTRY": "USA", "LATITUDE": 45.574660589000104, "LONGITUDE": -94.169091126999902, "NAICS_CODE": "622110", "NAICS_DESC": "GENERAL MEDICAL AND SURGICAL HOSPITALS", "SOURCE": "http://www.health.state.mn.us/divs/fpc/directory/providerselect.cfm", "SOURCEDATE": "2018-08-09T00:00:00.000Z", "VAL_METHOD": "IMAGERY", "VAL_DATE": "2014-02-10T00:00:00.000Z", "WEBSITE": "http://www.centracare.com", "STATE_ID": "639", "ALT_NAME": "NOT AVAILABLE", "ST_FIPS": "27", "OWNER": "NON-PROFIT", "TTL_STAFF": -999, "BEDS": 485, "TRAUMA": "LEVEL II", "HELIPAD": "Y" }, "geometry": { "type": "Polygon", "coordinates": [ [ [ -94.1536133, 45.4783807 ], [ -94.246412, 45.4821356 ], [ -94.2812663, 45.5279035 ], [ -94.2903359, 45.56473309999997 ], [ -94.2643826, 45.611180400000016 ], [ -94.1739444, 45.691003800000011 ], [ -94.1725218, 45.690989500000043 ], [ -94.1717362, 45.690968199999972 ], [ -94.11190550000002, 45.6095751 ], [ -94.1185436, 45.5812488 ], [ -94.1432055, 45.488916600000024 ], [ -94.146435, 45.4798121 ], [ -94.1536133, 45.4783807 ] ] ] } },
{ "type": "Feature", "properties": { "OBJECTID": 6843, "ID": "0003355082", "NAME": "LAKEVIEW MEMORIAL HOSPITAL", "ADDRESS": "927 WEST CHURCHILL STREET", "CITY": "STILLWATER", "STATE": "MN", "ZIP": "55082", "ZIP4": "NOT AVAILABLE", "TELEPHONE": "(651) 430-5330", "TYPE": "GENERAL ACUTE CARE", "STATUS": "OPEN", "POPULATION": 97, "COUNTY": "WASHINGTON", "COUNTYFIPS": "27163", "COUNTRY": "USA", "LATITUDE": 45.0480924290001, "LONGITUDE": -92.817560826999994, "NAICS_CODE": "622110", "NAICS_DESC": "GENERAL MEDICAL AND SURGICAL HOSPITALS", "SOURCE": "http://www.health.state.mn.us/divs/fpc/directory/providerselect.cfm", "SOURCEDATE": "2018-08-09T00:00:00.000Z", "VAL_METHOD": "IMAGERY", "VAL_DATE": "2014-02-10T00:00:00.000Z", "WEBSITE": "http://www.lakeviewhealth.org/", "STATE_ID": "689", "ALT_NAME": "NOT AVAILABLE", "ST_FIPS": "27", "OWNER": "NON-PROFIT", "TTL_STAFF": -999, "BEDS": 97, "TRAUMA": "LEVEL III", "HELIPAD": "N" }, "geometry": { "type": "Polygon", "coordinates": [ [ [ -92.7732981, 44.9606595 ], [ -92.8625223, 44.963575699999964 ], [ -92.9818066, 45.021684599999986 ], [ -92.9778639, 45.0336243 ], [ -92.92038, 45.084415 ], [ -92.870061, 45.11551 ], [ -92.868425, 45.116468 ], [ -92.839151, 45.130209 ], [ -92.807692, 45.122888 ], [ -92.776466, 45.115173 ], [ -92.7636217, 45.108732199999956 ], [ -92.7632203, 45.103497699999984 ], [ -92.7691232, 44.965197400000015 ], [ -92.7730572, 44.960702600000019 ], [ -92.7732981, 44.9606595 ] ] ] } },
{ "type": "Feature", "properties": { "OBJECTID": 6855, "ID": "0002455337", "NAME": "FAIRVIEW RIDGES HOSPITAL", "ADDRESS": "201 EAST NICOLLET BOULEVARD", "CITY": "BURNSVILLE", "STATE": "MN", "ZIP": "55337", "ZIP4": "NOT AVAILABLE", "TELEPHONE": "(952) 892-2211", "TYPE": "GENERAL ACUTE CARE", "STATUS": "OPEN", "POPULATION": 165, "COUNTY": "DAKOTA", "COUNTYFIPS": "27037", "COUNTRY": "USA", "LATITUDE": 44.749019319000098, "LONGITUDE": -93.272591935999998, "NAICS_CODE": "622110", "NAICS_DESC": "GENERAL MEDICAL AND SURGICAL HOSPITALS", "SOURCE": "http://www.health.state.mn.us/divs/fpc/directory/providerselect.cfm", "SOURCEDATE": "2018-08-09T00:00:00.000Z", "VAL_METHOD": "IMAGERY", "VAL_DATE": "2014-02-10T00:00:00.000Z", "WEBSITE": "http://www.fairview.org", "STATE_ID": "107", "ALT_NAME": "NOT AVAILABLE", "ST_FIPS": "27", "OWNER": "NON-PROFIT", "TTL_STAFF": -999, "BEDS": 165, "TRAUMA": "LEVEL III", "HELIPAD": "Y" }, "geometry": { "type": "Polygon", "coordinates": [ [ [ -93.293278, 44.630712099999975 ], [ -93.3198045, 44.645181500000035 ], [ -93.3587957, 44.6689018 ], [ -93.3791944, 44.688680500000011 ], [ -93.3873581, 44.698110100000029 ], [ -93.407537, 44.724046700000031 ], [ -93.4179942, 44.743884399999985 ], [ -93.4175916, 44.7468328 ], [ -93.4016526, 44.786319199999959 ], [ -93.2461349, 44.85221049999997 ], [ -93.147421, 44.855189 ], [ -93.141685, 44.847881599999987 ], [ -93.12422, 44.791179 ], [ -93.124144, 44.790819 ], [ -93.124155, 44.790189 ], [ -93.1364001, 44.731590800000028 ], [ -93.2275028, 44.65599170000003 ], [ -93.252847, 44.639199799999936 ], [ -93.255033, 44.637926 ], [ -93.2606915, 44.634883100000032 ], [ -93.2683684, 44.632197600000026 ], [ -93.293278, 44.630712099999975 ] ] ] } },
{ "type": "Feature", "properties": { "OBJECTID": 6856, "ID": "0012255041", "NAME": "MAYO CLINIC HEALTH SYS L C", "ADDRESS": "500 WEST GRANT STREET", "CITY": "LAKE CITY", "STATE": "MN", "ZIP": "55041", "ZIP4": "NOT AVAILABLE", "TELEPHONE": "(651) 345-3321", "TYPE": "CRITICAL ACCESS", "STATUS": "OPEN", "POPULATION": 18, "COUNTY": "GOODHUE", "COUNTYFIPS": "27049", "COUNTRY": "USA", "LATITUDE": 44.4594309820001, "LONGITUDE": -92.287764945999996, "NAICS_CODE": "622110", "NAICS_DESC": "GENERAL MEDICAL AND SURGICAL HOSPITALS", "SOURCE": "http://www.health.state.mn.us/divs/fpc/directory/providerselect.cfm", "SOURCEDATE": "2018-08-09T00:00:00.000Z", "VAL_METHOD": "IMAGERY", "VAL_DATE": "2014-03-12T00:00:00.000Z", "WEBSITE": "http://mayoclinichealthsystem.org/locations/lake-city", "STATE_ID": "20693", "ALT_NAME": "NOT AVAILABLE", "ST_FIPS": "27", "OWNER": "NON-PROFIT", "TTL_STAFF": -999, "BEDS": 18, "TRAUMA": "LEVEL IV", "HELIPAD": "Y" }, "geometry": { "type": "Polygon", "coordinates": [ [ [ -92.370494, 44.381829 ], [ -92.390316, 44.411576 ], [ -92.411138, 44.5272839 ], [ -92.3330821, 44.534458399999963 ], [ -92.1454502, 44.410898100000068 ], [ -92.2169, 44.387634 ], [ -92.269712, 44.381903 ], [ -92.370494, 44.381829 ] ] ] } },
{ "type": "Feature", "properties": { "OBJECTID": 6857, "ID": "0005155033", "NAME": "REGINA MEDICAL CENTER", "ADDRESS": "1175 NININGER ROAD", "CITY": "HASTINGS", "STATE": "MN", "ZIP": "55033", "ZIP4": "NOT AVAILABLE", "TELEPHONE": "(651) 404-1000", "TYPE": "GENERAL ACUTE CARE", "STATUS": "OPEN", "POPULATION": 57, "COUNTY": "DAKOTA", "COUNTYFIPS": "27037", "COUNTRY": "USA", "LATITUDE": 44.747251728000002, "LONGITUDE": -92.873283119999897, "NAICS_CODE": "622110", "NAICS_DESC": "GENERAL MEDICAL AND SURGICAL HOSPITALS", "SOURCE": "http://www.health.state.mn.us/divs/fpc/directory/providerselect.cfm", "SOURCEDATE": "2018-08-09T00:00:00.000Z", "VAL_METHOD": "IMAGERY", "VAL_DATE": "2014-02-10T00:00:00.000Z", "WEBSITE": "https://www.allinahealth.org/Regina-Hospital/", "STATE_ID": "100", "ALT_NAME": "NOT AVAILABLE", "ST_FIPS": "27", "OWNER": "NON-PROFIT", "TTL_STAFF": -999, "BEDS": 57, "TRAUMA": "LEVEL IV", "HELIPAD": "N" }, "geometry": { "type": "Polygon", "coordinates": [ [ [ -92.8530736, 44.6298793 ], [ -92.933944, 44.666662 ], [ -92.9947232, 44.716940399999984 ], [ -92.994831, 44.738850499999977 ], [ -92.9947364, 44.74227060000004 ], [ -92.9845438, 44.752521799999954 ], [ -92.9136136, 44.7715345 ], [ -92.9019162, 44.772146399999976 ], [ -92.822022, 44.7419098 ], [ -92.772398, 44.710841 ], [ -92.781427, 44.666562 ], [ -92.8530736, 44.6298793 ] ] ] } },
{ "type": "Feature", "properties": { "OBJECTID": 6864, "ID": "0007255057", "NAME": "NORTHFIELD CITY HOSPITAL & NSG", "ADDRESS": "2000 NORTH AVENUE", "CITY": "NORTHFIELD", "STATE": "MN", "ZIP": "55057", "ZIP4": "NOT AVAILABLE", "TELEPHONE": "(507) 646-1001", "TYPE": "GENERAL ACUTE CARE", "STATUS": "OPEN", "POPULATION": 37, "COUNTY": "DAKOTA", "COUNTYFIPS": "27037", "COUNTRY": "USA", "LATITUDE": 44.47357736, "LONGITUDE": -93.191723441999997, "NAICS_CODE": "622110", "NAICS_DESC": "GENERAL MEDICAL AND SURGICAL HOSPITALS", "SOURCE": "http://www.health.state.mn.us/divs/fpc/directory/providerselect.cfm", "SOURCEDATE": "2018-08-09T00:00:00.000Z", "VAL_METHOD": "IMAGERY", "VAL_DATE": "2014-03-12T00:00:00.000Z", "WEBSITE": "http://www.northfieldhospital.org", "STATE_ID": "566", "ALT_NAME": "NOT AVAILABLE", "ST_FIPS": "27", "OWNER": "GOVERNMENT - LOCAL", "TTL_STAFF": -999, "BEDS": 37, "TRAUMA": "LEVEL IV", "HELIPAD": "Y" }, "geometry": { "type": "Polygon", "coordinates": [ [ [ -93.213898, 44.406918 ], [ -93.285881, 44.457478 ], [ -93.2517618, 44.471676399999964 ], [ -93.211116, 44.486025 ], [ -93.180691, 44.493063 ], [ -93.145691, 44.495976 ], [ -93.118094, 44.496845 ], [ -93.120667, 44.442554 ], [ -93.140976, 44.411575 ], [ -93.213898, 44.406918 ] ] ] } },
{ "type": "Feature", "properties": { "OBJECTID": 4728, "ID": "0151854020", "NAME": "LADD MEMORIAL HOSPITAL", "ADDRESS": "2600 65TH AVENUE", "CITY": "OSCEOLA", "STATE": "WI", "ZIP": "54020", "ZIP4": "NOT AVAILABLE", "TELEPHONE": "(715) 294-2111", "TYPE": "CRITICAL ACCESS", "STATUS": "OPEN", "POPULATION": 23, "COUNTY": "POLK", "COUNTYFIPS": "55095", "COUNTRY": "USA", "LATITUDE": 45.301860793000102, "LONGITUDE": -92.700607281999993, "NAICS_CODE": "622110", "NAICS_DESC": "GENERAL MEDICAL AND SURGICAL HOSPITALS", "SOURCE": "https://www.dhs.wisconsin.gov/guide/hospital.htm", "SOURCEDATE": "2018-08-13T00:00:00.000Z", "VAL_METHOD": "IMAGERY/OTHER", "VAL_DATE": "2015-03-27T00:00:00.000Z", "WEBSITE": "https://www.myomc.org", "STATE_ID": "1021", "ALT_NAME": "OSCEOLA MEDICAL CENTER", "ST_FIPS": "55", "OWNER": "NOT AVAILABLE", "TTL_STAFF": -999, "BEDS": 23, "TRAUMA": "LEVEL IV", "HELIPAD": "Y" }, "geometry": { "type": "Polygon", "coordinates": [ [ [ -92.6822405, 45.204854699999984 ], [ -92.692246, 45.20998 ], [ -92.7192307, 45.2243017 ], [ -92.750332, 45.270051 ], [ -92.750601, 45.286872 ], [ -92.682126700000012, 45.357847199999952 ], [ -92.666908, 45.372187 ], [ -92.633791, 45.365324 ], [ -92.6161254, 45.352060400000035 ], [ -92.5932678, 45.318469600000043 ], [ -92.610914, 45.261283 ], [ -92.6822405, 45.204854699999984 ] ] ] } },
{ "type": "Feature", "properties": { "OBJECTID": 4913, "ID": "0000254812", "NAME": "MAYO CLINIC HEALTH SYSTEM - NORTHLAND IN BARRON", "ADDRESS": "1222 E WOODLAND AVE", "CITY": "BARRON", "STATE": "WI", "ZIP": "54812", "ZIP4": "NOT AVAILABLE", "TELEPHONE": "(715) 537-3186", "TYPE": "GENERAL ACUTE CARE", "STATUS": "OPEN", "POPULATION": 25, "COUNTY": "BARRON", "COUNTYFIPS": "55005", "COUNTRY": "USA", "LATITUDE": 45.3974096150001, "LONGITUDE": -91.839526093000003, "NAICS_CODE": "622110", "NAICS_DESC": "GENERAL MEDICAL AND SURGICAL HOSPITALS", "SOURCE": "https://www.dhs.wisconsin.gov/guide/hospital.htm", "SOURCEDATE": "2018-08-13T00:00:00.000Z", "VAL_METHOD": "IMAGERY", "VAL_DATE": "2014-03-12T00:00:00.000Z", "WEBSITE": "http://www.luthermidelfortnorthland.org", "STATE_ID": "1018", "ALT_NAME": "NOT AVAILABLE", "ST_FIPS": "55", "OWNER": "NON-PROFIT", "TTL_STAFF": -999, "BEDS": 25, "TRAUMA": "NOT AVAILABLE", "HELIPAD": "Y" }, "geometry": { "type": "Polygon", "coordinates": [ [ [ -91.859604, 45.313624300000015 ], [ -91.862903, 45.315529 ], [ -91.9767631, 45.409391 ], [ -91.8469549, 45.495081700000036 ], [ -91.7655, 45.466346899999976 ], [ -91.7044958, 45.408302800000037 ], [ -91.704641, 45.403779 ], [ -91.7124544, 45.379592499999987 ], [ -91.7158848, 45.37236350000002 ], [ -91.787513, 45.336752 ], [ -91.859604, 45.313624300000015 ] ] ] } },
{ "type": "Feature", "properties": { "OBJECTID": 4914, "ID": "0000354868", "NAME": "LAKEVIEW MED CENTER", "ADDRESS": "1700 WEST STOUT STREET", "CITY": "RICE LAKE", "STATE": "WI", "ZIP": "54868", "ZIP4": "NOT AVAILABLE", "TELEPHONE": "(715) 234-1515", "TYPE": "GENERAL ACUTE CARE", "STATUS": "OPEN", "POPULATION": 40, "COUNTY": "BARRON", "COUNTYFIPS": "55005", "COUNTRY": "USA", "LATITUDE": 45.506461217000002, "LONGITUDE": -91.759128207999893, "NAICS_CODE": "622110", "NAICS_DESC": "GENERAL MEDICAL AND SURGICAL HOSPITALS", "SOURCE": "https://www.dhs.wisconsin.gov/guide/hospital.htm", "SOURCEDATE": "2018-08-13T00:00:00.000Z", "VAL_METHOD": "IMAGERY", "VAL_DATE": "2014-02-10T00:00:00.000Z", "WEBSITE": "http://www.lakeviewmedical.com", "STATE_ID": "82", "ALT_NAME": "NOT AVAILABLE", "ST_FIPS": "55", "OWNER": "NON-PROFIT", "TTL_STAFF": -999, "BEDS": 40, "TRAUMA": "UNCLASSIFIED", "HELIPAD": "Y" }, "geometry": { "type": "Polygon", "coordinates": [ [ [ -91.755609, 45.388706100000022 ], [ -91.786878, 45.393663 ], [ -91.91929, 45.531515600000056 ], [ -91.7858022, 45.638689100000015 ], [ -91.7831627, 45.6387022 ], [ -91.779224, 45.638669100000023 ], [ -91.744475, 45.61541 ], [ -91.6416101, 45.537471700000033 ], [ -91.7354668, 45.397648700000047 ], [ -91.755609, 45.388706100000022 ] ] ] } },
{ "type": "Feature", "properties": { "OBJECTID": 4917, "ID": "0000854840", "NAME": "BURNETT MED CTR", "ADDRESS": "257 W ST GEORGE AVE", "CITY": "GRANTSBURG", "STATE": "WI", "ZIP": "54840", "ZIP4": "NOT AVAILABLE", "TELEPHONE": "(715) 463-5353", "TYPE": "GENERAL ACUTE CARE", "STATUS": "OPEN", "POPULATION": 25, "COUNTY": "BURNETT", "COUNTYFIPS": "55013", "COUNTRY": "USA", "LATITUDE": 45.774959856000102, "LONGITUDE": -92.686895113000006, "NAICS_CODE": "622110", "NAICS_DESC": "GENERAL MEDICAL AND SURGICAL HOSPITALS", "SOURCE": "https://www.dhs.wisconsin.gov/guide/hospital.htm", "SOURCEDATE": "2018-08-13T00:00:00.000Z", "VAL_METHOD": "IMAGERY", "VAL_DATE": "2014-03-12T00:00:00.000Z", "WEBSITE": "http://www.burnettmedicalcenter.com", "STATE_ID": "1034", "ALT_NAME": "NOT AVAILABLE", "ST_FIPS": "55", "OWNER": "NON-PROFIT", "TTL_STAFF": -999, "BEDS": 25, "TRAUMA": "LEVEL IV", "HELIPAD": "Y" }, "geometry": { "type": "Polygon", "coordinates": [ [ [ -92.672119, 45.672039 ], [ -92.7700754, 45.751575600000081 ], [ -92.7813353, 45.773354599999983 ], [ -92.768848, 45.793808 ], [ -92.6817811, 45.874421500000011 ], [ -92.5689718, 45.795374900000013 ], [ -92.5484903, 45.7722867 ], [ -92.548459, 45.764983 ], [ -92.65165, 45.686535 ], [ -92.672119, 45.672039 ] ] ] } },
{ "type": "Feature", "properties": { "OBJECTID": 4922, "ID": "0002454729", "NAME": "ST JOSEPHS HSPTL", "ADDRESS": "2661 CTY HWY I", "CITY": "CHIPPEWA FALLS", "STATE": "WI", "ZIP": "54729", "ZIP4": "NOT AVAILABLE", "TELEPHONE": "(715) 717-7200", "TYPE": "GENERAL ACUTE CARE", "STATUS": "OPEN", "POPULATION": 193, "COUNTY": "CHIPPEWA", "COUNTYFIPS": "55017", "COUNTRY": "USA", "LATITUDE": 44.950624695000002, "LONGITUDE": -91.359825462999893, "NAICS_CODE": "622110", "NAICS_DESC": "GENERAL MEDICAL AND SURGICAL HOSPITALS", "SOURCE": "https://www.dhs.wisconsin.gov/guide/hospital.htm", "SOURCEDATE": "2018-08-13T00:00:00.000Z", "VAL_METHOD": "IMAGERY", "VAL_DATE": "2014-03-12T00:00:00.000Z", "WEBSITE": "http://www.stjoeschipfalls.com", "STATE_ID": "15", "ALT_NAME": "NOT AVAILABLE", "ST_FIPS": "55", "OWNER": "NON-PROFIT", "TTL_STAFF": -999, "BEDS": 193, "TRAUMA": "LEVEL III", "HELIPAD": "Y" }, "geometry": { "type": "Polygon", "coordinates": [ [ [ -91.41920420000001, 44.8771324 ], [ -91.429367, 44.882732 ], [ -91.463943, 44.9153851 ], [ -91.4790883, 44.9445059 ], [ -91.4684445, 45.002155 ], [ -91.388496, 45.031445 ], [ -91.347847, 45.031445 ], [ -91.317449, 45.03141 ], [ -91.287354, 44.995922 ], [ -91.286728, 44.99501 ], [ -91.267838, 44.929665 ], [ -91.298241, 44.900776 ], [ -91.3889904, 44.8791631 ], [ -91.41920420000001, 44.8771324 ] ] ] } },
{ "type": "Feature", "properties": { "OBJECTID": 4926, "ID": "0003754703", "NAME": "MAYO CLINIC HEALTH SYSTEM EAU CLAIRE HOSPITAL", "ADDRESS": "1221 WHIPPLE ST", "CITY": "EAU CLAIRE", "STATE": "WI", "ZIP": "54703", "ZIP4": "NOT AVAILABLE", "TELEPHONE": "(715) 838-3311", "TYPE": "GENERAL ACUTE CARE", "STATUS": "OPEN", "POPULATION": 304, "COUNTY": "EAU CLAIRE", "COUNTYFIPS": "55035", "COUNTRY": "USA", "LATITUDE": 44.812804686000099, "LONGITUDE": -91.512314661999895, "NAICS_CODE": "622110", "NAICS_DESC": "GENERAL MEDICAL AND SURGICAL HOSPITALS", "SOURCE": "https://www.dhs.wisconsin.gov/guide/hospital.htm", "SOURCEDATE": "2018-08-13T00:00:00.000Z", "VAL_METHOD": "IMAGERY", "VAL_DATE": "2014-03-12T00:00:00.000Z", "WEBSITE": "http://www.mhs.mayo.edu", "STATE_ID": "48", "ALT_NAME": "NOT AVAILABLE", "ST_FIPS": "55", "OWNER": "NON-PROFIT", "TTL_STAFF": -999, "BEDS": 304, "TRAUMA": "LEVEL II", "HELIPAD": "Y" }, "geometry": { "type": "Polygon", "coordinates": [ [ [ -91.520274, 44.72464509999994 ], [ -91.569668400000012, 44.743584299999981 ], [ -91.5898545, 44.755950399999975 ], [ -91.6404239, 44.814027799999977 ], [ -91.6201803, 44.853442600000044 ], [ -91.5497677, 44.894864399999975 ], [ -91.549001, 44.895135499999988 ], [ -91.5192929, 44.900928200000031 ], [ -91.412137200000018, 44.8862297 ], [ -91.4075348, 44.880395299999982 ], [ -91.3833221, 44.788714400000067 ], [ -91.3832749, 44.7875783 ], [ -91.3877748, 44.741665099999977 ], [ -91.4477388, 44.732485 ], [ -91.520274, 44.72464509999994 ] ] ] } },
{ "type": "Feature", "properties": { "OBJECTID": 4936, "ID": "0006554751", "NAME": "MAYO CLINIC HEALTH SYSTEM - RED CEDAR INC", "ADDRESS": "2321 STOUT RD", "CITY": "MENOMONIE", "STATE": "WI", "ZIP": "54751", "ZIP4": "NOT AVAILABLE", "TELEPHONE": "(715) 235-5531", "TYPE": "GENERAL ACUTE CARE", "STATUS": "OPEN", "POPULATION": 25, "COUNTY": "DUNN", "COUNTYFIPS": "55033", "COUNTRY": "USA", "LATITUDE": 44.882985239000099, "LONGITUDE": -91.901567405999998, "NAICS_CODE": "622110", "NAICS_DESC": "GENERAL MEDICAL AND SURGICAL HOSPITALS", "SOURCE": "https://www.dhs.wisconsin.gov/guide/hospital.htm", "SOURCEDATE": "2018-08-13T00:00:00.000Z", "VAL_METHOD": "IMAGERY", "VAL_DATE": "2014-03-12T00:00:00.000Z", "WEBSITE": "http://www.rcmc-mhs.org", "STATE_ID": "1044", "ALT_NAME": "NOT AVAILABLE", "ST_FIPS": "55", "OWNER": "NON-PROFIT", "TTL_STAFF": -999, "BEDS": 25, "TRAUMA": "LEVEL IV", "HELIPAD": "Y" }, "geometry": { "type": "Polygon", "coordinates": [ [ [ -91.927836, 44.811673 ], [ -91.9690813, 44.829944800000021 ], [ -91.995793, 44.8645 ], [ -92.014538, 44.896971 ], [ -91.9654358, 44.921776800000018 ], [ -91.8546051, 44.9585035 ], [ -91.8540582, 44.958255100000031 ], [ -91.78409360000002, 44.9260056 ], [ -91.727817, 44.886589 ], [ -91.7272857, 44.885955 ], [ -91.7271898, 44.8858238 ], [ -91.7634584, 44.836397 ], [ -91.927836, 44.811673 ] ] ] } },
{ "type": "Feature", "properties": { "OBJECTID": 127, "ID": "0010454024", "NAME": "ST CROIX REG MED CTR", "ADDRESS": "235 STATE STREET", "CITY": "SAINT CROIX FALLS", "STATE": "WI", "ZIP": "54024", "ZIP4": "NOT AVAILABLE", "TELEPHONE": "(715) 483-3261", "TYPE": "GENERAL ACUTE CARE", "STATUS": "OPEN", "POPULATION": 25, "COUNTY": "POLK", "COUNTYFIPS": "55095", "COUNTRY": "USA", "LATITUDE": 45.409032431000099, "LONGITUDE": -92.642578117, "NAICS_CODE": "622110", "NAICS_DESC": "GENERAL MEDICAL AND SURGICAL HOSPITALS", "SOURCE": "https://www.dhs.wisconsin.gov/guide/hospital.htm", "SOURCEDATE": "2018-08-13T00:00:00.000Z", "VAL_METHOD": "IMAGERY", "VAL_DATE": "2014-02-10T00:00:00.000Z", "WEBSITE": "http://www.scrmc.org", "STATE_ID": "1041", "ALT_NAME": "NOT AVAILABLE", "ST_FIPS": "55", "OWNER": "NON-PROFIT", "TTL_STAFF": -999, "BEDS": 25, "TRAUMA": "LEVEL IV", "HELIPAD": "Y" }, "geometry": { "type": "Polygon", "coordinates": [ [ [ -92.6517457, 45.3258898 ], [ -92.6932401, 45.331860400000032 ], [ -92.672799, 45.476908 ], [ -92.66613, 45.492278 ], [ -92.65139, 45.504578 ], [ -92.601125, 45.469246 ], [ -92.499649, 45.396152 ], [ -92.6087398, 45.331457700000023 ], [ -92.6517457, 45.3258898 ] ] ] } },
{ "type": "Feature", "properties": { "OBJECTID": 131, "ID": "0011854017", "NAME": "WESTFIELDS HOSPITAL", "ADDRESS": "535 HOSPITAL RD", "CITY": "NEW RICHMOND", "STATE": "WI", "ZIP": "54017", "ZIP4": "NOT AVAILABLE", "TELEPHONE": "(715) 246-2101", "TYPE": "GENERAL ACUTE CARE", "STATUS": "OPEN", "POPULATION": 25, "COUNTY": "ST. CROIX", "COUNTYFIPS": "55109", "COUNTRY": "USA", "LATITUDE": 45.117760748000102, "LONGITUDE": -92.555500378000005, "NAICS_CODE": "622110", "NAICS_DESC": "GENERAL MEDICAL AND SURGICAL HOSPITALS", "SOURCE": "https://www.dhs.wisconsin.gov/guide/hospital.htm", "SOURCEDATE": "2018-08-13T00:00:00.000Z", "VAL_METHOD": "IMAGERY", "VAL_DATE": "2014-03-12T00:00:00.000Z", "WEBSITE": "http://www.westfieldshospital.com", "STATE_ID": "1050", "ALT_NAME": "NOT AVAILABLE", "ST_FIPS": "55", "OWNER": "NON-PROFIT", "TTL_STAFF": -999, "BEDS": 25, "TRAUMA": "LEVEL IV", "HELIPAD": "Y" }, "geometry": { "type": "Polygon", "coordinates": [ [ [ -92.5376682, 45.021713 ], [ -92.6206511, 45.0468166 ], [ -92.7287077, 45.1052716 ], [ -92.6965203, 45.134032500000025 ], [ -92.675670900000014, 45.1519738 ], [ -92.529617, 45.214619 ], [ -92.4053889, 45.136747400000012 ], [ -92.457339, 45.0795157 ], [ -92.477313, 45.064785 ], [ -92.5171032, 45.035625200000013 ], [ -92.5376682, 45.021713 ] ] ] } },
{ "type": "Feature", "properties": { "OBJECTID": 134, "ID": "0012554843", "NAME": "HAYWARD AREA MEMORIAL HOSPITAL", "ADDRESS": "11040 N STATE RD 77", "CITY": "HAYWARD", "STATE": "WI", "ZIP": "54843", "ZIP4": "NOT AVAILABLE", "TELEPHONE": "(715) 934-4321", "TYPE": "GENERAL ACUTE CARE", "STATUS": "OPEN", "POPULATION": 25, "COUNTY": "SAWYER", "COUNTYFIPS": "55113", "COUNTRY": "USA", "LATITUDE": 46.034796797000098, "LONGITUDE": -91.485746875000004, "NAICS_CODE": "622110", "NAICS_DESC": "GENERAL MEDICAL AND SURGICAL HOSPITALS", "SOURCE": "https://www.dhs.wisconsin.gov/guide/hospital.htm", "SOURCEDATE": "2018-08-13T00:00:00.000Z", "VAL_METHOD": "IMAGERY/OTHER", "VAL_DATE": "2014-02-10T00:00:00.000Z", "WEBSITE": "http://www.hamhnh.com", "STATE_ID": "1040", "ALT_NAME": "NOT AVAILABLE", "ST_FIPS": "55", "OWNER": "NON-PROFIT", "TTL_STAFF": -999, "BEDS": 25, "TRAUMA": "NOT AVAILABLE", "HELIPAD": "Y" }, "geometry": { "type": "Polygon", "coordinates": [ [ [ -91.4933237, 45.9454254 ], [ -91.56668, 45.982133 ], [ -91.550838, 46.066618 ], [ -91.509579, 46.107138 ], [ -91.502974, 46.107066 ], [ -91.3958878, 46.085504800000045 ], [ -91.3633031, 46.0294149 ], [ -91.3944082, 45.9970491 ], [ -91.428363, 45.974624 ], [ -91.4933237, 45.9454254 ] ] ] } },
{ "type": "Feature", "properties": { "OBJECTID": 254, "ID": "0014155009", "NAME": "MAYO CLINIC HEALTH SYS CF", "ADDRESS": "32021 COUNTY 24 BOULEVARD", "CITY": "CANNON FALLS", "STATE": "MN", "ZIP": "55009", "ZIP4": "NOT AVAILABLE", "TELEPHONE": "(507) 263-6000", "TYPE": "CRITICAL ACCESS", "STATUS": "OPEN", "POPULATION": 15, "COUNTY": "GOODHUE", "COUNTYFIPS": "27049", "COUNTRY": "USA", "LATITUDE": 44.486164639000002, "LONGITUDE": -92.903202300999993, "NAICS_CODE": "622110", "NAICS_DESC": "GENERAL MEDICAL AND SURGICAL HOSPITALS", "SOURCE": "http://www.health.state.mn.us/divs/fpc/directory/providerselect.cfm", "SOURCEDATE": "2018-08-09T00:00:00.000Z", "VAL_METHOD": "IMAGERY/OTHER", "VAL_DATE": "2016-08-11T00:00:00.000Z", "WEBSITE": "http://mayoclinichealthsystem.org/locations/cannon-falls", "STATE_ID": "NOT AVAILABLE", "ALT_NAME": "NOT AVAILABLE", "ST_FIPS": "27", "OWNER": "NON-PROFIT", "TTL_STAFF": -999, "BEDS": 15, "TRAUMA": "LEVEL IV", "HELIPAD": "Y" }, "geometry": { "type": "Polygon", "coordinates": [ [ [ -92.871109100000012, 44.370320100000022 ], [ -92.9340905, 44.375795300000028 ], [ -92.9797946, 44.40681 ], [ -93.019839, 44.486266 ], [ -93.009899099999984, 44.5006001 ], [ -92.913836, 44.5434142 ], [ -92.906799, 44.543268 ], [ -92.8307198, 44.532141900000049 ], [ -92.810857, 44.514108 ], [ -92.805695, 44.507742 ], [ -92.805933, 44.3721415 ], [ -92.8064552, 44.3718442 ], [ -92.871109100000012, 44.370320100000022 ] ] ] } },
{ "type": "Feature", "properties": { "OBJECTID": 549, "ID": "0171954801", "NAME": "SPOONER HOSPITAL SYS", "ADDRESS": "819 ASH ST", "CITY": "SPOONER", "STATE": "WI", "ZIP": "54801", "ZIP4": "NOT AVAILABLE", "TELEPHONE": "(715) 635-2111", "TYPE": "GENERAL ACUTE CARE", "STATUS": "CLOSED", "POPULATION": 25, "COUNTY": "WASHBURN", "COUNTYFIPS": "55129", "COUNTRY": "USA", "LATITUDE": 45.825597324999997, "LONGITUDE": -91.896346512999997, "NAICS_CODE": "622110", "NAICS_DESC": "GENERAL MEDICAL AND SURGICAL HOSPITALS", "SOURCE": "http://www.dhs.wisconsin.gov/bqaconsumer/healthcare/HospitalCty.pdf", "SOURCEDATE": "2013-07-10T00:00:00.000Z", "VAL_METHOD": "IMAGERY", "VAL_DATE": "2019-05-09T00:00:00.000Z", "WEBSITE": "http://www.spoonerhealthsystem.com", "STATE_ID": "1036", "ALT_NAME": "NOT AVAILABLE", "ST_FIPS": "55", "OWNER": "NON-PROFIT", "TTL_STAFF": -999, "BEDS": 25, "TRAUMA": "NOT AVAILABLE", "HELIPAD": "Y" }, "geometry": { "type": "Polygon", "coordinates": [ [ [ -91.9406739, 45.714521699999928 ], [ -91.941366700000017, 45.7147139 ], [ -92.031966, 45.815328 ], [ -91.959155, 45.872222 ], [ -91.915041, 45.89948 ], [ -91.888298, 45.913343 ], [ -91.827961, 45.935270600000017 ], [ -91.8274831, 45.9352534 ], [ -91.806731, 45.899769 ], [ -91.763769, 45.813824 ], [ -91.8071351, 45.7245684 ], [ -91.9406739, 45.714521699999928 ] ] ] } },
{ "type": "Feature", "properties": { "OBJECTID": 852, "ID": "0000000058", "NAME": "UNIVERSITY OF MINNESOTA MEDICAL CENTER-FAIRVIEW-EAST BANK-ER", "ADDRESS": "500 HARVARD ST SE", "CITY": "MINNEAPOLIS", "STATE": "MN", "ZIP": "55455", "ZIP4": "NOT AVAILABLE", "TELEPHONE": "(612) 273-3000", "TYPE": "GENERAL ACUTE CARE", "STATUS": "OPEN", "POPULATION": -999, "COUNTY": "HENNEPIN", "COUNTYFIPS": "27053", "COUNTRY": "USA", "LATITUDE": 44.972373516000097, "LONGITUDE": -93.231940521, "NAICS_CODE": "622110", "NAICS_DESC": "GENERAL MEDICAL AND SURGICAL HOSPITALS", "SOURCE": "http://www.health.state.mn.us/divs/fpc/directory/providerselect.cfm", "SOURCEDATE": "2018-08-09T00:00:00.000Z", "VAL_METHOD": "IMAGERY/OTHER", "VAL_DATE": "2015-05-21T00:00:00.000Z", "WEBSITE": "https://www.mhealth.org", "STATE_ID": "NOT AVAILABLE", "ALT_NAME": "NOT AVAILABLE", "ST_FIPS": "27", "OWNER": "GOVERNMENT - STATE", "TTL_STAFF": -999, "BEDS": -999, "TRAUMA": "NOT AVAILABLE", "HELIPAD": "Y" }, "geometry": { "type": "Polygon", "coordinates": [ [ [ -93.2809163, 44.890438499999966 ], [ -93.3640631, 44.971437599999987 ], [ -93.3494466, 44.98464509999998 ], [ -93.286208, 45.0278571 ], [ -93.262733400000016, 45.035543200000014 ], [ -93.2182535, 45.0481045 ], [ -93.198675, 45.048274 ], [ -93.1890401, 45.04399529999997 ], [ -93.1427982, 45.010380600000019 ], [ -93.0908825, 44.955785800000037 ], [ -93.0901691, 44.953595399999976 ], [ -93.095645, 44.945179499999931 ], [ -93.0977779, 44.94415290000002 ], [ -93.14505, 44.923114 ], [ -93.1568493, 44.917928 ], [ -93.1670534, 44.91434330000002 ], [ -93.2705598, 44.890351199999955 ], [ -93.2733326, 44.890371600000023 ], [ -93.2809163, 44.890438499999966 ] ] ] } },
{ "type": "Feature", "properties": { "OBJECTID": 998, "ID": "0011554848", "NAME": "RUSK COUNTY MEM HSPTL", "ADDRESS": "900 COLLEGE AVE WEST", "CITY": "LADYSMITH", "STATE": "WI", "ZIP": "54848", "ZIP4": "NOT AVAILABLE", "TELEPHONE": "(715) 532-5561", "TYPE": "GENERAL ACUTE CARE", "STATUS": "OPEN", "POPULATION": 25, "COUNTY": "RUSK", "COUNTYFIPS": "55107", "COUNTRY": "USA", "LATITUDE": 45.454668665, "LONGITUDE": -91.110049867000001, "NAICS_CODE": "622110", "NAICS_DESC": "GENERAL MEDICAL AND SURGICAL HOSPITALS", "SOURCE": "https://www.dhs.wisconsin.gov/guide/hospital.htm", "SOURCEDATE": "2018-08-13T00:00:00.000Z", "VAL_METHOD": "IMAGERY", "VAL_DATE": "2014-03-12T00:00:00.000Z", "WEBSITE": "http://www.ruskhospital.org", "STATE_ID": "1030", "ALT_NAME": "NOT AVAILABLE", "ST_FIPS": "55", "OWNER": "GOVERNMENT - LOCAL", "TTL_STAFF": -999, "BEDS": 25, "TRAUMA": "LEVEL IV", "HELIPAD": "Y" }, "geometry": { "type": "Polygon", "coordinates": [ [ [ -91.1107083, 45.3643637 ], [ -91.184021, 45.4070482 ], [ -91.245464, 45.457562 ], [ -91.1120537, 45.5524717 ], [ -90.987135, 45.484778700000042 ], [ -90.988190900000021, 45.482948700000016 ], [ -90.9903852, 45.480262199999977 ], [ -91.0597307, 45.4040276 ], [ -91.1107083, 45.3643637 ] ] ] } },
{ "type": "Feature", "properties": { "OBJECTID": 5207, "ID": "0001455404", "NAME": "CHILDRENS HOSP & CLINICS MINNE", "ADDRESS": "2525 CHICAGO AVENUE SOUTH", "CITY": "MINNEAPOLIS", "STATE": "MN", "ZIP": "55404", "ZIP4": "NOT AVAILABLE", "TELEPHONE": "(612) 813-6000", "TYPE": "GENERAL ACUTE CARE", "STATUS": "OPEN", "POPULATION": 381, "COUNTY": "HENNEPIN", "COUNTYFIPS": "27053", "COUNTRY": "USA", "LATITUDE": 44.956652478000102, "LONGITUDE": -93.261993301999993, "NAICS_CODE": "622110", "NAICS_DESC": "GENERAL MEDICAL AND SURGICAL HOSPITALS", "SOURCE": "http://www.health.state.mn.us/divs/fpc/directory/providerselect.cfm", "SOURCEDATE": "2018-08-09T00:00:00.000Z", "VAL_METHOD": "IMAGERY", "VAL_DATE": "2014-03-12T00:00:00.000Z", "WEBSITE": "http://www.childrensmn.org", "STATE_ID": "741", "ALT_NAME": "NOT AVAILABLE", "ST_FIPS": "27", "OWNER": "NON-PROFIT", "TTL_STAFF": -999, "BEDS": 381, "TRAUMA": "LEVEL I PEDIATRIC", "HELIPAD": "Y" }, "geometry": { "type": "Polygon", "coordinates": [ [ [ -93.2782761, 44.862242400000021 ], [ -93.2988812, 44.8646416 ], [ -93.302308, 44.865424599999962 ], [ -93.3290735, 44.886607099999964 ], [ -93.3739861, 44.937304400000045 ], [ -93.3962297, 44.974016100000014 ], [ -93.286865, 45.055669899999977 ], [ -93.1981069, 45.037067499999964 ], [ -93.1978978, 45.037005499999957 ], [ -93.196623, 45.036027800000021 ], [ -93.1571469, 44.951670400000012 ], [ -93.1979199, 44.8942786 ], [ -93.1980312, 44.894161100000041 ], [ -93.2782761, 44.862242400000021 ] ] ] } },
{ "type": "Feature", "properties": { "OBJECTID": 5208, "ID": "0001055440", "NAME": "PARK NICOLLET METHODIST HOSP", "ADDRESS": "6500 EXCELSIOR BLVD, PO BOX 650", "CITY": "ST LOUIS PARK", "STATE": "MN", "ZIP": "55440", "ZIP4": "NOT AVAILABLE", "TELEPHONE": "(952) 993-5000", "TYPE": "GENERAL ACUTE CARE", "STATUS": "OPEN", "POPULATION": 426, "COUNTY": "HENNEPIN", "COUNTYFIPS": "27053", "COUNTRY": "USA", "LATITUDE": 44.928985188000098, "LONGITUDE": -93.362230022999896, "NAICS_CODE": "622110", "NAICS_DESC": "GENERAL MEDICAL AND SURGICAL HOSPITALS", "SOURCE": "http://www.health.state.mn.us/divs/fpc/directory/providerselect.cfm", "SOURCEDATE": "2018-08-09T00:00:00.000Z", "VAL_METHOD": "IMAGERY", "VAL_DATE": "2014-02-10T00:00:00.000Z", "WEBSITE": "http://www.parknicollet.com", "STATE_ID": "230", "ALT_NAME": "NOT AVAILABLE", "ST_FIPS": "27", "OWNER": "NON-PROFIT", "TTL_STAFF": -999, "BEDS": 426, "TRAUMA": "LEVEL III", "HELIPAD": "Y" }, "geometry": { "type": "Polygon", "coordinates": [ [ [ -93.3504978, 44.818878100000035 ], [ -93.3996392, 44.8365233 ], [ -93.4586121, 44.8620975 ], [ -93.509953, 44.9113639 ], [ -93.5095302, 44.912864699999936 ], [ -93.4682208, 44.971259299999979 ], [ -93.4447151, 45.00257770000001 ], [ -93.4006586, 45.028643499999987 ], [ -93.34597770000002, 45.0399823 ], [ -93.3355611, 45.040038 ], [ -93.2824857, 45.005114199999973 ], [ -93.2637913, 44.9825651 ], [ -93.255823, 44.965923 ], [ -93.2475982, 44.8954658 ], [ -93.2834208, 44.861866300000024 ], [ -93.3503315, 44.818906700000056 ], [ -93.3504978, 44.818878100000035 ] ] ] } },
{ "type": "Feature", "properties": { "OBJECTID": 3176, "ID": "0007055414", "NAME": "SHRINERS HOSPITAL FOR CHILDREN", "ADDRESS": "2025 EAST RIVER PARKWAY", "CITY": "MINNEAPOLIS", "STATE": "MN", "ZIP": "55414", "ZIP4": "NOT AVAILABLE", "TELEPHONE": "(612) 596-6100", "TYPE": "CHILDREN", "STATUS": "OPEN", "POPULATION": 40, "COUNTY": "HENNEPIN", "COUNTYFIPS": "27053", "COUNTRY": "USA", "LATITUDE": 44.958544249000099, "LONGITUDE": -93.210647932000001, "NAICS_CODE": "622110", "NAICS_DESC": "GENERAL MEDICAL AND SURGICAL HOSPITALS", "SOURCE": "http://www.health.state.mn.us/divs/fpc/directory/providerselect.cfm", "SOURCEDATE": "2018-08-09T00:00:00.000Z", "VAL_METHOD": "IMAGERY", "VAL_DATE": "2014-02-10T00:00:00.000Z", "WEBSITE": "https://www.shrinershospitalsforchildren.org/minneapolis", "STATE_ID": "256", "ALT_NAME": "NOT AVAILABLE", "ST_FIPS": "27", "OWNER": "NON-PROFIT", "TTL_STAFF": -999, "BEDS": 40, "TRAUMA": "NOT AVAILABLE", "HELIPAD": "Y" }, "geometry": { "type": "Polygon", "coordinates": [ [ [ -93.2753496, 44.897566 ], [ -93.3459335, 44.9708194 ], [ -93.341781, 44.9750361 ], [ -93.2836285, 45.023698499999966 ], [ -93.1890401, 45.04399529999997 ], [ -93.177497, 45.035737 ], [ -93.1427982, 45.010380600000019 ], [ -93.0884937, 44.9704404 ], [ -93.0740692, 44.956271600000044 ], [ -93.0778062, 44.943955 ], [ -93.0877998, 44.937372 ], [ -93.1467512, 44.912226299999979 ], [ -93.1770893, 44.901669200000015 ], [ -93.1849141, 44.8991589 ], [ -93.1874056, 44.898621599999984 ], [ -93.2753496, 44.897566 ] ] ] } },
{ "type": "Feature", "properties": { "OBJECTID": 3182, "ID": "0003955125", "NAME": "HEALTHEAST WOODWINDS HOSPITAL", "ADDRESS": "1925 WOODWINDS DRIVE", "CITY": "WOODBURY", "STATE": "MN", "ZIP": "55125", "ZIP4": "NOT AVAILABLE", "TELEPHONE": "(651) 232-0228", "TYPE": "GENERAL ACUTE CARE", "STATUS": "OPEN", "POPULATION": 86, "COUNTY": "WASHINGTON", "COUNTYFIPS": "27163", "COUNTRY": "USA", "LATITUDE": 44.921908871, "LONGITUDE": -92.976476648999906, "NAICS_CODE": "622110", "NAICS_DESC": "GENERAL MEDICAL AND SURGICAL HOSPITALS", "SOURCE": "http://www.health.state.mn.us/divs/fpc/directory/providerselect.cfm", "SOURCEDATE": "2018-08-09T00:00:00.000Z", "VAL_METHOD": "IMAGERY", "VAL_DATE": "2014-02-10T00:00:00.000Z", "WEBSITE": "https://www.healtheast.org/woodwinds-health-campus/about/about.html", "STATE_ID": "4278", "ALT_NAME": "NOT AVAILABLE", "ST_FIPS": "27", "OWNER": "NON-PROFIT", "TTL_STAFF": -999, "BEDS": 86, "TRAUMA": "NOT AVAILABLE", "HELIPAD": "N" }, "geometry": { "type": "Polygon", "coordinates": [ [ [ -92.9493067, 44.8394286 ], [ -92.9670969, 44.843870699999961 ], [ -92.9735739, 44.846254 ], [ -92.9777022, 44.847898899999983 ], [ -92.985935200000014, 44.853452099999963 ], [ -93.1056916, 44.936102900000023 ], [ -93.1137841, 44.951088200000015 ], [ -93.0884937, 44.9704404 ], [ -92.9778639, 45.0336243 ], [ -92.951005, 45.03993 ], [ -92.940842, 45.035547899999983 ], [ -92.857338700000014, 44.976343800000038 ], [ -92.832608, 44.946885 ], [ -92.8541173, 44.912486 ], [ -92.8625578, 44.901658600000026 ], [ -92.906803, 44.8558619 ], [ -92.9166726, 44.848039 ], [ -92.922647, 44.844099 ], [ -92.9485377, 44.8394256 ], [ -92.9492133, 44.839428100000056 ], [ -92.9493067, 44.8394286 ] ] ] } },
{ "type": "Feature", "properties": { "OBJECTID": 3727, "ID": "0000955101", "NAME": "REGIONS HOSPITAL", "ADDRESS": "640 JACKSON STREET", "CITY": "ST PAUL", "STATE": "MN", "ZIP": "55101", "ZIP4": "NOT AVAILABLE", "TELEPHONE": "(651) 254-3456", "TYPE": "GENERAL ACUTE CARE", "STATUS": "OPEN", "POPULATION": 454, "COUNTY": "RAMSEY", "COUNTYFIPS": "27123", "COUNTRY": "USA", "LATITUDE": 44.955887533000102, "LONGITUDE": -93.094951637999898, "NAICS_CODE": "622110", "NAICS_DESC": "GENERAL MEDICAL AND SURGICAL HOSPITALS", "SOURCE": "http://www.health.state.mn.us/divs/fpc/directory/providerselect.cfm", "SOURCEDATE": "2018-08-09T00:00:00.000Z", "VAL_METHOD": "IMAGERY", "VAL_DATE": "2014-03-12T00:00:00.000Z", "WEBSITE": "http://www.regionshospital.com", "STATE_ID": "527", "ALT_NAME": "NOT AVAILABLE", "ST_FIPS": "27", "OWNER": "NON-PROFIT", "TTL_STAFF": -999, "BEDS": 454, "TRAUMA": "LEVEL I", "HELIPAD": "Y" }, "geometry": { "type": "Polygon", "coordinates": [ [ [ -93.059362, 44.86094 ], [ -93.129669, 44.864433 ], [ -93.129891, 44.8645 ], [ -93.1322391, 44.8655259 ], [ -93.1861332, 44.896909800000053 ], [ -93.187697, 44.898957400000043 ], [ -93.2268789, 44.962780800000033 ], [ -93.2256949, 44.967843199999969 ], [ -93.2060018, 45.0006205 ], [ -93.142189700000017, 45.05867729999995 ], [ -93.131609, 45.06293 ], [ -93.1305733, 45.0632696 ], [ -93.111836, 45.06792 ], [ -93.052418, 45.075151100000042 ], [ -93.01194, 45.037098200000045 ], [ -92.9577661, 44.963199899999964 ], [ -92.9623872, 44.925672599999949 ], [ -92.9626512, 44.924808400000032 ], [ -92.9627035, 44.924657399999973 ], [ -93.006459, 44.891210500000014 ], [ -93.059362, 44.86094 ] ] ] } },
{ "type": "Feature", "properties": { "OBJECTID": 3857, "ID": "0172054801", "NAME": "SPOONER HOSPITAL SYSTEM", "ADDRESS": "1280 CHANDLER DR", "CITY": "SPOONER", "STATE": "WI", "ZIP": "54801", "ZIP4": "NOT AVAILABLE", "TELEPHONE": "(715) 635-2111", "TYPE": "CRITICAL ACCESS", "STATUS": "OPEN", "POPULATION": 25, "COUNTY": "WASHBURN", "COUNTYFIPS": "55129", "COUNTRY": "USA", "LATITUDE": 45.841472701000001, "LONGITUDE": -91.872068086, "NAICS_CODE": "622110", "NAICS_DESC": "GENERAL MEDICAL AND SURGICAL HOSPITALS", "SOURCE": "https://www.dhs.wisconsin.gov/guide/hospital.htm", "SOURCEDATE": "2018-08-13T00:00:00.000Z", "VAL_METHOD": "IMAGERY", "VAL_DATE": "2019-05-09T00:00:00.000Z", "WEBSITE": "https://www.spoonerhealthsystem.com/", "STATE_ID": "1036", "ALT_NAME": "NOT AVAILABLE", "ST_FIPS": "55", "OWNER": "NON-PROFIT", "TTL_STAFF": -999, "BEDS": 25, "TRAUMA": "LEVEL IV", "HELIPAD": "Y" }, "geometry": { "type": "Polygon", "coordinates": [ [ [ -91.806848, 45.709561 ], [ -91.930714, 45.730137 ], [ -91.9331211, 45.7320133 ], [ -92.006848, 45.81518 ], [ -91.990221, 45.843378 ], [ -91.960674, 45.886442 ], [ -91.8283413, 45.963659199999988 ], [ -91.8277473, 45.9636545 ], [ -91.74706, 45.915464 ], [ -91.7413877, 45.8564831 ], [ -91.743503, 45.815528500000028 ], [ -91.806024, 45.709636 ], [ -91.806848, 45.709561 ] ] ] } },
{ "type": "Feature", "properties": { "OBJECTID": 3859, "ID": "0172254002", "NAME": "WESTERN WISCONSIN HEALTH", "ADDRESS": "1100 BERGSLIEN ST", "CITY": "BALDIWN", "STATE": "WI", "ZIP": "54002", "ZIP4": "NOT AVAILABLE", "TELEPHONE": "(715) 684-1111", "TYPE": "CRITICAL ACCESS", "STATUS": "OPEN", "POPULATION": 25, "COUNTY": "SAINT CROIX", "COUNTYFIPS": "55109", "COUNTRY": "USA", "LATITUDE": 44.941339, "LONGITUDE": -92.378301, "NAICS_CODE": "622110", "NAICS_DESC": "GENERAL MEDICAL AND SURGICAL HOSPITALS", "SOURCE": "https://www.dhs.wisconsin.gov/guide/hospital.htm", "SOURCEDATE": "2018-08-13T00:00:00.000Z", "VAL_METHOD": "IMAGERY", "VAL_DATE": "2019-05-09T00:00:00.000Z", "WEBSITE": "https://www.wwhealth.org/", "STATE_ID": "1052", "ALT_NAME": "BALDWIN AREA MED CTR", "ST_FIPS": "55", "OWNER": "NON-PROFIT", "TTL_STAFF": -999, "BEDS": 25, "TRAUMA": "NOT AVAILABLE", "HELIPAD": "N" }, "geometry": { "type": "Polygon", "coordinates": [ [ [ -92.385289, 44.829732 ], [ -92.563112, 44.94929030000003 ], [ -92.5666972, 44.960425900000018 ], [ -92.55818, 44.970826 ], [ -92.375109400000014, 45.050004800000011 ], [ -92.1964135, 44.9446142 ], [ -92.1942084, 44.937070899999974 ], [ -92.1971791, 44.913031 ], [ -92.3584935, 44.832341300000031 ], [ -92.385289, 44.829732 ] ] ] } },
{ "type": "Feature", "properties": { "OBJECTID": 3955, "ID": "0001555432", "NAME": "MERCY HOSPITAL ? UNITY CAMPUS", "ADDRESS": "550 OSBORNE RD", "CITY": "FRIDLEY", "STATE": "MN", "ZIP": "55432", "ZIP4": "NOT AVAILABLE", "TELEPHONE": "(763) 236-5000", "TYPE": "GENERAL ACUTE CARE", "STATUS": "OPEN", "POPULATION": 275, "COUNTY": "ANOKA", "COUNTYFIPS": "27003", "COUNTRY": "USA", "LATITUDE": 45.106480623000003, "LONGITUDE": -93.256730437000002, "NAICS_CODE": "622110", "NAICS_DESC": "GENERAL MEDICAL AND SURGICAL HOSPITALS", "SOURCE": "http://www.health.state.mn.us/divs/fpc/directory/providerselect.cfm", "SOURCEDATE": "2018-08-09T00:00:00.000Z", "VAL_METHOD": "IMAGERY", "VAL_DATE": "2014-02-10T00:00:00.000Z", "WEBSITE": "https://www.allinahealth.org/Unity-Hospital/", "STATE_ID": "11", "ALT_NAME": "NOT AVAILABLE", "ST_FIPS": "27", "OWNER": "NON-PROFIT", "TTL_STAFF": -999, "BEDS": 275, "TRAUMA": "NOT AVAILABLE", "HELIPAD": "N" }, "geometry": { "type": "Polygon", "coordinates": [ [ [ -93.263109200000017, 45.005288899999982 ], [ -93.2675184, 45.007472600000021 ], [ -93.2880688, 45.022125700000018 ], [ -93.298256, 45.029396 ], [ -93.300842, 45.031265 ], [ -93.3619918, 45.2045016 ], [ -93.3590826, 45.208866500000013 ], [ -93.3574981, 45.209672199999979 ], [ -93.2345833, 45.2276305 ], [ -93.1680826, 45.1677104 ], [ -93.15561, 45.144959 ], [ -93.126871, 45.080519 ], [ -93.1268578, 45.0794609 ], [ -93.1268564, 45.079329600000023 ], [ -93.1268666, 45.0550232 ], [ -93.1598912, 45.038444400000046 ], [ -93.263109200000017, 45.005288899999982 ] ] ] } }
]
}
