{
"type": "FeatureCollection",
"crs": { "type": "name", "properties": { "name": "urn:ogc:def:crs:OGC:1.3:CRS84" } },
"features": [
{ "type": "Feature", "properties": { "OBJECTID": 1083, "ID": "0003380649", "NAME": "GAYLORD HOSPITAL", "ADDRESS": "50 GAYLORD FARM RD", "CITY": "WALLINGFORD", "STATE": "CT", "ZIP": "06492", "ZIP4": "2828", "TELEPHONE": "(203) 284-2800", "TYPE": "CHRONIC DISEASE", "STATUS": "OPEN", "POPULATION": -999, "COUNTY": "NEW HAVEN", "COUNTYFIPS": "09009", "COUNTRY": "USA", "LATITUDE": 41.472884784000001, "LONGITUDE": -72.856761249000002, "NAICS_CODE": "622310", "NAICS_DESC": "REHABILITATION HOSPITALS (EXCEPT ALCOHOLISM, DRUG ADDICTION)", "SOURCE": "https://www.elicense.ct.gov/Lookup/GenerateRoster.aspx", "SOURCEDATE": "2018-08-13T00:00:00.000Z", "VAL_METHOD": "IMAGERY/OTHER", "VAL_DATE": "2016-03-31T00:00:00.000Z", "WEBSITE": "http://www.gaylord.org/", "STATE_ID": "NOT AVAILABLE", "ALT_NAME": "NOT AVAILABLE", "ST_FIPS": "09", "OWNER": "NON-PROFIT", "TTL_STAFF": -999, "BEDS": -999, "TRAUMA": "NOT AVAILABLE", "HELIPAD": "N" }, "geometry": { "type": "Polygon", "coordinates": [ [ [ -72.878317, 41.3895533 ], [ -72.8811121, 41.3921997 ], [ -72.8827841, 41.39409489999997 ], [ -72.9186071, 41.459920300000036 ], [ -72.917622200000011, 41.477973299999981 ], [ -72.906187, 41.501164599999981 ], [ -72.9039651, 41.504259 ], [ -72.888283, 41.512968900000018 ], [ -72.881660900000014, 41.51550019999997 ], [ -72.8692358, 41.51880950000001 ], [ -72.8427832, 41.523961200000016 ], [ -72.7946893, 41.531052500000044 ], [ -72.7762926, 41.515296300000031 ], [ -72.7648293, 41.4764189 ], [ -72.7807165, 41.438699199999959 ], [ -72.799043, 41.425097 ], [ -72.8732712, 41.391036499999942 ], [ -72.878317, 41.3895533 ] ] ] } },
{ "type": "Feature", "properties": { "OBJECTID": 1452, "ID": "0001806226", "NAME": "WINDHAM COMMUNITY MEMORIAL HOSPITAL", "ADDRESS": "112 MANSFIELD AVE", "CITY": "WILLIMANTIC", "STATE": "CT", "ZIP": "06226", "ZIP4": "NOT AVAILABLE", "TELEPHONE": "(860) 456-9116", "TYPE": "GENERAL ACUTE CARE", "STATUS": "OPEN", "POPULATION": 130, "COUNTY": "WINDHAM", "COUNTYFIPS": "09015", "COUNTRY": "USA", "LATITUDE": 41.717300641000101, "LONGITUDE": -72.226375263999998, "NAICS_CODE": "622110", "NAICS_DESC": "GENERAL MEDICAL AND SURGICAL HOSPITALS", "SOURCE": "https://www.elicense.ct.gov/Lookup/GenerateRoster.aspx", "SOURCEDATE": "2018-08-13T00:00:00.000Z", "VAL_METHOD": "IMAGERY", "VAL_DATE": "2014-02-10T00:00:00.000Z", "WEBSITE": "http://www.windhamhospital.org", "STATE_ID": "070021", "ALT_NAME": "NOT AVAILABLE", "ST_FIPS": "09", "OWNER": "NON-PROFIT", "TTL_STAFF": -999, "BEDS": 130, "TRAUMA": "NOT AVAILABLE", "HELIPAD": "Y" }, "geometry": { "type": "Polygon", "coordinates": [ [ [ -72.1584472, 41.6570369 ], [ -72.289895, 41.722240799999987 ], [ -72.3004694, 41.749789699999987 ], [ -72.2980949, 41.7674754 ], [ -72.276594700000018, 41.7865417 ], [ -72.1416952, 41.761841600000011 ], [ -72.132562900000011, 41.6977146 ], [ -72.132866400000012, 41.696133599999989 ], [ -72.1584472, 41.6570369 ] ] ] } },
{ "type": "Feature", "properties": { "OBJECTID": 1453, "ID": "0001606460", "NAME": "MILFORD HOSPITAL", "ADDRESS": "300 SEASIDE AVENUE", "CITY": "MILFORD", "STATE": "CT", "ZIP": "06460", "ZIP4": "NOT AVAILABLE", "TELEPHONE": "(203) 876-4000", "TYPE": "GENERAL ACUTE CARE", "STATUS": "OPEN", "POPULATION": 87, "COUNTY": "NEW HAVEN", "COUNTYFIPS": "09009", "COUNTRY": "USA", "LATITUDE": 41.216584630000099, "LONGITUDE": -73.065014984999905, "NAICS_CODE": "622110", "NAICS_DESC": "GENERAL MEDICAL AND SURGICAL HOSPITALS", "SOURCE": "https://www.elicense.ct.gov/Lookup/GenerateRoster.aspx", "SOURCEDATE": "2018-08-13T00:00:00.000Z", "VAL_METHOD": "IMAGERY", "VAL_DATE": "2014-02-10T00:00:00.000Z", "WEBSITE": "http://www.milfordhospital.org", "STATE_ID": "070019", "ALT_NAME": "NOT AVAILABLE", "ST_FIPS": "09", "OWNER": "NON-PROFIT", "TTL_STAFF": -999, "BEDS": 87, "TRAUMA": "NOT AVAILABLE", "HELIPAD": "N" }, "geometry": { "type": "Polygon", "coordinates": [ [ [ -73.10414560000001, 41.174044399999985 ], [ -73.110885, 41.19543070000001 ], [ -73.110976900000011, 41.200382600000019 ], [ -73.104586, 41.222426199999973 ], [ -73.0974083, 41.239027100000044 ], [ -73.0810646, 41.27380790000003 ], [ -73.0782319, 41.278932899999987 ], [ -73.076642400000011, 41.280936100000012 ], [ -73.0337692, 41.305868099999962 ], [ -72.9564304, 41.282118900000015 ], [ -72.9553541, 41.279881399999987 ], [ -72.9588294, 41.2709722 ], [ -72.9728651, 41.2363055 ], [ -72.9750537, 41.2341553 ], [ -73.0135972, 41.2057615 ], [ -73.015698300000011, 41.2049267 ], [ -73.10414560000001, 41.174044399999985 ] ] ] } },
{ "type": "Feature", "properties": { "OBJECTID": 1454, "ID": "0002506418", "NAME": "GRIFFIN HOSPITAL", "ADDRESS": "130 DIVISION ST", "CITY": "DERBY", "STATE": "CT", "ZIP": "06418", "ZIP4": "NOT AVAILABLE", "TELEPHONE": "(203) 732-7500", "TYPE": "GENERAL ACUTE CARE", "STATUS": "OPEN", "POPULATION": 160, "COUNTY": "NEW HAVEN", "COUNTYFIPS": "09009", "COUNTRY": "USA", "LATITUDE": 41.335612997000098, "LONGITUDE": -73.089205141999997, "NAICS_CODE": "622110", "NAICS_DESC": "GENERAL MEDICAL AND SURGICAL HOSPITALS", "SOURCE": "https://www.elicense.ct.gov/Lookup/GenerateRoster.aspx", "SOURCEDATE": "2018-08-13T00:00:00.000Z", "VAL_METHOD": "IMAGERY", "VAL_DATE": "2014-02-10T00:00:00.000Z", "WEBSITE": "http://www.griffinhealth.org", "STATE_ID": "070031", "ALT_NAME": "NOT AVAILABLE", "ST_FIPS": "09", "OWNER": "NON-PROFIT", "TTL_STAFF": -999, "BEDS": 160, "TRAUMA": "NOT AVAILABLE", "HELIPAD": "N" }, "geometry": { "type": "Polygon", "coordinates": [ [ [ -73.1559664, 41.233029 ], [ -73.157091800000018, 41.250483300000027 ], [ -73.1515745, 41.372718399999968 ], [ -73.103384, 41.419301900000036 ], [ -73.0670864, 41.447529400000022 ], [ -73.0548704, 41.4373236 ], [ -72.9944669, 41.331116500000022 ], [ -72.991149800000017, 41.299601299999964 ], [ -72.9910748, 41.298283400000017 ], [ -73.01042240000001, 41.283938 ], [ -73.0504559, 41.266027700000045 ], [ -73.1559664, 41.233029 ] ] ] } },
{ "type": "Feature", "properties": { "OBJECTID": 1455, "ID": "0002806050", "NAME": "THE HOSPITAL OF CENTRAL CONNECTICUT", "ADDRESS": "100 GRAND STREET", "CITY": "NEW BRITAIN", "STATE": "CT", "ZIP": "06050", "ZIP4": "NOT AVAILABLE", "TELEPHONE": "(860) 224-5011", "TYPE": "GENERAL ACUTE CARE", "STATUS": "OPEN", "POPULATION": 229, "COUNTY": "HARTFORD", "COUNTYFIPS": "09003", "COUNTRY": "USA", "LATITUDE": 41.661048674, "LONGITUDE": -72.787748395999998, "NAICS_CODE": "622110", "NAICS_DESC": "GENERAL MEDICAL AND SURGICAL HOSPITALS", "SOURCE": "https://www.elicense.ct.gov/Lookup/GenerateRoster.aspx", "SOURCEDATE": "2018-08-13T00:00:00.000Z", "VAL_METHOD": "IMAGERY", "VAL_DATE": "2014-02-10T00:00:00.000Z", "WEBSITE": "http://www.thocc.org", "STATE_ID": "070035", "ALT_NAME": "NOT AVAILABLE", "ST_FIPS": "09", "OWNER": "NON-PROFIT", "TTL_STAFF": -999, "BEDS": 229, "TRAUMA": "NOT AVAILABLE", "HELIPAD": "Y" }, "geometry": { "type": "Polygon", "coordinates": [ [ [ -72.7670705, 41.57900949999997 ], [ -72.9006728, 41.610076399999954 ], [ -72.9170102, 41.667983400000011 ], [ -72.879897500000013, 41.706514500000033 ], [ -72.822722900000016, 41.725525200000035 ], [ -72.8033828, 41.730663800000038 ], [ -72.7445318, 41.74123070000001 ], [ -72.7348224, 41.742749500000023 ], [ -72.700788, 41.6988313 ], [ -72.6984483, 41.672468 ], [ -72.71594850000001, 41.604172399999989 ], [ -72.7670705, 41.57900949999997 ] ] ] } },
{ "type": "Feature", "properties": { "OBJECTID": 1471, "ID": "0003806067", "NAME": "SGT. JOHN L. LEVITOW VETERAN'S HEALTH CENTER", "ADDRESS": "287 WEST ST", "CITY": "ROCKY HILL", "STATE": "CT", "ZIP": "06067", "ZIP4": "3501", "TELEPHONE": "(860) 616-3600", "TYPE": "CHRONIC DISEASE", "STATUS": "OPEN", "POPULATION": -999, "COUNTY": "HARTFORD", "COUNTYFIPS": "09003", "COUNTRY": "USA", "LATITUDE": 41.656740587000101, "LONGITUDE": -72.656512141999897, "NAICS_CODE": "622310", "NAICS_DESC": "REHABILITATION HOSPITALS (EXCEPT ALCOHOLISM, DRUG ADDICTION)", "SOURCE": "https://www.elicense.ct.gov/Lookup/GenerateRoster.aspx", "SOURCEDATE": "2018-08-13T00:00:00.000Z", "VAL_METHOD": "IMAGERY/OTHER", "VAL_DATE": "2016-03-31T00:00:00.000Z", "WEBSITE": "http://www.ct.gov/ctva/cwp/view.asp?a=2005&q=482380", "STATE_ID": "NOT AVAILABLE", "ALT_NAME": "NOT AVAILABLE", "ST_FIPS": "09", "OWNER": "GOVERNMENT - STATE", "TTL_STAFF": -999, "BEDS": -999, "TRAUMA": "NOT AVAILABLE", "HELIPAD": "N" }, "geometry": { "type": "Polygon", "coordinates": [ [ [ -72.7289887, 41.566955900000025 ], [ -72.7499317, 41.6394682 ], [ -72.735438, 41.6706113 ], [ -72.7314419, 41.678499 ], [ -72.7301268, 41.680590800000047 ], [ -72.7217406, 41.689907 ], [ -72.6940605, 41.7165123 ], [ -72.6579798, 41.751034800000021 ], [ -72.608434200000019, 41.723998300000012 ], [ -72.6005338, 41.716675900000048 ], [ -72.6265508, 41.651352399999958 ], [ -72.6285392, 41.6476289 ], [ -72.649756200000013, 41.6082279 ], [ -72.7227108, 41.5692562 ], [ -72.7289887, 41.566955900000025 ] ] ] } },
{ "type": "Feature", "properties": { "OBJECTID": 1478, "ID": "0004201201", "NAME": "BERKSHIRE MEDICAL CENTER - BERKSHIRE CAMPUS", "ADDRESS": "725 NORTH STREET", "CITY": "PITTSFIELD", "STATE": "MA", "ZIP": "01201", "ZIP4": "NOT AVAILABLE", "TELEPHONE": "(413) 447-2000", "TYPE": "GENERAL ACUTE CARE", "STATUS": "OPEN", "POPULATION": 298, "COUNTY": "BERKSHIRE", "COUNTYFIPS": "25003", "COUNTRY": "USA", "LATITUDE": 42.46, "LONGITUDE": -73.2492, "NAICS_CODE": "622110", "NAICS_DESC": "GENERAL MEDICAL AND SURGICAL HOSPITALS", "SOURCE": "http://www.mass.gov/eohhs/gov/departments/dph/programs/hcq/healthcare-quality/", "SOURCEDATE": "2018-08-16T00:00:00.000Z", "VAL_METHOD": "IMAGERY/OTHER", "VAL_DATE": "2014-02-10T00:00:00.000Z", "WEBSITE": "http://www.berkshirehealthsystems.org/BMC", "STATE_ID": "2313", "ALT_NAME": "BERKSHIRE MEDICAL CENTER", "ST_FIPS": "25", "OWNER": "NON-PROFIT", "TTL_STAFF": -999, "BEDS": 298, "TRAUMA": "LEVEL III", "HELIPAD": "N" }, "geometry": { "type": "Polygon", "coordinates": [ [ [ -73.2761602, 42.3819566 ], [ -73.324753, 42.40262 ], [ -73.34967, 42.427829 ], [ -73.349102, 42.428761 ], [ -73.326407, 42.459389 ], [ -73.314761, 42.473912 ], [ -73.28444, 42.508194 ], [ -73.233677, 42.54087 ], [ -73.22841, 42.540106 ], [ -73.1922148, 42.515593500000044 ], [ -73.152721, 42.482592 ], [ -73.152375, 42.482011 ], [ -73.150201, 42.476252 ], [ -73.1493286, 42.473897699999988 ], [ -73.149069, 42.46803 ], [ -73.19081, 42.419573 ], [ -73.195739, 42.416138 ], [ -73.25609, 42.388526 ], [ -73.2761602, 42.3819566 ] ] ] } },
{ "type": "Feature", "properties": { "OBJECTID": 1492, "ID": "0001501040", "NAME": "MERCY MEDICAL CENTER - PROVIDENCE BEHAVIORAL HEALTH HOSPITAL CAMPUS", "ADDRESS": "1233 MAIN STREET", "CITY": "HOLYOKE", "STATE": "MA", "ZIP": "01040", "ZIP4": "NOT AVAILABLE", "TELEPHONE": "(413) 748-9000", "TYPE": "PSYCHIATRIC", "STATUS": "OPEN", "POPULATION": 131, "COUNTY": "HAMPDEN", "COUNTYFIPS": "25013", "COUNTRY": "USA", "LATITUDE": 42.1659, "LONGITUDE": -72.634, "NAICS_CODE": "622110", "NAICS_DESC": "GENERAL MEDICAL AND SURGICAL HOSPITALS", "SOURCE": "http://www.mass.gov/eohhs/gov/departments/dph/programs/hcq/healthcare-quality/", "SOURCEDATE": "2018-08-16T00:00:00.000Z", "VAL_METHOD": "IMAGERY/OTHER", "VAL_DATE": "2014-02-10T00:00:00.000Z", "WEBSITE": "http://www.mercycares.com/pages.asp?id=514", "STATE_ID": "2150", "ALT_NAME": "PROVIDENCE BEHAVIORAL HEALTH HOSPITAL", "ST_FIPS": "25", "OWNER": "NON-PROFIT", "TTL_STAFF": -999, "BEDS": 131, "TRAUMA": "NOT AVAILABLE", "HELIPAD": "N" }, "geometry": { "type": "Polygon", "coordinates": [ [ [ -72.626748, 42.089299 ], [ -72.627071, 42.08941 ], [ -72.740259, 42.134878 ], [ -72.740321, 42.13983 ], [ -72.739621, 42.145457 ], [ -72.6885567, 42.201985 ], [ -72.6518792, 42.2377031 ], [ -72.615653, 42.255368 ], [ -72.566676, 42.231702 ], [ -72.536034, 42.161349 ], [ -72.582056, 42.09057 ], [ -72.5915783, 42.083001500000037 ], [ -72.626748, 42.089299 ] ] ] } },
{ "type": "Feature", "properties": { "OBJECTID": 1493, "ID": "0004701199", "NAME": "BAYSTATE MEDICAL CENTER", "ADDRESS": "759 CHESTNUT STREET", "CITY": "SPRINGFIELD", "STATE": "MA", "ZIP": "01199", "ZIP4": "NOT AVAILABLE", "TELEPHONE": "(413) 794-0000", "TYPE": "GENERAL ACUTE CARE", "STATUS": "OPEN", "POPULATION": 724, "COUNTY": "HAMPDEN", "COUNTYFIPS": "25013", "COUNTRY": "USA", "LATITUDE": 42.1217, "LONGITUDE": -72.6032, "NAICS_CODE": "622110", "NAICS_DESC": "GENERAL MEDICAL AND SURGICAL HOSPITALS", "SOURCE": "http://www.mass.gov/eohhs/gov/departments/dph/programs/hcq/healthcare-quality/", "SOURCEDATE": "2018-08-16T00:00:00.000Z", "VAL_METHOD": "IMAGERY/OTHER", "VAL_DATE": "2014-02-10T00:00:00.000Z", "WEBSITE": "http://www.baystatehealth.org/bmc", "STATE_ID": "2M5H", "ALT_NAME": "BAYSTATE MEDICAL CENTER", "ST_FIPS": "25", "OWNER": "NON-PROFIT", "TTL_STAFF": -999, "BEDS": 724, "TRAUMA": "LEVEL I, LEVEL II PEDIATRIC", "HELIPAD": "Y" }, "geometry": { "type": "Polygon", "coordinates": [ [ [ -72.582815, 42.034543 ], [ -72.634013, 42.052685 ], [ -72.6625721, 42.063664799999984 ], [ -72.669871, 42.068363 ], [ -72.684608, 42.107837 ], [ -72.666191, 42.182894 ], [ -72.642598, 42.216037 ], [ -72.62909, 42.22364 ], [ -72.601183, 42.223552 ], [ -72.528991, 42.175635 ], [ -72.511155, 42.156349 ], [ -72.507095, 42.151556 ], [ -72.50522, 42.148395 ], [ -72.514073, 42.094642 ], [ -72.518562, 42.072369 ], [ -72.582815, 42.034543 ] ] ] } },
{ "type": "Feature", "properties": { "OBJECTID": 1501, "ID": "0003611790", "NAME": "STONY BROOK UNIVERSITY HOSPITAL", "ADDRESS": "101 NICOLLS RD", "CITY": "STONY BROOK", "STATE": "NY", "ZIP": "11790", "ZIP4": "NOT AVAILABLE", "TELEPHONE": "(516) 689-3333", "TYPE": "GENERAL ACUTE CARE", "STATUS": "OPEN", "POPULATION": 603, "COUNTY": "SUFFOLK", "COUNTYFIPS": "36103", "COUNTRY": "USA", "LATITUDE": 40.909194454999998, "LONGITUDE": -73.115678223000003, "NAICS_CODE": "622110", "NAICS_DESC": "GENERAL MEDICAL AND SURGICAL HOSPITALS", "SOURCE": "https://profiles.health.ny.gov/hospital/county_or_region/", "SOURCEDATE": "2018-08-20T00:00:00.000Z", "VAL_METHOD": "IMAGERY/OTHER", "VAL_DATE": "2014-02-10T00:00:00.000Z", "WEBSITE": "https://www.stonybrookmedicine.edu/sbuh", "STATE_ID": "5151001H", "ALT_NAME": "NOT AVAILABLE", "ST_FIPS": "36", "OWNER": "GOVERNMENT - STATE", "TTL_STAFF": -999, "BEDS": 603, "TRAUMA": "LEVEL I, LEVEL I PEDIATRIC", "HELIPAD": "Y" }, "geometry": { "type": "Polygon", "coordinates": [ [ [ -73.189316, 40.832183 ], [ -73.1908492, 40.8351011 ], [ -73.194407, 40.855082 ], [ -73.1789584, 40.8895639 ], [ -73.1454008, 40.961819799999979 ], [ -73.1125032, 40.969387 ], [ -73.061143, 40.957084 ], [ -73.054338, 40.952266 ], [ -73.0356647, 40.9331436 ], [ -73.035084900000015, 40.931631499999988 ], [ -73.0350348, 40.931489599999978 ], [ -73.0252559, 40.881384300000029 ], [ -73.0296148, 40.8673748 ], [ -73.0542902, 40.819639299999984 ], [ -73.189316, 40.832183 ] ] ] } },
{ "type": "Feature", "properties": { "OBJECTID": 2056, "ID": "0013501085", "NAME": "WESTERN MASSACHUSETTS HOSPITAL", "ADDRESS": "91 EAST MOUNTAIN RD", "CITY": "WESTFIELD", "STATE": "MA", "ZIP": "01085", "ZIP4": "NOT AVAILABLE", "TELEPHONE": "(413) 562-4131", "TYPE": "LONG TERM CARE", "STATUS": "OPEN", "POPULATION": 100, "COUNTY": "HAMPDEN", "COUNTYFIPS": "25013", "COUNTRY": "USA", "LATITUDE": 42.110369732000002, "LONGITUDE": -72.700910117999996, "NAICS_CODE": "622310", "NAICS_DESC": "SPECIALTY (EXCEPT PSYCHIATRIC AND SUBSTANCE ABUSE) HOSPITALS", "SOURCE": "http://www.mass.gov/eohhs/gov/departments/dph/programs/hcq/healthcare-quality/", "SOURCEDATE": "2018-08-16T00:00:00.000Z", "VAL_METHOD": "IMAGERY", "VAL_DATE": "2016-08-02T00:00:00.000Z", "WEBSITE": "http://www.mass.gov/eohhs/gov/departments/dph/programs/hospitals/western-massachusetts-hospital.html", "STATE_ID": "2826", "ALT_NAME": "NOT AVAILABLE", "ST_FIPS": "25", "OWNER": "GOVERNMENT - STATE", "TTL_STAFF": -999, "BEDS": 100, "TRAUMA": "NOT AVAILABLE", "HELIPAD": "N" }, "geometry": { "type": "Polygon", "coordinates": [ [ [ -72.7300601, 42.055434700000049 ], [ -72.768581, 42.077806 ], [ -72.799797, 42.116161 ], [ -72.805458, 42.129905 ], [ -72.806516, 42.134379 ], [ -72.763846, 42.161142 ], [ -72.72722, 42.175312 ], [ -72.686237, 42.188904 ], [ -72.674998, 42.190591 ], [ -72.666191, 42.182894 ], [ -72.626121, 42.131474 ], [ -72.612454, 42.109745 ], [ -72.613152, 42.100625 ], [ -72.623793, 42.087921 ], [ -72.727806, 42.055397 ], [ -72.7300601, 42.055434700000049 ] ] ] } },
{ "type": "Feature", "properties": { "OBJECTID": 2352, "ID": "0002706856", "NAME": "NORWALK HOSPITAL", "ADDRESS": "34 MAPLE ST", "CITY": "NORWALK", "STATE": "CT", "ZIP": "06856", "ZIP4": "NOT AVAILABLE", "TELEPHONE": "(203) 852-2000", "TYPE": "GENERAL ACUTE CARE", "STATUS": "OPEN", "POPULATION": 328, "COUNTY": "FAIRFIELD", "COUNTYFIPS": "09001", "COUNTRY": "USA", "LATITUDE": 41.111596648000003, "LONGITUDE": -73.422623625, "NAICS_CODE": "622110", "NAICS_DESC": "GENERAL MEDICAL AND SURGICAL HOSPITALS", "SOURCE": "https://www.elicense.ct.gov/Lookup/GenerateRoster.aspx", "SOURCEDATE": "2018-08-13T00:00:00.000Z", "VAL_METHOD": "IMAGERY", "VAL_DATE": "2014-02-10T00:00:00.000Z", "WEBSITE": "http://www.norwalkhospital.org", "STATE_ID": "070034", "ALT_NAME": "NORWALK HOSPITAL ASSOCIATION", "ST_FIPS": "09", "OWNER": "NON-PROFIT", "TTL_STAFF": -999, "BEDS": 328, "TRAUMA": "LEVEL II", "HELIPAD": "Y" }, "geometry": { "type": "Polygon", "coordinates": [ [ [ -73.5431583, 41.047313 ], [ -73.500127, 41.15521460000005 ], [ -73.4981892, 41.1581459 ], [ -73.4307454, 41.200499799999989 ], [ -73.4128651, 41.196109100000058 ], [ -73.2915077, 41.1367564 ], [ -73.2907478, 41.136167699999959 ], [ -73.3169224, 41.118823700000036 ], [ -73.4336928, 41.0569452 ], [ -73.4349651, 41.0563062 ], [ -73.4788291, 41.044936800000031 ], [ -73.490278300000014, 41.044531700000022 ], [ -73.5431583, 41.047313 ] ] ] } },
{ "type": "Feature", "properties": { "OBJECTID": 2353, "ID": "0000406069", "NAME": "SHARON HOSPITAL", "ADDRESS": "50 HOSPITAL HILL ROAD, PO BOX 789", "CITY": "SHARON", "STATE": "CT", "ZIP": "06069", "ZIP4": "NOT AVAILABLE", "TELEPHONE": "(860) 364-4228", "TYPE": "GENERAL ACUTE CARE", "STATUS": "OPEN", "POPULATION": 78, "COUNTY": "LITCHFIELD", "COUNTYFIPS": "09005", "COUNTRY": "USA", "LATITUDE": 41.88054263, "LONGITUDE": -73.481738328999896, "NAICS_CODE": "622110", "NAICS_DESC": "GENERAL MEDICAL AND SURGICAL HOSPITALS", "SOURCE": "https://www.elicense.ct.gov/Lookup/GenerateRoster.aspx", "SOURCEDATE": "2018-08-13T00:00:00.000Z", "VAL_METHOD": "IMAGERY", "VAL_DATE": "2014-02-10T00:00:00.000Z", "WEBSITE": "http://www.sharonhospital.com", "STATE_ID": "070004", "ALT_NAME": "NOT AVAILABLE", "ST_FIPS": "09", "OWNER": "PROPRIETARY", "TTL_STAFF": -999, "BEDS": 78, "TRAUMA": "NOT AVAILABLE", "HELIPAD": "Y" }, "geometry": { "type": "Polygon", "coordinates": [ [ [ -73.527186, 41.80716 ], [ -73.5571634, 41.849438499999984 ], [ -73.55623, 41.866563 ], [ -73.55202, 41.915536 ], [ -73.507243, 41.953174 ], [ -73.505406, 41.954401 ], [ -73.437961, 41.961125500000058 ], [ -73.4375182, 41.960881900000047 ], [ -73.4154642, 41.9281 ], [ -73.3972406, 41.88121779999998 ], [ -73.397043, 41.8620733 ], [ -73.420537900000014, 41.826379499999973 ], [ -73.527186, 41.80716 ] ] ] } },
{ "type": "Feature", "properties": { "OBJECTID": 2402, "ID": "0005901230", "NAME": "FAIRVIEW HOSPITAL", "ADDRESS": "29 LEWIS AVENUE", "CITY": "GREAT BARRINGTON", "STATE": "MA", "ZIP": "01230", "ZIP4": "NOT AVAILABLE", "TELEPHONE": "(413) 528-2000", "TYPE": "GENERAL ACUTE CARE", "STATUS": "OPEN", "POPULATION": 25, "COUNTY": "BERKSHIRE", "COUNTYFIPS": "25003", "COUNTRY": "USA", "LATITUDE": 42.1911, "LONGITUDE": -73.3719, "NAICS_CODE": "622110", "NAICS_DESC": "GENERAL MEDICAL AND SURGICAL HOSPITALS", "SOURCE": "http://www.mass.gov/eohhs/gov/departments/dph/programs/hcq/healthcare-quality/", "SOURCEDATE": "2018-08-16T00:00:00.000Z", "VAL_METHOD": "IMAGERY", "VAL_DATE": "2014-02-10T00:00:00.000Z", "WEBSITE": "http://www.berkshirehealthsystems.org/Fairview", "STATE_ID": "2052", "ALT_NAME": "FAIRVIEW HOSPITAL", "ST_FIPS": "25", "OWNER": "NON-PROFIT", "TTL_STAFF": -999, "BEDS": 25, "TRAUMA": "NOT AVAILABLE", "HELIPAD": "N" }, "geometry": { "type": "Polygon", "coordinates": [ [ [ -73.3513325, 42.112564700000021 ], [ -73.365277, 42.118672 ], [ -73.411015, 42.139969 ], [ -73.429836, 42.149111 ], [ -73.452335, 42.166756 ], [ -73.456466, 42.189566 ], [ -73.443898, 42.217061 ], [ -73.43358, 42.231291 ], [ -73.419912, 42.240207 ], [ -73.416988, 42.24196580000001 ], [ -73.375072, 42.251666 ], [ -73.331599, 42.248572 ], [ -73.2780111, 42.184341 ], [ -73.2822527, 42.18007 ], [ -73.3513325, 42.112564700000021 ] ] ] } },
{ "type": "Feature", "properties": { "OBJECTID": 2443, "ID": "0005912010", "NAME": "ST. MARY'S HEALTHCARE", "ADDRESS": "427 GUY PARK AVE", "CITY": "AMSTERDAM", "STATE": "NY", "ZIP": "12010", "ZIP4": "NOT AVAILABLE", "TELEPHONE": "(518) 842-1900", "TYPE": "GENERAL ACUTE CARE", "STATUS": "OPEN", "POPULATION": 120, "COUNTY": "MONTGOMERY", "COUNTYFIPS": "36057", "COUNTRY": "USA", "LATITUDE": 42.954417453000097, "LONGITUDE": -74.216064, "NAICS_CODE": "622110", "NAICS_DESC": "GENERAL MEDICAL AND SURGICAL HOSPITALS", "SOURCE": "https://profiles.health.ny.gov/hospital/county_or_region/", "SOURCEDATE": "2018-08-20T00:00:00.000Z", "VAL_METHOD": "IMAGERY", "VAL_DATE": "2014-03-12T00:00:00.000Z", "WEBSITE": "http://www.smha.org", "STATE_ID": "2801001H", "ALT_NAME": "NOT AVAILABLE", "ST_FIPS": "36", "OWNER": "NON-PROFIT", "TTL_STAFF": -999, "BEDS": 120, "TRAUMA": "NOT AVAILABLE", "HELIPAD": "Y" }, "geometry": { "type": "Polygon", "coordinates": [ [ [ -74.244109, 42.884436 ], [ -74.369417, 42.95246 ], [ -74.370119, 42.955304 ], [ -74.3426881, 42.996059700000046 ], [ -74.3145801, 42.999031100000074 ], [ -74.14902, 42.98381280000001 ], [ -74.1451765, 42.982273500000012 ], [ -74.120522, 42.951264 ], [ -74.1211157, 42.908192099999944 ], [ -74.1252238, 42.903198 ], [ -74.2101956, 42.878944 ], [ -74.244109, 42.884436 ] ] ] } },
{ "type": "Feature", "properties": { "OBJECTID": 2795, "ID": "0003006492", "NAME": "MASONICARE HEALTH CENTER", "ADDRESS": "22 MASONIC AVE", "CITY": "WALLINGFORD", "STATE": "CT", "ZIP": "06492", "ZIP4": "NOT AVAILABLE", "TELEPHONE": "(203) 679-5900", "TYPE": "CHRONIC DISEASE", "STATUS": "OPEN", "POPULATION": 65, "COUNTY": "NEW HAVEN", "COUNTYFIPS": "09009", "COUNTRY": "USA", "LATITUDE": 41.462705916000097, "LONGITUDE": -72.836239400999901, "NAICS_CODE": "622110", "NAICS_DESC": "GENERAL MEDICAL AND SURGICAL HOSPITALS", "SOURCE": "https://www.elicense.ct.gov/Lookup/GenerateRoster.aspx", "SOURCEDATE": "2018-08-13T00:00:00.000Z", "VAL_METHOD": "IMAGERY", "VAL_DATE": "2014-02-10T00:00:00.000Z", "WEBSITE": "http://www.masonicare.org", "STATE_ID": "070039", "ALT_NAME": "NOT AVAILABLE", "ST_FIPS": "09", "OWNER": "NON-PROFIT", "TTL_STAFF": -999, "BEDS": 65, "TRAUMA": "NOT AVAILABLE", "HELIPAD": "N" }, "geometry": { "type": "Polygon", "coordinates": [ [ [ -72.9063074, 41.3710764 ], [ -72.9113894, 41.381803300000023 ], [ -72.9137107, 41.466279899999982 ], [ -72.9014761, 41.498849 ], [ -72.885118799999987, 41.5108534 ], [ -72.7751622, 41.56287 ], [ -72.752137, 41.537656300000016 ], [ -72.7490137, 41.528488099999961 ], [ -72.7486541, 41.526873799999983 ], [ -72.756252700000019, 41.43994320000003 ], [ -72.7598736, 41.4350669 ], [ -72.7723794, 41.419620899999956 ], [ -72.7919176, 41.407620700000017 ], [ -72.8696412, 41.372419399999977 ], [ -72.8889145, 41.3715632 ], [ -72.9063074, 41.3710764 ] ] ] } },
{ "type": "Feature", "properties": { "OBJECTID": 2796, "ID": "0004006840", "NAME": "SILVER HILL HOSPITAL, INC.", "ADDRESS": "208 VALLEY RD", "CITY": "NEW CANAAN", "STATE": "CT", "ZIP": "06840", "ZIP4": "3812", "TELEPHONE": "(866) 542-4455", "TYPE": "PSYCHIATRIC", "STATUS": "OPEN", "POPULATION": -999, "COUNTY": "FAIRFIELD", "COUNTYFIPS": "09001", "COUNTRY": "USA", "LATITUDE": 41.1654062920001, "LONGITUDE": -73.469922819000004, "NAICS_CODE": "622210", "NAICS_DESC": "PSYCHIATRIC AND SUBSTANCE ABUSE HOSPITALS", "SOURCE": "https://www.elicense.ct.gov/Lookup/GenerateRoster.aspx", "SOURCEDATE": "2018-08-13T00:00:00.000Z", "VAL_METHOD": "IMAGERY", "VAL_DATE": "2016-04-04T00:00:00.000Z", "WEBSITE": "http://www.silverhillhospital.org/home", "STATE_ID": "NOT AVAILABLE", "ALT_NAME": "NOT AVAILABLE", "ST_FIPS": "09", "OWNER": "NON-PROFIT", "TTL_STAFF": -999, "BEDS": -999, "TRAUMA": "NOT AVAILABLE", "HELIPAD": "N" }, "geometry": { "type": "Polygon", "coordinates": [ [ [ -73.499792, 41.1161063 ], [ -73.5023546, 41.1186522 ], [ -73.515894, 41.132743400000024 ], [ -73.5276222, 41.146887299999982 ], [ -73.5348241, 41.160054800000054 ], [ -73.5401591, 41.186636600000014 ], [ -73.514269, 41.198699499999982 ], [ -73.4809313, 41.213820399999967 ], [ -73.470581100000018, 41.2138451 ], [ -73.4583568, 41.21269140000004 ], [ -73.4303906, 41.20610170000004 ], [ -73.4128651, 41.196109100000058 ], [ -73.4010235, 41.178104899999965 ], [ -73.4124811, 41.1277679 ], [ -73.4191297, 41.1137766 ], [ -73.499792, 41.1161063 ] ] ] } },
{ "type": "Feature", "properties": { "OBJECTID": 2873, "ID": "0012801109", "NAME": "VIBRA HOSPITAL OF WESTERN MASSACHUSETTS", "ADDRESS": "1400 STATE STREET", "CITY": "SPRINGFIELD", "STATE": "MA", "ZIP": "01109", "ZIP4": "NOT AVAILABLE", "TELEPHONE": "(413) 787-6700", "TYPE": "LONG TERM CARE", "STATUS": "OPEN", "POPULATION": 127, "COUNTY": "HAMPDEN", "COUNTYFIPS": "25013", "COUNTRY": "USA", "LATITUDE": 42.120518363000002, "LONGITUDE": -72.547438415000002, "NAICS_CODE": "622310", "NAICS_DESC": "SPECIALTY (EXCEPT PSYCHIATRIC AND SUBSTANCE ABUSE) HOSPITALS", "SOURCE": "http://www.mass.gov/eohhs/gov/departments/dph/programs/hcq/healthcare-quality/", "SOURCEDATE": "2018-08-16T00:00:00.000Z", "VAL_METHOD": "IMAGERY", "VAL_DATE": "2016-08-02T00:00:00.000Z", "WEBSITE": "http://www.vhwmass.com/", "STATE_ID": "2223", "ALT_NAME": "NOT AVAILABLE", "ST_FIPS": "25", "OWNER": "PROPRIETARY", "TTL_STAFF": -999, "BEDS": 127, "TRAUMA": "NOT AVAILABLE", "HELIPAD": "N" }, "geometry": { "type": "Polygon", "coordinates": [ [ [ -72.584218, 42.043289 ], [ -72.637477, 42.072098 ], [ -72.649804, 42.080025 ], [ -72.651016, 42.084485299999955 ], [ -72.646703, 42.107323 ], [ -72.6305375, 42.148323500000011 ], [ -72.604007, 42.179902 ], [ -72.594189, 42.184451 ], [ -72.577179, 42.189941 ], [ -72.507145, 42.18392 ], [ -72.478294, 42.17165 ], [ -72.462088, 42.164156 ], [ -72.442533, 42.148732 ], [ -72.459353, 42.103222 ], [ -72.478357, 42.080747 ], [ -72.500133, 42.056178 ], [ -72.501947, 42.055397 ], [ -72.5027518, 42.055196700000039 ], [ -72.532421, 42.050056 ], [ -72.584218, 42.043289 ] ] ] } },
{ "type": "Feature", "properties": { "OBJECTID": 6074, "ID": "0003606112", "NAME": "MOUNT SINAI REHABILITATION HOSPITAL", "ADDRESS": "490 BLUE HILLS AVE", "CITY": "HARTFORD", "STATE": "CT", "ZIP": "06112", "ZIP4": "1513", "TELEPHONE": "(860) 714-3500", "TYPE": "CHRONIC DISEASE", "STATUS": "OPEN", "POPULATION": -999, "COUNTY": "HARTFORD", "COUNTYFIPS": "09003", "COUNTRY": "USA", "LATITUDE": 41.800021105, "LONGITUDE": -72.693936018000002, "NAICS_CODE": "622310", "NAICS_DESC": "REHABILITATION HOSPITALS (EXCEPT ALCOHOLISM, DRUG ADDICTION)", "SOURCE": "https://www.elicense.ct.gov/Lookup/GenerateRoster.aspx", "SOURCEDATE": "2018-08-13T00:00:00.000Z", "VAL_METHOD": "IMAGERY/OTHER", "VAL_DATE": "2016-03-31T00:00:00.000Z", "WEBSITE": "http://www.stfranciscare.org/", "STATE_ID": "NOT AVAILABLE", "ALT_NAME": "NOT AVAILABLE", "ST_FIPS": "09", "OWNER": "NON-PROFIT", "TTL_STAFF": -999, "BEDS": -999, "TRAUMA": "NOT AVAILABLE", "HELIPAD": "N" }, "geometry": { "type": "Polygon", "coordinates": [ [ [ -72.725644, 41.730253200000014 ], [ -72.7688929, 41.753937300000032 ], [ -72.8015158, 41.797686299999974 ], [ -72.8014763, 41.797808500000045 ], [ -72.7999314, 41.799548200000025 ], [ -72.7507861, 41.850518100000052 ], [ -72.724457, 41.8711236 ], [ -72.7243105, 41.871221099999971 ], [ -72.6436506, 41.89361530000005 ], [ -72.5763738, 41.7964682 ], [ -72.582717, 41.772329900000017 ], [ -72.6176934, 41.730125 ], [ -72.6494971, 41.716631399999969 ], [ -72.725644, 41.730253200000014 ] ] ] } },
{ "type": "Feature", "properties": { "OBJECTID": 6088, "ID": "0000806076", "NAME": "JOHNSON MEMORIAL HOSPITAL", "ADDRESS": "201 CHESTNUT HILL RD", "CITY": "STAFFORD SPRINGS", "STATE": "CT", "ZIP": "06076", "ZIP4": "NOT AVAILABLE", "TELEPHONE": "(860) 684-4251", "TYPE": "GENERAL ACUTE CARE", "STATUS": "OPEN", "POPULATION": 72, "COUNTY": "TOLLAND", "COUNTYFIPS": "09013", "COUNTRY": "USA", "LATITUDE": 41.980101679000001, "LONGITUDE": -72.390886381000001, "NAICS_CODE": "622110", "NAICS_DESC": "GENERAL MEDICAL AND SURGICAL HOSPITALS", "SOURCE": "https://www.elicense.ct.gov/Lookup/GenerateRoster.aspx", "SOURCEDATE": "2018-08-13T00:00:00.000Z", "VAL_METHOD": "IMAGERY", "VAL_DATE": "2014-02-10T00:00:00.000Z", "WEBSITE": "http://www.jmmc.com", "STATE_ID": "070008", "ALT_NAME": "NOT AVAILABLE", "ST_FIPS": "09", "OWNER": "NON-PROFIT", "TTL_STAFF": -999, "BEDS": 72, "TRAUMA": "NOT AVAILABLE", "HELIPAD": "Y" }, "geometry": { "type": "Polygon", "coordinates": [ [ [ -72.4496681, 41.946308800000033 ], [ -72.4745866, 41.9637523 ], [ -72.4997426, 41.9842353 ], [ -72.4865286, 42.0058844 ], [ -72.4583762, 42.028443599999981 ], [ -72.4540679, 42.028859800000014 ], [ -72.403309400000012, 42.020406499999943 ], [ -72.3162894, 41.982091899999979 ], [ -72.3095149, 41.974305200000018 ], [ -72.310978, 41.957487599999972 ], [ -72.3125669, 41.956014300000014 ], [ -72.3795292, 41.936199 ], [ -72.3799208, 41.9362046 ], [ -72.380266, 41.9362209 ], [ -72.4496681, 41.946308800000033 ] ] ] } },
{ "type": "Feature", "properties": { "OBJECTID": 6089, "ID": "0001106066", "NAME": "ROCKVILLE GENERAL HOSPITAL", "ADDRESS": "31 UNION ST", "CITY": "VERNON", "STATE": "CT", "ZIP": "06066", "ZIP4": "NOT AVAILABLE", "TELEPHONE": "(860) 872-5160", "TYPE": "GENERAL ACUTE CARE", "STATUS": "OPEN", "POPULATION": 102, "COUNTY": "TOLLAND", "COUNTYFIPS": "09013", "COUNTRY": "USA", "LATITUDE": 41.866600547000097, "LONGITUDE": -72.451211291999996, "NAICS_CODE": "622110", "NAICS_DESC": "GENERAL MEDICAL AND SURGICAL HOSPITALS", "SOURCE": "https://www.elicense.ct.gov/Lookup/GenerateRoster.aspx", "SOURCEDATE": "2018-08-13T00:00:00.000Z", "VAL_METHOD": "IMAGERY", "VAL_DATE": "2014-02-10T00:00:00.000Z", "WEBSITE": "http://www.echn.org/Locations/Rockville-General-Hospital.aspx", "STATE_ID": "070012", "ALT_NAME": "NOT AVAILABLE", "ST_FIPS": "09", "OWNER": "NON-PROFIT", "TTL_STAFF": -999, "BEDS": 102, "TRAUMA": "NOT AVAILABLE", "HELIPAD": "Y" }, "geometry": { "type": "Polygon", "coordinates": [ [ [ -72.471223, 41.8023376 ], [ -72.5043829, 41.811692300000026 ], [ -72.506267800000018, 41.81250009999998 ], [ -72.5184533, 41.819337900000022 ], [ -72.5209805, 41.821021900000012 ], [ -72.523376400000018, 41.825900199999985 ], [ -72.5236351, 41.8297119 ], [ -72.5195459, 41.873939500000034 ], [ -72.5159434, 41.892432500000034 ], [ -72.498212, 41.920411 ], [ -72.4779718, 41.93140379999997 ], [ -72.4496681, 41.946308800000033 ], [ -72.3892964, 41.920561099999965 ], [ -72.317122, 41.8837486 ], [ -72.337433600000011, 41.8529303 ], [ -72.3960783, 41.812714200000059 ], [ -72.471223, 41.8023376 ] ] ] } },
{ "type": "Feature", "properties": { "OBJECTID": 6097, "ID": "0002206040", "NAME": "MANCHESTER MEMORIAL HOSPITAL", "ADDRESS": "71 HAYNES ST", "CITY": "MANCHESTER", "STATE": "CT", "ZIP": "06040", "ZIP4": "NOT AVAILABLE", "TELEPHONE": "(860) 647-4780", "TYPE": "GENERAL ACUTE CARE", "STATUS": "OPEN", "POPULATION": 249, "COUNTY": "HARTFORD", "COUNTYFIPS": "09003", "COUNTRY": "USA", "LATITUDE": 41.781508164999998, "LONGITUDE": -72.525675159999906, "NAICS_CODE": "622110", "NAICS_DESC": "GENERAL MEDICAL AND SURGICAL HOSPITALS", "SOURCE": "https://www.elicense.ct.gov/Lookup/GenerateRoster.aspx", "SOURCEDATE": "2018-08-13T00:00:00.000Z", "VAL_METHOD": "IMAGERY", "VAL_DATE": "2014-02-10T00:00:00.000Z", "WEBSITE": "http://www.echn.org/Locations/Manchester-Memorial-Hospital.aspx", "STATE_ID": "070027", "ALT_NAME": "NOT AVAILABLE", "ST_FIPS": "09", "OWNER": "NON-PROFIT", "TTL_STAFF": -999, "BEDS": 249, "TRAUMA": "NOT AVAILABLE", "HELIPAD": "Y" }, "geometry": { "type": "Polygon", "coordinates": [ [ [ -72.530777700000016, 41.6996678 ], [ -72.6592596, 41.7490571 ], [ -72.6622914, 41.769534599999986 ], [ -72.6217527, 41.80728019999998 ], [ -72.5645832, 41.846771 ], [ -72.55766, 41.848321199999987 ], [ -72.5112669, 41.8546196 ], [ -72.5091685, 41.854249299999971 ], [ -72.500173700000019, 41.84995119999995 ], [ -72.4187166, 41.797164400000078 ], [ -72.4143582, 41.773847500000059 ], [ -72.5053951, 41.708474100000018 ], [ -72.530777700000016, 41.6996678 ] ] ] } },
{ "type": "Feature", "properties": { "OBJECTID": 6099, "ID": "0003206117", "NAME": "HOSPITAL AT HEBREW HEALTH CARE", "ADDRESS": "1 ABRAHMS BOULEVARD", "CITY": "WEST HARTFORD", "STATE": "CT", "ZIP": "06117", "ZIP4": "NOT AVAILABLE", "TELEPHONE": "(860) 523-3800", "TYPE": "CHRONIC DISEASE", "STATUS": "OPEN", "POPULATION": 332, "COUNTY": "HARTFORD", "COUNTYFIPS": "09003", "COUNTRY": "USA", "LATITUDE": 41.802925517000098, "LONGITUDE": -72.729271566999998, "NAICS_CODE": "622110", "NAICS_DESC": "GENERAL MEDICAL AND SURGICAL HOSPITALS", "SOURCE": "https://www.elicense.ct.gov/Lookup/GenerateRoster.aspx", "SOURCEDATE": "2018-08-13T00:00:00.000Z", "VAL_METHOD": "IMAGERY", "VAL_DATE": "2014-02-10T00:00:00.000Z", "WEBSITE": "http://www.hebrewhealthcare.org", "STATE_ID": "070040", "ALT_NAME": "NOT AVAILABLE", "ST_FIPS": "09", "OWNER": "NON-PROFIT", "TTL_STAFF": -999, "BEDS": 332, "TRAUMA": "NOT AVAILABLE", "HELIPAD": "N" }, "geometry": { "type": "Polygon", "coordinates": [ [ [ -72.7433473, 41.732506299999919 ], [ -72.7475781, 41.7345221 ], [ -72.773530400000013, 41.751117899999976 ], [ -72.8131502, 41.804737800000019 ], [ -72.802306200000018, 41.8484925 ], [ -72.7438467, 41.881808299999989 ], [ -72.6633818, 41.85637969999997 ], [ -72.621769300000011, 41.807173899999988 ], [ -72.6173961, 41.763332 ], [ -72.6332484, 41.737816100000011 ], [ -72.6596184, 41.729490400000024 ], [ -72.6655489, 41.728132799999969 ], [ -72.7234349, 41.730010800000024 ], [ -72.725644, 41.730253200000014 ], [ -72.7433473, 41.732506299999919 ] ] ] } },
{ "type": "Feature", "properties": { "OBJECTID": 6100, "ID": "0001706457", "NAME": "MIDDLESEX HOSPITAL", "ADDRESS": "28 CRESCENT ST", "CITY": "MIDDLETOWN", "STATE": "CT", "ZIP": "06457", "ZIP4": "NOT AVAILABLE", "TELEPHONE": "(860) 344-6000", "TYPE": "GENERAL ACUTE CARE", "STATUS": "OPEN", "POPULATION": 215, "COUNTY": "MIDDLESEX", "COUNTYFIPS": "09007", "COUNTRY": "USA", "LATITUDE": 41.554337263000001, "LONGITUDE": -72.647569380999997, "NAICS_CODE": "622110", "NAICS_DESC": "GENERAL MEDICAL AND SURGICAL HOSPITALS", "SOURCE": "https://www.elicense.ct.gov/Lookup/GenerateRoster.aspx", "SOURCEDATE": "2018-08-13T00:00:00.000Z", "VAL_METHOD": "IMAGERY", "VAL_DATE": "2014-02-10T00:00:00.000Z", "WEBSITE": "http://middlesexhospital.org/locations/middlesex-hospital", "STATE_ID": "070020", "ALT_NAME": "NOT AVAILABLE", "ST_FIPS": "09", "OWNER": "NON-PROFIT", "TTL_STAFF": -999, "BEDS": 215, "TRAUMA": "NOT AVAILABLE", "HELIPAD": "Y" }, "geometry": { "type": "Polygon", "coordinates": [ [ [ -72.6810778, 41.471399600000026 ], [ -72.7197348, 41.502544800000052 ], [ -72.7373276, 41.517634499999978 ], [ -72.7376424, 41.531809799999976 ], [ -72.7303655, 41.567004 ], [ -72.715197900000021, 41.608108 ], [ -72.6831162, 41.6491434 ], [ -72.6754978, 41.653634599999982 ], [ -72.6638242, 41.655840399999953 ], [ -72.6590884, 41.653513400000016 ], [ -72.5991788, 41.6137364 ], [ -72.5526465, 41.562120500000042 ], [ -72.5319214, 41.458895900000023 ], [ -72.554793, 41.460107 ], [ -72.6803183, 41.4713108 ], [ -72.6810778, 41.471399600000026 ] ] ] } },
{ "type": "Feature", "properties": { "OBJECTID": 6101, "ID": "0001006790", "NAME": "CHARLOTTE HUNGERFORD HOSPITAL", "ADDRESS": "540 LITCHFIELD ST", "CITY": "TORRINGTON", "STATE": "CT", "ZIP": "06790", "ZIP4": "NOT AVAILABLE", "TELEPHONE": "(860) 496-6666", "TYPE": "GENERAL ACUTE CARE", "STATUS": "OPEN", "POPULATION": 109, "COUNTY": "LITCHFIELD", "COUNTYFIPS": "09005", "COUNTRY": "USA", "LATITUDE": 41.791838302000002, "LONGITUDE": -73.133119320999995, "NAICS_CODE": "622110", "NAICS_DESC": "GENERAL MEDICAL AND SURGICAL HOSPITALS", "SOURCE": "https://www.elicense.ct.gov/Lookup/GenerateRoster.aspx", "SOURCEDATE": "2018-08-13T00:00:00.000Z", "VAL_METHOD": "IMAGERY", "VAL_DATE": "2014-02-10T00:00:00.000Z", "WEBSITE": "http://www.charlottehungerford.org", "STATE_ID": "070011", "ALT_NAME": "NOT AVAILABLE", "ST_FIPS": "09", "OWNER": "NON-PROFIT", "TTL_STAFF": -999, "BEDS": 109, "TRAUMA": "NOT AVAILABLE", "HELIPAD": "Y" }, "geometry": { "type": "Polygon", "coordinates": [ [ [ -73.1862, 41.721288300000012 ], [ -73.2169119, 41.730786399999985 ], [ -73.2172585, 41.730927700000024 ], [ -73.224391, 41.744176 ], [ -73.2231937, 41.755127900000041 ], [ -73.200347500000021, 41.835133800000015 ], [ -73.200059, 41.835435199999964 ], [ -73.1517879, 41.859153200000044 ], [ -73.0743619, 41.890466400000022 ], [ -73.0101598, 41.8285851 ], [ -73.0481787, 41.773258 ], [ -73.0934442, 41.711211699999986 ], [ -73.0957766, 41.7104905 ], [ -73.1862, 41.721288300000012 ] ] ] } },
{ "type": "Feature", "properties": { "OBJECTID": 6153, "ID": "0001701201", "NAME": "BERKSHIRE MEDICAL CENTER - HILLCREST CAMPUS", "ADDRESS": "165 TOR COURT", "CITY": "PITTSFIELD", "STATE": "MA", "ZIP": "01201", "ZIP4": "NOT AVAILABLE", "TELEPHONE": "NOT AVAILABLE", "TYPE": "GENERAL ACUTE CARE", "STATUS": "OPEN", "POPULATION": -999, "COUNTY": "BERKSHIRE", "COUNTYFIPS": "25003", "COUNTRY": "USA", "LATITUDE": 42.4581, "LONGITUDE": -73.2807, "NAICS_CODE": "622110", "NAICS_DESC": "GENERAL MEDICAL AND SURGICAL HOSPITALS", "SOURCE": "http://www.mass.gov/eohhs/gov/departments/dph/programs/hcq/healthcare-quality/", "SOURCEDATE": "2018-08-16T00:00:00.000Z", "VAL_METHOD": "IMAGERY", "VAL_DATE": "2014-02-10T00:00:00.000Z", "WEBSITE": "http://www.berkshirehealthsystems.org/body.cfm?id=1153&oTopID=1153", "STATE_ID": "138", "ALT_NAME": "BMC HILLCREST CAMPUS", "ST_FIPS": "25", "OWNER": "NON-PROFIT", "TTL_STAFF": -999, "BEDS": -999, "TRAUMA": "NOT AVAILABLE", "HELIPAD": "N" }, "geometry": { "type": "Polygon", "coordinates": [ [ [ -73.330397, 42.399986 ], [ -73.353422, 42.406921 ], [ -73.376527, 42.438502 ], [ -73.339923, 42.480520900000037 ], [ -73.325738, 42.491278 ], [ -73.280054, 42.506951 ], [ -73.261952, 42.509265 ], [ -73.251625, 42.508365 ], [ -73.247733, 42.507644 ], [ -73.247518, 42.507535 ], [ -73.196717, 42.469892899999969 ], [ -73.1966735, 42.469803299999967 ], [ -73.201088, 42.4316697 ], [ -73.2016972, 42.430496499999975 ], [ -73.269306, 42.396918 ], [ -73.330397, 42.399986 ] ] ] } },
{ "type": "Feature", "properties": { "OBJECTID": 6195, "ID": "0006501086", "NAME": "NOBLE HOSPITAL", "ADDRESS": "115 WEST SILVER STREET", "CITY": "WESTFIELD", "STATE": "MA", "ZIP": "01086", "ZIP4": "NOT AVAILABLE", "TELEPHONE": "(413) 568-2811", "TYPE": "GENERAL ACUTE CARE", "STATUS": "OPEN", "POPULATION": 97, "COUNTY": "HAMPDEN", "COUNTYFIPS": "25013", "COUNTRY": "USA", "LATITUDE": 42.1183, "LONGITUDE": -72.7596, "NAICS_CODE": "622110", "NAICS_DESC": "GENERAL MEDICAL AND SURGICAL HOSPITALS", "SOURCE": "http://www.mass.gov/eohhs/gov/departments/dph/programs/hcq/healthcare-quality/", "SOURCEDATE": "2018-08-16T00:00:00.000Z", "VAL_METHOD": "IMAGERY/OTHER", "VAL_DATE": "2014-02-10T00:00:00.000Z", "WEBSITE": "http://www.noblehospital.org/", "STATE_ID": "2076", "ALT_NAME": "NOBLE HOSPITAL", "ST_FIPS": "25", "OWNER": "NON-PROFIT", "TTL_STAFF": -999, "BEDS": 97, "TRAUMA": "NOT AVAILABLE", "HELIPAD": "N" }, "geometry": { "type": "Polygon", "coordinates": [ [ [ -72.784653, 42.04213 ], [ -72.791001, 42.046972 ], [ -72.806634, 42.064195 ], [ -72.817058, 42.076534 ], [ -72.839995, 42.141849 ], [ -72.839781, 42.144859 ], [ -72.8320283, 42.17080280000004 ], [ -72.725458, 42.190386 ], [ -72.644244300000011, 42.153341299999958 ], [ -72.661687, 42.105229 ], [ -72.6635135, 42.1031992 ], [ -72.669566, 42.096614 ], [ -72.728392, 42.059461 ], [ -72.7570712, 42.042293200000046 ], [ -72.784653, 42.04213 ] ] ] } },
{ "type": "Feature", "properties": { "OBJECTID": 6578, "ID": "0000706320", "NAME": "LAWRENCE & MEMORIAL HOSPITAL", "ADDRESS": "365 MONTAUK AVE", "CITY": "NEW LONDON", "STATE": "CT", "ZIP": "06320", "ZIP4": "NOT AVAILABLE", "TELEPHONE": "(860) 442-0711", "TYPE": "GENERAL ACUTE CARE", "STATUS": "OPEN", "POPULATION": 252, "COUNTY": "NEW LONDON", "COUNTYFIPS": "09011", "COUNTRY": "USA", "LATITUDE": 41.336451777000001, "LONGITUDE": -72.104976457999996, "NAICS_CODE": "622110", "NAICS_DESC": "GENERAL MEDICAL AND SURGICAL HOSPITALS", "SOURCE": "https://www.elicense.ct.gov/Lookup/GenerateRoster.aspx", "SOURCEDATE": "2018-08-13T00:00:00.000Z", "VAL_METHOD": "IMAGERY", "VAL_DATE": "2014-02-10T00:00:00.000Z", "WEBSITE": "http://www.lmhospital.org", "STATE_ID": "070007", "ALT_NAME": "NOT AVAILABLE", "ST_FIPS": "09", "OWNER": "NON-PROFIT", "TTL_STAFF": -999, "BEDS": 252, "TRAUMA": "NOT AVAILABLE", "HELIPAD": "Y" }, "geometry": { "type": "Polygon", "coordinates": [ [ [ -72.1338397, 41.3003682 ], [ -72.194917, 41.323037200000023 ], [ -72.20443920000001, 41.367891800000017 ], [ -72.2044286, 41.368574299999985 ], [ -72.2042435, 41.3689314 ], [ -72.204072300000021, 41.369102899999987 ], [ -72.1679612, 41.3964338 ], [ -72.1091606, 41.423113299999983 ], [ -71.9868826, 41.371972499999956 ], [ -72.0264884, 41.34645070000002 ], [ -72.0957231, 41.30943230000004 ], [ -72.1231157, 41.302308399999987 ], [ -72.1338397, 41.3003682 ] ] ] } },
{ "type": "Feature", "properties": { "OBJECTID": 6579, "ID": "0002006360", "NAME": "WILLIAM W BACKUS HOSPITAL", "ADDRESS": "326 WASHINGTON ST", "CITY": "NORWICH", "STATE": "CT", "ZIP": "06360", "ZIP4": "NOT AVAILABLE", "TELEPHONE": "(860) 889-8331", "TYPE": "GENERAL ACUTE CARE", "STATUS": "OPEN", "POPULATION": 213, "COUNTY": "NEW LONDON", "COUNTYFIPS": "09011", "COUNTRY": "USA", "LATITUDE": 41.5427735580001, "LONGITUDE": -72.089318809000005, "NAICS_CODE": "622110", "NAICS_DESC": "GENERAL MEDICAL AND SURGICAL HOSPITALS", "SOURCE": "https://www.elicense.ct.gov/Lookup/GenerateRoster.aspx", "SOURCEDATE": "2018-08-13T00:00:00.000Z", "VAL_METHOD": "IMAGERY", "VAL_DATE": "2014-03-13T00:00:00.000Z", "WEBSITE": "http://www.backushospital.org", "STATE_ID": "070024", "ALT_NAME": "NOT AVAILABLE", "ST_FIPS": "09", "OWNER": "NON-PROFIT", "TTL_STAFF": -999, "BEDS": 213, "TRAUMA": "LEVEL III", "HELIPAD": "Y" }, "geometry": { "type": "Polygon", "coordinates": [ [ [ -72.1231644, 41.430843700000018 ], [ -72.2344015, 41.571825 ], [ -72.2121625, 41.590105199999968 ], [ -72.1552871, 41.621535 ], [ -72.1164568, 41.618282099999981 ], [ -72.0356389, 41.6106478 ], [ -71.987813099999983, 41.5893602 ], [ -72.00328540000001, 41.4906518 ], [ -72.1231644, 41.430843700000018 ] ] ] } },
{ "type": "Feature", "properties": { "OBJECTID": 6581, "ID": "0000106511", "NAME": "YALE-NEW HAVEN HOSPITAL SAINT RAPHAEL CAMPUS", "ADDRESS": "1450 CHAPEL ST", "CITY": "NEW HAVEN", "STATE": "CT", "ZIP": "06511", "ZIP4": "NOT AVAILABLE", "TELEPHONE": "(203) 789-3000", "TYPE": "GENERAL ACUTE CARE", "STATUS": "OPEN", "POPULATION": 511, "COUNTY": "NEW HAVEN", "COUNTYFIPS": "09009", "COUNTRY": "USA", "LATITUDE": 41.309999357000002, "LONGITUDE": -72.942482923999904, "NAICS_CODE": "622110", "NAICS_DESC": "GENERAL MEDICAL AND SURGICAL HOSPITALS", "SOURCE": "https://www.elicense.ct.gov/Lookup/GenerateRoster.aspx", "SOURCEDATE": "2018-08-13T00:00:00.000Z", "VAL_METHOD": "IMAGERY", "VAL_DATE": "2014-02-10T00:00:00.000Z", "WEBSITE": "http://www.ynhh.org/src/", "STATE_ID": "070001", "ALT_NAME": "NOT AVAILABLE", "ST_FIPS": "09", "OWNER": "NON-PROFIT", "TTL_STAFF": -999, "BEDS": 511, "TRAUMA": "LEVEL II", "HELIPAD": "Y" }, "geometry": { "type": "Polygon", "coordinates": [ [ [ -73.0264968, 41.236587600000021 ], [ -73.0658867, 41.308027399999986 ], [ -73.058761, 41.317581199999985 ], [ -73.00249070000001, 41.3786193 ], [ -72.9237121, 41.3889384 ], [ -72.8757676, 41.39223 ], [ -72.8668775, 41.381577900000011 ], [ -72.8460556, 41.354573399999978 ], [ -72.8147727, 41.287445 ], [ -72.8278241, 41.2767907 ], [ -72.8286405, 41.276158 ], [ -72.8291909, 41.2758068 ], [ -72.830226, 41.275236 ], [ -72.8648438, 41.261796099999984 ], [ -72.8683508, 41.2611791 ], [ -73.0264968, 41.236587600000021 ] ] ] } },
{ "type": "Feature", "properties": { "OBJECTID": 6582, "ID": "0000506721", "NAME": "WATERBURY HOSPITAL", "ADDRESS": "64 ROBBINS ST", "CITY": "WATERBURY", "STATE": "CT", "ZIP": "06721", "ZIP4": "NOT AVAILABLE", "TELEPHONE": "(203) 573-6000", "TYPE": "GENERAL ACUTE CARE", "STATUS": "OPEN", "POPULATION": 357, "COUNTY": "NEW HAVEN", "COUNTYFIPS": "09009", "COUNTRY": "USA", "LATITUDE": 41.559758846000101, "LONGITUDE": -73.058705204000006, "NAICS_CODE": "622110", "NAICS_DESC": "GENERAL MEDICAL AND SURGICAL HOSPITALS", "SOURCE": "https://www.elicense.ct.gov/Lookup/GenerateRoster.aspx", "SOURCEDATE": "2018-08-13T00:00:00.000Z", "VAL_METHOD": "IMAGERY/OTHER", "VAL_DATE": "2014-02-10T00:00:00.000Z", "WEBSITE": "http://www.waterburyhospital.org", "STATE_ID": "070005", "ALT_NAME": "NOT AVAILABLE", "ST_FIPS": "09", "OWNER": "NON-PROFIT", "TTL_STAFF": -999, "BEDS": 357, "TRAUMA": "LEVEL II", "HELIPAD": "Y" }, "geometry": { "type": "Polygon", "coordinates": [ [ [ -73.0670263, 41.449189300000029 ], [ -73.1600092, 41.487114 ], [ -73.1670945, 41.492031199999964 ], [ -73.1679624, 41.4932137 ], [ -73.1313726, 41.6041577 ], [ -73.126755, 41.613996 ], [ -73.118999299999984, 41.615018299999988 ], [ -73.1007196, 41.615877299999973 ], [ -73.027651, 41.612497 ], [ -73.0205174, 41.6111507 ], [ -73.008245, 41.608357 ], [ -72.9845059, 41.597906900000048 ], [ -72.923831400000012, 41.5571771 ], [ -72.9423443, 41.536364500000012 ], [ -73.0278456, 41.469077 ], [ -73.0361171, 41.4641508 ], [ -73.0670263, 41.449189300000029 ] ] ] } },
{ "type": "Feature", "properties": { "OBJECTID": 6583, "ID": "0001306706", "NAME": "SAINT MARYS HOSPITAL", "ADDRESS": "56 FRANKLIN ST", "CITY": "WATERBURY", "STATE": "CT", "ZIP": "06706", "ZIP4": "NOT AVAILABLE", "TELEPHONE": "(203) 574-6000", "TYPE": "GENERAL ACUTE CARE", "STATUS": "OPEN", "POPULATION": 168, "COUNTY": "NEW HAVEN", "COUNTYFIPS": "09009", "COUNTRY": "USA", "LATITUDE": 41.553205859000101, "LONGITUDE": -73.036710487999997, "NAICS_CODE": "622110", "NAICS_DESC": "GENERAL MEDICAL AND SURGICAL HOSPITALS", "SOURCE": "https://www.elicense.ct.gov/Lookup/GenerateRoster.aspx", "SOURCEDATE": "2018-08-13T00:00:00.000Z", "VAL_METHOD": "IMAGERY", "VAL_DATE": "2014-02-10T00:00:00.000Z", "WEBSITE": "http://www.stmh.org/index.html", "STATE_ID": "070016", "ALT_NAME": "NOT AVAILABLE", "ST_FIPS": "09", "OWNER": "NON-PROFIT", "TTL_STAFF": -999, "BEDS": 168, "TRAUMA": "LEVEL II", "HELIPAD": "Y" }, "geometry": { "type": "Polygon", "coordinates": [ [ [ -73.0670263, 41.449189300000029 ], [ -73.1670945, 41.492031199999964 ], [ -73.1679624, 41.4932137 ], [ -73.141820399999986, 41.543549300000016 ], [ -73.1126521, 41.596204499999956 ], [ -73.0885286, 41.603823300000101 ], [ -73.0093449, 41.617265300000035 ], [ -72.9766349, 41.617543799999986 ], [ -72.895043, 41.5571578 ], [ -72.9311787, 41.520410499999947 ], [ -72.970799, 41.497347 ], [ -73.0270168, 41.468160099999963 ], [ -73.03632140000002, 41.4635951 ], [ -73.0670263, 41.449189300000029 ] ] ] } },
{ "type": "Feature", "properties": { "OBJECTID": 6584, "ID": "0000206105", "NAME": "ST FRANCIS HOSPITAL & MEDICAL CENTER", "ADDRESS": "114 WOODLAND STREET", "CITY": "HARTFORD", "STATE": "CT", "ZIP": "06105", "ZIP4": "NOT AVAILABLE", "TELEPHONE": "(860) 714-4000", "TYPE": "GENERAL ACUTE CARE", "STATUS": "OPEN", "POPULATION": 617, "COUNTY": "HARTFORD", "COUNTYFIPS": "09003", "COUNTRY": "USA", "LATITUDE": 41.773813873999998, "LONGITUDE": -72.698680085999996, "NAICS_CODE": "622110", "NAICS_DESC": "GENERAL MEDICAL AND SURGICAL HOSPITALS", "SOURCE": "https://www.elicense.ct.gov/Lookup/GenerateRoster.aspx", "SOURCEDATE": "2018-08-13T00:00:00.000Z", "VAL_METHOD": "IMAGERY", "VAL_DATE": "2014-02-10T00:00:00.000Z", "WEBSITE": "http://www.saintfranciscare.com", "STATE_ID": "070002", "ALT_NAME": "NOT AVAILABLE", "ST_FIPS": "09", "OWNER": "NON-PROFIT", "TTL_STAFF": -999, "BEDS": 617, "TRAUMA": "LEVEL II", "HELIPAD": "Y" }, "geometry": { "type": "Polygon", "coordinates": [ [ [ -72.7047081, 41.6976418 ], [ -72.7966933, 41.7178661 ], [ -72.7997089, 41.736073600000019 ], [ -72.8084731, 41.8050175 ], [ -72.7441408, 41.8464767 ], [ -72.6633686, 41.8521336 ], [ -72.6479434, 41.843357800000021 ], [ -72.5647753, 41.7874428 ], [ -72.56076090000002, 41.780477600000019 ], [ -72.5925741, 41.713456 ], [ -72.644221400000021, 41.69859210000002 ], [ -72.6583335, 41.698017499999985 ], [ -72.7047081, 41.6976418 ] ] ] } },
{ "type": "Feature", "properties": { "OBJECTID": 6585, "ID": "0000906610", "NAME": "BRIDGEPORT HOSPITAL", "ADDRESS": "267 GRANT STREET", "CITY": "BRIDGEPORT", "STATE": "CT", "ZIP": "06610", "ZIP4": "NOT AVAILABLE", "TELEPHONE": "(203) 384-3000", "TYPE": "GENERAL ACUTE CARE", "STATUS": "OPEN", "POPULATION": 383, "COUNTY": "FAIRFIELD", "COUNTYFIPS": "09001", "COUNTRY": "USA", "LATITUDE": 41.189377382000004, "LONGITUDE": -73.166594716000006, "NAICS_CODE": "622110", "NAICS_DESC": "GENERAL MEDICAL AND SURGICAL HOSPITALS", "SOURCE": "https://www.elicense.ct.gov/Lookup/GenerateRoster.aspx", "SOURCEDATE": "2018-08-13T00:00:00.000Z", "VAL_METHOD": "IMAGERY", "VAL_DATE": "2014-02-10T00:00:00.000Z", "WEBSITE": "http://www.bridgeporthospital.org", "STATE_ID": "070010", "ALT_NAME": "NOT AVAILABLE", "ST_FIPS": "09", "OWNER": "NON-PROFIT", "TTL_STAFF": -999, "BEDS": 383, "TRAUMA": "LEVEL II", "HELIPAD": "Y" }, "geometry": { "type": "Polygon", "coordinates": [ [ [ -73.2796133, 41.13954219999998 ], [ -73.282907400000013, 41.141739200000039 ], [ -73.2462244, 41.22918090000001 ], [ -73.2178201, 41.2572968 ], [ -73.20165750000001, 41.268307599999979 ], [ -73.1372054, 41.261796600000011 ], [ -73.1014984, 41.248206600000032 ], [ -73.0977409, 41.245344200000055 ], [ -73.1076439, 41.153483200000025 ], [ -73.1100017, 41.1525104 ], [ -73.1292369, 41.147731399999977 ], [ -73.2531083, 41.135364700000025 ], [ -73.258306799999986, 41.136053299999972 ], [ -73.2796133, 41.13954219999998 ] ] ] } },
{ "type": "Feature", "properties": { "OBJECTID": 6586, "ID": "0002306606", "NAME": "ST VINCENT'S MEDICAL CENTER", "ADDRESS": "2800 MAIN ST", "CITY": "BRIDGEPORT", "STATE": "CT", "ZIP": "06606", "ZIP4": "NOT AVAILABLE", "TELEPHONE": "(203) 576-5551", "TYPE": "GENERAL ACUTE CARE", "STATUS": "OPEN", "POPULATION": 473, "COUNTY": "FAIRFIELD", "COUNTYFIPS": "09001", "COUNTRY": "USA", "LATITUDE": 41.201045180000101, "LONGITUDE": -73.201702241000007, "NAICS_CODE": "622110", "NAICS_DESC": "GENERAL MEDICAL AND SURGICAL HOSPITALS", "SOURCE": "https://www.elicense.ct.gov/Lookup/GenerateRoster.aspx", "SOURCEDATE": "2018-08-13T00:00:00.000Z", "VAL_METHOD": "IMAGERY", "VAL_DATE": "2014-02-10T00:00:00.000Z", "WEBSITE": "http://www.stvincents.org", "STATE_ID": "070028", "ALT_NAME": "NOT AVAILABLE", "ST_FIPS": "09", "OWNER": "NON-PROFIT", "TTL_STAFF": -999, "BEDS": 473, "TRAUMA": "LEVEL II", "HELIPAD": "Y" }, "geometry": { "type": "Polygon", "coordinates": [ [ [ -73.2598079, 41.132723199999973 ], [ -73.2901315, 41.138246800000012 ], [ -73.2902259, 41.138489399999976 ], [ -73.2902241, 41.1392032 ], [ -73.286308, 41.2082589 ], [ -73.2739699, 41.238312400000041 ], [ -73.2719322, 41.2415483 ], [ -73.2347143, 41.289504 ], [ -73.121305800000016, 41.277621799999984 ], [ -73.1146787, 41.276841500000025 ], [ -73.0977409, 41.245344200000055 ], [ -73.1103721, 41.200260900000039 ], [ -73.1298291, 41.151729199999956 ], [ -73.1323551, 41.15075850000003 ], [ -73.2495276, 41.133006800000018 ], [ -73.2548888, 41.132584700000045 ], [ -73.2598079, 41.132723199999973 ] ] ] } },
{ "type": "Feature", "properties": { "OBJECTID": 6587, "ID": "0002606810", "NAME": "DANBURY HOSPITAL", "ADDRESS": "24 HOSPITAL AVE", "CITY": "DANBURY", "STATE": "CT", "ZIP": "06810", "ZIP4": "NOT AVAILABLE", "TELEPHONE": "(203) 797-7000", "TYPE": "GENERAL ACUTE CARE", "STATUS": "OPEN", "POPULATION": 371, "COUNTY": "FAIRFIELD", "COUNTYFIPS": "09001", "COUNTRY": "USA", "LATITUDE": 41.405050903000102, "LONGITUDE": -73.446194863000002, "NAICS_CODE": "622110", "NAICS_DESC": "GENERAL MEDICAL AND SURGICAL HOSPITALS", "SOURCE": "https://www.elicense.ct.gov/Lookup/GenerateRoster.aspx", "SOURCEDATE": "2018-08-13T00:00:00.000Z", "VAL_METHOD": "IMAGERY", "VAL_DATE": "2014-03-12T00:00:00.000Z", "WEBSITE": "http://www.danburyhospital.org", "STATE_ID": "070033", "ALT_NAME": "NOT AVAILABLE", "ST_FIPS": "09", "OWNER": "NON-PROFIT", "TTL_STAFF": -999, "BEDS": 371, "TRAUMA": "LEVEL II", "HELIPAD": "Y" }, "geometry": { "type": "Polygon", "coordinates": [ [ [ -73.474213100000014, 41.325237399999985 ], [ -73.516380600000019, 41.361859400000036 ], [ -73.5367238, 41.382676700000047 ], [ -73.5401497, 41.388899 ], [ -73.5406433, 41.3908393 ], [ -73.5141818, 41.4466198 ], [ -73.4967981, 41.4670937 ], [ -73.408387, 41.478089600000025 ], [ -73.352537, 41.436707300000023 ], [ -73.3401812, 41.4268688 ], [ -73.3367979, 41.4189341 ], [ -73.3426473, 41.410585400000059 ], [ -73.3847503, 41.3630841 ], [ -73.3990685, 41.352564500000021 ], [ -73.4152271, 41.3442736 ], [ -73.474213100000014, 41.325237399999985 ] ] ] } },
{ "type": "Feature", "properties": { "OBJECTID": 6707, "ID": "0006601247", "NAME": "NORTH ADAMS REGIONAL HOSPITAL", "ADDRESS": "71 HOSPITAL AVENUE", "CITY": "NORTH ADAMS", "STATE": "MA", "ZIP": "01247", "ZIP4": "NOT AVAILABLE", "TELEPHONE": "NOT AVAILABLE", "TYPE": "GENERAL ACUTE CARE", "STATUS": "CLOSED", "POPULATION": 36, "COUNTY": "BERKSHIRE", "COUNTYFIPS": "25003", "COUNTRY": "USA", "LATITUDE": 42.7071, "LONGITUDE": -73.1095, "NAICS_CODE": "622110", "NAICS_DESC": "GENERAL MEDICAL AND SURGICAL HOSPITALS", "SOURCE": "http://www.mass.gov/eohhs/gov/departments/dph/programs/hcq/healthcare-quality/", "SOURCEDATE": "2016-07-29T00:00:00.000Z", "VAL_METHOD": "IMAGERY", "VAL_DATE": "2014-02-10T00:00:00.000Z", "WEBSITE": "http://www.nbhealth.org", "STATE_ID": "65", "ALT_NAME": "NORTH ADAMS REGIONAL HOSPITAL", "ST_FIPS": "25", "OWNER": "NON-PROFIT", "TTL_STAFF": -999, "BEDS": 36, "TRAUMA": "NOT AVAILABLE", "HELIPAD": "Y" }, "geometry": { "type": "Polygon", "coordinates": [ [ [ -73.1194091, 42.619328 ], [ -73.1204389, 42.6197633 ], [ -73.192301, 42.693103 ], [ -73.195331, 42.697769 ], [ -73.2037128, 42.712000699999955 ], [ -73.189542, 42.721789 ], [ -73.117971, 42.743252 ], [ -73.062127, 42.741977 ], [ -73.05278, 42.693098 ], [ -73.103873, 42.630839 ], [ -73.1194091, 42.619328 ] ] ] } },
{ "type": "Feature", "properties": { "OBJECTID": 6785, "ID": "0004801102", "NAME": "MERCY MEDICAL CENTER - SPRINGFIELD CAMPUS", "ADDRESS": "271 CAREW STREET", "CITY": "SPRINGFIELD", "STATE": "MA", "ZIP": "01102", "ZIP4": "NOT AVAILABLE", "TELEPHONE": "(413) 748-9000", "TYPE": "GENERAL ACUTE CARE", "STATUS": "OPEN", "POPULATION": 229, "COUNTY": "HAMPDEN", "COUNTYFIPS": "25013", "COUNTRY": "USA", "LATITUDE": 42.115137946000097, "LONGITUDE": -72.593305697999895, "NAICS_CODE": "622110", "NAICS_DESC": "GENERAL MEDICAL AND SURGICAL HOSPITALS", "SOURCE": "http://www.mass.gov/eohhs/gov/departments/dph/programs/hcq/healthcare-quality/", "SOURCEDATE": "2018-08-16T00:00:00.000Z", "VAL_METHOD": "IMAGERY/OTHER", "VAL_DATE": "2014-02-10T00:00:00.000Z", "WEBSITE": "http://www.mercycares.com", "STATE_ID": "40", "ALT_NAME": "MERCY MEDICAL CENTER", "ST_FIPS": "25", "OWNER": "NON-PROFIT", "TTL_STAFF": -999, "BEDS": 229, "TRAUMA": "NOT AVAILABLE", "HELIPAD": "N" }, "geometry": { "type": "Polygon", "coordinates": [ [ [ -72.5839788, 42.024774100000023 ], [ -72.585393, 42.025336 ], [ -72.663112, 42.06223480000002 ], [ -72.669871, 42.068363 ], [ -72.677464, 42.079144 ], [ -72.687938, 42.107403 ], [ -72.6879588, 42.107511 ], [ -72.646803, 42.203997 ], [ -72.6326569, 42.213050200000012 ], [ -72.611821, 42.211065 ], [ -72.518491, 42.179657 ], [ -72.496488, 42.153736 ], [ -72.495247, 42.147226 ], [ -72.5026181, 42.0963947 ], [ -72.510857, 42.069655 ], [ -72.5124084, 42.0646715 ], [ -72.5812686, 42.0251155 ], [ -72.5829829, 42.024742500000023 ], [ -72.5839788, 42.024774100000023 ] ] ] } },
{ "type": "Feature", "properties": { "OBJECTID": 4027, "ID": "0176106810", "NAME": "CONNECTICUT CHILDBIRTH & WOMEN'S CENTER", "ADDRESS": "94 LOCUST AVE", "CITY": "DANBURY", "STATE": "CT", "ZIP": "06810", "ZIP4": "6032", "TELEPHONE": "(203) 748-6000", "TYPE": "WOMEN", "STATUS": "OPEN", "POPULATION": -999, "COUNTY": "FAIRFIELD", "COUNTYFIPS": "09001", "COUNTRY": "USA", "LATITUDE": 41.404395, "LONGITUDE": -73.447181, "NAICS_CODE": "622110", "NAICS_DESC": "GENERAL MEDICAL AND SURGICAL HOSPITALS", "SOURCE": "https://www.elicense.ct.gov/Lookup/GenerateRoster.aspx", "SOURCEDATE": "2018-08-13T00:00:00.000Z", "VAL_METHOD": "IMAGERY", "VAL_DATE": "2019-05-09T00:00:00.000Z", "WEBSITE": "http://www.ctbirthcenter.com/", "STATE_ID": "NOT AVAILABLE", "ALT_NAME": "NOT AVAILABLE", "ST_FIPS": "09", "OWNER": "PROPRIETARY", "TTL_STAFF": -999, "BEDS": -999, "TRAUMA": "NOT AVAILABLE", "HELIPAD": "Y" }, "geometry": { "type": "Polygon", "coordinates": [ [ [ -73.474213100000014, 41.325237399999985 ], [ -73.516380600000019, 41.361859400000036 ], [ -73.5367238, 41.382676700000047 ], [ -73.5401497, 41.388899 ], [ -73.5406433, 41.3908393 ], [ -73.5141818, 41.4466198 ], [ -73.4967981, 41.4670937 ], [ -73.408387, 41.478089600000025 ], [ -73.352537, 41.436707300000023 ], [ -73.3401812, 41.4268688 ], [ -73.3367979, 41.4189341 ], [ -73.3426473, 41.410585400000059 ], [ -73.3847503, 41.3630841 ], [ -73.3990685, 41.352564500000021 ], [ -73.4152271, 41.3442736 ], [ -73.474213100000014, 41.325237399999985 ] ] ] } },
{ "type": "Feature", "properties": { "OBJECTID": 4110, "ID": "0002106102", "NAME": "HARTFORD HOSPITAL", "ADDRESS": "80 SEYMOUR STREET", "CITY": "HARTFORD", "STATE": "CT", "ZIP": "06102", "ZIP4": "NOT AVAILABLE", "TELEPHONE": "(860) 545-5000", "TYPE": "GENERAL ACUTE CARE", "STATUS": "OPEN", "POPULATION": 867, "COUNTY": "HARTFORD", "COUNTYFIPS": "09003", "COUNTRY": "USA", "LATITUDE": 41.754125420999998, "LONGITUDE": -72.679177889999906, "NAICS_CODE": "622110", "NAICS_DESC": "GENERAL MEDICAL AND SURGICAL HOSPITALS", "SOURCE": "https://www.elicense.ct.gov/Lookup/GenerateRoster.aspx", "SOURCEDATE": "2018-08-13T00:00:00.000Z", "VAL_METHOD": "IMAGERY", "VAL_DATE": "2014-02-10T00:00:00.000Z", "WEBSITE": "http://www.harthosp.org", "STATE_ID": "070025", "ALT_NAME": "NOT AVAILABLE", "ST_FIPS": "09", "OWNER": "NON-PROFIT", "TTL_STAFF": -999, "BEDS": 867, "TRAUMA": "LEVEL I", "HELIPAD": "Y" }, "geometry": { "type": "Polygon", "coordinates": [ [ [ -72.6722552, 41.6546771 ], [ -72.717583, 41.670467599999988 ], [ -72.7816753, 41.72577740000002 ], [ -72.7819755, 41.791155500000038 ], [ -72.7505905, 41.817457599999948 ], [ -72.7473451, 41.819649700000014 ], [ -72.6623981, 41.8741292 ], [ -72.5440785, 41.803252899999976 ], [ -72.5366612, 41.762754899999962 ], [ -72.573027, 41.7052287 ], [ -72.6722552, 41.6546771 ] ] ] } },
{ "type": "Feature", "properties": { "OBJECTID": 4115, "ID": "0002312204", "NAME": "ALBANY MEDICAL CENTER - SOUTH CLINICAL CAMPUS", "ADDRESS": "25 HACKETT BOULEVARD, MC 201", "CITY": "ALBANY", "STATE": "NY", "ZIP": "12204", "ZIP4": "NOT AVAILABLE", "TELEPHONE": "(518) 262-1200", "TYPE": "GENERAL ACUTE CARE", "STATUS": "OPEN", "POPULATION": 18, "COUNTY": "ALBANY", "COUNTYFIPS": "36001", "COUNTRY": "USA", "LATITUDE": 42.645810667, "LONGITUDE": -73.780114643999994, "NAICS_CODE": "622110", "NAICS_DESC": "GENERAL MEDICAL AND SURGICAL HOSPITALS", "SOURCE": "https://profiles.health.ny.gov/hospital/county_or_region/", "SOURCEDATE": "2018-08-20T00:00:00.000Z", "VAL_METHOD": "IMAGERY", "VAL_DATE": "2014-02-10T00:00:00.000Z", "WEBSITE": "http://www.amc.edu/index.cfm", "STATE_ID": "0101005H", "ALT_NAME": "NOT AVAILABLE", "ST_FIPS": "36", "OWNER": "NON-PROFIT", "TTL_STAFF": -999, "BEDS": 18, "TRAUMA": "NOT AVAILABLE", "HELIPAD": "Y" }, "geometry": { "type": "Polygon", "coordinates": [ [ [ -73.806197, 42.564418 ], [ -73.8555094, 42.600191799999969 ], [ -73.8678575, 42.609534899999971 ], [ -73.8688366, 42.61110740000003 ], [ -73.875224, 42.627278 ], [ -73.8593274, 42.708877699999952 ], [ -73.7553488, 42.715768799999985 ], [ -73.697749, 42.705839 ], [ -73.6958579, 42.7045946 ], [ -73.6909379, 42.700978099999979 ], [ -73.6808636, 42.6530873 ], [ -73.6984037, 42.619860899999978 ], [ -73.718441, 42.602623 ], [ -73.760396, 42.56767 ], [ -73.766488, 42.567041 ], [ -73.806197, 42.564418 ] ] ] } },
{ "type": "Feature", "properties": { "OBJECTID": 4153, "ID": "0002012208", "NAME": "ALBANY MEDICAL CENTER", "ADDRESS": "43 NEW SCOTLAND AVE", "CITY": "ALBANY", "STATE": "NY", "ZIP": "12208", "ZIP4": "NOT AVAILABLE", "TELEPHONE": "(518) 262-3474", "TYPE": "GENERAL ACUTE CARE", "STATUS": "OPEN", "POPULATION": 716, "COUNTY": "ALBANY", "COUNTYFIPS": "36001", "COUNTRY": "USA", "LATITUDE": 42.653408057999997, "LONGITUDE": -73.776657456999899, "NAICS_CODE": "622110", "NAICS_DESC": "GENERAL MEDICAL AND SURGICAL HOSPITALS", "SOURCE": "https://profiles.health.ny.gov/hospital/county_or_region/", "SOURCEDATE": "2018-08-20T00:00:00.000Z", "VAL_METHOD": "IMAGERY", "VAL_DATE": "2014-02-10T00:00:00.000Z", "WEBSITE": "http://www.amc.edu", "STATE_ID": "0101000H", "ALT_NAME": "NOT AVAILABLE", "ST_FIPS": "36", "OWNER": "NON-PROFIT", "TTL_STAFF": -999, "BEDS": 716, "TRAUMA": "LEVEL I", "HELIPAD": "Y" }, "geometry": { "type": "Polygon", "coordinates": [ [ [ -73.766488, 42.567041 ], [ -73.802216, 42.577077 ], [ -73.855139, 42.605904 ], [ -73.8656919, 42.6291711 ], [ -73.8702705, 42.6441401 ], [ -73.861727, 42.6887966 ], [ -73.8441819, 42.6997907 ], [ -73.8251111, 42.710808200000045 ], [ -73.759772, 42.725570100000034 ], [ -73.751774, 42.72431660000003 ], [ -73.6969767, 42.7114301 ], [ -73.6964889, 42.7113025 ], [ -73.6955271, 42.711045799999972 ], [ -73.6861812, 42.703979199999971 ], [ -73.6769822, 42.652541699999965 ], [ -73.6895281, 42.620948299999988 ], [ -73.7133411, 42.602036799999979 ], [ -73.766488, 42.567041 ] ] ] } },
{ "type": "Feature", "properties": { "OBJECTID": 4269, "ID": "0012611787", "NAME": "ST. CATHERINE OF SIENA MEDICAL CENTER", "ADDRESS": "50 ROUTE, 25 A", "CITY": "SMITHTOWN", "STATE": "NY", "ZIP": "11787", "ZIP4": "NOT AVAILABLE", "TELEPHONE": "(631) 862-3100", "TYPE": "GENERAL ACUTE CARE", "STATUS": "OPEN", "POPULATION": 306, "COUNTY": "SUFFOLK", "COUNTYFIPS": "36103", "COUNTRY": "USA", "LATITUDE": 40.868500186000098, "LONGITUDE": -73.222996727999899, "NAICS_CODE": "622110", "NAICS_DESC": "GENERAL MEDICAL AND SURGICAL HOSPITALS", "SOURCE": "https://profiles.health.ny.gov/hospital/county_or_region/", "SOURCEDATE": "2018-08-20T00:00:00.000Z", "VAL_METHOD": "IMAGERY", "VAL_DATE": "2014-02-10T00:00:00.000Z", "WEBSITE": "http://stcatherines.chsli.org/", "STATE_ID": "5157003H", "ALT_NAME": "NOT AVAILABLE", "ST_FIPS": "36", "OWNER": "NON-PROFIT", "TTL_STAFF": -999, "BEDS": 306, "TRAUMA": "NOT AVAILABLE", "HELIPAD": "N" }, "geometry": { "type": "Polygon", "coordinates": [ [ [ -73.2339433, 40.8063007 ], [ -73.2378031, 40.807965400000015 ], [ -73.2661381, 40.821018499999937 ], [ -73.294567, 40.83599 ], [ -73.3013198, 40.842168299999948 ], [ -73.3122443, 40.8791944 ], [ -73.305729, 40.911101 ], [ -73.3019453, 40.9142268 ], [ -73.298045, 40.917395 ], [ -73.287861, 40.920809 ], [ -73.153867, 40.89548 ], [ -73.148082, 40.891986 ], [ -73.1238509, 40.873806100000024 ], [ -73.1188538, 40.861027 ], [ -73.133589, 40.831665 ], [ -73.134753, 40.830513 ], [ -73.1817722, 40.8063191 ], [ -73.199122, 40.805522 ], [ -73.2339433, 40.8063007 ] ] ] } },
{ "type": "Feature", "properties": { "OBJECTID": 112, "ID": "0000502891", "NAME": "WESTERLY HOSPITAL", "ADDRESS": "25 WELLS ST", "CITY": "WESTERLY", "STATE": "RI", "ZIP": "02891", "ZIP4": "NOT AVAILABLE", "TELEPHONE": "(401) 596-6000", "TYPE": "GENERAL ACUTE CARE", "STATUS": "OPEN", "POPULATION": 125, "COUNTY": "WASHINGTON", "COUNTYFIPS": "44009", "COUNTRY": "USA", "LATITUDE": 41.362189075000103, "LONGITUDE": -71.825303241, "NAICS_CODE": "622110", "NAICS_DESC": "GENERAL MEDICAL AND SURGICAL HOSPITALS", "SOURCE": "http://www.health.ri.gov/licenses/detail.php?id=207", "SOURCEDATE": "2018-08-10T00:00:00.000Z", "VAL_METHOD": "IMAGERY", "VAL_DATE": "2014-03-12T00:00:00.000Z", "WEBSITE": "http://www.westerlyhospital.org/", "STATE_ID": "6", "ALT_NAME": "NOT AVAILABLE", "ST_FIPS": "44", "OWNER": "NON-PROFIT", "TTL_STAFF": -999, "BEDS": 125, "TRAUMA": "NOT AVAILABLE", "HELIPAD": "N" }, "geometry": { "type": "Polygon", "coordinates": [ [ [ -71.861023, 41.310497 ], [ -71.842423499999981, 41.3976359 ], [ -71.840385, 41.403316 ], [ -71.8235891, 41.417669 ], [ -71.792450436276027, 41.432018250140317 ], [ -71.785339448244727, 41.434925245335805 ], [ -71.779739450812315, 41.431076251069683 ], [ -71.700989585410426, 41.35826960163466 ], [ -71.700798584630164, 41.357300604954006 ], [ -71.702515573217156, 41.35456860377105 ], [ -71.707451546555745, 41.35045659052232 ], [ -71.734215416756157, 41.336182491410391 ], [ -71.753052339383828, 41.326866427285154 ], [ -71.851357, 41.310524 ], [ -71.854729, 41.310074 ], [ -71.857765, 41.309994 ], [ -71.861023, 41.310497 ] ] ] } },
{ "type": "Feature", "properties": { "OBJECTID": 144, "ID": "0003906250", "NAME": "NATCHAUG HOSPITAL, INC.", "ADDRESS": "189 STORRS RD", "CITY": "MANSFIELD CENTER", "STATE": "CT", "ZIP": "06250", "ZIP4": "NOT AVAILABLE", "TELEPHONE": "(860) 456-1311", "TYPE": "PSYCHIATRIC", "STATUS": "OPEN", "POPULATION": -999, "COUNTY": "TOLLAND", "COUNTYFIPS": "09013", "COUNTRY": "USA", "LATITUDE": 41.741103919000103, "LONGITUDE": -72.198011481999998, "NAICS_CODE": "622210", "NAICS_DESC": "PSYCHIATRIC AND SUBSTANCE ABUSE HOSPITALS", "SOURCE": "https://www.elicense.ct.gov/Lookup/GenerateRoster.aspx", "SOURCEDATE": "2018-08-13T00:00:00.000Z", "VAL_METHOD": "IMAGERY/OTHER", "VAL_DATE": "2016-04-04T00:00:00.000Z", "WEBSITE": "http://www.natchaug.org/", "STATE_ID": "NOT AVAILABLE", "ALT_NAME": "NOT AVAILABLE", "ST_FIPS": "09", "OWNER": "NON-PROFIT", "TTL_STAFF": -999, "BEDS": -999, "TRAUMA": "NOT AVAILABLE", "HELIPAD": "N" }, "geometry": { "type": "Polygon", "coordinates": [ [ [ -72.2116243, 41.694322 ], [ -72.2687174, 41.730396900000024 ], [ -72.2708873, 41.753601199999949 ], [ -72.252193600000012, 41.8135639 ], [ -72.2493493, 41.814210599999946 ], [ -72.1637205, 41.812438 ], [ -72.1515459, 41.780053599999952 ], [ -72.161741399999983, 41.703181300000047 ], [ -72.1808883, 41.693102299999971 ], [ -72.182471, 41.6926336 ], [ -72.2116243, 41.694322 ] ] ] } },
{ "type": "Feature", "properties": { "OBJECTID": 172, "ID": "0012701104", "NAME": "SHRINERS' HOSPITAL FOR CHILDREN", "ADDRESS": "516 CAREW ST", "CITY": "SPRINGFIELD", "STATE": "MA", "ZIP": "01104", "ZIP4": "NOT AVAILABLE", "TELEPHONE": "(413) 787-2000", "TYPE": "CHILDREN", "STATUS": "OPEN", "POPULATION": 40, "COUNTY": "HAMPDEN", "COUNTYFIPS": "25013", "COUNTRY": "USA", "LATITUDE": 42.121315027000001, "LONGITUDE": -72.59237295, "NAICS_CODE": "622110", "NAICS_DESC": "CHILDREN'S HOSPITALS, GENERAL", "SOURCE": "http://www.mass.gov/eohhs/gov/departments/dph/programs/hcq/healthcare-quality/", "SOURCEDATE": "2018-08-16T00:00:00.000Z", "VAL_METHOD": "IMAGERY", "VAL_DATE": "2016-08-02T00:00:00.000Z", "WEBSITE": "http://www.shrinershospitalsforchildren.org/Locations/springfield", "STATE_ID": "2152", "ALT_NAME": "NOT AVAILABLE", "ST_FIPS": "25", "OWNER": "NON-PROFIT", "TTL_STAFF": -999, "BEDS": 40, "TRAUMA": "NOT AVAILABLE", "HELIPAD": "N" }, "geometry": { "type": "Polygon", "coordinates": [ [ [ -72.581853, 42.031386 ], [ -72.658603, 42.063422400000022 ], [ -72.6594559, 42.063814899999983 ], [ -72.667022, 42.068742 ], [ -72.6794872, 42.104373199999984 ], [ -72.67292, 42.127031 ], [ -72.653564, 42.185882 ], [ -72.646803, 42.203997 ], [ -72.6326569, 42.213050200000012 ], [ -72.611821, 42.211065 ], [ -72.5200788, 42.180847 ], [ -72.518491, 42.179657 ], [ -72.4944023, 42.15426 ], [ -72.493299, 42.149201 ], [ -72.501393, 42.116449 ], [ -72.51733, 42.071199 ], [ -72.579132, 42.032421 ], [ -72.581853, 42.031386 ] ] ] } },
{ "type": "Feature", "properties": { "OBJECTID": 353, "ID": "0009912180", "NAME": "SAMARITAN HOSPITAL", "ADDRESS": "2215 BURDETT AVE", "CITY": "TROY", "STATE": "NY", "ZIP": "12180", "ZIP4": "NOT AVAILABLE", "TELEPHONE": "(518) 271-3300", "TYPE": "GENERAL ACUTE CARE", "STATUS": "OPEN", "POPULATION": 212, "COUNTY": "RENSSELAER", "COUNTYFIPS": "36083", "COUNTRY": "USA", "LATITUDE": 42.733292485000099, "LONGITUDE": -73.672163995999895, "NAICS_CODE": "622110", "NAICS_DESC": "GENERAL MEDICAL AND SURGICAL HOSPITALS", "SOURCE": "https://profiles.health.ny.gov/hospital/county_or_region/", "SOURCEDATE": "2018-08-20T00:00:00.000Z", "VAL_METHOD": "IMAGERY", "VAL_DATE": "2014-02-10T00:00:00.000Z", "WEBSITE": "http://www.nehealth.com", "STATE_ID": "4102002H", "ALT_NAME": "NOT AVAILABLE", "ST_FIPS": "36", "OWNER": "NON-PROFIT", "TTL_STAFF": -999, "BEDS": 212, "TRAUMA": "NOT AVAILABLE", "HELIPAD": "N" }, "geometry": { "type": "Polygon", "coordinates": [ [ [ -73.736388, 42.662989 ], [ -73.793231, 42.732013 ], [ -73.79865430000001, 42.763151499999964 ], [ -73.7338975, 42.7967177 ], [ -73.634185, 42.804692 ], [ -73.633384, 42.804625 ], [ -73.580119, 42.777896 ], [ -73.572361, 42.750063 ], [ -73.57249, 42.734928 ], [ -73.6022842, 42.6925517 ], [ -73.6258506, 42.675054699999983 ], [ -73.736388, 42.662989 ] ] ] } },
{ "type": "Feature", "properties": { "OBJECTID": 356, "ID": "0010912866", "NAME": "SARATOGA HOSPITAL", "ADDRESS": "211 CHURCH ST", "CITY": "SARATOGA", "STATE": "NY", "ZIP": "12866", "ZIP4": "NOT AVAILABLE", "TELEPHONE": "(518) 587-3222", "TYPE": "GENERAL ACUTE CARE", "STATUS": "OPEN", "POPULATION": 171, "COUNTY": "SARATOGA", "COUNTYFIPS": "36091", "COUNTRY": "USA", "LATITUDE": 43.085880219000003, "LONGITUDE": -73.796782733000001, "NAICS_CODE": "622110", "NAICS_DESC": "GENERAL MEDICAL AND SURGICAL HOSPITALS", "SOURCE": "https://profiles.health.ny.gov/hospital/county_or_region/", "SOURCEDATE": "2018-08-20T00:00:00.000Z", "VAL_METHOD": "IMAGERY", "VAL_DATE": "2014-02-10T00:00:00.000Z", "WEBSITE": "http://saratogahospital.org/", "STATE_ID": "4501000H", "ALT_NAME": "NOT AVAILABLE", "ST_FIPS": "36", "OWNER": "NON-PROFIT", "TTL_STAFF": -999, "BEDS": 171, "TRAUMA": "NOT AVAILABLE", "HELIPAD": "Y" }, "geometry": { "type": "Polygon", "coordinates": [ [ [ -73.789568, 42.984192 ], [ -73.84879, 43.002633 ], [ -73.850346, 43.003331 ], [ -73.851308, 43.003979799999954 ], [ -73.8598, 43.010841 ], [ -73.917223, 43.06064 ], [ -73.910859, 43.080035 ], [ -73.86896, 43.160223 ], [ -73.865362, 43.163126 ], [ -73.854349, 43.167854 ], [ -73.718413, 43.1742405 ], [ -73.710633, 43.172439 ], [ -73.706012, 43.166026 ], [ -73.664528300000015, 43.095375700000019 ], [ -73.709596, 43.043343 ], [ -73.713615, 43.039528 ], [ -73.7764768, 42.98966080000001 ], [ -73.783617, 42.985725 ], [ -73.789568, 42.984192 ] ] ] } },
{ "type": "Feature", "properties": { "OBJECTID": 380, "ID": "0011711772", "NAME": "BROOKHAVEN MEMORIAL HOSPITAL MEDICAL CENTER", "ADDRESS": "101 HOSPITAL RD", "CITY": "PATCHOGUE", "STATE": "NY", "ZIP": "11772", "ZIP4": "NOT AVAILABLE", "TELEPHONE": "(631) 654-7100", "TYPE": "GENERAL ACUTE CARE", "STATUS": "OPEN", "POPULATION": 306, "COUNTY": "SUFFOLK", "COUNTYFIPS": "36103", "COUNTRY": "USA", "LATITUDE": 40.7800571880001, "LONGITUDE": -72.977140649000006, "NAICS_CODE": "622110", "NAICS_DESC": "GENERAL MEDICAL AND SURGICAL HOSPITALS", "SOURCE": "https://profiles.health.ny.gov/hospital/county_or_region/", "SOURCEDATE": "2018-08-20T00:00:00.000Z", "VAL_METHOD": "IMAGERY", "VAL_DATE": "2014-02-10T00:00:00.000Z", "WEBSITE": "http://www.bmhmc.org", "STATE_ID": "5123000H", "ALT_NAME": "NOT AVAILABLE", "ST_FIPS": "36", "OWNER": "NON-PROFIT", "TTL_STAFF": -999, "BEDS": 306, "TRAUMA": "AREA", "HELIPAD": "Y" }, "geometry": { "type": "Polygon", "coordinates": [ [ [ -73.054455, 40.732131 ], [ -73.1239406, 40.75248830000001 ], [ -73.1149389, 40.7858953 ], [ -73.0890086, 40.817936300000028 ], [ -73.057434199999989, 40.841199 ], [ -73.0184006, 40.851695099999951 ], [ -72.939277, 40.863513 ], [ -72.8805829, 40.848442700000021 ], [ -72.83743010000002, 40.807341199999982 ], [ -72.8373687, 40.80622769999998 ], [ -72.8439494, 40.795686299999943 ], [ -72.8563943, 40.7819276 ], [ -72.8597931, 40.778644700000029 ], [ -72.8676864, 40.772352300000051 ], [ -72.944948, 40.741645 ], [ -73.0414015, 40.731183700000031 ], [ -73.042488700000021, 40.731103600000012 ], [ -73.045701, 40.731286 ], [ -73.053161, 40.731943 ], [ -73.054455, 40.732131 ] ] ] } },
{ "type": "Feature", "properties": { "OBJECTID": 381, "ID": "0011811968", "NAME": "SOUTHAMPTON HOSPITAL", "ADDRESS": "240 MEETING HOUSE LANE", "CITY": "SOUTHAMPTON", "STATE": "NY", "ZIP": "11968", "ZIP4": "NOT AVAILABLE", "TELEPHONE": "(516) 726-8200", "TYPE": "GENERAL ACUTE CARE", "STATUS": "OPEN", "POPULATION": 125, "COUNTY": "SUFFOLK", "COUNTYFIPS": "36103", "COUNTRY": "USA", "LATITUDE": 40.885059735, "LONGITUDE": -72.379944064, "NAICS_CODE": "622110", "NAICS_DESC": "GENERAL MEDICAL AND SURGICAL HOSPITALS", "SOURCE": "https://profiles.health.ny.gov/hospital/county_or_region/", "SOURCEDATE": "2018-08-20T00:00:00.000Z", "VAL_METHOD": "IMAGERY", "VAL_DATE": "2014-02-10T00:00:00.000Z", "WEBSITE": "http://www.southamptonhospital.org", "STATE_ID": "5126000H", "ALT_NAME": "NOT AVAILABLE", "ST_FIPS": "36", "OWNER": "NON-PROFIT", "TTL_STAFF": -999, "BEDS": 125, "TRAUMA": "LEVEL III", "HELIPAD": "N" }, "geometry": { "type": "Polygon", "coordinates": [ [ [ -72.428459, 40.863556 ], [ -72.47429, 40.8838 ], [ -72.4770271, 40.885224700000052 ], [ -72.4658209, 40.905086699999963 ], [ -72.4279256, 40.945507399999975 ], [ -72.367035, 40.951786 ], [ -72.326787200000012, 40.953102499999964 ], [ -72.304898400000013, 40.935941 ], [ -72.304438499999989, 40.932324299999976 ], [ -72.3123104, 40.9117175 ], [ -72.3301692, 40.8917293 ], [ -72.3877206, 40.870692500000011 ], [ -72.4110477, 40.863363399999976 ], [ -72.4113394, 40.863279 ], [ -72.428459, 40.863556 ] ] ] } },
{ "type": "Feature", "properties": { "OBJECTID": 382, "ID": "0011911901", "NAME": "EASTERN LONG ISLAND HOSPITAL", "ADDRESS": "201 MANOR PL", "CITY": "GREENPORT", "STATE": "NY", "ZIP": "11901", "ZIP4": "NOT AVAILABLE", "TELEPHONE": "(631) 477-1000", "TYPE": "GENERAL ACUTE CARE", "STATUS": "OPEN", "POPULATION": 90, "COUNTY": "SUFFOLK", "COUNTYFIPS": "36103", "COUNTRY": "USA", "LATITUDE": 41.110360570000097, "LONGITUDE": -72.361127318999905, "NAICS_CODE": "622110", "NAICS_DESC": "GENERAL MEDICAL AND SURGICAL HOSPITALS", "SOURCE": "https://profiles.health.ny.gov/hospital/county_or_region/", "SOURCEDATE": "2018-08-20T00:00:00.000Z", "VAL_METHOD": "IMAGERY", "VAL_DATE": "2014-02-10T00:00:00.000Z", "WEBSITE": "http://www.elih.org", "STATE_ID": "5127000H", "ALT_NAME": "NOT AVAILABLE", "ST_FIPS": "36", "OWNER": "NON-PROFIT", "TTL_STAFF": -999, "BEDS": 90, "TRAUMA": "NOT AVAILABLE", "HELIPAD": "Y" }, "geometry": { "type": "Polygon", "coordinates": [ [ [ -72.47048820000002, 41.043026900000022 ], [ -72.47064420000001, 41.043141400000025 ], [ -72.468619, 41.049957 ], [ -72.4554913, 41.071987299999982 ], [ -72.449449, 41.080075 ], [ -72.4445813, 41.085672600000031 ], [ -72.352293100000011, 41.1393037 ], [ -72.2790907, 41.1574329 ], [ -72.2718332, 41.153751799999966 ], [ -72.2643288, 41.148331199999973 ], [ -72.3751775, 41.0802112 ], [ -72.4252532, 41.050303499999956 ], [ -72.4359932, 41.046858500000027 ], [ -72.47048820000002, 41.043026900000022 ] ] ] } },
{ "type": "Feature", "properties": { "OBJECTID": 384, "ID": "0012311706", "NAME": "SOUTHSIDE HOSPITAL", "ADDRESS": "301 E MAIN ST", "CITY": "BAY SHORE", "STATE": "NY", "ZIP": "11706", "ZIP4": "NOT AVAILABLE", "TELEPHONE": "(631) 968-3000", "TYPE": "GENERAL ACUTE CARE", "STATUS": "OPEN", "POPULATION": 321, "COUNTY": "SUFFOLK", "COUNTYFIPS": "36103", "COUNTRY": "USA", "LATITUDE": 40.725960148000098, "LONGITUDE": -73.241158637999902, "NAICS_CODE": "622110", "NAICS_DESC": "GENERAL MEDICAL AND SURGICAL HOSPITALS", "SOURCE": "https://profiles.health.ny.gov/hospital/county_or_region/", "SOURCEDATE": "2018-08-20T00:00:00.000Z", "VAL_METHOD": "IMAGERY", "VAL_DATE": "2014-02-10T00:00:00.000Z", "WEBSITE": "https://www.northwell.edu/find-care/locations/southside-hospital", "STATE_ID": "5154000H", "ALT_NAME": "NOT AVAILABLE", "ST_FIPS": "36", "OWNER": "NON-PROFIT", "TTL_STAFF": -999, "BEDS": 321, "TRAUMA": "LEVEL II", "HELIPAD": "Y" }, "geometry": { "type": "Polygon", "coordinates": [ [ [ -73.2633464, 40.6373598 ], [ -73.344494, 40.686092 ], [ -73.372515, 40.7054188 ], [ -73.3727328, 40.7055881 ], [ -73.372364, 40.708449 ], [ -73.3707565, 40.712002 ], [ -73.354157, 40.73796 ], [ -73.2810408, 40.805432600000032 ], [ -73.248138, 40.801228 ], [ -73.1053029, 40.758039300000029 ], [ -73.1497691, 40.7018237 ], [ -73.2633464, 40.6373598 ] ] ] } },
{ "type": "Feature", "properties": { "OBJECTID": 388, "ID": "0013112401", "NAME": "HEALTHALLIANCE HOSPITAL - BROADWAY CAMPUS", "ADDRESS": "396 BROADWAY", "CITY": "KINGSTON", "STATE": "NY", "ZIP": "12401", "ZIP4": "NOT AVAILABLE", "TELEPHONE": "(845) 334-2750", "TYPE": "GENERAL ACUTE CARE", "STATUS": "OPEN", "POPULATION": 150, "COUNTY": "ULSTER", "COUNTYFIPS": "36111", "COUNTRY": "USA", "LATITUDE": 41.926658406999998, "LONGITUDE": -73.994842066999993, "NAICS_CODE": "622110", "NAICS_DESC": "GENERAL MEDICAL AND SURGICAL HOSPITALS", "SOURCE": "https://profiles.health.ny.gov/hospital/county_or_region/", "SOURCEDATE": "2018-08-20T00:00:00.000Z", "VAL_METHOD": "IMAGERY/OTHER", "VAL_DATE": "2014-02-10T00:00:00.000Z", "WEBSITE": "http://www.hahv.org/broadway-campus/", "STATE_ID": "5501001H", "ALT_NAME": "NOT AVAILABLE", "ST_FIPS": "36", "OWNER": "NON-PROFIT", "TTL_STAFF": -999, "BEDS": 150, "TRAUMA": "NOT AVAILABLE", "HELIPAD": "N" }, "geometry": { "type": "Polygon", "coordinates": [ [ [ -73.966689, 41.827192 ], [ -74.075059, 41.846674 ], [ -74.076499, 41.848718 ], [ -74.0920763, 41.9034559 ], [ -74.1078288, 41.970848 ], [ -74.0888666, 41.994820399999945 ], [ -74.049021, 42.000091 ], [ -73.984242, 42.004603 ], [ -73.956025, 41.993401 ], [ -73.933352, 41.9735419 ], [ -73.9588601, 41.84343879999998 ], [ -73.966689, 41.827192 ] ] ] } },
{ "type": "Feature", "properties": { "OBJECTID": 436, "ID": "0117412010", "NAME": "ST. MARY'S HEALTHCARE - AMSTERDAM MEMORIAL CAMPUS", "ADDRESS": "4988 STHWY 30", "CITY": "AMSTERDAM", "STATE": "NY", "ZIP": "12010", "ZIP4": "NOT AVAILABLE", "TELEPHONE": "(518) 842-3100", "TYPE": "GENERAL ACUTE CARE", "STATUS": "OPEN", "POPULATION": 10, "COUNTY": "MONTGOMERY", "COUNTYFIPS": "36057", "COUNTRY": "USA", "LATITUDE": 42.959065174000003, "LONGITUDE": -74.187122924999997, "NAICS_CODE": "622110", "NAICS_DESC": "GENERAL MEDICAL AND SURGICAL HOSPITALS", "SOURCE": "https://profiles.health.ny.gov/hospital/county_or_region/", "SOURCEDATE": "2018-08-20T00:00:00.000Z", "VAL_METHOD": "IMAGERY/OTHER", "VAL_DATE": "2015-02-11T00:00:00.000Z", "WEBSITE": "https://www.smha.org/", "STATE_ID": "2801000H", "ALT_NAME": "AMSTERDAM MEMORIAL HOSPITAL", "ST_FIPS": "36", "OWNER": "NON-PROFIT", "TTL_STAFF": -999, "BEDS": 10, "TRAUMA": "NOT AVAILABLE", "HELIPAD": "Y" }, "geometry": { "type": "Polygon", "coordinates": [ [ [ -74.242173, 42.885721 ], [ -74.2845884, 42.933919300000049 ], [ -74.296615300000013, 42.953471299999975 ], [ -74.299689, 42.964573 ], [ -74.298561, 42.965401 ], [ -74.2470846, 42.984027400000016 ], [ -74.145863100000014, 42.9875227 ], [ -74.112998, 42.985856 ], [ -74.1126275, 42.98367970000001 ], [ -74.1124664, 42.9827321 ], [ -74.11031, 42.93792 ], [ -74.1211157, 42.908192099999944 ], [ -74.169331, 42.894681 ], [ -74.213992, 42.88223 ], [ -74.242173, 42.885721 ] ] ] } },
{ "type": "Feature", "properties": { "OBJECTID": 437, "ID": "0117712180", "NAME": "THE BURDETT CARE CENTER", "ADDRESS": "2215 BURDETT AVENUE", "CITY": "TROY", "STATE": "NY", "ZIP": "12180", "ZIP4": "NOT AVAILABLE", "TELEPHONE": "(518) 271-3655", "TYPE": "WOMEN", "STATUS": "OPEN", "POPULATION": 15, "COUNTY": "RENSSELAER", "COUNTYFIPS": "36083", "COUNTRY": "USA", "LATITUDE": 42.733357751, "LONGITUDE": -73.672666077000002, "NAICS_CODE": "622310", "NAICS_DESC": "SPECIALTY (EXCEPT PSYCHIATRIC AND SUBSTANCE ABUSE) HOSPITALS", "SOURCE": "https://profiles.health.ny.gov/hospital/county_or_region/", "SOURCEDATE": "2018-08-20T00:00:00.000Z", "VAL_METHOD": "IMAGERY/OTHER", "VAL_DATE": "2015-02-11T00:00:00.000Z", "WEBSITE": "http://www.burdettcarecenter.org/", "STATE_ID": "4102004H", "ALT_NAME": "NOT AVAILABLE", "ST_FIPS": "36", "OWNER": "NON-PROFIT", "TTL_STAFF": -999, "BEDS": 15, "TRAUMA": "NOT AVAILABLE", "HELIPAD": "N" }, "geometry": { "type": "Polygon", "coordinates": [ [ [ -73.736388, 42.662989 ], [ -73.793231, 42.732013 ], [ -73.79865430000001, 42.763151499999964 ], [ -73.7338975, 42.7967177 ], [ -73.634185, 42.804692 ], [ -73.633384, 42.804625 ], [ -73.580119, 42.777896 ], [ -73.572361, 42.750063 ], [ -73.57249, 42.734928 ], [ -73.6022842, 42.6925517 ], [ -73.6258506, 42.675054699999983 ], [ -73.736388, 42.662989 ] ] ] } },
{ "type": "Feature", "properties": { "OBJECTID": 455, "ID": "0121013326", "NAME": "MARY IMOGENE BASSETT HOSPITAL", "ADDRESS": "ONE ATWELL ROAD", "CITY": "COOPERSTOWN", "STATE": "NY", "ZIP": "13326", "ZIP4": "NOT AVAILABLE", "TELEPHONE": "(607) 547-3456", "TYPE": "GENERAL ACUTE CARE", "STATUS": "OPEN", "POPULATION": 180, "COUNTY": "OTSEGO", "COUNTYFIPS": "36077", "COUNTRY": "USA", "LATITUDE": 42.695255141000104, "LONGITUDE": -74.922955574, "NAICS_CODE": "622110", "NAICS_DESC": "GENERAL MEDICAL AND SURGICAL HOSPITALS", "SOURCE": "https://profiles.health.ny.gov/hospital/county_or_region/", "SOURCEDATE": "2018-08-20T00:00:00.000Z", "VAL_METHOD": "IMAGERY/OTHER", "VAL_DATE": "2015-02-24T00:00:00.000Z", "WEBSITE": "http://www.bassett.org/medical/locations/hospitals/bassett-medical-center/", "STATE_ID": "3824000H", "ALT_NAME": "NOT AVAILABLE", "ST_FIPS": "36", "OWNER": "NON-PROFIT", "TTL_STAFF": -999, "BEDS": 180, "TRAUMA": "LEVEL II", "HELIPAD": "N" }, "geometry": { "type": "Polygon", "coordinates": [ [ [ -74.969587, 42.63527 ], [ -74.997641, 42.654548 ], [ -75.016862, 42.735104 ], [ -75.016842, 42.735908 ], [ -74.928398, 42.766471 ], [ -74.903739, 42.767482 ], [ -74.902021, 42.76736 ], [ -74.900919, 42.766886 ], [ -74.869258, 42.741829 ], [ -74.858831, 42.71972 ], [ -74.849629, 42.694455 ], [ -74.875827, 42.647039 ], [ -74.889153, 42.637425 ], [ -74.911843, 42.636367 ], [ -74.969587, 42.63527 ] ] ] } },
{ "type": "Feature", "properties": { "OBJECTID": 461, "ID": "0025812866", "NAME": "FOUR WINDS HOSPITAL SARATOGA", "ADDRESS": "30 CRESCENT AVENUE", "CITY": "SARATOGA SPRINGS", "STATE": "NY", "ZIP": "12866", "ZIP4": "NOT AVAILABLE", "TELEPHONE": "(518) 584-3600", "TYPE": "PSYCHIATRIC", "STATUS": "OPEN", "POPULATION": 88, "COUNTY": "SARATOGA", "COUNTYFIPS": "36091", "COUNTRY": "USA", "LATITUDE": 43.058130468999998, "LONGITUDE": -73.78539606, "NAICS_CODE": "622210", "NAICS_DESC": "PSYCHIATRIC AND SUBSTANCE ABUSE HOSPITALS", "SOURCE": "https://profiles.health.ny.gov/hospital/county_or_region/", "SOURCEDATE": "2018-08-20T00:00:00.000Z", "VAL_METHOD": "IMAGERY/OTHER", "VAL_DATE": "2016-09-14T00:00:00.000Z", "WEBSITE": "http://www.fourwindshospital.com/", "STATE_ID": "NOT AVAILABLE", "ALT_NAME": "NOT AVAILABLE", "ST_FIPS": "36", "OWNER": "PROPRIETARY", "TTL_STAFF": -999, "BEDS": 88, "TRAUMA": "NOT AVAILABLE", "HELIPAD": "N" }, "geometry": { "type": "Polygon", "coordinates": [ [ [ -73.811264, 42.93539580000003 ], [ -73.838803, 42.973166 ], [ -73.871672, 43.02673 ], [ -73.8739955, 43.042281900000013 ], [ -73.8778633, 43.07079610000001 ], [ -73.877888, 43.071597 ], [ -73.8778766, 43.072627500000067 ], [ -73.848485, 43.118981 ], [ -73.766662, 43.14196 ], [ -73.765489, 43.141606 ], [ -73.720488, 43.123379 ], [ -73.701665, 43.08708 ], [ -73.700741, 43.039965 ], [ -73.741132, 42.980708 ], [ -73.741497, 42.980303 ], [ -73.8009386, 42.936172100000014 ], [ -73.8042762, 42.934583900000021 ], [ -73.811264, 42.93539580000003 ] ] ] } },
{ "type": "Feature", "properties": { "OBJECTID": 7079, "ID": "0002612455", "NAME": "MARGARETVILLE MEMORIAL HOSPITAL", "ADDRESS": "42084 STATE HIGHWAY 28", "CITY": "MARGARETVILLE", "STATE": "NY", "ZIP": "12455", "ZIP4": "NOT AVAILABLE", "TELEPHONE": "(845) 586-2631", "TYPE": "CRITICAL ACCESS", "STATUS": "OPEN", "POPULATION": 15, "COUNTY": "DELAWARE", "COUNTYFIPS": "36025", "COUNTRY": "USA", "LATITUDE": 42.146653557999997, "LONGITUDE": -74.642069267999901, "NAICS_CODE": "622110", "NAICS_DESC": "GENERAL MEDICAL AND SURGICAL HOSPITALS", "SOURCE": "https://profiles.health.ny.gov/hospital/county_or_region/", "SOURCEDATE": "2018-08-20T00:00:00.000Z", "VAL_METHOD": "IMAGERY", "VAL_DATE": "2014-02-10T00:00:00.000Z", "WEBSITE": "http://www.hahv.org/find-care/locations/margaretville-hospital/", "STATE_ID": "1226701C", "ALT_NAME": "NOT AVAILABLE", "ST_FIPS": "36", "OWNER": "NON-PROFIT", "TTL_STAFF": -999, "BEDS": 15, "TRAUMA": "NOT AVAILABLE", "HELIPAD": "N" }, "geometry": { "type": "Polygon", "coordinates": [ [ [ -74.768765, 42.116355 ], [ -74.708648, 42.168657 ], [ -74.67395, 42.191432 ], [ -74.5970062, 42.1991211 ], [ -74.5366912, 42.155341500000048 ], [ -74.5788605, 42.130928 ], [ -74.6416622, 42.1088003 ], [ -74.732652, 42.112362 ], [ -74.768765, 42.116355 ] ] ] } },
{ "type": "Feature", "properties": { "OBJECTID": 7084, "ID": "0004413365", "NAME": "LITTLE FALLS HOSPITAL", "ADDRESS": "140 BURWELL ST", "CITY": "LITTLE FALLS", "STATE": "NY", "ZIP": "13365", "ZIP4": "NOT AVAILABLE", "TELEPHONE": "(315) 823-1000", "TYPE": "CRITICAL ACCESS", "STATUS": "OPEN", "POPULATION": 25, "COUNTY": "HERKIMER", "COUNTYFIPS": "36043", "COUNTRY": "USA", "LATITUDE": 43.044240037000101, "LONGITUDE": -74.847493164999904, "NAICS_CODE": "622110", "NAICS_DESC": "GENERAL MEDICAL AND SURGICAL HOSPITALS", "SOURCE": "https://profiles.health.ny.gov/hospital/county_or_region/", "SOURCEDATE": "2018-08-20T00:00:00.000Z", "VAL_METHOD": "IMAGERY/OTHER", "VAL_DATE": "2014-02-10T00:00:00.000Z", "WEBSITE": "http://www.bassett.org/little-falls-hospital/", "STATE_ID": "2129700C", "ALT_NAME": "NOT AVAILABLE", "ST_FIPS": "36", "OWNER": "NON-PROFIT", "TTL_STAFF": -999, "BEDS": 25, "TRAUMA": "NOT AVAILABLE", "HELIPAD": "N" }, "geometry": { "type": "Polygon", "coordinates": [ [ [ -74.868024, 42.978099 ], [ -74.938695, 43.013758 ], [ -74.9697043, 43.029494699999958 ], [ -74.938693, 43.08917 ], [ -74.876497, 43.116994 ], [ -74.790164, 43.088069 ], [ -74.763913, 43.05884 ], [ -74.747126, 43.006504 ], [ -74.863278, 42.978124 ], [ -74.868024, 42.978099 ] ] ] } },
{ "type": "Feature", "properties": { "OBJECTID": 7113, "ID": "0009710512", "NAME": "PUTNAM HOSPITAL CENTER", "ADDRESS": "670 STONELEIGH AVE", "CITY": "CARMEL", "STATE": "NY", "ZIP": "10512", "ZIP4": "NOT AVAILABLE", "TELEPHONE": "(845) 279-5711", "TYPE": "GENERAL ACUTE CARE", "STATUS": "OPEN", "POPULATION": 164, "COUNTY": "PUTNAM", "COUNTYFIPS": "36079", "COUNTRY": "USA", "LATITUDE": 41.382627122000002, "LONGITUDE": -73.662975713999998, "NAICS_CODE": "622110", "NAICS_DESC": "GENERAL MEDICAL AND SURGICAL HOSPITALS", "SOURCE": "https://profiles.health.ny.gov/hospital/county_or_region/", "SOURCEDATE": "2018-08-20T00:00:00.000Z", "VAL_METHOD": "IMAGERY", "VAL_DATE": "2014-02-10T00:00:00.000Z", "WEBSITE": "http://www.health-quest.org/home_phc.cfm?id=10", "STATE_ID": "3950000H", "ALT_NAME": "NOT AVAILABLE", "ST_FIPS": "36", "OWNER": "NON-PROFIT", "TTL_STAFF": -999, "BEDS": 164, "TRAUMA": "NOT AVAILABLE", "HELIPAD": "N" }, "geometry": { "type": "Polygon", "coordinates": [ [ [ -73.694768, 41.351386 ], [ -73.7148843, 41.3553137 ], [ -73.7437266, 41.364472400000032 ], [ -73.7460695, 41.37119570000003 ], [ -73.7315656, 41.4183528 ], [ -73.698763, 41.447523400000058 ], [ -73.6910405, 41.451098300000019 ], [ -73.6704755, 41.4577803 ], [ -73.6695408, 41.457603 ], [ -73.6399453, 41.451360600000051 ], [ -73.6131529, 41.438569099999967 ], [ -73.6054567, 41.434058199999988 ], [ -73.5854688, 41.402081900000013 ], [ -73.5830926, 41.3862741 ], [ -73.5830658, 41.385063100000025 ], [ -73.6059777, 41.364788799999964 ], [ -73.641301, 41.356864400000013 ], [ -73.6697501, 41.3538096 ], [ -73.694768, 41.351386 ] ] ] } },
{ "type": "Feature", "properties": { "OBJECTID": 7114, "ID": "0009812180", "NAME": "ST MARY'S HOSPITAL", "ADDRESS": "1300 MASSACHUSETTS AVE", "CITY": "TROY", "STATE": "NY", "ZIP": "12180", "ZIP4": "NOT AVAILABLE", "TELEPHONE": "(518) 268-5000", "TYPE": "GENERAL ACUTE CARE", "STATUS": "OPEN", "POPULATION": 196, "COUNTY": "RENSSELAER", "COUNTYFIPS": "36083", "COUNTRY": "USA", "LATITUDE": 42.742720507000101, "LONGITUDE": -73.676423966999906, "NAICS_CODE": "622110", "NAICS_DESC": "GENERAL MEDICAL AND SURGICAL HOSPITALS", "SOURCE": "https://profiles.health.ny.gov/hospital/county_or_region/", "SOURCEDATE": "2018-08-20T00:00:00.000Z", "VAL_METHOD": "IMAGERY", "VAL_DATE": "2014-02-10T00:00:00.000Z", "WEBSITE": "http://www.setonhealth.org/st_marys/index.cfm", "STATE_ID": "4102003H", "ALT_NAME": "NOT AVAILABLE", "ST_FIPS": "36", "OWNER": "NON-PROFIT", "TTL_STAFF": -999, "BEDS": 196, "TRAUMA": "NOT AVAILABLE", "HELIPAD": "N" }, "geometry": { "type": "Polygon", "coordinates": [ [ [ -73.74276, 42.656624100000016 ], [ -73.7984293, 42.72740629999997 ], [ -73.8045928, 42.7643282 ], [ -73.7571231, 42.79034790000005 ], [ -73.733386, 42.801491 ], [ -73.630889, 42.821268 ], [ -73.580119, 42.777896 ], [ -73.572361, 42.750063 ], [ -73.579749, 42.734331 ], [ -73.596413, 42.718753 ], [ -73.612662, 42.704131 ], [ -73.632963, 42.686492099999988 ], [ -73.74276, 42.656624100000016 ] ] ] } },
{ "type": "Feature", "properties": { "OBJECTID": 7123, "ID": "0011112308", "NAME": "SUNNYVIEW REHABILITATION HOSPITAL", "ADDRESS": "1270 BELMONT AVE", "CITY": "SCHENECTADY", "STATE": "NY", "ZIP": "12308", "ZIP4": "NOT AVAILABLE", "TELEPHONE": "(518) 382-4500", "TYPE": "REHABILITATION", "STATUS": "OPEN", "POPULATION": 115, "COUNTY": "SCHENECTADY", "COUNTYFIPS": "36093", "COUNTRY": "USA", "LATITUDE": 42.820171418000001, "LONGITUDE": -73.916312500999894, "NAICS_CODE": "622310", "NAICS_DESC": "REHABILITATION HOSPITALS (EXCEPT ALCOHOLISM, DRUG ADDICTION)", "SOURCE": "https://profiles.health.ny.gov/hospital/county_or_region/", "SOURCEDATE": "2018-08-20T00:00:00.000Z", "VAL_METHOD": "IMAGERY/OTHER", "VAL_DATE": "2014-02-10T00:00:00.000Z", "WEBSITE": "http://www.nehealth.com/Medical_Care/Sunnyview_Rehabilitation_Hospital", "STATE_ID": "4601004H", "ALT_NAME": "NORTHEAST HEALTH INC SUNNYVIEW HOSPITAL AND REHABILITATION CENTER", "ST_FIPS": "36", "OWNER": "NON-PROFIT", "TTL_STAFF": -999, "BEDS": 115, "TRAUMA": "NOT AVAILABLE", "HELIPAD": "N" }, "geometry": { "type": "Polygon", "coordinates": [ [ [ -73.939752, 42.757503 ], [ -73.9787675, 42.767750200000023 ], [ -74.0026723, 42.786234900000032 ], [ -74.009462, 42.805651 ], [ -74.009189, 42.8558599 ], [ -73.9545423, 42.887685399999974 ], [ -73.9285273, 42.893371100000032 ], [ -73.9182502, 42.894746799999972 ], [ -73.906387800000019, 42.8855953 ], [ -73.8372989, 42.786621 ], [ -73.8303392, 42.7750655 ], [ -73.884358700000021, 42.758832499999968 ], [ -73.939752, 42.757503 ] ] ] } },
{ "type": "Feature", "properties": { "OBJECTID": 7124, "ID": "0011212043", "NAME": "COBLESKILL REGIONAL HOSPITAL", "ADDRESS": "178 GRANDVIEW DR", "CITY": "COBLESKILL", "STATE": "NY", "ZIP": "12043", "ZIP4": "NOT AVAILABLE", "TELEPHONE": "(518) 234-2511", "TYPE": "GENERAL ACUTE CARE", "STATUS": "OPEN", "POPULATION": 40, "COUNTY": "SCHOHARIE", "COUNTYFIPS": "36095", "COUNTRY": "USA", "LATITUDE": 42.686929501000101, "LONGITUDE": -74.481798662000003, "NAICS_CODE": "622110", "NAICS_DESC": "GENERAL MEDICAL AND SURGICAL HOSPITALS", "SOURCE": "https://profiles.health.ny.gov/hospital/county_or_region/", "SOURCEDATE": "2018-08-20T00:00:00.000Z", "VAL_METHOD": "IMAGERY", "VAL_DATE": "2014-02-10T00:00:00.000Z", "WEBSITE": "http://www.bassett.org/cobleskill-hospital/", "STATE_ID": "4720001H", "ALT_NAME": "NOT AVAILABLE", "ST_FIPS": "36", "OWNER": "NON-PROFIT", "TTL_STAFF": -999, "BEDS": 40, "TRAUMA": "NOT AVAILABLE", "HELIPAD": "N" }, "geometry": { "type": "Polygon", "coordinates": [ [ [ -74.557841, 42.631798 ], [ -74.5638096, 42.6343823 ], [ -74.568071, 42.684294699999981 ], [ -74.5650799, 42.691142200000023 ], [ -74.5271814, 42.750094 ], [ -74.463827, 42.732466600000045 ], [ -74.4409639, 42.725546400000027 ], [ -74.40962, 42.708048 ], [ -74.373429, 42.686453800000017 ], [ -74.3777605, 42.663174599999955 ], [ -74.482261400000013, 42.633677900000023 ], [ -74.5052943, 42.632901 ], [ -74.557841, 42.631798 ] ] ] } },
{ "type": "Feature", "properties": { "OBJECTID": 7135, "ID": "0013012401", "NAME": "HEALTHALLIANCE HOSPITAL - MARY'S AVENUE CAMPSU", "ADDRESS": "105 MARY'S AVENUE", "CITY": "KINGSTON", "STATE": "NY", "ZIP": "12401", "ZIP4": "NOT AVAILABLE", "TELEPHONE": "(845) 338-2500", "TYPE": "GENERAL ACUTE CARE", "STATUS": "OPEN", "POPULATION": 150, "COUNTY": "ULSTER", "COUNTYFIPS": "36111", "COUNTRY": "USA", "LATITUDE": 41.921494156999998, "LONGITUDE": -73.999687121999997, "NAICS_CODE": "622110", "NAICS_DESC": "GENERAL MEDICAL AND SURGICAL HOSPITALS", "SOURCE": "https://profiles.health.ny.gov/hospital/county_or_region/", "SOURCEDATE": "2018-08-20T00:00:00.000Z", "VAL_METHOD": "IMAGERY", "VAL_DATE": "2014-02-10T00:00:00.000Z", "WEBSITE": "http://www.hahv.org/marys-ave-campus/", "STATE_ID": "5501000H", "ALT_NAME": "NOT AVAILABLE", "ST_FIPS": "36", "OWNER": "NON-PROFIT", "TTL_STAFF": -999, "BEDS": 150, "TRAUMA": "NOT AVAILABLE", "HELIPAD": "Y" }, "geometry": { "type": "Polygon", "coordinates": [ [ [ -73.965939, 41.839854 ], [ -74.034772, 41.852685 ], [ -74.068564, 41.859302 ], [ -74.069075, 41.859929 ], [ -74.084823, 41.906278 ], [ -74.1031024, 41.973006 ], [ -74.1025429, 41.973819299999967 ], [ -74.09700220000002, 41.978732600000058 ], [ -74.0906267, 41.984121500000029 ], [ -74.043345, 41.991604 ], [ -73.985672, 41.997841 ], [ -73.9702217, 41.995684200000028 ], [ -73.9543762, 41.984162700000013 ], [ -73.953012, 41.873776 ], [ -73.965939, 41.839854 ] ] ] } },
{ "type": "Feature", "properties": { "OBJECTID": 7153, "ID": "0114312308", "NAME": "ELLIS HOSPITAL", "ADDRESS": "1101 NOTT STREET", "CITY": "SCHENECTADY", "STATE": "NY", "ZIP": "12308", "ZIP4": "NOT AVAILABLE", "TELEPHONE": "(518) 243-4000", "TYPE": "GENERAL ACUTE CARE", "STATUS": "OPEN", "POPULATION": 368, "COUNTY": "SCHENECTADY", "COUNTYFIPS": "36093", "COUNTRY": "USA", "LATITUDE": 42.819857616, "LONGITUDE": -73.917318091, "NAICS_CODE": "622110", "NAICS_DESC": "GENERAL MEDICAL AND SURGICAL HOSPITALS", "SOURCE": "https://profiles.health.ny.gov/hospital/county_or_region/", "SOURCEDATE": "2018-08-20T00:00:00.000Z", "VAL_METHOD": "IMAGERY/OTHER", "VAL_DATE": "2015-02-11T00:00:00.000Z", "WEBSITE": "http://www.ellismedicine.org/", "STATE_ID": "4601001H", "ALT_NAME": "NOT AVAILABLE", "ST_FIPS": "36", "OWNER": "NON-PROFIT", "TTL_STAFF": -999, "BEDS": 368, "TRAUMA": "NOT AVAILABLE", "HELIPAD": "N" }, "geometry": { "type": "Polygon", "coordinates": [ [ [ -73.9389091, 42.757168200000017 ], [ -73.9787675, 42.767750200000023 ], [ -74.0026723, 42.786234900000032 ], [ -74.009462, 42.805651 ], [ -74.009189, 42.8558599 ], [ -73.9561055, 42.8819308 ], [ -73.9293412, 42.892011199999978 ], [ -73.9195085, 42.893751900000012 ], [ -73.906387800000019, 42.8855953 ], [ -73.8240743, 42.77641729999997 ], [ -73.8264675, 42.773997299999969 ], [ -73.882464, 42.756929 ], [ -73.889842, 42.756379 ], [ -73.9389091, 42.757168200000017 ] ] ] } },
{ "type": "Feature", "properties": { "OBJECTID": 7159, "ID": "0116112572", "NAME": "NORTHERN DUTCHESS HOSPITAL", "ADDRESS": "6511 SPRINGBROOK AVENUE", "CITY": "RHINEBECK", "STATE": "NY", "ZIP": "12572", "ZIP4": "NOT AVAILABLE", "TELEPHONE": "(845) 871-3001", "TYPE": "GENERAL ACUTE CARE", "STATUS": "OPEN", "POPULATION": 68, "COUNTY": "DUTCHESS", "COUNTYFIPS": "36027", "COUNTRY": "USA", "LATITUDE": 41.935470038000098, "LONGITUDE": -73.913195826999996, "NAICS_CODE": "622110", "NAICS_DESC": "GENERAL MEDICAL AND SURGICAL HOSPITALS", "SOURCE": "https://profiles.health.ny.gov/hospital/county_or_region/", "SOURCEDATE": "2018-08-20T00:00:00.000Z", "VAL_METHOD": "IMAGERY/OTHER", "VAL_DATE": "2015-02-11T00:00:00.000Z", "WEBSITE": "http://www.healthquest.org/rhinebeck/northern-dutchess-hospital.aspx", "STATE_ID": "1327000H", "ALT_NAME": "NOT AVAILABLE", "ST_FIPS": "36", "OWNER": "NON-PROFIT", "TTL_STAFF": -999, "BEDS": 68, "TRAUMA": "NOT AVAILABLE", "HELIPAD": "N" }, "geometry": { "type": "Polygon", "coordinates": [ [ [ -73.9338264, 41.830393500000021 ], [ -73.9529738, 41.914732299999969 ], [ -73.9549027, 41.980627200000036 ], [ -73.9261823, 42.001302200000019 ], [ -73.908489, 42.013895 ], [ -73.904801, 42.014267 ], [ -73.854863, 42.012095 ], [ -73.8045542, 41.968129 ], [ -73.814809, 41.912065 ], [ -73.908959, 41.842281 ], [ -73.9338264, 41.830393500000021 ] ] ] } },
{ "type": "Feature", "properties": { "OBJECTID": 7172, "ID": "0030412208", "NAME": "CAPITAL DISTRICT PSYCHIATRIC CENTER", "ADDRESS": "75 NEW SCOTLAND AVE", "CITY": "ALBANY", "STATE": "NY", "ZIP": "12208", "ZIP4": "NOT AVAILABLE", "TELEPHONE": "(518) 549-6000", "TYPE": "PSYCHIATRIC", "STATUS": "OPEN", "POPULATION": -999, "COUNTY": "ALBANY", "COUNTYFIPS": "36001", "COUNTRY": "USA", "LATITUDE": 42.654490713000001, "LONGITUDE": -73.780202853999995, "NAICS_CODE": "622210", "NAICS_DESC": "PSYCHIATRIC AND SUBSTANCE ABUSE HOSPITALS", "SOURCE": "https://profiles.health.ny.gov/hospital/county_or_region/", "SOURCEDATE": "2018-08-20T00:00:00.000Z", "VAL_METHOD": "IMAGERY/OTHER", "VAL_DATE": "2016-08-29T00:00:00.000Z", "WEBSITE": "https://www.omh.ny.gov/omhweb/facilities/cdpc/", "STATE_ID": "NOT AVAILABLE", "ALT_NAME": "NOT AVAILABLE", "ST_FIPS": "36", "OWNER": "GOVERNMENT - STATE", "TTL_STAFF": -999, "BEDS": -999, "TRAUMA": "NOT AVAILABLE", "HELIPAD": "N" }, "geometry": { "type": "Polygon", "coordinates": [ [ [ -73.766346, 42.58137 ], [ -73.803377, 42.59133 ], [ -73.843907, 42.605594 ], [ -73.868877, 42.628178 ], [ -73.8702705, 42.6441401 ], [ -73.871737, 42.691891 ], [ -73.8593274, 42.708877699999952 ], [ -73.8328754, 42.717620299999986 ], [ -73.7602223, 42.726456499999969 ], [ -73.695797, 42.712721099999982 ], [ -73.694838800000014, 42.712473499999952 ], [ -73.6861812, 42.703979199999971 ], [ -73.68579, 42.703185 ], [ -73.667968, 42.651503 ], [ -73.6895281, 42.620948299999988 ], [ -73.70618, 42.608972 ], [ -73.766346, 42.58137 ] ] ] } },
{ "type": "Feature", "properties": { "OBJECTID": 7247, "ID": "0000112208", "NAME": "ST. PETER'S HOSPITAL", "ADDRESS": "315 S MANNING BLVD", "CITY": "ALBANY", "STATE": "NY", "ZIP": "12208", "ZIP4": "NOT AVAILABLE", "TELEPHONE": "(518) 454-1550", "TYPE": "GENERAL ACUTE CARE", "STATUS": "OPEN", "POPULATION": 442, "COUNTY": "ALBANY", "COUNTYFIPS": "36001", "COUNTRY": "USA", "LATITUDE": 42.655967723000103, "LONGITUDE": -73.803655973999994, "NAICS_CODE": "622110", "NAICS_DESC": "GENERAL MEDICAL AND SURGICAL HOSPITALS", "SOURCE": "https://profiles.health.ny.gov/hospital/county_or_region/", "SOURCEDATE": "2018-08-20T00:00:00.000Z", "VAL_METHOD": "IMAGERY", "VAL_DATE": "2014-02-10T00:00:00.000Z", "WEBSITE": "http://www.sphcs.org", "STATE_ID": "0101004H", "ALT_NAME": "NOT AVAILABLE", "ST_FIPS": "36", "OWNER": "NON-PROFIT", "TTL_STAFF": -999, "BEDS": 442, "TRAUMA": "NOT AVAILABLE", "HELIPAD": "N" }, "geometry": { "type": "Polygon", "coordinates": [ [ [ -73.795576, 42.594801 ], [ -73.8425578, 42.60586 ], [ -73.863969700000013, 42.610992900000028 ], [ -73.8687055, 42.6128319 ], [ -73.886365, 42.621994 ], [ -73.902425, 42.632314 ], [ -73.888084, 42.697598 ], [ -73.8664312, 42.7101418 ], [ -73.8390651, 42.723034699999964 ], [ -73.7996674, 42.726424399999956 ], [ -73.7961658, 42.726567 ], [ -73.75293379999998, 42.710643100000034 ], [ -73.7098315, 42.694536600000021 ], [ -73.7062795, 42.649639400000012 ], [ -73.7374761, 42.6222348 ], [ -73.769399, 42.600940899999969 ], [ -73.795576, 42.594801 ] ] ] } },
{ "type": "Feature", "properties": { "OBJECTID": 7444, "ID": "0003606111", "NAME": "VA MEDICAL CENTER - NEWINGTON CAMPUS", "ADDRESS": "555 WILLARD AVE", "CITY": "NEWINGTON", "STATE": "CT", "ZIP": "06111", "ZIP4": "NOT AVAILABLE", "TELEPHONE": "NOT AVAILABLE", "TYPE": "MILITARY", "STATUS": "OPEN", "POPULATION": -999, "COUNTY": "HARTFORD", "COUNTYFIPS": "09003", "COUNTRY": "USA", "LATITUDE": 41.701685590000103, "LONGITUDE": -72.740616492999905, "NAICS_CODE": "622110", "NAICS_DESC": "GENERAL MEDICAL AND SURGICAL HOSPITALS", "SOURCE": "https://www.va.gov/directory/guide/allstate.asp", "SOURCEDATE": "2018-09-26T00:00:00.000Z", "VAL_METHOD": "IMAGERY/OTHER", "VAL_DATE": "2015-05-21T00:00:00.000Z", "WEBSITE": "http://www.connecticut.va.gov/", "STATE_ID": "NOT AVAILABLE", "ALT_NAME": "NOT AVAILABLE", "ST_FIPS": "09", "OWNER": "GOVERNMENT - FEDERAL", "TTL_STAFF": -999, "BEDS": -999, "TRAUMA": "NOT AVAILABLE", "HELIPAD": "N" }, "geometry": { "type": "Polygon", "coordinates": [ [ [ -72.7417971, 41.62184160000001 ], [ -72.7889122, 41.640773200000048 ], [ -72.8445064, 41.672364700000045 ], [ -72.8134117, 41.724483599999957 ], [ -72.7443747, 41.771992500000032 ], [ -72.7368054, 41.7770603 ], [ -72.6866345, 41.76606670000001 ], [ -72.6493896, 41.755935099999967 ], [ -72.6448795, 41.7080716 ], [ -72.6622506, 41.6791482 ], [ -72.6673768, 41.671926900000024 ], [ -72.6699358, 41.6698965 ], [ -72.682464, 41.6605281 ], [ -72.7363744, 41.625199200000054 ], [ -72.7417971, 41.62184160000001 ] ] ] } },
{ "type": "Feature", "properties": { "OBJECTID": 5117, "ID": "0001906504", "NAME": "YALE-NEW HAVEN HOSPITAL", "ADDRESS": "20 YORK ST", "CITY": "NEW HAVEN", "STATE": "CT", "ZIP": "06504", "ZIP4": "NOT AVAILABLE", "TELEPHONE": "(203) 688-4242", "TYPE": "GENERAL ACUTE CARE", "STATUS": "OPEN", "POPULATION": 1541, "COUNTY": "NEW HAVEN", "COUNTYFIPS": "09009", "COUNTRY": "USA", "LATITUDE": 41.30469134, "LONGITUDE": -72.935413658999906, "NAICS_CODE": "622110", "NAICS_DESC": "GENERAL MEDICAL AND SURGICAL HOSPITALS", "SOURCE": "https://www.elicense.ct.gov/Lookup/GenerateRoster.aspx", "SOURCEDATE": "2018-08-13T00:00:00.000Z", "VAL_METHOD": "IMAGERY", "VAL_DATE": "2014-03-12T00:00:00.000Z", "WEBSITE": "http://www.ynhh.org", "STATE_ID": "070022", "ALT_NAME": "NOT AVAILABLE", "ST_FIPS": "09", "OWNER": "NON-PROFIT", "TTL_STAFF": -999, "BEDS": 1541, "TRAUMA": "LEVEL I, LEVEL I PEDIATRIC", "HELIPAD": "Y" }, "geometry": { "type": "Polygon", "coordinates": [ [ [ -73.0231431, 41.238843800000019 ], [ -73.0477882, 41.312516 ], [ -73.0003974, 41.367260699999989 ], [ -72.997932399999982, 41.369592200000014 ], [ -72.9240378, 41.385306500000077 ], [ -72.9136507, 41.387110400000047 ], [ -72.8621233, 41.391832 ], [ -72.8402923, 41.358639699999983 ], [ -72.8065601, 41.2906505 ], [ -72.8113088, 41.280322800000029 ], [ -72.824876500000016, 41.271866800000012 ], [ -72.8285536, 41.269984699999988 ], [ -72.8713288, 41.253056399999984 ], [ -73.0231431, 41.238843800000019 ] ] ] } },
{ "type": "Feature", "properties": { "OBJECTID": 5221, "ID": "0001612534", "NAME": "COLUMBIA MEMORIAL HOSPITAL", "ADDRESS": "71 PROSPECT AVE", "CITY": "HUDSON", "STATE": "NY", "ZIP": "12534", "ZIP4": "NOT AVAILABLE", "TELEPHONE": "(518) 828-7601", "TYPE": "GENERAL ACUTE CARE", "STATUS": "OPEN", "POPULATION": 192, "COUNTY": "COLUMBIA", "COUNTYFIPS": "36021", "COUNTRY": "USA", "LATITUDE": 42.246344766999997, "LONGITUDE": -73.777452525999905, "NAICS_CODE": "622110", "NAICS_DESC": "GENERAL MEDICAL AND SURGICAL HOSPITALS", "SOURCE": "https://profiles.health.ny.gov/hospital/county_or_region/", "SOURCEDATE": "2018-08-20T00:00:00.000Z", "VAL_METHOD": "IMAGERY", "VAL_DATE": "2014-02-10T00:00:00.000Z", "WEBSITE": "http://www.columbiamemorial.com", "STATE_ID": "1001000H", "ALT_NAME": "NOT AVAILABLE", "ST_FIPS": "36", "OWNER": "NON-PROFIT", "TTL_STAFF": -999, "BEDS": 192, "TRAUMA": "NOT AVAILABLE", "HELIPAD": "N" }, "geometry": { "type": "Polygon", "coordinates": [ [ [ -73.779756, 42.143682 ], [ -73.843785, 42.186251 ], [ -73.8505134, 42.223471200000034 ], [ -73.758491, 42.335552 ], [ -73.749497, 42.341882 ], [ -73.704254, 42.330622 ], [ -73.673996, 42.29658 ], [ -73.66633, 42.207511 ], [ -73.741924, 42.143922 ], [ -73.742165, 42.143791 ], [ -73.779756, 42.143682 ] ] ] } },
{ "type": "Feature", "properties": { "OBJECTID": 5226, "ID": "0001405201", "NAME": "SOUTHWESTERN VERMONT MEDICAL CENTER", "ADDRESS": "100 HOSPITAL DR", "CITY": "BENNINGTON", "STATE": "VT", "ZIP": "05201", "ZIP4": "NOT AVAILABLE", "TELEPHONE": "(802) 442-6361", "TYPE": "GENERAL ACUTE CARE", "STATUS": "OPEN", "POPULATION": 99, "COUNTY": "BENNINGTON", "COUNTYFIPS": "50003", "COUNTRY": "USA", "LATITUDE": 42.874182374999997, "LONGITUDE": -73.207670644000004, "NAICS_CODE": "622110", "NAICS_DESC": "GENERAL MEDICAL AND SURGICAL HOSPITALS", "SOURCE": "http://www.healthvermont.gov/health-statistics-vital-records/health-care-systems-reporting/hospital-report-cards", "SOURCEDATE": "2018-08-09T00:00:00.000Z", "VAL_METHOD": "IMAGERY", "VAL_DATE": "2014-03-12T00:00:00.000Z", "WEBSITE": "http://svhealthcare.org", "STATE_ID": "A12920", "ALT_NAME": "NOT AVAILABLE", "ST_FIPS": "50", "OWNER": "NON-PROFIT", "TTL_STAFF": -999, "BEDS": 99, "TRAUMA": "NOT AVAILABLE", "HELIPAD": "Y" }, "geometry": { "type": "Polygon", "coordinates": [ [ [ -73.2279399, 42.792131800000099 ], [ -73.277003100000016, 42.874055600000034 ], [ -73.2764764, 42.8923579 ], [ -73.2468173, 42.929179899999973 ], [ -73.2426641, 42.932021 ], [ -73.209131, 42.95325 ], [ -73.12307, 42.907577 ], [ -73.122559, 42.906013 ], [ -73.116507, 42.881111 ], [ -73.166828, 42.826738 ], [ -73.219606, 42.791914 ], [ -73.2279399, 42.792131800000099 ] ] ] } },
{ "type": "Feature", "properties": { "OBJECTID": 5246, "ID": "0012411901", "NAME": "PECONIC BAY MEDICAL CENTER", "ADDRESS": "1300 ROANOKE AVE", "CITY": "RIVERHEAD", "STATE": "NY", "ZIP": "11901", "ZIP4": "NOT AVAILABLE", "TELEPHONE": "(631) 548-6000", "TYPE": "GENERAL ACUTE CARE", "STATUS": "OPEN", "POPULATION": 140, "COUNTY": "SUFFOLK", "COUNTYFIPS": "36103", "COUNTRY": "USA", "LATITUDE": 40.934263985000001, "LONGITUDE": -72.673624949000001, "NAICS_CODE": "622110", "NAICS_DESC": "GENERAL MEDICAL AND SURGICAL HOSPITALS", "SOURCE": "https://profiles.health.ny.gov/hospital/county_or_region/", "SOURCEDATE": "2018-08-20T00:00:00.000Z", "VAL_METHOD": "IMAGERY", "VAL_DATE": "2014-02-10T00:00:00.000Z", "WEBSITE": "http://www.pbmchealth.org", "STATE_ID": "5155000H", "ALT_NAME": "NOT AVAILABLE", "ST_FIPS": "36", "OWNER": "NON-PROFIT", "TTL_STAFF": -999, "BEDS": 140, "TRAUMA": "LEVEL III", "HELIPAD": "Y" }, "geometry": { "type": "Polygon", "coordinates": [ [ [ -72.6463879, 40.836491400000021 ], [ -72.7305187, 40.8523752 ], [ -72.7307664, 40.852504100000026 ], [ -72.8012478, 40.92619530000001 ], [ -72.8006558, 40.936021199999956 ], [ -72.7860314, 40.954722 ], [ -72.7794548, 40.960233200000012 ], [ -72.7696541, 40.965583 ], [ -72.7076803, 40.9772707 ], [ -72.6167128, 40.987742 ], [ -72.606242, 40.987733 ], [ -72.5900204, 40.9806771 ], [ -72.562533, 40.967453600000013 ], [ -72.569431599999987, 40.945887700000014 ], [ -72.602716, 40.854575 ], [ -72.6463879, 40.836491400000021 ] ] ] } },
{ "type": "Feature", "properties": { "OBJECTID": 3049, "ID": "0003706053", "NAME": "HOSPITAL FOR SPECIAL CARE", "ADDRESS": "2150 CORBIN AVE", "CITY": "NEW BRITAIN", "STATE": "CT", "ZIP": "06053", "ZIP4": "2266", "TELEPHONE": "(860) 223-2761", "TYPE": "CHRONIC DISEASE", "STATUS": "OPEN", "POPULATION": 228, "COUNTY": "HARTFORD", "COUNTYFIPS": "09003", "COUNTRY": "USA", "LATITUDE": 41.689181923, "LONGITUDE": -72.801993570999997, "NAICS_CODE": "622310", "NAICS_DESC": "REHABILITATION HOSPITALS (EXCEPT ALCOHOLISM, DRUG ADDICTION)", "SOURCE": "https://www.elicense.ct.gov/Lookup/GenerateRoster.aspx", "SOURCEDATE": "2018-08-13T00:00:00.000Z", "VAL_METHOD": "IMAGERY/OTHER", "VAL_DATE": "2016-03-31T00:00:00.000Z", "WEBSITE": "http://hfsc.org/", "STATE_ID": "NOT AVAILABLE", "ALT_NAME": "NOT AVAILABLE", "ST_FIPS": "09", "OWNER": "NON-PROFIT", "TTL_STAFF": -999, "BEDS": 228, "TRAUMA": "NOT AVAILABLE", "HELIPAD": "N" }, "geometry": { "type": "Polygon", "coordinates": [ [ [ -72.8964688, 41.615728799999978 ], [ -72.9066587, 41.66921559999998 ], [ -72.9066658, 41.6693381 ], [ -72.9065567, 41.670200100000031 ], [ -72.8989665, 41.678192800000019 ], [ -72.8807188, 41.697121400000022 ], [ -72.8695128, 41.705928800000038 ], [ -72.834419899999986, 41.733076 ], [ -72.7972505, 41.742601599999958 ], [ -72.7873718, 41.743510400000034 ], [ -72.7349199, 41.746516700000015 ], [ -72.7183903, 41.6989523 ], [ -72.7186757, 41.6955965 ], [ -72.7339776, 41.6219082 ], [ -72.743775, 41.615262899999976 ], [ -72.8964688, 41.615728799999978 ] ] ] } },
{ "type": "Feature", "properties": { "OBJECTID": 3062, "ID": "0001406450", "NAME": "MIDSTATE MEDICAL CENTER", "ADDRESS": "435 LEWIS AVE", "CITY": "MERIDEN", "STATE": "CT", "ZIP": "06450", "ZIP4": "NOT AVAILABLE", "TELEPHONE": "(203) 694-8200", "TYPE": "GENERAL ACUTE CARE", "STATUS": "OPEN", "POPULATION": 156, "COUNTY": "NEW HAVEN", "COUNTYFIPS": "09009", "COUNTRY": "USA", "LATITUDE": 41.549391773000004, "LONGITUDE": -72.801229113000005, "NAICS_CODE": "622110", "NAICS_DESC": "GENERAL MEDICAL AND SURGICAL HOSPITALS", "SOURCE": "https://www.elicense.ct.gov/Lookup/GenerateRoster.aspx", "SOURCEDATE": "2018-08-13T00:00:00.000Z", "VAL_METHOD": "IMAGERY", "VAL_DATE": "2014-02-10T00:00:00.000Z", "WEBSITE": "http://www.midstatemedical.org", "STATE_ID": "070017", "ALT_NAME": "NOT AVAILABLE", "ST_FIPS": "09", "OWNER": "NON-PROFIT", "TTL_STAFF": -999, "BEDS": 156, "TRAUMA": "NOT AVAILABLE", "HELIPAD": "Y" }, "geometry": { "type": "Polygon", "coordinates": [ [ [ -72.7884967, 41.442783100000028 ], [ -72.833375800000013, 41.4628404 ], [ -72.8673092, 41.5215256 ], [ -72.8755282, 41.538213800000044 ], [ -72.8646088, 41.5605221 ], [ -72.862840700000021, 41.562100399999963 ], [ -72.8544846, 41.56799240000003 ], [ -72.7395399, 41.628324899999988 ], [ -72.7298042, 41.602216799999972 ], [ -72.7448372, 41.470298699999987 ], [ -72.7884967, 41.442783100000028 ] ] ] } },
{ "type": "Feature", "properties": { "OBJECTID": 3064, "ID": "0003106516", "NAME": "WEST HAVEN VA MEDICAL CENTER", "ADDRESS": "950 CAMPBELL AVENUE", "CITY": "WEST HAVEN", "STATE": "CT", "ZIP": "06516", "ZIP4": "NOT AVAILABLE", "TELEPHONE": "(203) 932-5711", "TYPE": "MILITARY", "STATUS": "OPEN", "POPULATION": -999, "COUNTY": "NEW HAVEN", "COUNTYFIPS": "09009", "COUNTRY": "USA", "LATITUDE": 41.281840282000097, "LONGITUDE": -72.961206532999896, "NAICS_CODE": "622110", "NAICS_DESC": "GENERAL MEDICAL AND SURGICAL HOSPITALS", "SOURCE": "https://www.elicense.ct.gov/Lookup/GenerateRoster.aspx", "SOURCEDATE": "2018-08-13T00:00:00.000Z", "VAL_METHOD": "IMAGERY", "VAL_DATE": "2014-02-10T00:00:00.000Z", "WEBSITE": "http://www.connecticut.va.gov/", "STATE_ID": "07003F", "ALT_NAME": "NOT AVAILABLE", "ST_FIPS": "09", "OWNER": "GOVERNMENT - FEDERAL", "TTL_STAFF": -999, "BEDS": -999, "TRAUMA": "NOT AVAILABLE", "HELIPAD": "N" }, "geometry": { "type": "Polygon", "coordinates": [ [ [ -73.0797886, 41.221995100000022 ], [ -73.0801604, 41.222343499999972 ], [ -73.047006400000015, 41.3110757 ], [ -72.9896814, 41.352929300000014 ], [ -72.930502200000021, 41.352829500000034 ], [ -72.9150795, 41.3495674 ], [ -72.8696971, 41.334994 ], [ -72.8437682, 41.2845056 ], [ -72.8570666, 41.27758850000005 ], [ -73.0092762, 41.215146299999972 ], [ -73.0093438, 41.215123100000014 ], [ -73.0276973, 41.214444200000024 ], [ -73.035939700000014, 41.214742 ], [ -73.0797886, 41.221995100000022 ] ] ] } },
{ "type": "Feature", "properties": { "OBJECTID": 3065, "ID": "0002406010", "NAME": "BRISTOL HOSPITAL", "ADDRESS": "BREWSTER RD", "CITY": "BRISTOL", "STATE": "CT", "ZIP": "06010", "ZIP4": "NOT AVAILABLE", "TELEPHONE": "(860) 585-3000", "TYPE": "GENERAL ACUTE CARE", "STATUS": "OPEN", "POPULATION": 134, "COUNTY": "HARTFORD", "COUNTYFIPS": "09003", "COUNTRY": "USA", "LATITUDE": 41.676342863000102, "LONGITUDE": -72.935512926999905, "NAICS_CODE": "622110", "NAICS_DESC": "GENERAL MEDICAL AND SURGICAL HOSPITALS", "SOURCE": "https://www.elicense.ct.gov/Lookup/GenerateRoster.aspx", "SOURCEDATE": "2018-08-13T00:00:00.000Z", "VAL_METHOD": "IMAGERY", "VAL_DATE": "2014-02-10T00:00:00.000Z", "WEBSITE": "http://www.bristolhospital.org", "STATE_ID": "070029", "ALT_NAME": "NOT AVAILABLE", "ST_FIPS": "09", "OWNER": "NON-PROFIT", "TTL_STAFF": -999, "BEDS": 134, "TRAUMA": "NOT AVAILABLE", "HELIPAD": "Y" }, "geometry": { "type": "Polygon", "coordinates": [ [ [ -72.898484899999985, 41.602441699999943 ], [ -72.923539, 41.607957 ], [ -73.009716, 41.644409399999958 ], [ -73.049748399999984, 41.669344299999935 ], [ -73.0536138, 41.6718748 ], [ -73.053319200000018, 41.6732502 ], [ -73.034152, 41.694998 ], [ -72.980703, 41.7241955 ], [ -72.955951500000012, 41.734511799999972 ], [ -72.9238164, 41.7442721 ], [ -72.907316, 41.7428041 ], [ -72.8362316, 41.71574989999997 ], [ -72.8300592, 41.709532 ], [ -72.8146701, 41.676600499999971 ], [ -72.8110755, 41.663978700000015 ], [ -72.898484899999985, 41.602441699999943 ] ] ] } },
{ "type": "Feature", "properties": { "OBJECTID": 3066, "ID": "0002906032", "NAME": "JOHN DEMPSEY HOSPITAL", "ADDRESS": "263 FARMINGTON AVE", "CITY": "FARMINGTON", "STATE": "CT", "ZIP": "06032", "ZIP4": "NOT AVAILABLE", "TELEPHONE": "(860) 679-1145", "TYPE": "GENERAL ACUTE CARE", "STATUS": "OPEN", "POPULATION": 137, "COUNTY": "HARTFORD", "COUNTYFIPS": "09003", "COUNTRY": "USA", "LATITUDE": 41.730764883000099, "LONGITUDE": -72.790584515999996, "NAICS_CODE": "622110", "NAICS_DESC": "GENERAL MEDICAL AND SURGICAL HOSPITALS", "SOURCE": "https://www.elicense.ct.gov/Lookup/GenerateRoster.aspx", "SOURCEDATE": "2018-08-13T00:00:00.000Z", "VAL_METHOD": "IMAGERY/OTHER", "VAL_DATE": "2013-11-19T00:00:00.000Z", "WEBSITE": "http://www.uchc.edu", "STATE_ID": "070036", "ALT_NAME": "NOT AVAILABLE", "ST_FIPS": "09", "OWNER": "GOVERNMENT - STATE", "TTL_STAFF": -999, "BEDS": 137, "TRAUMA": "NOT AVAILABLE", "HELIPAD": "Y" }, "geometry": { "type": "Polygon", "coordinates": [ [ [ -72.8470809, 41.664705200000036 ], [ -72.8592619, 41.672734300000037 ], [ -72.8606037, 41.6736746 ], [ -72.8859661, 41.70382570000001 ], [ -72.8821942, 41.7565416 ], [ -72.819042, 41.800290600000018 ], [ -72.7670293, 41.79825630000002 ], [ -72.7366051, 41.786494500000025 ], [ -72.6985583, 41.767703500000053 ], [ -72.7005549, 41.757379499999985 ], [ -72.708307, 41.733015500000022 ], [ -72.7336017, 41.69677140000001 ], [ -72.7704437, 41.65295840000001 ], [ -72.8470809, 41.664705200000036 ] ] ] } },
{ "type": "Feature", "properties": { "OBJECTID": 3067, "ID": "0003306106", "NAME": "CONNECTICUT CHILDRENS MEDICAL CENTER", "ADDRESS": "282 WASHINGTON STREET", "CITY": "HARTFORD", "STATE": "CT", "ZIP": "06106", "ZIP4": "NOT AVAILABLE", "TELEPHONE": "(860) 545-9000", "TYPE": "CHILDREN", "STATUS": "OPEN", "POPULATION": 187, "COUNTY": "HARTFORD", "COUNTYFIPS": "09003", "COUNTRY": "USA", "LATITUDE": 41.753667805000099, "LONGITUDE": -72.681800095, "NAICS_CODE": "622110", "NAICS_DESC": "CHILDREN'S HOSPITALS, GENERAL", "SOURCE": "https://www.elicense.ct.gov/Lookup/GenerateRoster.aspx", "SOURCEDATE": "2018-08-13T00:00:00.000Z", "VAL_METHOD": "IMAGERY", "VAL_DATE": "2014-03-13T00:00:00.000Z", "WEBSITE": "http://www.ccmckids.org", "STATE_ID": "073300", "ALT_NAME": "NOT AVAILABLE", "ST_FIPS": "09", "OWNER": "NON-PROFIT", "TTL_STAFF": -999, "BEDS": 187, "TRAUMA": "LEVEL I PEDIATRIC", "HELIPAD": "Y" }, "geometry": { "type": "Polygon", "coordinates": [ [ [ -72.7177793, 41.669690900000028 ], [ -72.7179655, 41.669799900000015 ], [ -72.7816753, 41.72577740000002 ], [ -72.77347570000002, 41.788727 ], [ -72.7435912, 41.8167645 ], [ -72.7389293, 41.819736499999962 ], [ -72.6716791, 41.854762399999984 ], [ -72.6633818, 41.85637969999997 ], [ -72.55693, 41.798206400000034 ], [ -72.5483084, 41.764518900000027 ], [ -72.5925741, 41.713456 ], [ -72.6013157, 41.70396880000002 ], [ -72.6453319, 41.67247379999997 ], [ -72.7177793, 41.669690900000028 ] ] ] } },
{ "type": "Feature", "properties": { "OBJECTID": 3068, "ID": "0001206776", "NAME": "NEW MILFORD HOSPITAL", "ADDRESS": "21 ELM ST", "CITY": "NEW MILFORD", "STATE": "CT", "ZIP": "06776", "ZIP4": "NOT AVAILABLE", "TELEPHONE": "(860) 355-2611", "TYPE": "GENERAL ACUTE CARE", "STATUS": "OPEN", "POPULATION": 85, "COUNTY": "LITCHFIELD", "COUNTYFIPS": "09005", "COUNTRY": "USA", "LATITUDE": 41.581713010999998, "LONGITUDE": -73.409557643, "NAICS_CODE": "622110", "NAICS_DESC": "GENERAL MEDICAL AND SURGICAL HOSPITALS", "SOURCE": "https://www.elicense.ct.gov/Lookup/GenerateRoster.aspx", "SOURCEDATE": "2018-08-13T00:00:00.000Z", "VAL_METHOD": "IMAGERY/OTHER", "VAL_DATE": "2014-02-10T00:00:00.000Z", "WEBSITE": "http://www.newmilfordhospital.org", "STATE_ID": "070015", "ALT_NAME": "NOT AVAILABLE", "ST_FIPS": "09", "OWNER": "NON-PROFIT", "TTL_STAFF": -999, "BEDS": 85, "TRAUMA": "NOT AVAILABLE", "HELIPAD": "N" }, "geometry": { "type": "Polygon", "coordinates": [ [ [ -73.4131711, 41.48827529999997 ], [ -73.418308200000013, 41.490305 ], [ -73.4354173, 41.505914 ], [ -73.4384843, 41.5096488 ], [ -73.4820398, 41.604921600000011 ], [ -73.4738268, 41.6331799 ], [ -73.3878235, 41.670644600000053 ], [ -73.353163100000017, 41.675835300000024 ], [ -73.3444033, 41.634581500000017 ], [ -73.328459100000018, 41.549647200000017 ], [ -73.3601754, 41.512836199999974 ], [ -73.412482, 41.488524599999955 ], [ -73.4131711, 41.48827529999997 ] ] ] } },
{ "type": "Feature", "properties": { "OBJECTID": 3300, "ID": "0003912078", "NAME": "NATHAN LITTAUER HOSPITAL", "ADDRESS": "99 E STATE ST", "CITY": "GLOVERSVILLE", "STATE": "NY", "ZIP": "12078", "ZIP4": "NOT AVAILABLE", "TELEPHONE": "(518) 725-8621", "TYPE": "GENERAL ACUTE CARE", "STATUS": "OPEN", "POPULATION": 74, "COUNTY": "FULTON", "COUNTYFIPS": "36035", "COUNTRY": "USA", "LATITUDE": 43.071586105000101, "LONGITUDE": -74.331921726999994, "NAICS_CODE": "622110", "NAICS_DESC": "GENERAL MEDICAL AND SURGICAL HOSPITALS", "SOURCE": "https://profiles.health.ny.gov/hospital/county_or_region/", "SOURCEDATE": "2018-08-20T00:00:00.000Z", "VAL_METHOD": "IMAGERY", "VAL_DATE": "2014-02-10T00:00:00.000Z", "WEBSITE": "http://www.nlh.org", "STATE_ID": "1701000H", "ALT_NAME": "NOT AVAILABLE", "ST_FIPS": "36", "OWNER": "NON-PROFIT", "TTL_STAFF": -999, "BEDS": 74, "TRAUMA": "NOT AVAILABLE", "HELIPAD": "N" }, "geometry": { "type": "Polygon", "coordinates": [ [ [ -74.3810764, 42.992439199999971 ], [ -74.4086225, 43.021144300000017 ], [ -74.4295035, 43.046574300000017 ], [ -74.4441654, 43.0860778 ], [ -74.4457033, 43.105699800000011 ], [ -74.3671082, 43.139381300000018 ], [ -74.2299682, 43.145833699999962 ], [ -74.2009788, 43.0567974 ], [ -74.232644600000015, 43.007849699999952 ], [ -74.2773324, 42.990953 ], [ -74.3273247, 42.988409499999968 ], [ -74.3810764, 42.992439199999971 ] ] ] } },
{ "type": "Feature", "properties": { "OBJECTID": 3328, "ID": "0011012304", "NAME": "ELLIS HEALTH CENTER", "ADDRESS": "600 MCCLELLAN ST", "CITY": "SCHENECTADY", "STATE": "NY", "ZIP": "12304", "ZIP4": "NOT AVAILABLE", "TELEPHONE": "(518) 382-2000", "TYPE": "GENERAL ACUTE CARE", "STATUS": "CLOSED", "POPULATION": -999, "COUNTY": "SCHENECTADY", "COUNTYFIPS": "36093", "COUNTRY": "USA", "LATITUDE": 42.80485019, "LONGITUDE": -73.915791006999896, "NAICS_CODE": "622110", "NAICS_DESC": "GENERAL MEDICAL AND SURGICAL HOSPITALS", "SOURCE": "https://profiles.health.ny.gov/hospital/county_or_region/", "SOURCEDATE": "2018-08-20T00:00:00.000Z", "VAL_METHOD": "IMAGERY/OTHER", "VAL_DATE": "2014-02-10T00:00:00.000Z", "WEBSITE": "http://www.ellismedicine.org/locations/ellis-health-center.aspx", "STATE_ID": "NOT AVAILABLE", "ALT_NAME": "ST CLARES HOSPITAL MCCLELLAN DIVISION", "ST_FIPS": "36", "OWNER": "NON-PROFIT", "TTL_STAFF": -999, "BEDS": -999, "TRAUMA": "NOT AVAILABLE", "HELIPAD": "N" }, "geometry": { "type": "Polygon", "coordinates": [ [ [ -73.9852354, 42.753937099999952 ], [ -73.9982892, 42.764472 ], [ -74.0130216, 42.787644199999981 ], [ -74.023373, 42.806714700000029 ], [ -74.0168287, 42.86226970000002 ], [ -74.0163808, 42.862476100000016 ], [ -73.931537, 42.871072500000032 ], [ -73.9064089, 42.867541099999983 ], [ -73.9055282, 42.867065599999925 ], [ -73.8838815, 42.848625 ], [ -73.8322201, 42.7913319 ], [ -73.8191412, 42.7737507 ], [ -73.8631543, 42.744207700000018 ], [ -73.9553602, 42.750862400000017 ], [ -73.9852354, 42.753937099999952 ] ] ] } },
{ "type": "Feature", "properties": { "OBJECTID": 3333, "ID": "0011312309", "NAME": "BELLEVUE WOMAN'S CENTER OF ELLIS MEDICINE", "ADDRESS": "2210 TROY SCHENECTADY RD", "CITY": "NISKAYUNA", "STATE": "NY", "ZIP": "12309", "ZIP4": "NOT AVAILABLE", "TELEPHONE": "(518) 346-9400", "TYPE": "WOMEN", "STATUS": "OPEN", "POPULATION": 55, "COUNTY": "SCHENECTADY", "COUNTYFIPS": "36093", "COUNTRY": "USA", "LATITUDE": 42.792768985000102, "LONGITUDE": -73.878954715999996, "NAICS_CODE": "622310", "NAICS_DESC": "SPECIALTY (EXCEPT PSYCHIATRIC AND SUBSTANCE ABUSE) HOSPITALS", "SOURCE": "https://profiles.health.ny.gov/hospital/county_or_region/", "SOURCEDATE": "2018-08-20T00:00:00.000Z", "VAL_METHOD": "IMAGERY", "VAL_DATE": "2014-02-10T00:00:00.000Z", "WEBSITE": "http://www.bellevuewoman.org/locations/bellevue-womans-center.aspx", "STATE_ID": "4652001H", "ALT_NAME": "BELLEVUE WOMAN'S HOSPITAL", "ST_FIPS": "36", "OWNER": "NON-PROFIT", "TTL_STAFF": -999, "BEDS": 55, "TRAUMA": "NOT AVAILABLE", "HELIPAD": "N" }, "geometry": { "type": "Polygon", "coordinates": [ [ [ -73.8467607, 42.729803199999985 ], [ -73.850849, 42.7306422 ], [ -73.903388, 42.743841 ], [ -73.962544, 42.764841 ], [ -73.974037700000011, 42.774165 ], [ -73.9801556, 42.790076699999979 ], [ -73.9865306, 42.816766 ], [ -73.9875657, 42.821730799999962 ], [ -73.9398751, 42.842191399999969 ], [ -73.888256, 42.850383 ], [ -73.8838815, 42.848625 ], [ -73.8322201, 42.7913319 ], [ -73.8191412, 42.7737507 ], [ -73.816398, 42.76763 ], [ -73.8264995, 42.738739599999988 ], [ -73.8467607, 42.729803199999985 ] ] ] } },
{ "type": "Feature", "properties": { "OBJECTID": 3339, "ID": "0012511507", "NAME": "ST CHARLES HOSPITAL AND REHABILITATION CENTER", "ADDRESS": "200 BELLE TERRE RD", "CITY": "PORT JEFFERSON", "STATE": "NY", "ZIP": "11507", "ZIP4": "NOT AVAILABLE", "TELEPHONE": "(631) 474-6600", "TYPE": "GENERAL ACUTE CARE", "STATUS": "OPEN", "POPULATION": 243, "COUNTY": "SUFFOLK", "COUNTYFIPS": "36103", "COUNTRY": "USA", "LATITUDE": 40.9466312260001, "LONGITUDE": -73.060963223000002, "NAICS_CODE": "622110", "NAICS_DESC": "GENERAL MEDICAL AND SURGICAL HOSPITALS", "SOURCE": "https://profiles.health.ny.gov/hospital/county_or_region/", "SOURCEDATE": "2018-08-20T00:00:00.000Z", "VAL_METHOD": "IMAGERY/OTHER", "VAL_DATE": "2014-02-10T00:00:00.000Z", "WEBSITE": "http://www.stcharles.org/", "STATE_ID": "5149001H", "ALT_NAME": "NOT AVAILABLE", "ST_FIPS": "36", "OWNER": "NON-PROFIT", "TTL_STAFF": -999, "BEDS": 243, "TRAUMA": "NOT AVAILABLE", "HELIPAD": "N" }, "geometry": { "type": "Polygon", "coordinates": [ [ [ -73.135081, 40.866679600000026 ], [ -73.1351475, 40.866852399999985 ], [ -73.1466, 40.922106599999985 ], [ -73.14645, 40.924563 ], [ -73.1420418, 40.951118399999984 ], [ -73.1415499, 40.95227910000002 ], [ -73.1376931, 40.960631600000013 ], [ -73.1125032, 40.969387 ], [ -73.073063, 40.9699472 ], [ -72.9841664, 40.9657732 ], [ -72.9807915, 40.96452520000004 ], [ -72.976713, 40.962573 ], [ -72.955207, 40.948189 ], [ -72.953879, 40.945812 ], [ -72.9537618, 40.945076 ], [ -72.9788947, 40.905214800000046 ], [ -73.005013, 40.870486 ], [ -73.0235143, 40.8678203 ], [ -73.0693021, 40.86391540000001 ], [ -73.135081, 40.866679600000026 ] ] ] } },
{ "type": "Feature", "properties": { "OBJECTID": 3344, "ID": "0013312801", "NAME": "GLENS FALLS HOSPITAL", "ADDRESS": "100 PARK ST", "CITY": "GLENS FALLS", "STATE": "NY", "ZIP": "12801", "ZIP4": "NOT AVAILABLE", "TELEPHONE": "(518) 926-1000", "TYPE": "GENERAL ACUTE CARE", "STATUS": "OPEN", "POPULATION": 410, "COUNTY": "WARREN", "COUNTYFIPS": "36113", "COUNTRY": "USA", "LATITUDE": 43.3066293850001, "LONGITUDE": -73.6463127439999, "NAICS_CODE": "622110", "NAICS_DESC": "GENERAL MEDICAL AND SURGICAL HOSPITALS", "SOURCE": "https://profiles.health.ny.gov/hospital/county_or_region/", "SOURCEDATE": "2018-08-20T00:00:00.000Z", "VAL_METHOD": "IMAGERY", "VAL_DATE": "2014-03-12T00:00:00.000Z", "WEBSITE": "http://www.glensfallshospital.org", "STATE_ID": "5601000H", "ALT_NAME": "NOT AVAILABLE", "ST_FIPS": "36", "OWNER": "NON-PROFIT", "TTL_STAFF": -999, "BEDS": 410, "TRAUMA": "NOT AVAILABLE", "HELIPAD": "Y" }, "geometry": { "type": "Polygon", "coordinates": [ [ [ -73.7497009, 43.263230599999964 ], [ -73.7499441, 43.263774900000023 ], [ -73.750479900000016, 43.311061 ], [ -73.746752, 43.318223699999962 ], [ -73.7130457, 43.36300820000001 ], [ -73.698039400000013, 43.369293500000069 ], [ -73.6231354, 43.397453700000035 ], [ -73.5450361, 43.347679600000049 ], [ -73.546465, 43.305453 ], [ -73.54649, 43.305188 ], [ -73.5604642, 43.2985701 ], [ -73.6765243, 43.265068 ], [ -73.7484737, 43.2632153 ], [ -73.7497009, 43.263230599999964 ] ] ] } },
{ "type": "Feature", "properties": { "OBJECTID": 3363, "ID": "0113912204", "NAME": "ALBANY MEMORIAL HOSPITAL", "ADDRESS": "600 NORTHERN BLVD", "CITY": "ALBANY", "STATE": "NY", "ZIP": "12204", "ZIP4": "NOT AVAILABLE", "TELEPHONE": "(518) 471-3221", "TYPE": "GENERAL ACUTE CARE", "STATUS": "OPEN", "POPULATION": 165, "COUNTY": "ALBANY", "COUNTYFIPS": "36001", "COUNTRY": "USA", "LATITUDE": 42.674183364999998, "LONGITUDE": -73.748674998999903, "NAICS_CODE": "622110", "NAICS_DESC": "GENERAL MEDICAL AND SURGICAL HOSPITALS", "SOURCE": "https://profiles.health.ny.gov/hospital/county_or_region/", "SOURCEDATE": "2018-08-20T00:00:00.000Z", "VAL_METHOD": "IMAGERY/OTHER", "VAL_DATE": "2015-02-10T00:00:00.000Z", "WEBSITE": "http://www.nehealth.com/Medical_Care/AMH/", "STATE_ID": "0101003H", "ALT_NAME": "NOT AVAILABLE", "ST_FIPS": "36", "OWNER": "NON-PROFIT", "TTL_STAFF": -999, "BEDS": 165, "TRAUMA": "NOT AVAILABLE", "HELIPAD": "N" }, "geometry": { "type": "Polygon", "coordinates": [ [ [ -73.6795274, 42.559320699999972 ], [ -73.76673, 42.587585 ], [ -73.85956, 42.639959 ], [ -73.8596079, 42.640001500000025 ], [ -73.869253, 42.690164 ], [ -73.8714289, 42.71265079999997 ], [ -73.8159174, 42.745449299999983 ], [ -73.77959, 42.758642 ], [ -73.7543587, 42.7670038 ], [ -73.699738, 42.762079 ], [ -73.699112, 42.761804 ], [ -73.6975686, 42.761047500000018 ], [ -73.689717, 42.7539404 ], [ -73.653851, 42.709012 ], [ -73.6348134, 42.644329100000014 ], [ -73.64715, 42.60122 ], [ -73.647549, 42.600562 ], [ -73.6795274, 42.559320699999972 ] ] ] } },
{ "type": "Feature", "properties": { "OBJECTID": 3372, "ID": "0117211777", "NAME": "JOHN T MATHER MEMORIAL HOSPITAL OF PORT JEFFERSON NEW YORK INC", "ADDRESS": "75 NORTH COUNTRY ROAD", "CITY": "PORT JEFFERSON", "STATE": "NY", "ZIP": "11777", "ZIP4": "NOT AVAILABLE", "TELEPHONE": "(631) 473-1320", "TYPE": "GENERAL ACUTE CARE", "STATUS": "OPEN", "POPULATION": 248, "COUNTY": "SUFFOLK", "COUNTYFIPS": "36103", "COUNTRY": "USA", "LATITUDE": 40.939067402, "LONGITUDE": -73.054398505999998, "NAICS_CODE": "622110", "NAICS_DESC": "GENERAL MEDICAL AND SURGICAL HOSPITALS", "SOURCE": "https://profiles.health.ny.gov/hospital/county_or_region/", "SOURCEDATE": "2018-08-20T00:00:00.000Z", "VAL_METHOD": "IMAGERY/OTHER", "VAL_DATE": "2015-02-11T00:00:00.000Z", "WEBSITE": "http://www.matherhospital.org/", "STATE_ID": "5149000H", "ALT_NAME": "NOT AVAILABLE", "ST_FIPS": "36", "OWNER": "NON-PROFIT", "TTL_STAFF": -999, "BEDS": 248, "TRAUMA": "NOT AVAILABLE", "HELIPAD": "Y" }, "geometry": { "type": "Polygon", "coordinates": [ [ [ -73.1500291, 40.8527438 ], [ -73.1501427, 40.852896900000033 ], [ -73.151892, 40.861018 ], [ -73.14645, 40.924563 ], [ -73.1420418, 40.951118399999984 ], [ -73.1415499, 40.95227910000002 ], [ -73.1376931, 40.960631600000013 ], [ -73.1125032, 40.969387 ], [ -73.073063, 40.9699472 ], [ -72.9690888, 40.966187500000025 ], [ -72.965739499999984, 40.965495 ], [ -72.959936, 40.962921 ], [ -72.9288788, 40.946801900000011 ], [ -72.9300561, 40.9452328 ], [ -72.998714, 40.86035360000001 ], [ -73.0185865, 40.8493278 ], [ -73.059659200000013, 40.846974699999961 ], [ -73.1500291, 40.8527438 ] ] ] } },
{ "type": "Feature", "properties": { "OBJECTID": 3373, "ID": "0117612084", "NAME": "ST. PETER'S ADDICTION RECOVERY CENTER", "ADDRESS": "3 MERCYCARE LANE", "CITY": "GUILDERLAND", "STATE": "NY", "ZIP": "12084", "ZIP4": "NOT AVAILABLE", "TELEPHONE": "(518) 452-6700", "TYPE": "REHABILITATION", "STATUS": "OPEN", "POPULATION": 40, "COUNTY": "ALBANY", "COUNTYFIPS": "36001", "COUNTRY": "USA", "LATITUDE": 42.699627551, "LONGITUDE": -73.905224605999905, "NAICS_CODE": "622210", "NAICS_DESC": "HOSPITALS, SUBSTANCE ABUSE", "SOURCE": "https://profiles.health.ny.gov/hospital/county_or_region/", "SOURCEDATE": "2018-08-20T00:00:00.000Z", "VAL_METHOD": "IMAGERY/OTHER", "VAL_DATE": "2015-02-11T00:00:00.000Z", "WEBSITE": "http://www.sphcs.org/inpatientrehabilitation", "STATE_ID": "NOT AVAILABLE", "ALT_NAME": "NOT AVAILABLE", "ST_FIPS": "36", "OWNER": "NON-PROFIT", "TTL_STAFF": -999, "BEDS": 40, "TRAUMA": "NOT AVAILABLE", "HELIPAD": "N" }, "geometry": { "type": "Polygon", "coordinates": [ [ [ -73.908581, 42.630483 ], [ -73.946137, 42.644046 ], [ -73.950568, 42.645714 ], [ -74.03117, 42.702047 ], [ -74.0481476, 42.74725369999998 ], [ -74.0490286, 42.750763800000016 ], [ -73.9884244, 42.7699162 ], [ -73.975765, 42.771150499999976 ], [ -73.83788, 42.764110600000024 ], [ -73.830083, 42.758548 ], [ -73.813782299999986, 42.746083100000035 ], [ -73.7961658, 42.726567 ], [ -73.781334300000012, 42.6818492 ], [ -73.7954005, 42.667537 ], [ -73.8059162, 42.662801500000022 ], [ -73.902425, 42.632314 ], [ -73.908581, 42.630483 ] ] ] } },
{ "type": "Feature", "properties": { "OBJECTID": 3398, "ID": "0009912208", "NAME": "VA MEDICAL CENTER - ALBANY STRATTON", "ADDRESS": "113 HOLLAND AVE", "CITY": "ALBANY", "STATE": "NY", "ZIP": "12208", "ZIP4": "NOT AVAILABLE", "TELEPHONE": "NOT AVAILABLE", "TYPE": "MILITARY", "STATUS": "OPEN", "POPULATION": -999, "COUNTY": "ALBANY", "COUNTYFIPS": "36001", "COUNTRY": "USA", "LATITUDE": 42.650808180000098, "LONGITUDE": -73.771944594999994, "NAICS_CODE": "622110", "NAICS_DESC": "GENERAL MEDICAL AND SURGICAL HOSPITALS", "SOURCE": "https://profiles.health.ny.gov/hospital/county_or_region/", "SOURCEDATE": "2018-08-20T00:00:00.000Z", "VAL_METHOD": "IMAGERY/OTHER", "VAL_DATE": "2015-05-22T00:00:00.000Z", "WEBSITE": "http://www.albany.va.gov/", "STATE_ID": "NOT AVAILABLE", "ALT_NAME": "NOT AVAILABLE", "ST_FIPS": "36", "OWNER": "GOVERNMENT - FEDERAL", "TTL_STAFF": -999, "BEDS": -999, "TRAUMA": "NOT AVAILABLE", "HELIPAD": "N" }, "geometry": { "type": "Polygon", "coordinates": [ [ [ -73.766488, 42.567041 ], [ -73.802216, 42.577077 ], [ -73.855139, 42.605904 ], [ -73.8678701, 42.644324299999958 ], [ -73.861727, 42.6887966 ], [ -73.8441819, 42.6997907 ], [ -73.8251111, 42.710808200000045 ], [ -73.7624333, 42.730686300000038 ], [ -73.7616972, 42.730914400000025 ], [ -73.6974277, 42.732750799999984 ], [ -73.6833739, 42.7035739 ], [ -73.6616462, 42.65144709999997 ], [ -73.679036, 42.618203 ], [ -73.708190700000017, 42.597089 ], [ -73.766488, 42.567041 ] ] ] } },
{ "type": "Feature", "properties": { "OBJECTID": 3401, "ID": "0010811768", "NAME": "VA MEDICAL CENTER - NORTHPORT", "ADDRESS": "79 MIDDLEVILLE RD", "CITY": "NORTHPORT", "STATE": "NY", "ZIP": "11768", "ZIP4": "NOT AVAILABLE", "TELEPHONE": "(631) 261-4400", "TYPE": "MILITARY", "STATUS": "OPEN", "POPULATION": -999, "COUNTY": "SUFFOLK", "COUNTYFIPS": "36103", "COUNTRY": "USA", "LATITUDE": 40.893675739000102, "LONGITUDE": -73.308693048999899, "NAICS_CODE": "622110", "NAICS_DESC": "GENERAL MEDICAL AND SURGICAL HOSPITALS", "SOURCE": "https://profiles.health.ny.gov/hospital/county_or_region/", "SOURCEDATE": "2018-08-20T00:00:00.000Z", "VAL_METHOD": "IMAGERY/OTHER", "VAL_DATE": "2015-05-22T00:00:00.000Z", "WEBSITE": "http://www.northport.va.gov/", "STATE_ID": "NOT AVAILABLE", "ALT_NAME": "NOT AVAILABLE", "ST_FIPS": "36", "OWNER": "GOVERNMENT - FEDERAL", "TTL_STAFF": -999, "BEDS": -999, "TRAUMA": "NOT AVAILABLE", "HELIPAD": "N" }, "geometry": { "type": "Polygon", "coordinates": [ [ [ -73.2891687, 40.816092 ], [ -73.3438398, 40.837891300000024 ], [ -73.36659, 40.848152 ], [ -73.3849024, 40.858675399999967 ], [ -73.392089, 40.882071 ], [ -73.380506, 40.895648 ], [ -73.350665, 40.917881600000037 ], [ -73.336376, 40.927497 ], [ -73.325206, 40.927599 ], [ -73.320369, 40.927325 ], [ -73.3113509, 40.9263536 ], [ -73.2955654, 40.923702 ], [ -73.2945126, 40.92345450000002 ], [ -73.2815859, 40.919448899999935 ], [ -73.2318048, 40.903965699999944 ], [ -73.231352, 40.903556 ], [ -73.212108, 40.882675 ], [ -73.212714, 40.881058 ], [ -73.214783, 40.878316 ], [ -73.235468, 40.854037 ], [ -73.2568489, 40.83150720000004 ], [ -73.2891687, 40.816092 ] ] ] } }
]
}
