{
"type": "FeatureCollection",
"crs": { "type": "name", "properties": { "name": "urn:ogc:def:crs:OGC:1.3:CRS84" } },
"features": [
{ "type": "Feature", "properties": { "OBJECTID": 1120, "ID": "0004564446", "NAME": "COMMUNITY HOSPITAL FAIRFAX", "ADDRESS": "26136 US HIGHWAY 59", "CITY": "FAIRFAX", "STATE": "MO", "ZIP": "64446", "ZIP4": "NOT AVAILABLE", "TELEPHONE": "(660) 686-2211", "TYPE": "CRITICAL ACCESS", "STATUS": "OPEN", "POPULATION": 18, "COUNTY": "ATCHISON", "COUNTYFIPS": "29005", "COUNTRY": "USA", "LATITUDE": 40.338548748999997, "LONGITUDE": -95.390453852999897, "NAICS_CODE": "622110", "NAICS_DESC": "GENERAL MEDICAL AND SURGICAL HOSPITALS", "SOURCE": "http://health.mo.gov/safety/healthservregs/directories.php", "SOURCEDATE": "2018-08-09T00:00:00.000Z", "VAL_METHOD": "IMAGERY/OTHER", "VAL_DATE": "2014-02-10T00:00:00.000Z", "WEBSITE": "http://www.fairfaxmed.com", "STATE_ID": "H024", "ALT_NAME": "NOT AVAILABLE", "ST_FIPS": "29", "OWNER": "NON-PROFIT", "TTL_STAFF": -999, "BEDS": 18, "TRAUMA": "NOT AVAILABLE", "HELIPAD": "Y" }, "geometry": { "type": "Polygon", "coordinates": [ [ [ -95.370481, 40.233931 ], [ -95.394791, 40.239178 ], [ -95.5068682, 40.299204 ], [ -95.5069088, 40.300504 ], [ -95.485222, 40.384148 ], [ -95.4819355, 40.39495130000001 ], [ -95.4255287, 40.43793210000004 ], [ -95.3878756, 40.452006400000016 ], [ -95.3756034, 40.443301899999987 ], [ -95.2529434, 40.349981700000015 ], [ -95.2363256, 40.3351573 ], [ -95.2509491, 40.320870200000044 ], [ -95.370481, 40.233931 ] ] ] } },
{ "type": "Feature", "properties": { "OBJECTID": 1224, "ID": "0008569301", "NAME": "BOX BUTTE GENERAL HOSPITAL", "ADDRESS": "2101 BOX BUTTE AVE", "CITY": "ALLIANCE", "STATE": "NE", "ZIP": "69301", "ZIP4": "NOT AVAILABLE", "TELEPHONE": "(308) 762-6660", "TYPE": "CRITICAL ACCESS", "STATUS": "OPEN", "POPULATION": 25, "COUNTY": "BOX BUTTE", "COUNTYFIPS": "31013", "COUNTRY": "USA", "LATITUDE": 42.116836542000001, "LONGITUDE": -102.869854944, "NAICS_CODE": "622110", "NAICS_DESC": "GENERAL MEDICAL AND SURGICAL HOSPITALS", "SOURCE": "http://dhhs.ne.gov/publichealth/Documents/Hospital%20Roster.pdf", "SOURCEDATE": "2018-08-09T00:00:00.000Z", "VAL_METHOD": "IMAGERY", "VAL_DATE": "2014-03-12T00:00:00.000Z", "WEBSITE": "http://www.bbgh.org", "STATE_ID": "281360", "ALT_NAME": "NOT AVAILABLE", "ST_FIPS": "31", "OWNER": "GOVERNMENT - LOCAL", "TTL_STAFF": -999, "BEDS": 25, "TRAUMA": "LEVEL IV", "HELIPAD": "Y" }, "geometry": { "type": "Polygon", "coordinates": [ [ [ -102.936444, 42.011596 ], [ -103.01453, 42.103689 ], [ -103.014481, 42.1327 ], [ -103.014344, 42.16174 ], [ -102.994612, 42.205226 ], [ -102.9833296, 42.219842799999967 ], [ -102.865336, 42.252356 ], [ -102.8019788, 42.19468389999998 ], [ -102.741325, 42.121779 ], [ -102.746038, 42.091519 ], [ -102.747026, 42.089053 ], [ -102.747819, 42.087635 ], [ -102.750181, 42.085104 ], [ -102.760415, 42.076809 ], [ -102.779798, 42.068933 ], [ -102.877529, 42.032164 ], [ -102.936444, 42.011596 ] ] ] } },
{ "type": "Feature", "properties": { "OBJECTID": 1543, "ID": "0011467661", "NAME": "PHILLIPS COUNTY HOSPITAL", "ADDRESS": "1150 STATE STREET", "CITY": "PHILLIPSBURG", "STATE": "KS", "ZIP": "67661", "ZIP4": "NOT AVAILABLE", "TELEPHONE": "(785) 543-5226", "TYPE": "GENERAL ACUTE CARE", "STATUS": "OPEN", "POPULATION": 25, "COUNTY": "PHILLIPS", "COUNTYFIPS": "20147", "COUNTRY": "USA", "LATITUDE": 39.755329023999998, "LONGITUDE": -99.313231789, "NAICS_CODE": "622110", "NAICS_DESC": "GENERAL MEDICAL AND SURGICAL HOSPITALS", "SOURCE": "http://www.kdheks.gov/bhfr/fac_list/", "SOURCEDATE": "2018-08-16T00:00:00.000Z", "VAL_METHOD": "IMAGERY", "VAL_DATE": "2014-02-10T00:00:00.000Z", "WEBSITE": "http://www.phillipshospital.org", "STATE_ID": "H074001", "ALT_NAME": "GREAT PLAINS OF PHILLIPS COUNTY INC", "ST_FIPS": "20", "OWNER": "NON-PROFIT", "TTL_STAFF": -999, "BEDS": 25, "TRAUMA": "NOT AVAILABLE", "HELIPAD": "N" }, "geometry": { "type": "Polygon", "coordinates": [ [ [ -99.301844, 39.625508 ], [ -99.384374, 39.683353399999973 ], [ -99.46857, 39.799502 ], [ -99.328413, 39.864696 ], [ -99.272545, 39.843344 ], [ -99.1190226, 39.756275800000026 ], [ -99.301844, 39.625508 ] ] ] } },
{ "type": "Feature", "properties": { "OBJECTID": 1547, "ID": "0012466538", "NAME": "NEMAHA VALLEY COMMUNITY HOSPITAL", "ADDRESS": "1600 COMMUNITY DR", "CITY": "SENECA", "STATE": "KS", "ZIP": "66538", "ZIP4": "NOT AVAILABLE", "TELEPHONE": "(785) 336-6181", "TYPE": "GENERAL ACUTE CARE", "STATUS": "OPEN", "POPULATION": 24, "COUNTY": "NEMAHA", "COUNTYFIPS": "20131", "COUNTRY": "USA", "LATITUDE": 39.83744, "LONGITUDE": -96.078130506999997, "NAICS_CODE": "622110", "NAICS_DESC": "GENERAL MEDICAL AND SURGICAL HOSPITALS", "SOURCE": "http://www.kdheks.gov/bhfr/fac_list/", "SOURCEDATE": "2018-08-16T00:00:00.000Z", "VAL_METHOD": "IMAGERY", "VAL_DATE": "2014-02-10T00:00:00.000Z", "WEBSITE": "http://www.nemvch.org", "STATE_ID": "H066001", "ALT_NAME": "NEMAHA VALLEY COMMUNITY HOSPITAL", "ST_FIPS": "20", "OWNER": "NON-PROFIT", "TTL_STAFF": -999, "BEDS": 24, "TRAUMA": "LEVEL IV", "HELIPAD": "N" }, "geometry": { "type": "Polygon", "coordinates": [ [ [ -96.070674, 39.736432 ], [ -96.089418, 39.740198 ], [ -96.145203, 39.762028 ], [ -96.239672, 39.8212281 ], [ -96.220595, 39.870804 ], [ -96.201618, 39.885377 ], [ -96.145034, 39.91447 ], [ -96.071063, 39.9286 ], [ -96.0428029, 39.928410500000012 ], [ -95.920442, 39.841292 ], [ -96.018994, 39.762812 ], [ -96.03313, 39.754459600000033 ], [ -96.061291, 39.740078500000024 ], [ -96.070674, 39.736432 ] ] ] } },
{ "type": "Feature", "properties": { "OBJECTID": 1548, "ID": "0012866967", "NAME": "SMITH COUNTY MEMORIAL HOSPITAL", "ADDRESS": "614 SOUTH MAIN STREET", "CITY": "SMITH CENTER", "STATE": "KS", "ZIP": "66967", "ZIP4": "NOT AVAILABLE", "TELEPHONE": "(785) 282-6845", "TYPE": "GENERAL ACUTE CARE", "STATUS": "OPEN", "POPULATION": 53, "COUNTY": "SMITH", "COUNTYFIPS": "20183", "COUNTRY": "USA", "LATITUDE": 39.7710886180001, "LONGITUDE": -98.784842249999897, "NAICS_CODE": "622110", "NAICS_DESC": "GENERAL MEDICAL AND SURGICAL HOSPITALS", "SOURCE": "http://www.kdheks.gov/bhfr/fac_list/", "SOURCEDATE": "2018-08-16T00:00:00.000Z", "VAL_METHOD": "IMAGERY", "VAL_DATE": "2014-02-10T00:00:00.000Z", "WEBSITE": "http://www.gpha.com", "STATE_ID": "H092001", "ALT_NAME": "GREAT PLAINS OF SMITH COUNTY INC", "ST_FIPS": "20", "OWNER": "NON-PROFIT", "TTL_STAFF": -999, "BEDS": 53, "TRAUMA": "LEVEL IV", "HELIPAD": "Y" }, "geometry": { "type": "Polygon", "coordinates": [ [ [ -98.778242, 39.653162 ], [ -98.785624, 39.654671 ], [ -98.9541575, 39.771005799999983 ], [ -98.9355199, 39.785312400000024 ], [ -98.785573, 39.882895 ], [ -98.76664, 39.872196 ], [ -98.6166743, 39.7849782 ], [ -98.778242, 39.653162 ] ] ] } },
{ "type": "Feature", "properties": { "OBJECTID": 1551, "ID": "0014066547", "NAME": "WAMEGO CITY HOSPITAL", "ADDRESS": "711 GENN DRIVE", "CITY": "WAMEGO", "STATE": "KS", "ZIP": "66547", "ZIP4": "NOT AVAILABLE", "TELEPHONE": "(785) 458-7201", "TYPE": "GENERAL ACUTE CARE", "STATUS": "OPEN", "POPULATION": 18, "COUNTY": "POTTAWATOMIE", "COUNTYFIPS": "20149", "COUNTRY": "USA", "LATITUDE": 39.204833418000099, "LONGITUDE": -96.319057806000004, "NAICS_CODE": "622110", "NAICS_DESC": "GENERAL MEDICAL AND SURGICAL HOSPITALS", "SOURCE": "http://www.kdheks.gov/bhfr/fac_list/", "SOURCEDATE": "2018-08-16T00:00:00.000Z", "VAL_METHOD": "IMAGERY", "VAL_DATE": "2014-02-10T00:00:00.000Z", "WEBSITE": "http://www.wamegocityhospital.com", "STATE_ID": "H075002", "ALT_NAME": "WAMEGO HOSPITAL ASSOCIATES", "ST_FIPS": "20", "OWNER": "NON-PROFIT", "TTL_STAFF": -999, "BEDS": 18, "TRAUMA": "NOT AVAILABLE", "HELIPAD": "Y" }, "geometry": { "type": "Polygon", "coordinates": [ [ [ -96.351963, 39.169749 ], [ -96.463874, 39.189551 ], [ -96.4836246, 39.1962963 ], [ -96.4838363, 39.197100100000036 ], [ -96.4838447, 39.197575899999975 ], [ -96.4442702, 39.233052599999965 ], [ -96.351805, 39.304276 ], [ -96.334307, 39.304334 ], [ -96.315077, 39.304367 ], [ -96.231364, 39.256928 ], [ -96.176238, 39.218775 ], [ -96.1752328, 39.216425 ], [ -96.175349, 39.214759 ], [ -96.181273, 39.210066 ], [ -96.268737, 39.184322 ], [ -96.351963, 39.169749 ] ] ] } },
{ "type": "Feature", "properties": { "OBJECTID": 1705, "ID": "0004069101", "NAME": "GREAT PLAINS REGIONAL MEDICAL CENTER", "ADDRESS": "601 WEST LEOTA ST", "CITY": "NORTH PLATTE", "STATE": "NE", "ZIP": "69101", "ZIP4": "NOT AVAILABLE", "TELEPHONE": "(308) 696-8000", "TYPE": "GENERAL ACUTE CARE", "STATUS": "OPEN", "POPULATION": 116, "COUNTY": "LINCOLN", "COUNTYFIPS": "31111", "COUNTRY": "USA", "LATITUDE": 41.121733948, "LONGITUDE": -100.76997434099999, "NAICS_CODE": "622110", "NAICS_DESC": "GENERAL MEDICAL AND SURGICAL HOSPITALS", "SOURCE": "http://dhhs.ne.gov/publichealth/Documents/Hospital%20Roster.pdf", "SOURCEDATE": "2018-08-09T00:00:00.000Z", "VAL_METHOD": "IMAGERY", "VAL_DATE": "2014-02-10T00:00:00.000Z", "WEBSITE": "http://www.gprmc.com", "STATE_ID": "280065", "ALT_NAME": "NOT AVAILABLE", "ST_FIPS": "31", "OWNER": "NON-PROFIT", "TTL_STAFF": -999, "BEDS": 116, "TRAUMA": "LEVEL III", "HELIPAD": "Y" }, "geometry": { "type": "Polygon", "coordinates": [ [ [ -100.753962, 40.989127 ], [ -100.906759, 41.104873 ], [ -100.906645, 41.128604 ], [ -100.8873518, 41.176870499999978 ], [ -100.794709, 41.228102 ], [ -100.760799, 41.23123 ], [ -100.696491, 41.228243 ], [ -100.676773, 41.176825 ], [ -100.676339, 41.0939087 ], [ -100.677166, 41.075726 ], [ -100.753962, 40.989127 ] ] ] } },
{ "type": "Feature", "properties": { "OBJECTID": 1710, "ID": "0157366536", "NAME": "COMMUNITY HOSPITAL ONAGA LTCU", "ADDRESS": "206 GRAND AVE", "CITY": "ST MARYS", "STATE": "KS", "ZIP": "66536", "ZIP4": "NOT AVAILABLE", "TELEPHONE": "NOT AVAILABLE", "TYPE": "LONG TERM CARE", "STATUS": "OPEN", "POPULATION": -999, "COUNTY": "POTTAWATOMIE", "COUNTYFIPS": "20149", "COUNTRY": "USA", "LATITUDE": 39.188590274, "LONGITUDE": -96.061105421999997, "NAICS_CODE": "622110", "NAICS_DESC": "GENERAL MEDICAL AND SURGICAL HOSPITALS", "SOURCE": "http://www.kdheks.gov/bhfr/fac_list/", "SOURCEDATE": "2018-08-16T00:00:00.000Z", "VAL_METHOD": "IMAGERY/OTHER", "VAL_DATE": "2015-05-30T00:00:00.000Z", "WEBSITE": "NOT AVAILABLE", "STATE_ID": "H075101", "ALT_NAME": "NOT AVAILABLE", "ST_FIPS": "20", "OWNER": "NOT AVAILABLE", "TTL_STAFF": -999, "BEDS": -999, "TRAUMA": "NOT AVAILABLE", "HELIPAD": "N" }, "geometry": { "type": "Polygon", "coordinates": [ [ [ -96.0238741, 39.1209956 ], [ -96.203306, 39.217458099999959 ], [ -96.063303, 39.289396 ], [ -96.051865, 39.274703 ], [ -96.0281227, 39.23105450000002 ], [ -96.00818, 39.144073 ], [ -96.0238741, 39.1209956 ] ] ] } },
{ "type": "Feature", "properties": { "OBJECTID": 1721, "ID": "0004057770", "NAME": "PINE RIDGE HOSPITAL", "ADDRESS": "HWY 18 EAST", "CITY": "PINE RIDGE", "STATE": "SD", "ZIP": "57770", "ZIP4": "NOT AVAILABLE", "TELEPHONE": "(605) 747-2231", "TYPE": "CRITICAL ACCESS", "STATUS": "OPEN", "POPULATION": 45, "COUNTY": "SHANNON", "COUNTYFIPS": "46113", "COUNTRY": "USA", "LATITUDE": 43.02367851, "LONGITUDE": -102.541290199, "NAICS_CODE": "622110", "NAICS_DESC": "GENERAL MEDICAL AND SURGICAL HOSPITALS", "SOURCE": "https://www.ihs.gov/findhealthcare/", "SOURCEDATE": "2018-09-27T00:00:00.000Z", "VAL_METHOD": "IMAGERY/OTHER", "VAL_DATE": "2018-05-08T00:00:00.000Z", "WEBSITE": "https://www.ihs.gov/greatplains/healthcarefacilities/pineridge/", "STATE_ID": "NOT AVAILABLE", "ALT_NAME": "NOT AVAILABLE", "ST_FIPS": "46", "OWNER": "GOVERNMENT - FEDERAL", "TTL_STAFF": -999, "BEDS": 45, "TRAUMA": "NOT AVAILABLE", "HELIPAD": "Y" }, "geometry": { "type": "Polygon", "coordinates": [ [ [ -102.546762, 42.936746 ], [ -102.56526, 42.936434 ], [ -102.672615384393097, 43.031453567817373 ], [ -102.6186456, 43.103857699999978 ], [ -102.61144, 43.104178 ], [ -102.6097196, 43.103888200000029 ], [ -102.564849, 43.095499300000014 ], [ -102.436098087424682, 43.068127928092615 ], [ -102.377168745976135, 43.046526455852529 ], [ -102.546762, 42.936746 ] ] ] } },
{ "type": "Feature", "properties": { "OBJECTID": 2045, "ID": "0001066901", "NAME": "CLOUD COUNTY HEALTH CENTER", "ADDRESS": "1100 HIGHLAND DRIVE", "CITY": "CONCORDIA", "STATE": "KS", "ZIP": "66901", "ZIP4": "NOT AVAILABLE", "TELEPHONE": "(785) 243-1234", "TYPE": "CRITICAL ACCESS", "STATUS": "OPEN", "POPULATION": 25, "COUNTY": "CLOUD", "COUNTYFIPS": "20029", "COUNTRY": "USA", "LATITUDE": 39.565537264000099, "LONGITUDE": -97.673492456999995, "NAICS_CODE": "622110", "NAICS_DESC": "GENERAL MEDICAL AND SURGICAL HOSPITALS", "SOURCE": "http://www.kdheks.gov/bhfr/fac_list/", "SOURCEDATE": "2018-08-16T00:00:00.000Z", "VAL_METHOD": "IMAGERY", "VAL_DATE": "2014-02-10T00:00:00.000Z", "WEBSITE": "http://www.cchc.com", "STATE_ID": "H015001", "ALT_NAME": "CLOUD COUNTY HEALTH CENTER INC", "ST_FIPS": "20", "OWNER": "NON-PROFIT", "TTL_STAFF": -999, "BEDS": 25, "TRAUMA": "NOT AVAILABLE", "HELIPAD": "Y" }, "geometry": { "type": "Polygon", "coordinates": [ [ [ -97.66645680000002, 39.4520119 ], [ -97.6668175, 39.452012500000052 ], [ -97.7322203, 39.496152700000032 ], [ -97.8004122, 39.5666781 ], [ -97.8192361, 39.589309900000018 ], [ -97.6599744, 39.696775099999989 ], [ -97.5368368, 39.57229860000006 ], [ -97.5918256, 39.509957600000035 ], [ -97.66645680000002, 39.4520119 ] ] ] } },
{ "type": "Feature", "properties": { "OBJECTID": 2050, "ID": "0005766439", "NAME": "HORTON COMMUNITY HOSPITAL", "ADDRESS": "240 WEST 18TH STREET", "CITY": "HORTON", "STATE": "KS", "ZIP": "66439", "ZIP4": "NOT AVAILABLE", "TELEPHONE": "(785) 486-2642", "TYPE": "CRITICAL ACCESS", "STATUS": "OPEN", "POPULATION": 25, "COUNTY": "BROWN", "COUNTYFIPS": "20013", "COUNTRY": "USA", "LATITUDE": 39.673274220000103, "LONGITUDE": -95.530493809000006, "NAICS_CODE": "622110", "NAICS_DESC": "GENERAL MEDICAL AND SURGICAL HOSPITALS", "SOURCE": "http://www.kdheks.gov/bhfr/fac_list/", "SOURCEDATE": "2018-08-16T00:00:00.000Z", "VAL_METHOD": "IMAGERY", "VAL_DATE": "2014-01-09T00:00:00.000Z", "WEBSITE": "http://www.horton-hospital.com", "STATE_ID": "H007002", "ALT_NAME": "NORTHEAST KANSAS CENTER FOR HEALTH & WELLNESS", "ST_FIPS": "20", "OWNER": "PROPRIETARY", "TTL_STAFF": -999, "BEDS": 25, "TRAUMA": "NOT AVAILABLE", "HELIPAD": "N" }, "geometry": { "type": "Polygon", "coordinates": [ [ [ -95.5246564, 39.5657566 ], [ -95.620318, 39.623936 ], [ -95.676322, 39.65945 ], [ -95.6763737, 39.6674046 ], [ -95.5271672, 39.797953799999981 ], [ -95.377523, 39.667487 ], [ -95.3619361, 39.65299330000002 ], [ -95.3625081, 39.652381799999986 ], [ -95.5175839, 39.5657529 ], [ -95.5198996, 39.565749199999978 ], [ -95.5246564, 39.5657566 ] ] ] } },
{ "type": "Feature", "properties": { "OBJECTID": 2225, "ID": "0106968847", "NAME": "CHI HEALTH RICHARD YOUNG BEHAVIORAL HEALTH", "ADDRESS": "1755 PRAIRIE VIEW PL, PO BOX 1750", "CITY": "KEARNEY", "STATE": "NE", "ZIP": "68847", "ZIP4": "NOT AVAILABLE", "TELEPHONE": "(308) 865-2000", "TYPE": "PSYCHIATRIC", "STATUS": "OPEN", "POPULATION": 61, "COUNTY": "BUFFALO", "COUNTYFIPS": "31019", "COUNTRY": "USA", "LATITUDE": 40.720455247000103, "LONGITUDE": -99.106738385, "NAICS_CODE": "622210", "NAICS_DESC": "PSYCHIATRIC AND SUBSTANCE ABUSE HOSPITALS", "SOURCE": "http://dhhs.ne.gov/publichealth/Documents/Hospital%20Roster.pdf", "SOURCEDATE": "2018-08-09T00:00:00.000Z", "VAL_METHOD": "IMAGERY/OTHER", "VAL_DATE": "2015-02-18T00:00:00.000Z", "WEBSITE": "http://www.catholichealthinitiatives.org/landing.cfm?id=39524&action=detail&ref=830", "STATE_ID": "NOT AVAILABLE", "ALT_NAME": "NOT AVAILABLE", "ST_FIPS": "31", "OWNER": "NON-PROFIT", "TTL_STAFF": -999, "BEDS": 61, "TRAUMA": "NOT AVAILABLE", "HELIPAD": "N" }, "geometry": { "type": "Polygon", "coordinates": [ [ [ -99.086188, 40.6555108 ], [ -99.217858, 40.675486 ], [ -99.236997, 40.688014 ], [ -99.256649, 40.701604 ], [ -99.256596, 40.702423 ], [ -99.216969, 40.807642 ], [ -99.103494, 40.836077 ], [ -99.0845384, 40.839771 ], [ -99.026476, 40.786298 ], [ -98.988277, 40.750002 ], [ -98.988528, 40.699226 ], [ -99.0224901, 40.669731499999976 ], [ -99.086188, 40.6555108 ] ] ] } },
{ "type": "Feature", "properties": { "OBJECTID": 2226, "ID": "0006668361", "NAME": "FILLMORE COUNTY HOSPITAL", "ADDRESS": "1900 F STREET", "CITY": "GENEVA", "STATE": "NE", "ZIP": "68361", "ZIP4": "NOT AVAILABLE", "TELEPHONE": "(402) 759-3167", "TYPE": "CRITICAL ACCESS", "STATUS": "OPEN", "POPULATION": 20, "COUNTY": "FILLMORE", "COUNTYFIPS": "31059", "COUNTRY": "USA", "LATITUDE": 40.526600516000002, "LONGITUDE": -97.594955313, "NAICS_CODE": "622110", "NAICS_DESC": "GENERAL MEDICAL AND SURGICAL HOSPITALS", "SOURCE": "http://dhhs.ne.gov/publichealth/Documents/Hospital%20Roster.pdf", "SOURCEDATE": "2018-08-09T00:00:00.000Z", "VAL_METHOD": "IMAGERY", "VAL_DATE": "2014-02-10T00:00:00.000Z", "WEBSITE": "http://www.fhsofgeneva.org", "STATE_ID": "281301", "ALT_NAME": "NOT AVAILABLE", "ST_FIPS": "31", "OWNER": "GOVERNMENT - LOCAL", "TTL_STAFF": -999, "BEDS": 20, "TRAUMA": "NOT AVAILABLE", "HELIPAD": "N" }, "geometry": { "type": "Polygon", "coordinates": [ [ [ -97.5772475, 40.379567600000044 ], [ -97.5774689, 40.379565400000018 ], [ -97.653076, 40.4231716 ], [ -97.76683, 40.524475 ], [ -97.614883, 40.654751 ], [ -97.595899, 40.669188 ], [ -97.5956888, 40.66918639999998 ], [ -97.559312, 40.6403 ], [ -97.444684, 40.524527 ], [ -97.444512, 40.510123 ], [ -97.5772475, 40.379567600000044 ] ] ] } },
{ "type": "Feature", "properties": { "OBJECTID": 2349, "ID": "0000557551", "NAME": "BENNETT COUNTY HEALTH CENTER", "ADDRESS": "102 MAJOR ALLEN STREET", "CITY": "MARTIN", "STATE": "SD", "ZIP": "57551", "ZIP4": "NOT AVAILABLE", "TELEPHONE": "(605) 685-6622", "TYPE": "CRITICAL ACCESS", "STATUS": "OPEN", "POPULATION": 14, "COUNTY": "BENNETT", "COUNTYFIPS": "46007", "COUNTRY": "USA", "LATITUDE": 43.16975367, "LONGITUDE": -101.730725431, "NAICS_CODE": "622110", "NAICS_DESC": "GENERAL MEDICAL AND SURGICAL HOSPITALS", "SOURCE": "https://apps.sd.gov/ph04lassnet/rptPH04LicenseList.Aspx", "SOURCEDATE": "2018-08-10T00:00:00.000Z", "VAL_METHOD": "IMAGERY", "VAL_DATE": "2013-12-31T00:00:00.000Z", "WEBSITE": "http://www.bennettcountyhospital.com/", "STATE_ID": "NOT AVAILABLE", "ALT_NAME": "NOT AVAILABLE", "ST_FIPS": "46", "OWNER": "GOVERNMENT - LOCAL", "TTL_STAFF": -999, "BEDS": 14, "TRAUMA": "TRH", "HELIPAD": "N" }, "geometry": { "type": "Polygon", "coordinates": [ [ [ -101.702482006946752, 43.061371988698824 ], [ -101.9105813, 43.172621900000046 ], [ -101.695432, 43.261081 ], [ -101.6130059, 43.2224071 ], [ -101.613037, 43.210745 ], [ -101.613092, 43.200803 ], [ -101.629634, 43.166024 ], [ -101.702482006946752, 43.061371988698824 ] ] ] } },
{ "type": "Feature", "properties": { "OBJECTID": 2360, "ID": "0007568355", "NAME": "COMMUNITY MEDICAL CENTER, INC", "ADDRESS": "2307 BARADA ST", "CITY": "FALLS CITY", "STATE": "NE", "ZIP": "68355", "ZIP4": "NOT AVAILABLE", "TELEPHONE": "(402) 245-2428", "TYPE": "CRITICAL ACCESS", "STATUS": "OPEN", "POPULATION": 24, "COUNTY": "RICHARDSON", "COUNTYFIPS": "31147", "COUNTRY": "USA", "LATITUDE": 40.077720168, "LONGITUDE": -95.60788795000001, "NAICS_CODE": "622110", "NAICS_DESC": "GENERAL MEDICAL AND SURGICAL HOSPITALS", "SOURCE": "http://dhhs.ne.gov/publichealth/Documents/Hospital%20Roster.pdf", "SOURCEDATE": "2018-08-09T00:00:00.000Z", "VAL_METHOD": "IMAGERY/OTHER", "VAL_DATE": "2014-02-10T00:00:00.000Z", "WEBSITE": "http://www.cmcfc.org", "STATE_ID": "281352", "ALT_NAME": "NOT AVAILABLE", "ST_FIPS": "31", "OWNER": "NON-PROFIT", "TTL_STAFF": -999, "BEDS": 24, "TRAUMA": "LEVEL IV", "HELIPAD": "Y" }, "geometry": { "type": "Polygon", "coordinates": [ [ [ -95.6018423, 39.9719665 ], [ -95.71956, 40.058376 ], [ -95.7200588, 40.059008 ], [ -95.730705, 40.076299 ], [ -95.70926, 40.101913 ], [ -95.671504, 40.14576 ], [ -95.634595, 40.174938 ], [ -95.596938, 40.189529 ], [ -95.539232, 40.145173 ], [ -95.463863, 40.057768 ], [ -95.6018423, 39.9719665 ] ] ] } },
{ "type": "Feature", "properties": { "OBJECTID": 2362, "ID": "0008669033", "NAME": "CHASE COUNTY COMMUNITY HOSPITAL", "ADDRESS": "600 W 12TH ST", "CITY": "IMPERIAL", "STATE": "NE", "ZIP": "69033", "ZIP4": "NOT AVAILABLE", "TELEPHONE": "(308) 882-7111", "TYPE": "CRITICAL ACCESS", "STATUS": "OPEN", "POPULATION": 22, "COUNTY": "CHASE", "COUNTYFIPS": "31029", "COUNTRY": "USA", "LATITUDE": 40.524129283999997, "LONGITUDE": -101.650665254, "NAICS_CODE": "622110", "NAICS_DESC": "GENERAL MEDICAL AND SURGICAL HOSPITALS", "SOURCE": "http://dhhs.ne.gov/publichealth/Documents/Hospital%20Roster.pdf", "SOURCEDATE": "2018-08-09T00:00:00.000Z", "VAL_METHOD": "IMAGERY", "VAL_DATE": "2014-02-10T00:00:00.000Z", "WEBSITE": "http://www.chasecountyhospital.com", "STATE_ID": "281351", "ALT_NAME": "NOT AVAILABLE", "ST_FIPS": "31", "OWNER": "GOVERNMENT - LOCAL", "TTL_STAFF": -999, "BEDS": 22, "TRAUMA": "LEVEL IV", "HELIPAD": "Y" }, "geometry": { "type": "Polygon", "coordinates": [ [ [ -101.585685, 40.451078 ], [ -101.666267, 40.44816 ], [ -101.685099, 40.44864 ], [ -101.741888, 40.450823 ], [ -101.760612, 40.465174 ], [ -101.799427, 40.537551 ], [ -101.76067, 40.56654 ], [ -101.6670363, 40.62487059999998 ], [ -101.590733, 40.610636 ], [ -101.495539, 40.495449 ], [ -101.5331518, 40.454482699999978 ], [ -101.5335871, 40.454357700000024 ], [ -101.585685, 40.451078 ] ] ] } },
{ "type": "Feature", "properties": { "OBJECTID": 2373, "ID": "0006868333", "NAME": "CRETE AREA MEDICAL CENTER", "ADDRESS": "2910 BETTEN DR", "CITY": "CRETE", "STATE": "NE", "ZIP": "68333", "ZIP4": "NOT AVAILABLE", "TELEPHONE": "(402) 826-7997", "TYPE": "CRITICAL ACCESS", "STATUS": "OPEN", "POPULATION": 24, "COUNTY": "SALINE", "COUNTYFIPS": "31151", "COUNTRY": "USA", "LATITUDE": 40.640637724999998, "LONGITUDE": -96.935546134000006, "NAICS_CODE": "622110", "NAICS_DESC": "GENERAL MEDICAL AND SURGICAL HOSPITALS", "SOURCE": "http://dhhs.ne.gov/publichealth/Documents/Hospital%20Roster.pdf", "SOURCEDATE": "2018-08-09T00:00:00.000Z", "VAL_METHOD": "IMAGERY", "VAL_DATE": "2014-02-10T00:00:00.000Z", "WEBSITE": "http://www.creteareamedicalcenter.com", "STATE_ID": "281354", "ALT_NAME": "NOT AVAILABLE", "ST_FIPS": "31", "OWNER": "NON-PROFIT", "TTL_STAFF": -999, "BEDS": 24, "TRAUMA": "LEVEL IV", "HELIPAD": "Y" }, "geometry": { "type": "Polygon", "coordinates": [ [ [ -96.9125027, 40.538123700000028 ], [ -96.961883, 40.538169 ], [ -96.96945, 40.538175 ], [ -97.027296, 40.581599 ], [ -97.065209, 40.610773 ], [ -97.084146, 40.625372 ], [ -97.103268, 40.642544 ], [ -97.10327, 40.6428368 ], [ -96.9298988, 40.770531 ], [ -96.7618175, 40.657586 ], [ -96.761896, 40.653873 ], [ -96.8494387, 40.585099399999962 ], [ -96.9125027, 40.538123700000028 ] ] ] } },
{ "type": "Feature", "properties": { "OBJECTID": 2374, "ID": "0007068352", "NAME": "JEFFERSON COMMUNITY HEALTH CENTER", "ADDRESS": "2200 H ST", "CITY": "FAIRBURY", "STATE": "NE", "ZIP": "68352", "ZIP4": "NOT AVAILABLE", "TELEPHONE": "(402) 729-3351", "TYPE": "CRITICAL ACCESS", "STATUS": "OPEN", "POPULATION": 17, "COUNTY": "JEFFERSON", "COUNTYFIPS": "31095", "COUNTRY": "USA", "LATITUDE": 40.155546523000098, "LONGITUDE": -97.175003907000004, "NAICS_CODE": "622110", "NAICS_DESC": "GENERAL MEDICAL AND SURGICAL HOSPITALS", "SOURCE": "http://dhhs.ne.gov/publichealth/Documents/Hospital%20Roster.pdf", "SOURCEDATE": "2018-08-09T00:00:00.000Z", "VAL_METHOD": "IMAGERY", "VAL_DATE": "2014-03-12T00:00:00.000Z", "WEBSITE": "http://www.jchc.us", "STATE_ID": "281319", "ALT_NAME": "NOT AVAILABLE", "ST_FIPS": "31", "OWNER": "NON-PROFIT", "TTL_STAFF": -999, "BEDS": 17, "TRAUMA": "NOT AVAILABLE", "HELIPAD": "Y" }, "geometry": { "type": "Polygon", "coordinates": [ [ [ -97.170791, 40.030646 ], [ -97.256065, 40.088761 ], [ -97.312713, 40.130968 ], [ -97.331519, 40.147138 ], [ -97.274243, 40.204935 ], [ -97.179785, 40.291671 ], [ -97.067276, 40.21896 ], [ -97.048299, 40.204538 ], [ -97.029461, 40.190029 ], [ -97.029648, 40.160937 ], [ -97.095543, 40.059488 ], [ -97.170791, 40.030646 ] ] ] } },
{ "type": "Feature", "properties": { "OBJECTID": 2437, "ID": "0002857783", "NAME": "SPEARFISH REGIONAL SURGERY CENTER", "ADDRESS": "1316 NORTH 10TH STREET", "CITY": "SPEARFISH", "STATE": "SD", "ZIP": "57783", "ZIP4": "NOT AVAILABLE", "TELEPHONE": "(605) 642-3113", "TYPE": "GENERAL ACUTE CARE", "STATUS": "OPEN", "POPULATION": 4, "COUNTY": "LAWRENCE", "COUNTYFIPS": "46081", "COUNTRY": "USA", "LATITUDE": 44.497798131000003, "LONGITUDE": -103.855761974, "NAICS_CODE": "622110", "NAICS_DESC": "GENERAL MEDICAL AND SURGICAL HOSPITALS", "SOURCE": "https://apps.sd.gov/ph04lassnet/rptPH04LicenseList.Aspx", "SOURCEDATE": "2018-08-10T00:00:00.000Z", "VAL_METHOD": "IMAGERY", "VAL_DATE": "2014-02-10T00:00:00.000Z", "WEBSITE": "http://www.regionalhealth.com/Our-Locations/Spearfish-Regional-Surgery-Center.aspx", "STATE_ID": "NOT AVAILABLE", "ALT_NAME": "NOT AVAILABLE", "ST_FIPS": "46", "OWNER": "NON-PROFIT", "TTL_STAFF": -999, "BEDS": 4, "TRAUMA": "NOT AVAILABLE", "HELIPAD": "N" }, "geometry": { "type": "Polygon", "coordinates": [ [ [ -103.873542469405834, 44.426941259803129 ], [ -103.911193817811409, 44.432106001437035 ], [ -104.011901359259667, 44.545447017135253 ], [ -104.011929563726383, 44.54702121082979 ], [ -104.011932365785569, 44.547724108015856 ], [ -103.860028032374444, 44.583183482582939 ], [ -103.82938103289635, 44.58392339845107 ], [ -103.729251883028795, 44.502483869764049 ], [ -103.717854011453028, 44.445362229002505 ], [ -103.873542469405834, 44.426941259803129 ] ] ] } },
{ "type": "Feature", "properties": { "OBJECTID": 2442, "ID": "0005057701", "NAME": "SAME DAY SURGERY CENTER LIMITED LIABILITY PARTNERSHIP", "ADDRESS": "651 CATHEDRAL DRIVE", "CITY": "RAPID CITY", "STATE": "SD", "ZIP": "57701", "ZIP4": "NOT AVAILABLE", "TELEPHONE": "(605) 755-9900", "TYPE": "SPECIAL", "STATUS": "OPEN", "POPULATION": 6, "COUNTY": "PENNINGTON", "COUNTYFIPS": "46103", "COUNTRY": "USA", "LATITUDE": 44.058686322, "LONGITUDE": -103.228871274, "NAICS_CODE": "622310", "NAICS_DESC": "SPECIALTY (EXCEPT PSYCHIATRIC AND SUBSTANCE ABUSE) HOSPITALS", "SOURCE": "https://apps.sd.gov/ph04lassnet/rptPH04LicenseList.Aspx", "SOURCEDATE": "2018-08-10T00:00:00.000Z", "VAL_METHOD": "IMAGERY", "VAL_DATE": "2014-03-12T00:00:00.000Z", "WEBSITE": "http://www.samedaysurgerycenter.org", "STATE_ID": "NOT AVAILABLE", "ALT_NAME": "NOT AVAILABLE", "ST_FIPS": "46", "OWNER": "PROPRIETARY", "TTL_STAFF": -999, "BEDS": 6, "TRAUMA": "NOT AVAILABLE", "HELIPAD": "N" }, "geometry": { "type": "Polygon", "coordinates": [ [ [ -103.2831385, 43.950014400000022 ], [ -103.3264373, 43.970740799999973 ], [ -103.3265066, 43.970995599999974 ], [ -103.3279073, 44.09265749999998 ], [ -103.2965449, 44.125726700000037 ], [ -103.2719614, 44.145735799999969 ], [ -103.2298611, 44.1410731 ], [ -103.1714665, 44.125682899999958 ], [ -103.1461518, 44.106500699999962 ], [ -103.1422167, 44.102173499999964 ], [ -103.1376211, 44.0968299 ], [ -103.1272403, 44.067373500000016 ], [ -103.1209973, 44.041733 ], [ -103.1424381, 44.005683299999987 ], [ -103.186075, 43.957580899999989 ], [ -103.2831385, 43.950014400000022 ] ] ] } },
{ "type": "Feature", "properties": { "OBJECTID": 2821, "ID": "0000466935", "NAME": "REPUBLIC COUNTY HOSPITAL", "ADDRESS": "2420 G STREET", "CITY": "BELLEVILLE", "STATE": "KS", "ZIP": "66935", "ZIP4": "NOT AVAILABLE", "TELEPHONE": "(785) 527-2254", "TYPE": "CRITICAL ACCESS", "STATUS": "OPEN", "POPULATION": 63, "COUNTY": "REPUBLIC", "COUNTYFIPS": "20157", "COUNTRY": "USA", "LATITUDE": 39.817248276000001, "LONGITUDE": -97.637306242999998, "NAICS_CODE": "622110", "NAICS_DESC": "GENERAL MEDICAL AND SURGICAL HOSPITALS", "SOURCE": "http://www.kdheks.gov/bhfr/fac_list/", "SOURCEDATE": "2018-08-16T00:00:00.000Z", "VAL_METHOD": "IMAGERY", "VAL_DATE": "2014-03-12T00:00:00.000Z", "WEBSITE": "http://www.rphospital.org", "STATE_ID": "H079001", "ALT_NAME": "GREAT PLAINS OF REPUBLIC COUNTY INC", "ST_FIPS": "20", "OWNER": "NON-PROFIT", "TTL_STAFF": -999, "BEDS": 63, "TRAUMA": "LEVEL IV", "HELIPAD": "N" }, "geometry": { "type": "Polygon", "coordinates": [ [ [ -97.6602225, 39.667983 ], [ -97.6605093, 39.6679833 ], [ -97.80087, 39.794995 ], [ -97.800887, 39.798658 ], [ -97.79141, 39.81313 ], [ -97.763483, 39.842232 ], [ -97.651534, 39.928412 ], [ -97.632555, 39.942896 ], [ -97.6136579, 39.956940599999982 ], [ -97.6133599, 39.9569387 ], [ -97.4809969, 39.813275 ], [ -97.6602225, 39.667983 ] ] ] } },
{ "type": "Feature", "properties": { "OBJECTID": 2831, "ID": "0009066508", "NAME": "COMMUNITY MEMORIAL HEALTHCARE", "ADDRESS": "708 N 18TH STREET", "CITY": "MARYSVILLE", "STATE": "KS", "ZIP": "66508", "ZIP4": "NOT AVAILABLE", "TELEPHONE": "(785) 562-2311", "TYPE": "CRITICAL ACCESS", "STATUS": "OPEN", "POPULATION": 25, "COUNTY": "MARSHALL", "COUNTYFIPS": "20117", "COUNTRY": "USA", "LATITUDE": 39.848700131000001, "LONGITUDE": -96.635439235999996, "NAICS_CODE": "622110", "NAICS_DESC": "GENERAL MEDICAL AND SURGICAL HOSPITALS", "SOURCE": "http://www.kdheks.gov/bhfr/fac_list/", "SOURCEDATE": "2018-08-16T00:00:00.000Z", "VAL_METHOD": "IMAGERY", "VAL_DATE": "2014-02-10T00:00:00.000Z", "WEBSITE": "http://www.cmhcare.org", "STATE_ID": "H058001", "ALT_NAME": "COMMUNITY MEMORIAL HEALTHCARE INC", "ST_FIPS": "20", "OWNER": "NON-PROFIT", "TTL_STAFF": -999, "BEDS": 25, "TRAUMA": "LEVEL IV", "HELIPAD": "N" }, "geometry": { "type": "Polygon", "coordinates": [ [ [ -96.6474135, 39.725875800000019 ], [ -96.7900084, 39.842120199999975 ], [ -96.79002060000002, 39.842544700000019 ], [ -96.76891, 39.856622 ], [ -96.713732, 39.89 ], [ -96.667181, 39.914512 ], [ -96.600906, 39.914328 ], [ -96.4824133, 39.841444899999971 ], [ -96.6474135, 39.725875800000019 ] ] ] } },
{ "type": "Feature", "properties": { "OBJECTID": 2968, "ID": "0007368939", "NAME": "FRANKLIN COUNTY MEMORIAL HOSPITAL", "ADDRESS": "1406 Q ST", "CITY": "FRANKLIN", "STATE": "NE", "ZIP": "68939", "ZIP4": "NOT AVAILABLE", "TELEPHONE": "(308) 425-6221", "TYPE": "CRITICAL ACCESS", "STATUS": "OPEN", "POPULATION": 14, "COUNTY": "FRANKLIN", "COUNTYFIPS": "31061", "COUNTRY": "USA", "LATITUDE": 40.101828980999997, "LONGITUDE": -98.954132564999995, "NAICS_CODE": "622110", "NAICS_DESC": "GENERAL MEDICAL AND SURGICAL HOSPITALS", "SOURCE": "http://dhhs.ne.gov/publichealth/Documents/Hospital%20Roster.pdf", "SOURCEDATE": "2018-08-09T00:00:00.000Z", "VAL_METHOD": "IMAGERY", "VAL_DATE": "2014-02-10T00:00:00.000Z", "WEBSITE": "http://www.fcmh.com", "STATE_ID": "281311", "ALT_NAME": "NOT AVAILABLE", "ST_FIPS": "31", "OWNER": "GOVERNMENT - LOCAL", "TTL_STAFF": -999, "BEDS": 14, "TRAUMA": "NOT AVAILABLE", "HELIPAD": "Y" }, "geometry": { "type": "Polygon", "coordinates": [ [ [ -98.9146101, 40.002290799999969 ], [ -98.915118400000011, 40.00229 ], [ -98.971775, 40.002266 ], [ -99.104323, 40.075164 ], [ -99.141536, 40.103679 ], [ -99.10411, 40.132716 ], [ -98.95237, 40.234213 ], [ -98.91513, 40.205171 ], [ -98.7822975, 40.096679899999984 ], [ -98.876748, 40.028292 ], [ -98.9146101, 40.002290799999969 ] ] ] } },
{ "type": "Feature", "properties": { "OBJECTID": 6191, "ID": "0002957783", "NAME": "SPEARFISH REGIONAL HOSPITAL", "ADDRESS": "1440 NORTH MAIN STREET", "CITY": "SPEARFISH", "STATE": "SD", "ZIP": "57783", "ZIP4": "NOT AVAILABLE", "TELEPHONE": "(605) 644-4000", "TYPE": "GENERAL ACUTE CARE", "STATUS": "OPEN", "POPULATION": 44, "COUNTY": "LAWRENCE", "COUNTYFIPS": "46081", "COUNTRY": "USA", "LATITUDE": 44.4980636660001, "LONGITUDE": -103.860644624, "NAICS_CODE": "622110", "NAICS_DESC": "GENERAL MEDICAL AND SURGICAL HOSPITALS", "SOURCE": "https://apps.sd.gov/ph04lassnet/rptPH04LicenseList.Aspx", "SOURCEDATE": "2018-08-10T00:00:00.000Z", "VAL_METHOD": "IMAGERY", "VAL_DATE": "2014-02-10T00:00:00.000Z", "WEBSITE": "http://www.regionalhealth.com", "STATE_ID": "NOT AVAILABLE", "ALT_NAME": "NOT AVAILABLE", "ST_FIPS": "46", "OWNER": "NON-PROFIT", "TTL_STAFF": -999, "BEDS": 44, "TRAUMA": "CTH", "HELIPAD": "Y" }, "geometry": { "type": "Polygon", "coordinates": [ [ [ -103.873542469405834, 44.426941259803129 ], [ -103.911193817811409, 44.432106001437035 ], [ -104.011901359259667, 44.545447017135253 ], [ -104.011929563726383, 44.54702121082979 ], [ -104.011932365785569, 44.547724108015856 ], [ -103.829456068409698, 44.593997196640835 ], [ -103.795691061361509, 44.565060496095796 ], [ -103.729251883028795, 44.502483869764049 ], [ -103.717854011453028, 44.445362229002505 ], [ -103.873542469405834, 44.426941259803129 ] ] ] } },
{ "type": "Feature", "properties": { "OBJECTID": 6192, "ID": "0006857747", "NAME": "VETERANS AFFAIRS BLACK HILLS HEALTH CARE SYSTEM - HOT SPRINGS CAMPUS", "ADDRESS": "500 NORTH 5TH STREET", "CITY": "HOT SPRINGS", "STATE": "SD", "ZIP": "57747", "ZIP4": "NOT AVAILABLE", "TELEPHONE": "(605) 745-2000", "TYPE": "MILITARY", "STATUS": "OPEN", "POPULATION": -999, "COUNTY": "FALL RIVER", "COUNTYFIPS": "46047", "COUNTRY": "USA", "LATITUDE": 43.436750228000101, "LONGITUDE": -103.476179105, "NAICS_CODE": "622110", "NAICS_DESC": "GENERAL MEDICAL AND SURGICAL HOSPITALS", "SOURCE": "http://arcgis.sd.gov/ArcGIS/rest/services/SD_All/MapServer/38", "SOURCEDATE": "2018-08-10T00:00:00.000Z", "VAL_METHOD": "IMAGERY", "VAL_DATE": "2014-03-13T00:00:00.000Z", "WEBSITE": "www.blackhills.va.gov/", "STATE_ID": "NOT AVAILABLE", "ALT_NAME": "NOT AVAILABLE", "ST_FIPS": "46", "OWNER": "GOVERNMENT - FEDERAL", "TTL_STAFF": -999, "BEDS": -999, "TRAUMA": "NOT AVAILABLE", "HELIPAD": "Y" }, "geometry": { "type": "Polygon", "coordinates": [ [ [ -103.401997716425882, 43.356332470675817 ], [ -103.545081155317192, 43.349818109787655 ], [ -103.546196239027665, 43.350737310114525 ], [ -103.638828869039031, 43.431133470687932 ], [ -103.57529366190758, 43.456536995098588 ], [ -103.521533238296172, 43.471607931545634 ], [ -103.490980046861253, 43.478249212000875 ], [ -103.464897959222668, 43.478796800297722 ], [ -103.451614260142023, 43.477603098476173 ], [ -103.39337565543471, 43.408010438712289 ], [ -103.385757661734715, 43.36151593843659 ], [ -103.401997716425882, 43.356332470675817 ] ] ] } },
{ "type": "Feature", "properties": { "OBJECTID": 6607, "ID": "0008168970", "NAME": "WEBSTER COUNTY COMMUNITY HOSPITAL", "ADDRESS": "621 N FRANKLIN ST, PO BOX 465", "CITY": "RED CLOUD", "STATE": "NE", "ZIP": "68970", "ZIP4": "NOT AVAILABLE", "TELEPHONE": "(402) 746-5600", "TYPE": "CRITICAL ACCESS", "STATUS": "OPEN", "POPULATION": 16, "COUNTY": "WEBSTER", "COUNTYFIPS": "31181", "COUNTRY": "USA", "LATITUDE": 40.091534257, "LONGITUDE": -98.528054733999994, "NAICS_CODE": "622110", "NAICS_DESC": "GENERAL MEDICAL AND SURGICAL HOSPITALS", "SOURCE": "http://dhhs.ne.gov/publichealth/Documents/Hospital%20Roster.pdf", "SOURCEDATE": "2018-08-09T00:00:00.000Z", "VAL_METHOD": "IMAGERY", "VAL_DATE": "2014-02-10T00:00:00.000Z", "WEBSITE": "http://www.websterhospital.org", "STATE_ID": "281316", "ALT_NAME": "NOT AVAILABLE", "ST_FIPS": "31", "OWNER": "GOVERNMENT - LOCAL", "TTL_STAFF": -999, "BEDS": 13, "TRAUMA": "NOT AVAILABLE", "HELIPAD": "Y" }, "geometry": { "type": "Polygon", "coordinates": [ [ [ -98.542089225769331, 39.973091432186621 ], [ -98.688671, 40.089254 ], [ -98.538373, 40.205173 ], [ -98.5194676, 40.219488800000043 ], [ -98.462499, 40.17611 ], [ -98.3678843, 40.089314599999966 ], [ -98.386298, 40.074825 ], [ -98.542089225769331, 39.973091432186621 ] ] ] } },
{ "type": "Feature", "properties": { "OBJECTID": 6616, "ID": "0007868651", "NAME": "ANNIE JEFFREY MEMORIAL COUNTY HEALTH CENTER", "ADDRESS": "531 BEEBE ST", "CITY": "OSCEOLA", "STATE": "NE", "ZIP": "68651", "ZIP4": "NOT AVAILABLE", "TELEPHONE": "(402) 747-2031", "TYPE": "CRITICAL ACCESS", "STATUS": "OPEN", "POPULATION": 16, "COUNTY": "POLK", "COUNTYFIPS": "31143", "COUNTRY": "USA", "LATITUDE": 41.169722052000097, "LONGITUDE": -97.549172002999995, "NAICS_CODE": "622110", "NAICS_DESC": "GENERAL MEDICAL AND SURGICAL HOSPITALS", "SOURCE": "http://dhhs.ne.gov/publichealth/Documents/Hospital%20Roster.pdf", "SOURCEDATE": "2018-08-09T00:00:00.000Z", "VAL_METHOD": "IMAGERY", "VAL_DATE": "2014-02-10T00:00:00.000Z", "WEBSITE": "http://www.ajhc.org", "STATE_ID": "281314", "ALT_NAME": "NOT AVAILABLE", "ST_FIPS": "31", "OWNER": "GOVERNMENT - LOCAL", "TTL_STAFF": -999, "BEDS": 16, "TRAUMA": "LEVEL IV", "HELIPAD": "Y" }, "geometry": { "type": "Polygon", "coordinates": [ [ [ -97.54043, 41.061289 ], [ -97.5596942, 41.061286700000039 ], [ -97.5982547, 41.07572160000003 ], [ -97.636631, 41.10484 ], [ -97.698572, 41.162782 ], [ -97.713663, 41.177352 ], [ -97.675129, 41.207508 ], [ -97.656174, 41.221019 ], [ -97.560456, 41.279172 ], [ -97.541176, 41.27916 ], [ -97.502538, 41.264566 ], [ -97.425689, 41.221104 ], [ -97.38712, 41.191986 ], [ -97.406569, 41.162995 ], [ -97.521188, 41.07591 ], [ -97.54043, 41.061289 ] ] ] } },
{ "type": "Feature", "properties": { "OBJECTID": 6617, "ID": "0006269001", "NAME": "COMMUNITY HOSPITAL", "ADDRESS": "1301 EAST H ST", "CITY": "MCCOOK", "STATE": "NE", "ZIP": "69001", "ZIP4": "NOT AVAILABLE", "TELEPHONE": "(308) 344-2650", "TYPE": "CRITICAL ACCESS", "STATUS": "OPEN", "POPULATION": 25, "COUNTY": "RED WILLOW", "COUNTYFIPS": "31145", "COUNTRY": "USA", "LATITUDE": 40.205422790999997, "LONGITUDE": -100.608350715, "NAICS_CODE": "622110", "NAICS_DESC": "GENERAL MEDICAL AND SURGICAL HOSPITALS", "SOURCE": "http://dhhs.ne.gov/publichealth/Documents/Hospital%20Roster.pdf", "SOURCEDATE": "2018-08-09T00:00:00.000Z", "VAL_METHOD": "IMAGERY", "VAL_DATE": "2014-02-10T00:00:00.000Z", "WEBSITE": "http://www.chmccook.org", "STATE_ID": "281363", "ALT_NAME": "NOT AVAILABLE", "ST_FIPS": "31", "OWNER": "NON-PROFIT", "TTL_STAFF": -999, "BEDS": 25, "TRAUMA": "LEVEL IV", "HELIPAD": "Y" }, "geometry": { "type": "Polygon", "coordinates": [ [ [ -100.590953, 40.074473 ], [ -100.600746, 40.075561 ], [ -100.697966, 40.144288 ], [ -100.760342, 40.235459 ], [ -100.649406, 40.310794 ], [ -100.5590014, 40.286506400000015 ], [ -100.487479, 40.26333 ], [ -100.439994, 40.234493 ], [ -100.5906041, 40.074698500000011 ], [ -100.590953, 40.074473 ] ] ] } },
{ "type": "Feature", "properties": { "OBJECTID": 6630, "ID": "0005169337", "NAME": "CHADRON COMMUNITY HOSPITAL AND HEALTH SERVICES", "ADDRESS": "825 CENTENNIAL DRIVE", "CITY": "CHADRON", "STATE": "NE", "ZIP": "69337", "ZIP4": "NOT AVAILABLE", "TELEPHONE": "(308) 432-5586", "TYPE": "CRITICAL ACCESS", "STATUS": "OPEN", "POPULATION": 25, "COUNTY": "DAWES", "COUNTYFIPS": "31045", "COUNTRY": "USA", "LATITUDE": 42.822926156999998, "LONGITUDE": -103.014453944, "NAICS_CODE": "622110", "NAICS_DESC": "GENERAL MEDICAL AND SURGICAL HOSPITALS", "SOURCE": "http://dhhs.ne.gov/publichealth/Documents/Hospital%20Roster.pdf", "SOURCEDATE": "2018-08-09T00:00:00.000Z", "VAL_METHOD": "IMAGERY/OTHER", "VAL_DATE": "2014-02-10T00:00:00.000Z", "WEBSITE": "http://www.chadronhospital.com", "STATE_ID": "281341", "ALT_NAME": "NOT AVAILABLE", "ST_FIPS": "31", "OWNER": "NON-PROFIT", "TTL_STAFF": -999, "BEDS": 25, "TRAUMA": "LEVEL IV", "HELIPAD": "Y" }, "geometry": { "type": "Polygon", "coordinates": [ [ [ -103.007753, 42.693143 ], [ -103.177642, 42.787915 ], [ -103.066495, 42.925651 ], [ -102.997267, 42.912323 ], [ -102.9503235, 42.886660800000023 ], [ -102.870197, 42.801757 ], [ -102.866655, 42.793748 ], [ -103.007753, 42.693143 ] ] ] } },
{ "type": "Feature", "properties": { "OBJECTID": 6632, "ID": "0005569138", "NAME": "GOTHENBURG MEMORIAL HOSPITAL", "ADDRESS": "910 20TH ST", "CITY": "GOTHENBURG", "STATE": "NE", "ZIP": "69138", "ZIP4": "NOT AVAILABLE", "TELEPHONE": "(308) 537-3661", "TYPE": "CRITICAL ACCESS", "STATUS": "OPEN", "POPULATION": 12, "COUNTY": "DAWSON", "COUNTYFIPS": "31047", "COUNTRY": "USA", "LATITUDE": 40.938919878999997, "LONGITUDE": -100.15322980800001, "NAICS_CODE": "622110", "NAICS_DESC": "GENERAL MEDICAL AND SURGICAL HOSPITALS", "SOURCE": "http://dhhs.ne.gov/publichealth/Documents/Hospital%20Roster.pdf", "SOURCEDATE": "2018-08-09T00:00:00.000Z", "VAL_METHOD": "IMAGERY", "VAL_DATE": "2014-03-12T00:00:00.000Z", "WEBSITE": "http://www.ghospital.org", "STATE_ID": "281313", "ALT_NAME": "NOT AVAILABLE", "ST_FIPS": "31", "OWNER": "GOVERNMENT - DISTRICT/AUTHORITY", "TTL_STAFF": -999, "BEDS": 12, "TRAUMA": "LEVEL IV", "HELIPAD": "Y" }, "geometry": { "type": "Polygon", "coordinates": [ [ [ -100.152418, 40.843866 ], [ -100.2244595, 40.8794823 ], [ -100.2436756, 40.901804300000016 ], [ -100.261956700000013, 40.9568892 ], [ -100.205182, 41.032617 ], [ -100.18598, 41.046713 ], [ -100.152372, 41.052082 ], [ -100.014509, 40.94644 ], [ -100.0145, 40.931931 ], [ -100.033683, 40.874928 ], [ -100.147962, 40.844078 ], [ -100.152418, 40.843866 ] ] ] } },
{ "type": "Feature", "properties": { "OBJECTID": 6638, "ID": "0006069130", "NAME": "COZAD COMMUNITY HOSPITAL", "ADDRESS": "300 EAST 12TH ST", "CITY": "COZAD", "STATE": "NE", "ZIP": "69130", "ZIP4": "NOT AVAILABLE", "TELEPHONE": "(308) 784-2261", "TYPE": "CRITICAL ACCESS", "STATUS": "OPEN", "POPULATION": 21, "COUNTY": "DAWSON", "COUNTYFIPS": "31047", "COUNTRY": "USA", "LATITUDE": 40.863608399, "LONGITUDE": -99.982498789000005, "NAICS_CODE": "622110", "NAICS_DESC": "GENERAL MEDICAL AND SURGICAL HOSPITALS", "SOURCE": "http://dhhs.ne.gov/publichealth/Documents/Hospital%20Roster.pdf", "SOURCEDATE": "2018-08-09T00:00:00.000Z", "VAL_METHOD": "IMAGERY", "VAL_DATE": "2014-01-02T00:00:00.000Z", "WEBSITE": "http://www.cozadhealthcare.com", "STATE_ID": "281327", "ALT_NAME": "NOT AVAILABLE", "ST_FIPS": "31", "OWNER": "GOVERNMENT - DISTRICT/AUTHORITY", "TTL_STAFF": -999, "BEDS": 21, "TRAUMA": "NOT AVAILABLE", "HELIPAD": "Y" }, "geometry": { "type": "Polygon", "coordinates": [ [ [ -99.995194, 40.729051 ], [ -100.014284, 40.7432 ], [ -100.109644, 40.829573 ], [ -100.1287322, 40.9118491 ], [ -100.128566, 40.916066 ], [ -100.109585, 40.931008 ], [ -100.071789, 40.945971 ], [ -99.9764407, 40.975476200000038 ], [ -99.947804, 40.961084 ], [ -99.8260824, 40.859000200000011 ], [ -99.8251038, 40.801309300000021 ], [ -99.825083, 40.796903 ], [ -99.8251387, 40.7945904 ], [ -99.8409894, 40.777824100000018 ], [ -99.995194, 40.729051 ] ] ] } },
{ "type": "Feature", "properties": { "OBJECTID": 6639, "ID": "0008868850", "NAME": "LEXINGTON REGIONAL HEALTH CENTER", "ADDRESS": "1201 NORTH ERIE ST", "CITY": "LEXINGTON", "STATE": "NE", "ZIP": "68850", "ZIP4": "NOT AVAILABLE", "TELEPHONE": "(308) 324-5651", "TYPE": "CRITICAL ACCESS", "STATUS": "OPEN", "POPULATION": 25, "COUNTY": "DAWSON", "COUNTYFIPS": "31047", "COUNTRY": "USA", "LATITUDE": 40.785896821000101, "LONGITUDE": -99.758832014000006, "NAICS_CODE": "622110", "NAICS_DESC": "GENERAL MEDICAL AND SURGICAL HOSPITALS", "SOURCE": "http://dhhs.ne.gov/publichealth/Documents/Hospital%20Roster.pdf", "SOURCEDATE": "2018-08-09T00:00:00.000Z", "VAL_METHOD": "IMAGERY", "VAL_DATE": "2014-01-02T00:00:00.000Z", "WEBSITE": "http://www.lexingtonregional.org", "STATE_ID": "281361", "ALT_NAME": "NOT AVAILABLE", "ST_FIPS": "31", "OWNER": "GOVERNMENT - DISTRICT/AUTHORITY", "TTL_STAFF": -999, "BEDS": 25, "TRAUMA": "LEVEL IV", "HELIPAD": "Y" }, "geometry": { "type": "Polygon", "coordinates": [ [ [ -99.730311, 40.700007 ], [ -99.756021, 40.699657 ], [ -99.8626961, 40.750133099999985 ], [ -99.882386, 40.77218 ], [ -99.9383797, 40.839390199999961 ], [ -99.768107, 40.902822 ], [ -99.713419, 40.888326 ], [ -99.597956, 40.786777 ], [ -99.589452, 40.744895 ], [ -99.673943, 40.714643 ], [ -99.730311, 40.700007 ] ] ] } },
{ "type": "Feature", "properties": { "OBJECTID": 6644, "ID": "0002269153", "NAME": "OGALLALA COMMUNITY HOSPITAL", "ADDRESS": "2601 NORTH SPRUCE ST", "CITY": "OGALLALA", "STATE": "NE", "ZIP": "69153", "ZIP4": "NOT AVAILABLE", "TELEPHONE": "(308) 284-4011", "TYPE": "CRITICAL ACCESS", "STATUS": "OPEN", "POPULATION": 18, "COUNTY": "KEITH", "COUNTYFIPS": "31101", "COUNTRY": "USA", "LATITUDE": 41.151242013999997, "LONGITUDE": -101.718718873, "NAICS_CODE": "622110", "NAICS_DESC": "GENERAL MEDICAL AND SURGICAL HOSPITALS", "SOURCE": "http://dhhs.ne.gov/publichealth/Documents/Hospital%20Roster.pdf", "SOURCEDATE": "2018-08-09T00:00:00.000Z", "VAL_METHOD": "IMAGERY", "VAL_DATE": "2014-03-12T00:00:00.000Z", "WEBSITE": "http://www.bannerhealth.com/Locations/Nebraska/Ogallala+Commu nity+Hospital", "STATE_ID": "281355", "ALT_NAME": "NOT AVAILABLE", "ST_FIPS": "31", "OWNER": "NON-PROFIT", "TTL_STAFF": -999, "BEDS": 18, "TRAUMA": "LEVEL IV", "HELIPAD": "Y" }, "geometry": { "type": "Polygon", "coordinates": [ [ [ -101.728228, 41.017839 ], [ -101.864188, 41.096152300000014 ], [ -101.883402, 41.192233 ], [ -101.844807, 41.217575 ], [ -101.694069, 41.258243 ], [ -101.679816, 41.254043 ], [ -101.577348, 41.178138 ], [ -101.5708555, 41.117777600000011 ], [ -101.728228, 41.017839 ] ] ] } },
{ "type": "Feature", "properties": { "OBJECTID": 6645, "ID": "0003669145", "NAME": "KIMBALL HEALTH SERVICES", "ADDRESS": "505 SOUTH BURG ST", "CITY": "KIMBALL", "STATE": "NE", "ZIP": "69145", "ZIP4": "NOT AVAILABLE", "TELEPHONE": "(308) 235-1952", "TYPE": "CRITICAL ACCESS", "STATUS": "OPEN", "POPULATION": 12, "COUNTY": "KIMBALL", "COUNTYFIPS": "31105", "COUNTRY": "USA", "LATITUDE": 41.232557766000099, "LONGITUDE": -103.666848548, "NAICS_CODE": "622110", "NAICS_DESC": "GENERAL MEDICAL AND SURGICAL HOSPITALS", "SOURCE": "http://dhhs.ne.gov/publichealth/Documents/Hospital%20Roster.pdf", "SOURCEDATE": "2018-08-09T00:00:00.000Z", "VAL_METHOD": "IMAGERY", "VAL_DATE": "2014-02-10T00:00:00.000Z", "WEBSITE": "http://www.kimballhealth.org", "STATE_ID": "281305", "ALT_NAME": "NOT AVAILABLE", "ST_FIPS": "31", "OWNER": "GOVERNMENT - LOCAL", "TTL_STAFF": -999, "BEDS": 12, "TRAUMA": "LEVEL IV", "HELIPAD": "N" }, "geometry": { "type": "Polygon", "coordinates": [ [ [ -103.663525677849236, 41.090841003900323 ], [ -103.797342712360859, 41.19423917027234 ], [ -103.816546667775754, 41.230570670573087 ], [ -103.81645566355553, 41.234350843104359 ], [ -103.663007847117385, 41.365166365976727 ], [ -103.662780847003958, 41.36515336620068 ], [ -103.483676390206796, 41.236174851825524 ], [ -103.483220292944765, 41.233968566253175 ], [ -103.484263392243079, 41.230916886022484 ], [ -103.489742384818996, 41.218210969466057 ], [ -103.663525677849236, 41.090841003900323 ] ] ] } },
{ "type": "Feature", "properties": { "OBJECTID": 6662, "ID": "0003069361", "NAME": "REGIONAL WEST MEDICAL CENTER", "ADDRESS": "4021 AVE B", "CITY": "SCOTTSBLUFF", "STATE": "NE", "ZIP": "69361", "ZIP4": "NOT AVAILABLE", "TELEPHONE": "(308) 635-3711", "TYPE": "GENERAL ACUTE CARE", "STATUS": "OPEN", "POPULATION": 166, "COUNTY": "SCOTTS BLUFF", "COUNTYFIPS": "31157", "COUNTRY": "USA", "LATITUDE": 41.886679851000103, "LONGITUDE": -103.664741265, "NAICS_CODE": "622110", "NAICS_DESC": "GENERAL MEDICAL AND SURGICAL HOSPITALS", "SOURCE": "http://dhhs.ne.gov/publichealth/Documents/Hospital%20Roster.pdf", "SOURCEDATE": "2018-08-09T00:00:00.000Z", "VAL_METHOD": "IMAGERY/OTHER", "VAL_DATE": "2014-03-12T00:00:00.000Z", "WEBSITE": "http://www.rwhs.org", "STATE_ID": "280061", "ALT_NAME": "NOT AVAILABLE", "ST_FIPS": "31", "OWNER": "NON-PROFIT", "TTL_STAFF": -999, "BEDS": 166, "TRAUMA": "LEVEL II", "HELIPAD": "Y" }, "geometry": { "type": "Polygon", "coordinates": [ [ [ -103.635596, 41.78556610000004 ], [ -103.654774, 41.785265 ], [ -103.674561, 41.785124600000046 ], [ -103.6747998, 41.785128 ], [ -103.778441198023827, 41.839345893618713 ], [ -103.792959198094962, 41.850572896235398 ], [ -103.812886095983785, 41.87218819858353 ], [ -103.819661595191874, 41.942891880741882 ], [ -103.818362996023851, 41.946425978949463 ], [ -103.813757199251413, 41.957246873023728 ], [ -103.698227, 42.002008 ], [ -103.678868, 42.004049 ], [ -103.596721, 41.955097 ], [ -103.575462, 41.932884 ], [ -103.538433, 41.859443 ], [ -103.538988, 41.814408 ], [ -103.635596, 41.78556610000004 ] ] ] } },
{ "type": "Feature", "properties": { "OBJECTID": 6747, "ID": "0004957701", "NAME": "RAPID CITY REGIONAL HOSPITAL", "ADDRESS": "353 FAIRMONT BOULEVARD", "CITY": "RAPID CITY", "STATE": "SD", "ZIP": "57701", "ZIP4": "NOT AVAILABLE", "TELEPHONE": "(605) 755-1000", "TYPE": "GENERAL ACUTE CARE", "STATUS": "OPEN", "POPULATION": 417, "COUNTY": "PENNINGTON", "COUNTYFIPS": "46103", "COUNTRY": "USA", "LATITUDE": 44.057748595000099, "LONGITUDE": -103.225250313, "NAICS_CODE": "622110", "NAICS_DESC": "GENERAL MEDICAL AND SURGICAL HOSPITALS", "SOURCE": "https://apps.sd.gov/ph04lassnet/rptPH04LicenseList.Aspx", "SOURCEDATE": "2018-08-10T00:00:00.000Z", "VAL_METHOD": "IMAGERY", "VAL_DATE": "2014-03-12T00:00:00.000Z", "WEBSITE": "http://www.rcrh.org", "STATE_ID": "NOT AVAILABLE", "ALT_NAME": "NOT AVAILABLE", "ST_FIPS": "46", "OWNER": "NON-PROFIT", "TTL_STAFF": -999, "BEDS": 417, "TRAUMA": "RTH", "HELIPAD": "Y" }, "geometry": { "type": "Polygon", "coordinates": [ [ [ -103.186075, 43.957580899999989 ], [ -103.277484, 43.959020100000046 ], [ -103.3264373, 43.970740799999973 ], [ -103.3265066, 43.970995599999974 ], [ -103.3265022, 44.0900821 ], [ -103.2965449, 44.125726700000037 ], [ -103.2719614, 44.145735799999969 ], [ -103.2298611, 44.1410731 ], [ -103.1777534, 44.125678799999939 ], [ -103.1461518, 44.106500699999962 ], [ -103.1422167, 44.102173499999964 ], [ -103.1390558, 44.096388 ], [ -103.1276772, 44.0747948 ], [ -103.1207543, 44.042600699999952 ], [ -103.1209124, 44.04184620000003 ], [ -103.1424381, 44.005683299999987 ], [ -103.167919, 43.9746495 ], [ -103.186075, 43.957580899999989 ] ] ] } },
{ "type": "Feature", "properties": { "OBJECTID": 6789, "ID": "0004757701", "NAME": "REGIONAL REHABILITATION INSTITUTE", "ADDRESS": "2908 5TH STREET", "CITY": "RAPID CITY", "STATE": "SD", "ZIP": "57701", "ZIP4": "NOT AVAILABLE", "TELEPHONE": "(605) 719-1100", "TYPE": "REHABILITATION", "STATUS": "OPEN", "POPULATION": 51, "COUNTY": "PENNINGTON", "COUNTYFIPS": "46103", "COUNTRY": "USA", "LATITUDE": 44.056820213000002, "LONGITUDE": -103.22646151799999, "NAICS_CODE": "622310", "NAICS_DESC": "REHABILITATION HOSPITALS (EXCEPT ALCOHOLISM, DRUG ADDICTION)", "SOURCE": "https://apps.sd.gov/ph04lassnet/rptPH04LicenseList.Aspx", "SOURCEDATE": "2018-08-10T00:00:00.000Z", "VAL_METHOD": "IMAGERY", "VAL_DATE": "2014-03-12T00:00:00.000Z", "WEBSITE": "http://www.regionalhealth.com/Our-Locations/Institutes/Rehabilitation-Institute.aspx", "STATE_ID": "NOT AVAILABLE", "ALT_NAME": "BLACK HILLS REHABILITATION HOSPITAL", "ST_FIPS": "46", "OWNER": "PROPRIETARY", "TTL_STAFF": -999, "BEDS": 51, "TRAUMA": "NOT AVAILABLE", "HELIPAD": "Y" }, "geometry": { "type": "Polygon", "coordinates": [ [ [ -103.186075, 43.957580899999989 ], [ -103.277484, 43.959020100000046 ], [ -103.3190765, 43.972017800000067 ], [ -103.3191221, 43.972266199999986 ], [ -103.3257405, 44.0904212 ], [ -103.3254451, 44.091073900000033 ], [ -103.2965449, 44.125726700000037 ], [ -103.2719604, 44.1402528 ], [ -103.2298611, 44.1410731 ], [ -103.1777534, 44.125678799999939 ], [ -103.1461518, 44.106500699999962 ], [ -103.1422167, 44.102173499999964 ], [ -103.1300557, 44.073992199999964 ], [ -103.1272403, 44.067373500000016 ], [ -103.1233241, 44.042842100000016 ], [ -103.1424381, 44.005683299999987 ], [ -103.1678607, 43.975711900000022 ], [ -103.186075, 43.957580899999989 ] ] ] } },
{ "type": "Feature", "properties": { "OBJECTID": 4111, "ID": "0001868450", "NAME": "JOHNSON COUNTY HOSPITAL", "ADDRESS": "202 HIGH ST", "CITY": "TECUMSEH", "STATE": "NE", "ZIP": "68450", "ZIP4": "NOT AVAILABLE", "TELEPHONE": "(402) 335-3361", "TYPE": "CRITICAL ACCESS", "STATUS": "OPEN", "POPULATION": 18, "COUNTY": "JOHNSON", "COUNTYFIPS": "31097", "COUNTRY": "USA", "LATITUDE": 40.379675622999997, "LONGITUDE": -96.197022886, "NAICS_CODE": "622110", "NAICS_DESC": "GENERAL MEDICAL AND SURGICAL HOSPITALS", "SOURCE": "http://dhhs.ne.gov/publichealth/Documents/Hospital%20Roster.pdf", "SOURCEDATE": "2018-08-09T00:00:00.000Z", "VAL_METHOD": "IMAGERY", "VAL_DATE": "2014-02-10T00:00:00.000Z", "WEBSITE": "http://www.jchosp.com", "STATE_ID": "281350", "ALT_NAME": "NOT AVAILABLE", "ST_FIPS": "31", "OWNER": "GOVERNMENT - LOCAL", "TTL_STAFF": -999, "BEDS": 18, "TRAUMA": "LEVEL IV", "HELIPAD": "Y" }, "geometry": { "type": "Polygon", "coordinates": [ [ [ -96.1796, 40.262319 ], [ -96.293069, 40.320304 ], [ -96.330799, 40.349046 ], [ -96.3402583, 40.3562989 ], [ -96.35013, 40.364907 ], [ -96.335971, 40.392513 ], [ -96.312195, 40.434164 ], [ -96.198794, 40.494017 ], [ -96.1798127, 40.494157299999941 ], [ -96.06327, 40.4072 ], [ -96.028241, 40.378243 ], [ -96.065255, 40.349144 ], [ -96.1796, 40.262319 ] ] ] } },
{ "type": "Feature", "properties": { "OBJECTID": 4961, "ID": "0004866945", "NAME": "HANOVER HOSPITAL", "ADDRESS": "205 S HANOVER STREET", "CITY": "HANOVER", "STATE": "KS", "ZIP": "66945", "ZIP4": "NOT AVAILABLE", "TELEPHONE": "(785) 337-2214", "TYPE": "CRITICAL ACCESS", "STATUS": "OPEN", "POPULATION": 25, "COUNTY": "WASHINGTON", "COUNTYFIPS": "20201", "COUNTRY": "USA", "LATITUDE": 39.89110493, "LONGITUDE": -96.875143807000001, "NAICS_CODE": "622110", "NAICS_DESC": "GENERAL MEDICAL AND SURGICAL HOSPITALS", "SOURCE": "http://www.kdheks.gov/bhfr/fac_list/", "SOURCEDATE": "2018-08-16T00:00:00.000Z", "VAL_METHOD": "IMAGERY", "VAL_DATE": "2014-02-10T00:00:00.000Z", "WEBSITE": "NOT AVAILABLE", "STATE_ID": "H101001", "ALT_NAME": "WASHINGTON COUNTY HOSPITAL DISTRICT #1", "ST_FIPS": "20", "OWNER": "GOVERNMENT - DISTRICT/AUTHORITY", "TTL_STAFF": -999, "BEDS": 25, "TRAUMA": "NOT AVAILABLE", "HELIPAD": "Y" }, "geometry": { "type": "Polygon", "coordinates": [ [ [ -96.8628541, 39.783834699999979 ], [ -96.950055, 39.811976 ], [ -96.989832, 39.874946 ], [ -96.996056, 39.88569 ], [ -96.993533, 39.929319 ], [ -96.974808, 39.941844 ], [ -96.862198, 40.001504 ], [ -96.750273, 39.921864 ], [ -96.731197, 39.900088 ], [ -96.759485, 39.842104 ], [ -96.8628541, 39.783834699999979 ] ] ] } },
{ "type": "Feature", "properties": { "OBJECTID": 261, "ID": "0000869022", "NAME": "TRI VALLEY HEALTH SYSTEM", "ADDRESS": "1305 WEST HIGHWAY 34", "CITY": "CAMBRIDGE", "STATE": "NE", "ZIP": "69022", "ZIP4": "NOT AVAILABLE", "TELEPHONE": "(308) 697-3329", "TYPE": "CRITICAL ACCESS", "STATUS": "OPEN", "POPULATION": 20, "COUNTY": "FURNAS", "COUNTYFIPS": "31065", "COUNTRY": "USA", "LATITUDE": 40.280605013000098, "LONGITUDE": -100.180359342, "NAICS_CODE": "622110", "NAICS_DESC": "GENERAL MEDICAL AND SURGICAL HOSPITALS", "SOURCE": "http://dhhs.ne.gov/publichealth/Documents/Hospital%20Roster.pdf", "SOURCEDATE": "2018-08-09T00:00:00.000Z", "VAL_METHOD": "IMAGERY/OTHER", "VAL_DATE": "2014-03-12T00:00:00.000Z", "WEBSITE": "http://www.trivalleyhealth.com", "STATE_ID": "281348", "ALT_NAME": "CAMBRIDGE MEMORIAL HOSPITAL INC", "ST_FIPS": "31", "OWNER": "NON-PROFIT", "TTL_STAFF": -999, "BEDS": 20, "TRAUMA": "LEVEL IV", "HELIPAD": "Y" }, "geometry": { "type": "Polygon", "coordinates": [ [ [ -100.156333, 40.161753 ], [ -100.3060124, 40.250918 ], [ -100.291343, 40.305777 ], [ -100.244584, 40.342555 ], [ -100.177646, 40.350277 ], [ -100.11415, 40.351002 ], [ -100.080979, 40.351218 ], [ -100.043262, 40.336586 ], [ -99.987172, 40.30646 ], [ -100.156333, 40.161753 ] ] ] } },
{ "type": "Feature", "properties": { "OBJECTID": 262, "ID": "0001668826", "NAME": "MERRICK MEDICAL CENTER", "ADDRESS": "1715  26TH ST", "CITY": "CENTRAL CITY", "STATE": "NE", "ZIP": "68826", "ZIP4": "NOT AVAILABLE", "TELEPHONE": "(308) 946-3015", "TYPE": "CRITICAL ACCESS", "STATUS": "OPEN", "POPULATION": 20, "COUNTY": "MERRICK", "COUNTYFIPS": "31121", "COUNTRY": "USA", "LATITUDE": 41.107297053000003, "LONGITUDE": -98.002934331999896, "NAICS_CODE": "622110", "NAICS_DESC": "GENERAL MEDICAL AND SURGICAL HOSPITALS", "SOURCE": "http://dhhs.ne.gov/publichealth/Documents/Hospital%20Roster.pdf", "SOURCEDATE": "2018-08-09T00:00:00.000Z", "VAL_METHOD": "IMAGERY", "VAL_DATE": "2014-02-10T00:00:00.000Z", "WEBSITE": "http://merrickmedicalcenter.org/", "STATE_ID": "281328", "ALT_NAME": "LITZENBERG MEMORIAL COUNTY HOSPITAL", "ST_FIPS": "31", "OWNER": "GOVERNMENT - LOCAL", "TTL_STAFF": -999, "BEDS": 20, "TRAUMA": "LEVEL IV", "HELIPAD": "N" }, "geometry": { "type": "Polygon", "coordinates": [ [ [ -98.1559057, 41.023324699999982 ], [ -98.1565282, 41.0238942 ], [ -98.154257, 41.118649 ], [ -98.078089, 41.19127 ], [ -98.059147, 41.205926 ], [ -98.002095, 41.23466 ], [ -97.982964, 41.234633 ], [ -97.8669332, 41.197143199999957 ], [ -97.866995500000016, 41.191170200000023 ], [ -97.8798282, 41.1190263 ], [ -97.885772, 41.114064 ], [ -98.092281, 41.031704 ], [ -98.1559057, 41.023324699999982 ] ] ] } },
{ "type": "Feature", "properties": { "OBJECTID": 270, "ID": "0005369140", "NAME": "PERKINS COUNTY HEALTH SERVICES", "ADDRESS": "900 LINCOLN AVE", "CITY": "GRANT", "STATE": "NE", "ZIP": "69140", "ZIP4": "NOT AVAILABLE", "TELEPHONE": "(308) 352-7200", "TYPE": "CRITICAL ACCESS", "STATUS": "OPEN", "POPULATION": 20, "COUNTY": "PERKINS", "COUNTYFIPS": "31135", "COUNTRY": "USA", "LATITUDE": 40.848794509000101, "LONGITUDE": -101.727019497, "NAICS_CODE": "622110", "NAICS_DESC": "GENERAL MEDICAL AND SURGICAL HOSPITALS", "SOURCE": "http://dhhs.ne.gov/publichealth/Documents/Hospital%20Roster.pdf", "SOURCEDATE": "2018-08-09T00:00:00.000Z", "VAL_METHOD": "IMAGERY", "VAL_DATE": "2014-01-02T00:00:00.000Z", "WEBSITE": "http://www.pchsgrant.com", "STATE_ID": "281356", "ALT_NAME": "NOT AVAILABLE", "ST_FIPS": "31", "OWNER": "GOVERNMENT - DISTRICT/AUTHORITY", "TTL_STAFF": -999, "BEDS": 20, "TRAUMA": "LEVEL IV", "HELIPAD": "Y" }, "geometry": { "type": "Polygon", "coordinates": [ [ [ -101.723709, 40.74329 ], [ -101.761724, 40.757185 ], [ -101.8588212, 40.7970513 ], [ -101.8739225, 40.814622700000051 ], [ -101.8596306, 40.857756599999973 ], [ -101.74759, 40.974083 ], [ -101.728621, 40.988748 ], [ -101.5437066, 40.850181099999986 ], [ -101.62761, 40.78607 ], [ -101.66558, 40.760379 ], [ -101.723709, 40.74329 ] ] ] } },
{ "type": "Feature", "properties": { "OBJECTID": 622, "ID": "0002057567", "NAME": "HANS P PETERSON MEMORIAL HOSPITAL", "ADDRESS": "503 WEST PINE STREET", "CITY": "PHILIP", "STATE": "SD", "ZIP": "57567", "ZIP4": "NOT AVAILABLE", "TELEPHONE": "(605) 859-2511", "TYPE": "CRITICAL ACCESS", "STATUS": "OPEN", "POPULATION": 18, "COUNTY": "HAAKON", "COUNTYFIPS": "46055", "COUNTRY": "USA", "LATITUDE": 44.039808763000103, "LONGITUDE": -101.671476777, "NAICS_CODE": "622110", "NAICS_DESC": "GENERAL MEDICAL AND SURGICAL HOSPITALS", "SOURCE": "https://apps.sd.gov/ph04lassnet/rptPH04LicenseList.Aspx", "SOURCEDATE": "2018-08-10T00:00:00.000Z", "VAL_METHOD": "IMAGERY", "VAL_DATE": "2014-02-12T00:00:00.000Z", "WEBSITE": "www.philiphealthservices.com/?", "STATE_ID": "NOT AVAILABLE", "ALT_NAME": "NOT AVAILABLE", "ST_FIPS": "46", "OWNER": "NON-PROFIT", "TTL_STAFF": -999, "BEDS": 18, "TRAUMA": "TRH", "HELIPAD": "N" }, "geometry": { "type": "Polygon", "coordinates": [ [ [ -101.6517695, 43.994553299999971 ], [ -101.781102800000014, 43.994528199999969 ], [ -101.687441, 44.139386 ], [ -101.667369800000017, 44.139360800000034 ], [ -101.527033, 44.056307 ], [ -101.539091, 44.049237 ], [ -101.6517695, 43.994553299999971 ] ] ] } },
{ "type": "Feature", "properties": { "OBJECTID": 687, "ID": "0007066502", "NAME": "MANHATTAN SURGICAL HOSPITAL LLC", "ADDRESS": "1829 COLLEGE AVENUE", "CITY": "MANHATTAN", "STATE": "KS", "ZIP": "66502", "ZIP4": "NOT AVAILABLE", "TELEPHONE": "(785) 776-5100", "TYPE": "GENERAL ACUTE CARE", "STATUS": "OPEN", "POPULATION": 13, "COUNTY": "RILEY", "COUNTYFIPS": "20161", "COUNTRY": "USA", "LATITUDE": 39.202768028000001, "LONGITUDE": -96.599027175999893, "NAICS_CODE": "622110", "NAICS_DESC": "GENERAL MEDICAL AND SURGICAL HOSPITALS", "SOURCE": "http://www.kdheks.gov/bhfr/fac_list/", "SOURCEDATE": "2018-08-16T00:00:00.000Z", "VAL_METHOD": "IMAGERY", "VAL_DATE": "2014-03-12T00:00:00.000Z", "WEBSITE": "http://www.manhattansurgical.com", "STATE_ID": "H075004", "ALT_NAME": "MANHATTAN SURGICAL HOSPITAL LLC", "ST_FIPS": "20", "OWNER": "PROPRIETARY", "TTL_STAFF": -999, "BEDS": 13, "TRAUMA": "NOT AVAILABLE", "HELIPAD": "Y" }, "geometry": { "type": "Polygon", "coordinates": [ [ [ -96.6719842, 39.127446900000038 ], [ -96.677528399999986, 39.127573099999957 ], [ -96.7025857, 39.221260300000026 ], [ -96.705146400000018, 39.2762311 ], [ -96.6315352, 39.2774297 ], [ -96.626871, 39.276553899999968 ], [ -96.590097700000015, 39.257621 ], [ -96.504295200000016, 39.196344099999955 ], [ -96.5043001, 39.19617310000001 ], [ -96.5385802, 39.1614344 ], [ -96.5634868, 39.144692699999958 ], [ -96.5886159, 39.1324581 ], [ -96.6719842, 39.127446900000038 ] ] ] } },
{ "type": "Feature", "properties": { "OBJECTID": 691, "ID": "0009567654", "NAME": "NORTON COUNTY HOSPITAL", "ADDRESS": "102 E HOLME STREET", "CITY": "NORTON", "STATE": "KS", "ZIP": "67654", "ZIP4": "NOT AVAILABLE", "TELEPHONE": "(785) 877-3351", "TYPE": "GENERAL ACUTE CARE", "STATUS": "OPEN", "POPULATION": 25, "COUNTY": "NORTON", "COUNTYFIPS": "20137", "COUNTRY": "USA", "LATITUDE": 39.837945894000001, "LONGITUDE": -99.888112797000005, "NAICS_CODE": "622110", "NAICS_DESC": "GENERAL MEDICAL AND SURGICAL HOSPITALS", "SOURCE": "http://www.kdheks.gov/bhfr/fac_list/", "SOURCEDATE": "2018-08-16T00:00:00.000Z", "VAL_METHOD": "IMAGERY", "VAL_DATE": "2014-02-10T00:00:00.000Z", "WEBSITE": "http://www.ntcohosp.com", "STATE_ID": "H069001", "ALT_NAME": "NORTON COUNTY MEDICAL FOUNDATION", "ST_FIPS": "20", "OWNER": "GOVERNMENT - LOCAL", "TTL_STAFF": -999, "BEDS": 25, "TRAUMA": "LEVEL IV", "HELIPAD": "N" }, "geometry": { "type": "Polygon", "coordinates": [ [ [ -99.889594, 39.71179 ], [ -100.0706251, 39.828104199999977 ], [ -99.889051994652064, 39.957995193157416 ], [ -99.730158, 39.871403 ], [ -99.7029735, 39.828267 ], [ -99.702938, 39.827697 ], [ -99.889594, 39.71179 ] ] ] } },
{ "type": "Feature", "properties": { "OBJECTID": 692, "ID": "0009666521", "NAME": "COMMUNITY HOSPITAL  ONAGA AND ST MARYS CAMPUS", "ADDRESS": "120 WEST 8TH STREET", "CITY": "ONAGA", "STATE": "KS", "ZIP": "66521", "ZIP4": "NOT AVAILABLE", "TELEPHONE": "(785) 889-4272", "TYPE": "GENERAL ACUTE CARE", "STATUS": "OPEN", "POPULATION": 159, "COUNTY": "POTTAWATOMIE", "COUNTYFIPS": "20149", "COUNTRY": "USA", "LATITUDE": 39.4959886030001, "LONGITUDE": -96.171428066999994, "NAICS_CODE": "622110", "NAICS_DESC": "GENERAL MEDICAL AND SURGICAL HOSPITALS", "SOURCE": "http://www.kdheks.gov/bhfr/fac_list/", "SOURCEDATE": "2018-08-16T00:00:00.000Z", "VAL_METHOD": "IMAGERY", "VAL_DATE": "2014-02-10T00:00:00.000Z", "WEBSITE": "http://www.chcsks.org", "STATE_ID": "H075001", "ALT_NAME": "COMMUNITY HEALTHCARE SYSTEM INC", "ST_FIPS": "20", "OWNER": "NON-PROFIT", "TTL_STAFF": -999, "BEDS": 159, "TRAUMA": "NOT AVAILABLE", "HELIPAD": "Y" }, "geometry": { "type": "Polygon", "coordinates": [ [ [ -96.183769, 39.396548 ], [ -96.187837, 39.396593 ], [ -96.319952, 39.47866 ], [ -96.319841, 39.479883 ], [ -96.3144595, 39.4931833 ], [ -96.239571, 39.551388 ], [ -96.182558, 39.595144 ], [ -96.163913, 39.608888 ], [ -96.14554, 39.595151 ], [ -96.075102, 39.536033 ], [ -96.059194, 39.521517 ], [ -96.035417, 39.463445 ], [ -96.084386, 39.434884 ], [ -96.15649, 39.398621 ], [ -96.183769, 39.396548 ] ] ] } },
{ "type": "Feature", "properties": { "OBJECTID": 697, "ID": "0012566534", "NAME": "SABETHA COMMUNITY HOSPITAL", "ADDRESS": "14TH & OREGON", "CITY": "SABETHA", "STATE": "KS", "ZIP": "66534", "ZIP4": "NOT AVAILABLE", "TELEPHONE": "(785) 284-2121", "TYPE": "GENERAL ACUTE CARE", "STATUS": "OPEN", "POPULATION": 25, "COUNTY": "NEMAHA", "COUNTYFIPS": "20131", "COUNTRY": "USA", "LATITUDE": 39.898929538000097, "LONGITUDE": -95.808122308999899, "NAICS_CODE": "622110", "NAICS_DESC": "GENERAL MEDICAL AND SURGICAL HOSPITALS", "SOURCE": "http://www.kdheks.gov/bhfr/fac_list/", "SOURCEDATE": "2018-08-16T00:00:00.000Z", "VAL_METHOD": "IMAGERY", "VAL_DATE": "2014-02-10T00:00:00.000Z", "WEBSITE": "http://www.sabethahospital.com", "STATE_ID": "H066002", "ALT_NAME": "GREAT PLAINS OF SABETHA INC", "ST_FIPS": "20", "OWNER": "NON-PROFIT", "TTL_STAFF": -999, "BEDS": 25, "TRAUMA": "LEVEL IV", "HELIPAD": "Y" }, "geometry": { "type": "Polygon", "coordinates": [ [ [ -95.788811, 39.798086 ], [ -95.807942, 39.798213 ], [ -95.830908, 39.804495 ], [ -95.863958, 39.819894 ], [ -95.939359, 39.884865 ], [ -95.939335, 39.899423 ], [ -95.920568, 39.928055 ], [ -95.829717, 40.000511 ], [ -95.788111, 40.000462 ], [ -95.784498, 40.000447 ], [ -95.6913308, 39.9283897 ], [ -95.6583665, 39.899168299999985 ], [ -95.6953604, 39.8411217 ], [ -95.7141801, 39.8266437 ], [ -95.72362, 39.819714 ], [ -95.788811, 39.798086 ] ] ] } },
{ "type": "Feature", "properties": { "OBJECTID": 789, "ID": "0106668434", "NAME": "MEMORIAL HOSPITAL", "ADDRESS": "300 NORTH COLUMBIA AVE", "CITY": "SEWARD", "STATE": "NE", "ZIP": "68434", "ZIP4": "NOT AVAILABLE", "TELEPHONE": "(402) 643-2971", "TYPE": "CRITICAL ACCESS", "STATUS": "OPEN", "POPULATION": 24, "COUNTY": "SEWARD", "COUNTYFIPS": "31159", "COUNTRY": "USA", "LATITUDE": 40.910021725, "LONGITUDE": -97.091434398999994, "NAICS_CODE": "622110", "NAICS_DESC": "GENERAL MEDICAL AND SURGICAL HOSPITALS", "SOURCE": "http://dhhs.ne.gov/publichealth/Documents/Hospital%20Roster.pdf", "SOURCEDATE": "2018-08-09T00:00:00.000Z", "VAL_METHOD": "IMAGERY/OTHER", "VAL_DATE": "2015-02-18T00:00:00.000Z", "WEBSITE": "http://www.mhcs.us/", "STATE_ID": "NOT AVAILABLE", "ALT_NAME": "NOT AVAILABLE", "ST_FIPS": "31", "OWNER": "NON-PROFIT", "TTL_STAFF": -999, "BEDS": 24, "TRAUMA": "NOT AVAILABLE", "HELIPAD": "Y" }, "geometry": { "type": "Polygon", "coordinates": [ [ [ -97.10161260000001, 40.778057500000031 ], [ -97.175098, 40.822479 ], [ -97.259822, 40.886516 ], [ -97.272981, 40.901786 ], [ -97.120571, 41.032194 ], [ -97.100584, 41.046415 ], [ -97.0626908, 41.017349600000024 ], [ -97.0440038, 41.0027835 ], [ -96.982253, 40.946565 ], [ -96.9487, 40.9155434 ], [ -96.9296285, 40.88650389999998 ], [ -97.10161260000001, 40.778057500000031 ] ] ] } },
{ "type": "Feature", "properties": { "OBJECTID": 7110, "ID": "0004557702", "NAME": "RAPID CITY HOSPITAL", "ADDRESS": "3200 CANYON LAKE DRIVE", "CITY": "RAPID CITY", "STATE": "SD", "ZIP": "57702", "ZIP4": "NOT AVAILABLE", "TELEPHONE": "(605) 355-2200", "TYPE": "CRITICAL ACCESS", "STATUS": "OPEN", "POPULATION": 9, "COUNTY": "PENNINGTON", "COUNTYFIPS": "46103", "COUNTRY": "USA", "LATITUDE": 44.074202517000103, "LONGITUDE": -103.27168835000001, "NAICS_CODE": "622110", "NAICS_DESC": "GENERAL MEDICAL AND SURGICAL HOSPITALS", "SOURCE": "https://apps.sd.gov/ph04lassnet/rptPH04LicenseList.Aspx", "SOURCEDATE": "2018-08-10T00:00:00.000Z", "VAL_METHOD": "IMAGERY", "VAL_DATE": "2018-05-08T00:00:00.000Z", "WEBSITE": "https://www.ihs.gov/greatplains/healthcarefacilities/rapidcity/", "STATE_ID": "NOT AVAILABLE", "ALT_NAME": "NOT AVAILABLE", "ST_FIPS": "46", "OWNER": "GOVERNMENT - FEDERAL", "TTL_STAFF": -999, "BEDS": 9, "TRAUMA": "NOT AVAILABLE", "HELIPAD": "N" }, "geometry": { "type": "Polygon", "coordinates": [ [ [ -103.2549512, 44.001362 ], [ -103.2943168, 44.005438300000044 ], [ -103.3055099, 44.010314900000019 ], [ -103.3944975, 44.06611119999998 ], [ -103.3643512, 44.117362399999962 ], [ -103.3214834, 44.169378799999983 ], [ -103.1916338, 44.125659799999973 ], [ -103.1512138, 44.102593100000043 ], [ -103.1488206, 44.100445799999989 ], [ -103.1657604, 44.0671025 ], [ -103.2471153, 44.0039389 ], [ -103.2549512, 44.001362 ] ] ] } },
{ "type": "Feature", "properties": { "OBJECTID": 7234, "ID": "0002757732", "NAME": "LEAD-DEADWOOD REGIONAL HOSPITAL", "ADDRESS": "61 CHARLES STREET", "CITY": "DEADWOOD", "STATE": "SD", "ZIP": "57732", "ZIP4": "NOT AVAILABLE", "TELEPHONE": "(605) 717-6000", "TYPE": "CRITICAL ACCESS", "STATUS": "OPEN", "POPULATION": 18, "COUNTY": "LAWRENCE", "COUNTYFIPS": "46081", "COUNTRY": "USA", "LATITUDE": 44.369626916000101, "LONGITUDE": -103.728268406, "NAICS_CODE": "622110", "NAICS_DESC": "GENERAL MEDICAL AND SURGICAL HOSPITALS", "SOURCE": "https://apps.sd.gov/ph04lassnet/rptPH04LicenseList.Aspx", "SOURCEDATE": "2018-08-10T00:00:00.000Z", "VAL_METHOD": "IMAGERY", "VAL_DATE": "2013-12-27T00:00:00.000Z", "WEBSITE": "http://www.regionalhealth.com", "STATE_ID": "NOT AVAILABLE", "ALT_NAME": "NOT AVAILABLE", "ST_FIPS": "46", "OWNER": "GOVERNMENT - STATE", "TTL_STAFF": -999, "BEDS": 18, "TRAUMA": "TRH", "HELIPAD": "N" }, "geometry": { "type": "Polygon", "coordinates": [ [ [ -103.691869704813172, 44.287681661193872 ], [ -103.82708402398913, 44.294227884296468 ], [ -103.822498898899184, 44.391529640570553 ], [ -103.820518887517395, 44.401809708740004 ], [ -103.817623188922624, 44.404723690810101 ], [ -103.737118836853853, 44.474293134553903 ], [ -103.736757538186637, 44.474286934817989 ], [ -103.596281268402279, 44.400319284988647 ], [ -103.585634436426233, 44.394684298977374 ], [ -103.666511411400265, 44.291052341908127 ], [ -103.691869704813172, 44.287681661193872 ] ] ] } },
{ "type": "Feature", "properties": { "OBJECTID": 7235, "ID": "0003957785", "NAME": "STURGIS REGIONAL HOSPITAL", "ADDRESS": "949 HARMON STREET", "CITY": "STURGIS", "STATE": "SD", "ZIP": "57785", "ZIP4": "NOT AVAILABLE", "TELEPHONE": "(605) 720-2400", "TYPE": "CRITICAL ACCESS", "STATUS": "OPEN", "POPULATION": 25, "COUNTY": "MEADE", "COUNTYFIPS": "46093", "COUNTRY": "USA", "LATITUDE": 44.402272073000098, "LONGITUDE": -103.507025349, "NAICS_CODE": "622110", "NAICS_DESC": "GENERAL MEDICAL AND SURGICAL HOSPITALS", "SOURCE": "https://apps.sd.gov/ph04lassnet/rptPH04LicenseList.Aspx", "SOURCEDATE": "2018-08-10T00:00:00.000Z", "VAL_METHOD": "IMAGERY", "VAL_DATE": "2014-02-10T00:00:00.000Z", "WEBSITE": "http://www.regionalhealth.com/Our-Locations/Regional- Hospitals/Sturgis-Regional-Hospital.aspx", "STATE_ID": "NOT AVAILABLE", "ALT_NAME": "NOT AVAILABLE", "ST_FIPS": "46", "OWNER": "NON-PROFIT", "TTL_STAFF": -999, "BEDS": 25, "TRAUMA": "TRH", "HELIPAD": "Y" }, "geometry": { "type": "Polygon", "coordinates": [ [ [ -103.4216113, 44.2783484 ], [ -103.547816273825333, 44.311840556103689 ], [ -103.57166100980875, 44.346405495703671 ], [ -103.630254285239715, 44.459629240894301 ], [ -103.434675, 44.461399 ], [ -103.381001, 44.446876 ], [ -103.36798, 44.423972 ], [ -103.391627, 44.32931 ], [ -103.399367, 44.30336 ], [ -103.4216113, 44.2783484 ] ] ] } },
{ "type": "Feature", "properties": { "OBJECTID": 7315, "ID": "0007266502", "NAME": "VIA CHRISTI HOSPITAL IN MANHATTAN", "ADDRESS": "1823 COLLEGE AVE", "CITY": "MANHATTAN", "STATE": "KS", "ZIP": "66502", "ZIP4": "NOT AVAILABLE", "TELEPHONE": "(785) 776-3322", "TYPE": "GENERAL ACUTE CARE", "STATUS": "OPEN", "POPULATION": 96, "COUNTY": "RILEY", "COUNTYFIPS": "20161", "COUNTRY": "USA", "LATITUDE": 39.20130921, "LONGITUDE": -96.598930428000003, "NAICS_CODE": "622110", "NAICS_DESC": "GENERAL MEDICAL AND SURGICAL HOSPITALS", "SOURCE": "http://www.kdheks.gov/bhfr/fac_list/", "SOURCEDATE": "2018-08-16T00:00:00.000Z", "VAL_METHOD": "IMAGERY", "VAL_DATE": "2014-03-12T00:00:00.000Z", "WEBSITE": "http://www.mercyregional.org", "STATE_ID": "H081003", "ALT_NAME": "VIA CHRISTI HEALTH", "ST_FIPS": "20", "OWNER": "NON-PROFIT", "TTL_STAFF": -999, "BEDS": 96, "TRAUMA": "NOT AVAILABLE", "HELIPAD": "Y" }, "geometry": { "type": "Polygon", "coordinates": [ [ [ -96.6719842, 39.127446900000038 ], [ -96.677528399999986, 39.127573099999957 ], [ -96.7005782, 39.219963199999981 ], [ -96.6878151, 39.2689491 ], [ -96.630346700000018, 39.277010400000016 ], [ -96.590097700000015, 39.257621 ], [ -96.510641, 39.198765 ], [ -96.5101172, 39.197704800000061 ], [ -96.5106435, 39.193953700000016 ], [ -96.5245514, 39.16940169999998 ], [ -96.5382847, 39.152008699999961 ], [ -96.5886159, 39.1324581 ], [ -96.6719842, 39.127446900000038 ] ] ] } },
{ "type": "Feature", "properties": { "OBJECTID": 7327, "ID": "0014166968", "NAME": "WASHINGTON COUNTY HOSPITAL", "ADDRESS": "304 E 3RD STREET", "CITY": "WASHINGTON", "STATE": "KS", "ZIP": "66968", "ZIP4": "NOT AVAILABLE", "TELEPHONE": "(785) 325-2211", "TYPE": "GENERAL ACUTE CARE", "STATUS": "OPEN", "POPULATION": 25, "COUNTY": "WASHINGTON", "COUNTYFIPS": "20201", "COUNTRY": "USA", "LATITUDE": 39.817525197000101, "LONGITUDE": -97.046404789999897, "NAICS_CODE": "622110", "NAICS_DESC": "GENERAL MEDICAL AND SURGICAL HOSPITALS", "SOURCE": "http://www.kdheks.gov/bhfr/fac_list/", "SOURCEDATE": "2018-08-16T00:00:00.000Z", "VAL_METHOD": "IMAGERY", "VAL_DATE": "2014-02-10T00:00:00.000Z", "WEBSITE": "http://www.washingtoncountyhospital.com", "STATE_ID": "H101002", "ALT_NAME": "WASHINGTON COUNTY HOSPITAL FOUNDATION", "ST_FIPS": "20", "OWNER": "GOVERNMENT - LOCAL", "TTL_STAFF": -999, "BEDS": 25, "TRAUMA": "NOT AVAILABLE", "HELIPAD": "N" }, "geometry": { "type": "Polygon", "coordinates": [ [ [ -97.077605800000015, 39.682535 ], [ -97.2187335, 39.813706700000047 ], [ -97.173048, 39.847301 ], [ -97.049843, 39.929762 ], [ -97.048972, 39.929742 ], [ -96.879046, 39.842691 ], [ -96.8791173, 39.841780400000019 ], [ -96.891742, 39.813012 ], [ -96.937755, 39.769236 ], [ -97.012818, 39.711618 ], [ -97.077605800000015, 39.682535 ] ] ] } },
{ "type": "Feature", "properties": { "OBJECTID": 5151, "ID": "0005968825", "NAME": "CALLAWAY DISTRICT HOSPITAL", "ADDRESS": "211 E KIMBALL ST", "CITY": "CALLAWAY", "STATE": "NE", "ZIP": "68825", "ZIP4": "NOT AVAILABLE", "TELEPHONE": "(308) 836-2228", "TYPE": "CRITICAL ACCESS", "STATUS": "OPEN", "POPULATION": 12, "COUNTY": "CUSTER", "COUNTYFIPS": "31041", "COUNTRY": "USA", "LATITUDE": 41.291119315000103, "LONGITUDE": -99.923157798999995, "NAICS_CODE": "622110", "NAICS_DESC": "GENERAL MEDICAL AND SURGICAL HOSPITALS", "SOURCE": "http://dhhs.ne.gov/publichealth/Documents/Hospital%20Roster.pdf", "SOURCEDATE": "2018-08-09T00:00:00.000Z", "VAL_METHOD": "IMAGERY", "VAL_DATE": "2014-01-02T00:00:00.000Z", "WEBSITE": "http://www.callaway-ne.com/hospital/", "STATE_ID": "281335", "ALT_NAME": "NOT AVAILABLE", "ST_FIPS": "31", "OWNER": "GOVERNMENT - DISTRICT/AUTHORITY", "TTL_STAFF": -999, "BEDS": 12, "TRAUMA": "NOT AVAILABLE", "HELIPAD": "N" }, "geometry": { "type": "Polygon", "coordinates": [ [ [ -99.813695, 41.177228 ], [ -99.816328, 41.177211 ], [ -99.938955, 41.190546 ], [ -100.064169, 41.249048 ], [ -100.08271, 41.263642 ], [ -100.015295, 41.378382 ], [ -99.916224, 41.397733 ], [ -99.89228, 41.384885 ], [ -99.848178, 41.352311 ], [ -99.797177, 41.29205 ], [ -99.779488, 41.259415 ], [ -99.813695, 41.177228 ] ] ] } },
{ "type": "Feature", "properties": { "OBJECTID": 5178, "ID": "0004568959", "NAME": "KEARNEY COUNTY HEALTH SERVICES HOSPITAL", "ADDRESS": "727 EAST 1ST ST", "CITY": "MINDEN", "STATE": "NE", "ZIP": "68959", "ZIP4": "NOT AVAILABLE", "TELEPHONE": "(308) 832-3400", "TYPE": "CRITICAL ACCESS", "STATUS": "OPEN", "POPULATION": 10, "COUNTY": "KEARNEY", "COUNTYFIPS": "31099", "COUNTRY": "USA", "LATITUDE": 40.495430977000098, "LONGITUDE": -98.94285322, "NAICS_CODE": "622110", "NAICS_DESC": "GENERAL MEDICAL AND SURGICAL HOSPITALS", "SOURCE": "http://dhhs.ne.gov/publichealth/Documents/Hospital%20Roster.pdf", "SOURCEDATE": "2018-08-09T00:00:00.000Z", "VAL_METHOD": "IMAGERY", "VAL_DATE": "2014-02-10T00:00:00.000Z", "WEBSITE": "http://www.kchs.org", "STATE_ID": "281306", "ALT_NAME": "NOT AVAILABLE", "ST_FIPS": "31", "OWNER": "GOVERNMENT - LOCAL", "TTL_STAFF": -999, "BEDS": 10, "TRAUMA": "NOT AVAILABLE", "HELIPAD": "Y" }, "geometry": { "type": "Polygon", "coordinates": [ [ [ -98.951567, 40.36499 ], [ -99.10395, 40.481302 ], [ -99.103952, 40.481492 ], [ -98.989776, 40.582857 ], [ -98.970687, 40.597331 ], [ -98.95166, 40.597411 ], [ -98.933206, 40.597343 ], [ -98.9093939, 40.597198099999957 ], [ -98.800127, 40.574955 ], [ -98.786045, 40.567768 ], [ -98.77534, 40.493225 ], [ -98.781156, 40.480732 ], [ -98.800106, 40.466253 ], [ -98.951567, 40.36499 ] ] ] } },
{ "type": "Feature", "properties": { "OBJECTID": 5202, "ID": "0004857701", "NAME": "BLACK HILLS SURGERY CENTER LIMITED LIABILITY PARTNERSHIP", "ADDRESS": "216 ANAMARIA DRIVE", "CITY": "RAPID CITY", "STATE": "SD", "ZIP": "57701", "ZIP4": "NOT AVAILABLE", "TELEPHONE": "(605) 721-4700", "TYPE": "GENERAL ACUTE CARE", "STATUS": "OPEN", "POPULATION": 26, "COUNTY": "PENNINGTON", "COUNTYFIPS": "46103", "COUNTRY": "USA", "LATITUDE": 44.046443624000098, "LONGITUDE": -103.223484099, "NAICS_CODE": "622110", "NAICS_DESC": "GENERAL MEDICAL AND SURGICAL HOSPITALS", "SOURCE": "https://apps.sd.gov/ph04lassnet/rptPH04LicenseList.Aspx", "SOURCEDATE": "2018-08-10T00:00:00.000Z", "VAL_METHOD": "IMAGERY", "VAL_DATE": "2013-12-31T00:00:00.000Z", "WEBSITE": "http://www.bhsc.com", "STATE_ID": "NOT AVAILABLE", "ALT_NAME": "NOT AVAILABLE", "ST_FIPS": "46", "OWNER": "PROPRIETARY", "TTL_STAFF": -999, "BEDS": 26, "TRAUMA": "NOT AVAILABLE", "HELIPAD": "N" }, "geometry": { "type": "Polygon", "coordinates": [ [ [ -103.186075, 43.957580899999989 ], [ -103.277484, 43.959020100000046 ], [ -103.3191221, 43.972266199999986 ], [ -103.304811, 44.091318 ], [ -103.2921356, 44.1069483 ], [ -103.2787933, 44.1165034 ], [ -103.2246992, 44.13202850000004 ], [ -103.1512991, 44.109587 ], [ -103.1461518, 44.106500699999962 ], [ -103.1351698, 44.099191700000041 ], [ -103.119593, 44.065634 ], [ -103.1105501, 44.0388604 ], [ -103.1110708, 44.032408100000012 ], [ -103.167919, 43.9746495 ], [ -103.1705626, 43.971988700000018 ], [ -103.186075, 43.957580899999989 ] ] ] } },
{ "type": "Feature", "properties": { "OBJECTID": 5381, "ID": "0013957741", "NAME": "VA MEDICAL CENTER - FORT MEADE CAMPUS", "ADDRESS": "113 COMANCHE RD", "CITY": "FORT MEADE", "STATE": "SD", "ZIP": "57741", "ZIP4": "NOT AVAILABLE", "TELEPHONE": "NOT AVAILABLE", "TYPE": "MILITARY", "STATUS": "OPEN", "POPULATION": -999, "COUNTY": "MEADE", "COUNTYFIPS": "46093", "COUNTRY": "USA", "LATITUDE": 44.412677257, "LONGITUDE": -103.471815128, "NAICS_CODE": "622110", "NAICS_DESC": "GENERAL MEDICAL AND SURGICAL HOSPITALS", "SOURCE": "https://www.va.gov/directory/guide/allstate.asp", "SOURCEDATE": "2018-09-26T00:00:00.000Z", "VAL_METHOD": "IMAGERY/OTHER", "VAL_DATE": "2015-05-26T00:00:00.000Z", "WEBSITE": "http://www.blackhills.va.gov/", "STATE_ID": "NOT AVAILABLE", "ALT_NAME": "NOT AVAILABLE", "ST_FIPS": "46", "OWNER": "GOVERNMENT - FEDERAL", "TTL_STAFF": -999, "BEDS": -999, "TRAUMA": "NOT AVAILABLE", "HELIPAD": "N" }, "geometry": { "type": "Polygon", "coordinates": [ [ [ -103.4347142, 44.3048791 ], [ -103.545199615984927, 44.348502189876861 ], [ -103.606450405058283, 44.45228227081985 ], [ -103.604909405672529, 44.453491269079272 ], [ -103.447575, 44.503464 ], [ -103.346887, 44.471919 ], [ -103.3297918, 44.423909599999973 ], [ -103.3298151, 44.423679399999955 ], [ -103.4347142, 44.3048791 ] ] ] } },
{ "type": "Feature", "properties": { "OBJECTID": 5388, "ID": "0000000063", "NAME": "BEATRICE COMMUNITY HOSPITAL", "ADDRESS": "4800 HOSPITAL PKWY", "CITY": "BEATRICE", "STATE": "NE", "ZIP": "68310", "ZIP4": "NOT AVAILABLE", "TELEPHONE": "(402) 228-3344", "TYPE": "CRITICAL ACCESS", "STATUS": "OPEN", "POPULATION": 25, "COUNTY": "GAGE", "COUNTYFIPS": "31067", "COUNTRY": "USA", "LATITUDE": 40.316146370000098, "LONGITUDE": -96.749720605999997, "NAICS_CODE": "622110", "NAICS_DESC": "GENERAL MEDICAL AND SURGICAL HOSPITALS", "SOURCE": "http://dhhs.ne.gov/publichealth/Documents/Hospital%20Roster.pdf", "SOURCEDATE": "2018-08-09T00:00:00.000Z", "VAL_METHOD": "IMAGERY/OTHER", "VAL_DATE": "2015-05-21T00:00:00.000Z", "WEBSITE": "http://www.beatricecommunityhospital.com/", "STATE_ID": "NOT AVAILABLE", "ALT_NAME": "NOT AVAILABLE", "ST_FIPS": "31", "OWNER": "NON-PROFIT", "TTL_STAFF": -999, "BEDS": 25, "TRAUMA": "NOT AVAILABLE", "HELIPAD": "N" }, "geometry": { "type": "Polygon", "coordinates": [ [ [ -96.7463098, 40.2187205 ], [ -96.7652615, 40.21934489999996 ], [ -96.879543100000021, 40.306379 ], [ -96.8986145, 40.3209017 ], [ -96.799015, 40.4219564 ], [ -96.742001, 40.465337 ], [ -96.7230519, 40.465557700000048 ], [ -96.595708, 40.320452 ], [ -96.652557, 40.262614 ], [ -96.7463098, 40.2187205 ] ] ] } },
{ "type": "Feature", "properties": { "OBJECTID": 5549, "ID": "0005166434", "NAME": "HIAWATHA COMMUNITY HOSPITAL", "ADDRESS": "300 UTAH STREET", "CITY": "HIAWATHA", "STATE": "KS", "ZIP": "66434", "ZIP4": "NOT AVAILABLE", "TELEPHONE": "(785) 742-6283", "TYPE": "CRITICAL ACCESS", "STATUS": "OPEN", "POPULATION": 25, "COUNTY": "BROWN", "COUNTYFIPS": "20013", "COUNTRY": "USA", "LATITUDE": 39.852336996000098, "LONGITUDE": -95.530786260999903, "NAICS_CODE": "622110", "NAICS_DESC": "GENERAL MEDICAL AND SURGICAL HOSPITALS", "SOURCE": "http://www.kdheks.gov/bhfr/fac_list/", "SOURCEDATE": "2018-08-16T00:00:00.000Z", "VAL_METHOD": "IMAGERY", "VAL_DATE": "2014-02-10T00:00:00.000Z", "WEBSITE": "http://www.hch-ks.org", "STATE_ID": "H007001", "ALT_NAME": "HIAWATHA COMMUNITY HOSPITAL ASSOCIATION", "ST_FIPS": "20", "OWNER": "NON-PROFIT", "TTL_STAFF": -999, "BEDS": 25, "TRAUMA": "LEVEL IV", "HELIPAD": "Y" }, "geometry": { "type": "Polygon", "coordinates": [ [ [ -95.5271653, 39.727845199999955 ], [ -95.6674122, 39.8483788 ], [ -95.5485526, 39.9657832 ], [ -95.527346, 39.975467 ], [ -95.3556413, 39.842608900000045 ], [ -95.5271653, 39.727845199999955 ] ] ] } },
{ "type": "Feature", "properties": { "OBJECTID": 5552, "ID": "0002366436", "NAME": "HOLTON COMMUNITY HOSPITAL", "ADDRESS": "1110 COLUMBINE DR", "CITY": "HOLTON", "STATE": "KS", "ZIP": "66436", "ZIP4": "NOT AVAILABLE", "TELEPHONE": "(785) 364-2116", "TYPE": "CRITICAL ACCESS", "STATUS": "OPEN", "POPULATION": 12, "COUNTY": "JACKSON", "COUNTYFIPS": "20085", "COUNTRY": "USA", "LATITUDE": 39.480079566000001, "LONGITUDE": -95.751537545999994, "NAICS_CODE": "622110", "NAICS_DESC": "GENERAL MEDICAL AND SURGICAL HOSPITALS", "SOURCE": "http://www.kdheks.gov/bhfr/fac_list/", "SOURCEDATE": "2018-08-16T00:00:00.000Z", "VAL_METHOD": "IMAGERY", "VAL_DATE": "2014-02-10T00:00:00.000Z", "WEBSITE": "http://www.holtonhospital.com", "STATE_ID": "H043001", "ALT_NAME": "RURAL HEALTH REOSURCES OF JACKSON COUNTY INC", "ST_FIPS": "20", "OWNER": "NON-PROFIT", "TTL_STAFF": -999, "BEDS": 12, "TRAUMA": "LEVEL IV", "HELIPAD": "Y" }, "geometry": { "type": "Polygon", "coordinates": [ [ [ -95.725463, 39.338078400000029 ], [ -95.7383421, 39.341094900000023 ], [ -95.8881324, 39.463266800000021 ], [ -95.8678954, 39.5069879 ], [ -95.830484, 39.536139 ], [ -95.811729, 39.550528 ], [ -95.7317908, 39.5949205 ], [ -95.7235152, 39.595835 ], [ -95.695443, 39.566012 ], [ -95.6448753, 39.506115500000014 ], [ -95.644679, 39.462577 ], [ -95.7244836, 39.338096499999963 ], [ -95.725463, 39.338078400000029 ] ] ] } },
{ "type": "Feature", "properties": { "OBJECTID": 5557, "ID": "0008866956", "NAME": "JEWELL COUNTY HOSPITAL", "ADDRESS": "100 CRESTVUE AVE", "CITY": "MANKATO", "STATE": "KS", "ZIP": "66956", "ZIP4": "NOT AVAILABLE", "TELEPHONE": "(785) 378-3137", "TYPE": "CRITICAL ACCESS", "STATUS": "OPEN", "POPULATION": 25, "COUNTY": "JEWELL", "COUNTYFIPS": "20089", "COUNTRY": "USA", "LATITUDE": 39.786219681, "LONGITUDE": -98.199830341999998, "NAICS_CODE": "622110", "NAICS_DESC": "GENERAL MEDICAL AND SURGICAL HOSPITALS", "SOURCE": "http://www.kdheks.gov/bhfr/fac_list/", "SOURCEDATE": "2018-08-16T00:00:00.000Z", "VAL_METHOD": "IMAGERY", "VAL_DATE": "2014-02-10T00:00:00.000Z", "WEBSITE": "http://jewellcountyhospital.com", "STATE_ID": "H045001", "ALT_NAME": "JEWELL COUNTY HOSPITAL", "ST_FIPS": "20", "OWNER": "GOVERNMENT - LOCAL", "TTL_STAFF": -999, "BEDS": 25, "TRAUMA": "NOT AVAILABLE", "HELIPAD": "N" }, "geometry": { "type": "Polygon", "coordinates": [ [ [ -98.1568857, 39.68076320000003 ], [ -98.343928, 39.770384 ], [ -98.362569, 39.781251 ], [ -98.3625518, 39.7850673 ], [ -98.3060767, 39.8281884 ], [ -98.162038, 39.858657 ], [ -98.156377, 39.857175 ], [ -98.115205, 39.839142 ], [ -98.0268944, 39.785161699999989 ], [ -98.026652, 39.783961 ], [ -98.1568857, 39.68076320000003 ] ] ] } },
{ "type": "Feature", "properties": { "OBJECTID": 5754, "ID": "0007168310", "NAME": "BEATRICE COMMUNITY HOSPITAL & HEALTH CENTER, INC", "ADDRESS": "N 10TH ST", "CITY": "BEATRICE", "STATE": "NE", "ZIP": "68310", "ZIP4": "NOT AVAILABLE", "TELEPHONE": "(402) 228-3344", "TYPE": "CRITICAL ACCESS", "STATUS": "CLOSED", "POPULATION": 25, "COUNTY": "GAGE", "COUNTYFIPS": "31067", "COUNTRY": "USA", "LATITUDE": 40.2773384770001, "LONGITUDE": -96.740225465999998, "NAICS_CODE": "622110", "NAICS_DESC": "GENERAL MEDICAL AND SURGICAL HOSPITALS", "SOURCE": "http://dhhs.ne.gov/publichealth/Documents/Hospital%20Roster.pdf", "SOURCEDATE": "2012-07-12T00:00:00.000Z", "VAL_METHOD": "IMAGERY", "VAL_DATE": "2014-02-10T00:00:00.000Z", "WEBSITE": "http://www.beatricecommunityhospital.com", "STATE_ID": "281364", "ALT_NAME": "NOT AVAILABLE", "ST_FIPS": "31", "OWNER": "NON-PROFIT", "TTL_STAFF": -999, "BEDS": 25, "TRAUMA": "NOT AVAILABLE", "HELIPAD": "N" }, "geometry": { "type": "Polygon", "coordinates": [ [ [ -96.746696, 40.161187 ], [ -96.822313800000018, 40.219424 ], [ -96.860066, 40.262864 ], [ -96.8461585, 40.321018700000039 ], [ -96.8323876, 40.335551800000012 ], [ -96.7802283, 40.37844050000006 ], [ -96.7425736, 40.407383300000021 ], [ -96.7423506, 40.407378300000019 ], [ -96.704749, 40.378433 ], [ -96.652469, 40.334986 ], [ -96.595679, 40.276966 ], [ -96.59576, 40.26245 ], [ -96.651879, 40.219018 ], [ -96.661308, 40.211743 ], [ -96.746696, 40.161187 ] ] ] } },
{ "type": "Feature", "properties": { "OBJECTID": 5756, "ID": "0004468901", "NAME": "MARY LANNING MEMORIAL HOSPITAL", "ADDRESS": "715 N ST JOSEPH AVE", "CITY": "HASTINGS", "STATE": "NE", "ZIP": "68901", "ZIP4": "NOT AVAILABLE", "TELEPHONE": "(402) 463-4521", "TYPE": "GENERAL ACUTE CARE", "STATUS": "OPEN", "POPULATION": 161, "COUNTY": "ADAMS", "COUNTYFIPS": "31001", "COUNTRY": "USA", "LATITUDE": 40.590913798000003, "LONGITUDE": -98.388065825999902, "NAICS_CODE": "622110", "NAICS_DESC": "GENERAL MEDICAL AND SURGICAL HOSPITALS", "SOURCE": "http://dhhs.ne.gov/publichealth/Documents/Hospital%20Roster.pdf", "SOURCEDATE": "2018-08-09T00:00:00.000Z", "VAL_METHOD": "IMAGERY", "VAL_DATE": "2014-03-12T00:00:00.000Z", "WEBSITE": "http://www.marylanning.org", "STATE_ID": "280032", "ALT_NAME": "NOT AVAILABLE", "ST_FIPS": "31", "OWNER": "NON-PROFIT", "TTL_STAFF": -999, "BEDS": 161, "TRAUMA": "LEVEL III", "HELIPAD": "Y" }, "geometry": { "type": "Polygon", "coordinates": [ [ [ -98.4018664, 40.4663167 ], [ -98.506361, 40.538924 ], [ -98.535208, 40.567863 ], [ -98.535255, 40.589695 ], [ -98.535215, 40.596985 ], [ -98.497094, 40.626114 ], [ -98.420117, 40.684182 ], [ -98.400993, 40.698432 ], [ -98.3783981, 40.712925899999988 ], [ -98.3781647, 40.712932 ], [ -98.359184, 40.698382 ], [ -98.2223497, 40.5823551 ], [ -98.297257, 40.524295 ], [ -98.335034, 40.502595 ], [ -98.4018664, 40.4663167 ] ] ] } },
{ "type": "Feature", "properties": { "OBJECTID": 5757, "ID": "0106068803", "NAME": "CHI HEALTH ST. FRANCIS", "ADDRESS": "2620 WEST FAIDLEY AVE", "CITY": "GRAND ISLAND", "STATE": "NE", "ZIP": "68803", "ZIP4": "NOT AVAILABLE", "TELEPHONE": "(308) 384-4600", "TYPE": "GENERAL ACUTE CARE", "STATUS": "OPEN", "POPULATION": 159, "COUNTY": "HALL", "COUNTYFIPS": "31079", "COUNTRY": "USA", "LATITUDE": 40.92605948, "LONGITUDE": -98.371642711999996, "NAICS_CODE": "622110", "NAICS_DESC": "GENERAL MEDICAL AND SURGICAL HOSPITALS", "SOURCE": "http://dhhs.ne.gov/publichealth/Documents/Hospital%20Roster.pdf", "SOURCEDATE": "2018-08-09T00:00:00.000Z", "VAL_METHOD": "IMAGERY/OTHER", "VAL_DATE": "2015-02-18T00:00:00.000Z", "WEBSITE": "http://chihealthstfrancis.org/", "STATE_ID": "NOT AVAILABLE", "ALT_NAME": "NOT AVAILABLE", "ST_FIPS": "31", "OWNER": "NON-PROFIT", "TTL_STAFF": -999, "BEDS": 159, "TRAUMA": "LEVEL III", "HELIPAD": "Y" }, "geometry": { "type": "Polygon", "coordinates": [ [ [ -98.378276, 40.800079 ], [ -98.378534, 40.80008 ], [ -98.474159, 40.8444 ], [ -98.4978773, 40.856152399999978 ], [ -98.523135, 40.931479 ], [ -98.493058, 40.975005 ], [ -98.363529, 41.060621 ], [ -98.363292, 41.060633 ], [ -98.237957, 40.973752 ], [ -98.2603391, 40.871763700000045 ], [ -98.2644861, 40.867139300000026 ], [ -98.378276, 40.800079 ] ] ] } },
{ "type": "Feature", "properties": { "OBJECTID": 5758, "ID": "0107368848", "NAME": "CHI HEALTH GOOD SAMARITAN", "ADDRESS": "10 EAST 31ST ST, PO BOX 1990", "CITY": "KEARNEY", "STATE": "NE", "ZIP": "68848", "ZIP4": "NOT AVAILABLE", "TELEPHONE": "(308) 865-7100", "TYPE": "GENERAL ACUTE CARE", "STATUS": "OPEN", "POPULATION": 172, "COUNTY": "BUFFALO", "COUNTYFIPS": "31019", "COUNTRY": "USA", "LATITUDE": 40.707663707000101, "LONGITUDE": -99.081582456000007, "NAICS_CODE": "622110", "NAICS_DESC": "GENERAL MEDICAL AND SURGICAL HOSPITALS", "SOURCE": "http://dhhs.ne.gov/publichealth/Documents/Hospital%20Roster.pdf", "SOURCEDATE": "2018-08-09T00:00:00.000Z", "VAL_METHOD": "IMAGERY/OTHER", "VAL_DATE": "2015-02-18T00:00:00.000Z", "WEBSITE": "http://chihealthgoodsamaritan.org/", "STATE_ID": "NOT AVAILABLE", "ALT_NAME": "NOT AVAILABLE", "ST_FIPS": "31", "OWNER": "NON-PROFIT", "TTL_STAFF": -999, "BEDS": 172, "TRAUMA": "LEVEL II", "HELIPAD": "Y" }, "geometry": { "type": "Polygon", "coordinates": [ [ [ -99.086188, 40.6555108 ], [ -99.217858, 40.675486 ], [ -99.2552956, 40.699651800000026 ], [ -99.256649, 40.701604 ], [ -99.256596, 40.702423 ], [ -99.178846, 40.790586 ], [ -99.0843693, 40.829928500000022 ], [ -98.9314303, 40.729227799999968 ], [ -98.947821, 40.687688 ], [ -98.9516059, 40.6848046 ], [ -99.0085143, 40.6705187 ], [ -99.086188, 40.6555108 ] ] ] } },
{ "type": "Feature", "properties": { "OBJECTID": 5762, "ID": "0001168822", "NAME": "JENNIE M MELHAM MEMORIAL MEDICAL CENTER", "ADDRESS": "145 MEMORIAL DRIVE", "CITY": "BROKEN BOW", "STATE": "NE", "ZIP": "68822", "ZIP4": "NOT AVAILABLE", "TELEPHONE": "(308) 872-4100", "TYPE": "CRITICAL ACCESS", "STATUS": "OPEN", "POPULATION": 23, "COUNTY": "CUSTER", "COUNTYFIPS": "31041", "COUNTRY": "USA", "LATITUDE": 41.409448513000001, "LONGITUDE": -99.631876352999896, "NAICS_CODE": "622110", "NAICS_DESC": "GENERAL MEDICAL AND SURGICAL HOSPITALS", "SOURCE": "http://dhhs.ne.gov/publichealth/Documents/Hospital%20Roster.pdf", "SOURCEDATE": "2018-08-09T00:00:00.000Z", "VAL_METHOD": "IMAGERY", "VAL_DATE": "2014-02-10T00:00:00.000Z", "WEBSITE": "http://www.brokenbow-ne.com/community/healthcare/melham.htm", "STATE_ID": "281365", "ALT_NAME": "NOT AVAILABLE", "ST_FIPS": "31", "OWNER": "NON-PROFIT", "TTL_STAFF": -999, "BEDS": 23, "TRAUMA": "LEVEL IV", "HELIPAD": "Y" }, "geometry": { "type": "Polygon", "coordinates": [ [ [ -99.6737491, 41.277633799999947 ], [ -99.789952, 41.4088701 ], [ -99.738899, 41.452353 ], [ -99.693291, 41.481529 ], [ -99.617032, 41.510726 ], [ -99.5881627, 41.499469299999966 ], [ -99.443304, 41.409202 ], [ -99.476549, 41.3379819 ], [ -99.600306, 41.292139 ], [ -99.6737491, 41.277633799999947 ] ] ] } },
{ "type": "Feature", "properties": { "OBJECTID": 5763, "ID": "0002769343", "NAME": "GORDON MEMORIAL HOSPITAL DISTRICT", "ADDRESS": "300 EAST 8TH ST", "CITY": "GORDON", "STATE": "NE", "ZIP": "69343", "ZIP4": "NOT AVAILABLE", "TELEPHONE": "(308) 282-0401", "TYPE": "CRITICAL ACCESS", "STATUS": "OPEN", "POPULATION": 25, "COUNTY": "SHERIDAN", "COUNTYFIPS": "31161", "COUNTRY": "USA", "LATITUDE": 42.812177518000098, "LONGITUDE": -102.199851834, "NAICS_CODE": "622110", "NAICS_DESC": "GENERAL MEDICAL AND SURGICAL HOSPITALS", "SOURCE": "http://dhhs.ne.gov/publichealth/Documents/Hospital%20Roster.pdf", "SOURCEDATE": "2018-08-09T00:00:00.000Z", "VAL_METHOD": "IMAGERY", "VAL_DATE": "2014-01-02T00:00:00.000Z", "WEBSITE": "http://www.gordonmemorial.org", "STATE_ID": "281358", "ALT_NAME": "NOT AVAILABLE", "ST_FIPS": "31", "OWNER": "GOVERNMENT - DISTRICT/AUTHORITY", "TTL_STAFF": -999, "BEDS": 25, "TRAUMA": "LEVEL IV", "HELIPAD": "N" }, "geometry": { "type": "Polygon", "coordinates": [ [ [ -102.20455, 42.689003 ], [ -102.214532, 42.689187 ], [ -102.361196, 42.749263 ], [ -102.3612245, 42.751993199999966 ], [ -102.34144, 42.79978 ], [ -102.221485, 42.947379 ], [ -102.201679, 42.945005 ], [ -102.182487, 42.934326 ], [ -102.0266003, 42.80009120000004 ], [ -102.20455, 42.689003 ] ] ] } },
{ "type": "Feature", "properties": { "OBJECTID": 5764, "ID": "0000568370", "NAME": "THAYER COUNTY HEALTH SERVICES", "ADDRESS": "120 PARK AVE", "CITY": "HEBRON", "STATE": "NE", "ZIP": "68370", "ZIP4": "NOT AVAILABLE", "TELEPHONE": "(402) 768-6041", "TYPE": "CRITICAL ACCESS", "STATUS": "OPEN", "POPULATION": 19, "COUNTY": "THAYER", "COUNTYFIPS": "31169", "COUNTRY": "USA", "LATITUDE": 40.160639265999997, "LONGITUDE": -97.593730433000005, "NAICS_CODE": "622110", "NAICS_DESC": "GENERAL MEDICAL AND SURGICAL HOSPITALS", "SOURCE": "http://dhhs.ne.gov/publichealth/Documents/Hospital%20Roster.pdf", "SOURCEDATE": "2018-08-09T00:00:00.000Z", "VAL_METHOD": "IMAGERY/OTHER", "VAL_DATE": "2014-02-10T00:00:00.000Z", "WEBSITE": "http://www.thayercountyhealth.com", "STATE_ID": "281304", "ALT_NAME": "NOT AVAILABLE", "ST_FIPS": "31", "OWNER": "GOVERNMENT - LOCAL", "TTL_STAFF": -999, "BEDS": 19, "TRAUMA": "LEVEL IV", "HELIPAD": "Y" }, "geometry": { "type": "Polygon", "coordinates": [ [ [ -97.61407, 40.013259 ], [ -97.617405, 40.014302 ], [ -97.620113800000013, 40.015382499999987 ], [ -97.764779, 40.147228 ], [ -97.689625, 40.209112 ], [ -97.576777, 40.292492 ], [ -97.5765599, 40.29250040000003 ], [ -97.413394, 40.143426 ], [ -97.61407, 40.013259 ] ] ] } },
{ "type": "Feature", "properties": { "OBJECTID": 5765, "ID": "0002568862", "NAME": "VALLEY COUNTY HEALTH SYSTEM", "ADDRESS": "2707 L STREET", "CITY": "ORD", "STATE": "NE", "ZIP": "68862", "ZIP4": "NOT AVAILABLE", "TELEPHONE": "(308) 728-4200", "TYPE": "CRITICAL ACCESS", "STATUS": "OPEN", "POPULATION": 16, "COUNTY": "VALLEY", "COUNTYFIPS": "31175", "COUNTRY": "USA", "LATITUDE": 41.602111477000101, "LONGITUDE": -98.942805277000005, "NAICS_CODE": "622110", "NAICS_DESC": "GENERAL MEDICAL AND SURGICAL HOSPITALS", "SOURCE": "http://dhhs.ne.gov/publichealth/Documents/Hospital%20Roster.pdf", "SOURCEDATE": "2018-08-09T00:00:00.000Z", "VAL_METHOD": "IMAGERY", "VAL_DATE": "2014-02-10T00:00:00.000Z", "WEBSITE": "http://www.valleycountyhospital.org", "STATE_ID": "281353", "ALT_NAME": "NOT AVAILABLE", "ST_FIPS": "31", "OWNER": "GOVERNMENT - LOCAL", "TTL_STAFF": -999, "BEDS": 16, "TRAUMA": "LEVEL IV", "HELIPAD": "Y" }, "geometry": { "type": "Polygon", "coordinates": [ [ [ -98.981852, 41.473906 ], [ -99.078003, 41.56759 ], [ -99.096824, 41.605664 ], [ -99.096848, 41.610867 ], [ -99.048545, 41.712374 ], [ -99.024865, 41.71943 ], [ -98.914796, 41.698026 ], [ -98.848006, 41.683379 ], [ -98.809343, 41.661667 ], [ -98.779613, 41.55319 ], [ -98.784493, 41.537951 ], [ -98.904802, 41.495638 ], [ -98.981852, 41.473906 ] ] ] } },
{ "type": "Feature", "properties": { "OBJECTID": 5766, "ID": "0001968305", "NAME": "NEMAHA COUNTY HOSPITAL", "ADDRESS": "2022  13TH ST", "CITY": "AUBURN", "STATE": "NE", "ZIP": "68305", "ZIP4": "NOT AVAILABLE", "TELEPHONE": "(402) 274-4366", "TYPE": "CRITICAL ACCESS", "STATUS": "OPEN", "POPULATION": 16, "COUNTY": "NEMAHA", "COUNTYFIPS": "31127", "COUNTRY": "USA", "LATITUDE": 40.391228888999997, "LONGITUDE": -95.853325620999996, "NAICS_CODE": "622110", "NAICS_DESC": "GENERAL MEDICAL AND SURGICAL HOSPITALS", "SOURCE": "http://dhhs.ne.gov/publichealth/Documents/Hospital%20Roster.pdf", "SOURCEDATE": "2018-08-09T00:00:00.000Z", "VAL_METHOD": "IMAGERY", "VAL_DATE": "2014-03-12T00:00:00.000Z", "WEBSITE": "http://www.nchnet.org", "STATE_ID": "281324", "ALT_NAME": "NOT AVAILABLE", "ST_FIPS": "31", "OWNER": "NON-PROFIT", "TTL_STAFF": -999, "BEDS": 16, "TRAUMA": "LEVEL IV", "HELIPAD": "Y" }, "geometry": { "type": "Polygon", "coordinates": [ [ [ -95.841307, 40.261532 ], [ -96.009329, 40.37819 ], [ -96.028289, 40.392694 ], [ -96.009358, 40.407142 ], [ -95.858959700000014, 40.510043 ], [ -95.840113, 40.508871 ], [ -95.80148, 40.479662 ], [ -95.782176, 40.465045 ], [ -95.7061105, 40.392821199999958 ], [ -95.841307, 40.261532 ] ] ] } },
{ "type": "Feature", "properties": { "OBJECTID": 5767, "ID": "0008369336", "NAME": "MORRILL COUNTY COMMUNITY HOSPITAL", "ADDRESS": "1313 S STREET", "CITY": "BRIDGEPORT", "STATE": "NE", "ZIP": "69336", "ZIP4": "NOT AVAILABLE", "TELEPHONE": "(308) 262-1616", "TYPE": "CRITICAL ACCESS", "STATUS": "OPEN", "POPULATION": 20, "COUNTY": "MORRILL", "COUNTYFIPS": "31123", "COUNTRY": "USA", "LATITUDE": 41.661764279000103, "LONGITUDE": -103.09228543, "NAICS_CODE": "622110", "NAICS_DESC": "GENERAL MEDICAL AND SURGICAL HOSPITALS", "SOURCE": "http://dhhs.ne.gov/publichealth/Documents/Hospital%20Roster.pdf", "SOURCEDATE": "2018-08-09T00:00:00.000Z", "VAL_METHOD": "IMAGERY", "VAL_DATE": "2014-02-10T00:00:00.000Z", "WEBSITE": "http://www.morrillcountyhospital.org", "STATE_ID": "281318", "ALT_NAME": "NOT AVAILABLE", "ST_FIPS": "31", "OWNER": "GOVERNMENT - LOCAL", "TTL_STAFF": -999, "BEDS": 20, "TRAUMA": "LEVEL IV", "HELIPAD": "Y" }, "geometry": { "type": "Polygon", "coordinates": [ [ [ -103.033881, 41.55500729999995 ], [ -103.080446, 41.554417 ], [ -103.1189576, 41.554614 ], [ -103.1570421, 41.58399109999997 ], [ -103.272608, 41.697484 ], [ -103.149787, 41.776027 ], [ -103.1473163, 41.776942400000038 ], [ -103.050806, 41.743436 ], [ -102.9838608, 41.691875599999989 ], [ -102.9450827, 41.60522450000002 ], [ -102.9450934, 41.598235700000011 ], [ -103.033881, 41.55500729999995 ] ] ] } },
{ "type": "Feature", "properties": { "OBJECTID": 5768, "ID": "0008068420", "NAME": "PAWNEE COUNTY MEMORIAL HOSPITAL", "ADDRESS": "600 I ST", "CITY": "PAWNEE CITY", "STATE": "NE", "ZIP": "68420", "ZIP4": "NOT AVAILABLE", "TELEPHONE": "(402) 852-2231", "TYPE": "CRITICAL ACCESS", "STATUS": "OPEN", "POPULATION": 11, "COUNTY": "PAWNEE", "COUNTYFIPS": "31133", "COUNTRY": "USA", "LATITUDE": 40.108519432999998, "LONGITUDE": -96.150040855, "NAICS_CODE": "622110", "NAICS_DESC": "GENERAL MEDICAL AND SURGICAL HOSPITALS", "SOURCE": "http://dhhs.ne.gov/publichealth/Documents/Hospital%20Roster.pdf", "SOURCEDATE": "2018-08-09T00:00:00.000Z", "VAL_METHOD": "IMAGERY", "VAL_DATE": "2014-02-10T00:00:00.000Z", "WEBSITE": "http://www.pawneehospital.com", "STATE_ID": "281302", "ALT_NAME": "NOT AVAILABLE", "ST_FIPS": "31", "OWNER": "GOVERNMENT - LOCAL", "TTL_STAFF": -999, "BEDS": 11, "TRAUMA": "LEVEL IV", "HELIPAD": "Y" }, "geometry": { "type": "Polygon", "coordinates": [ [ [ -96.163745, 40.0004 ], [ -96.331515, 40.109986 ], [ -96.199319, 40.207721 ], [ -96.180071, 40.218633 ], [ -96.16115, 40.219868 ], [ -96.142167, 40.218639 ], [ -96.104604, 40.20372 ], [ -96.067102, 40.17814 ], [ -96.0195296, 40.1311994 ], [ -96.010139, 40.112882 ], [ -96.010518, 40.08771 ], [ -96.029214, 40.073147 ], [ -96.048372, 40.058707 ], [ -96.123881, 40.01518 ], [ -96.161629, 40.000754 ], [ -96.163745, 40.0004 ] ] ] } },
{ "type": "Feature", "properties": { "OBJECTID": 5769, "ID": "0000768949", "NAME": "PHELPS MEMORIAL HEALTH CENTER", "ADDRESS": "1215 TIBBALS ST", "CITY": "HOLDREGE", "STATE": "NE", "ZIP": "68949", "ZIP4": "NOT AVAILABLE", "TELEPHONE": "(308) 995-2211", "TYPE": "CRITICAL ACCESS", "STATUS": "OPEN", "POPULATION": 25, "COUNTY": "PHELPS", "COUNTYFIPS": "31137", "COUNTRY": "USA", "LATITUDE": 40.4478890500001, "LONGITUDE": -99.383070097000001, "NAICS_CODE": "622110", "NAICS_DESC": "GENERAL MEDICAL AND SURGICAL HOSPITALS", "SOURCE": "http://dhhs.ne.gov/publichealth/Documents/Hospital%20Roster.pdf", "SOURCEDATE": "2018-08-09T00:00:00.000Z", "VAL_METHOD": "IMAGERY", "VAL_DATE": "2014-02-10T00:00:00.000Z", "WEBSITE": "http://www.phelpsmemorial.com", "STATE_ID": "281362", "ALT_NAME": "NOT AVAILABLE", "ST_FIPS": "31", "OWNER": "NON-PROFIT", "TTL_STAFF": -999, "BEDS": 25, "TRAUMA": "LEVEL IV", "HELIPAD": "Y" }, "geometry": { "type": "Polygon", "coordinates": [ [ [ -99.365277, 40.321726 ], [ -99.368426, 40.321728 ], [ -99.515174, 40.350947 ], [ -99.530754, 40.452076 ], [ -99.530837, 40.488128 ], [ -99.530832, 40.495707 ], [ -99.38042, 40.583262 ], [ -99.361458, 40.568811 ], [ -99.341823, 40.553731 ], [ -99.2362028, 40.4666072 ], [ -99.2362345, 40.462562700000014 ], [ -99.255762, 40.408761 ], [ -99.365277, 40.321726 ] ] ] } },
{ "type": "Feature", "properties": { "OBJECTID": 5770, "ID": "0007668873", "NAME": "HOWARD COUNTY MEDICAL CENTER", "ADDRESS": "1113 SHERMAN ST", "CITY": "ST PAUL", "STATE": "NE", "ZIP": "68873", "ZIP4": "NOT AVAILABLE", "TELEPHONE": "(308) 754-4421", "TYPE": "CRITICAL ACCESS", "STATUS": "OPEN", "POPULATION": 25, "COUNTY": "HOWARD", "COUNTYFIPS": "31093", "COUNTRY": "USA", "LATITUDE": 41.217054487, "LONGITUDE": -98.46323549, "NAICS_CODE": "622110", "NAICS_DESC": "GENERAL MEDICAL AND SURGICAL HOSPITALS", "SOURCE": "http://dhhs.ne.gov/publichealth/Documents/Hospital%20Roster.pdf", "SOURCEDATE": "2018-08-09T00:00:00.000Z", "VAL_METHOD": "IMAGERY", "VAL_DATE": "2014-02-10T00:00:00.000Z", "WEBSITE": "http://www.hcchmc.org", "STATE_ID": "281338", "ALT_NAME": "NOT AVAILABLE", "ST_FIPS": "31", "OWNER": "GOVERNMENT - LOCAL", "TTL_STAFF": -999, "BEDS": 25, "TRAUMA": "LEVEL IV", "HELIPAD": "Y" }, "geometry": { "type": "Polygon", "coordinates": [ [ [ -98.3683157, 41.104918500000039 ], [ -98.3691639, 41.1049747 ], [ -98.44432, 41.120078 ], [ -98.557126, 41.148557 ], [ -98.633363, 41.213264 ], [ -98.633226, 41.214694 ], [ -98.633128, 41.21567 ], [ -98.632594, 41.22036 ], [ -98.573794, 41.2858 ], [ -98.448766, 41.350761 ], [ -98.383358, 41.285023 ], [ -98.305867, 41.191087 ], [ -98.3681127, 41.104954699999951 ], [ -98.3683157, 41.104918500000039 ] ] ] } },
{ "type": "Feature", "properties": { "OBJECTID": 5771, "ID": "0106769154", "NAME": "REGIONAL WEST GARDEN COUNTY HOSPITAL", "ADDRESS": "1100 WEST 2ND ST", "CITY": "OSHKOSH", "STATE": "NE", "ZIP": "69154", "ZIP4": "NOT AVAILABLE", "TELEPHONE": "(308) 772-3283", "TYPE": "CRITICAL ACCESS", "STATUS": "OPEN", "POPULATION": 10, "COUNTY": "GARDEN", "COUNTYFIPS": "31069", "COUNTRY": "USA", "LATITUDE": 41.412684825, "LONGITUDE": -102.34833477700001, "NAICS_CODE": "622110", "NAICS_DESC": "GENERAL MEDICAL AND SURGICAL HOSPITALS", "SOURCE": "http://dhhs.ne.gov/publichealth/Documents/Hospital%20Roster.pdf", "SOURCEDATE": "2018-08-09T00:00:00.000Z", "VAL_METHOD": "IMAGERY/OTHER", "VAL_DATE": "2015-02-18T00:00:00.000Z", "WEBSITE": "http://gchealth.org/garden-county-hospital/", "STATE_ID": "NOT AVAILABLE", "ALT_NAME": "NOT AVAILABLE", "ST_FIPS": "31", "OWNER": "GOVERNMENT - LOCAL", "TTL_STAFF": -999, "BEDS": 10, "TRAUMA": "NOT AVAILABLE", "HELIPAD": "Y" }, "geometry": { "type": "Polygon", "coordinates": [ [ [ -102.341712288761144, 41.279603353906253 ], [ -102.398424925176883, 41.322882550523239 ], [ -102.524374071408317, 41.466913418320374 ], [ -102.3474942, 41.525603599999982 ], [ -102.212550858627623, 41.409926870441382 ], [ -102.198078882173093, 41.353693820306667 ], [ -102.341712288761144, 41.279603353906253 ] ] ] } },
{ "type": "Feature", "properties": { "OBJECTID": 3058, "ID": "0001157730", "NAME": "CUSTER REGIONAL HOSPITAL", "ADDRESS": "1039 MONTGOMERY STREET", "CITY": "CUSTER", "STATE": "SD", "ZIP": "57730", "ZIP4": "NOT AVAILABLE", "TELEPHONE": "(605) 673-9400", "TYPE": "CRITICAL ACCESS", "STATUS": "OPEN", "POPULATION": 11, "COUNTY": "CUSTER", "COUNTYFIPS": "46033", "COUNTRY": "USA", "LATITUDE": 43.772662455000003, "LONGITUDE": -103.594120332, "NAICS_CODE": "622110", "NAICS_DESC": "GENERAL MEDICAL AND SURGICAL HOSPITALS", "SOURCE": "https://apps.sd.gov/ph04lassnet/rptPH04LicenseList.Aspx", "SOURCEDATE": "2018-08-10T00:00:00.000Z", "VAL_METHOD": "IMAGERY", "VAL_DATE": "2014-03-12T00:00:00.000Z", "WEBSITE": "http://www.regionalhealth.com", "STATE_ID": "NOT AVAILABLE", "ALT_NAME": "NOT AVAILABLE", "ST_FIPS": "46", "OWNER": "NON-PROFIT", "TTL_STAFF": -999, "BEDS": 11, "TRAUMA": "TRH", "HELIPAD": "Y" }, "geometry": { "type": "Polygon", "coordinates": [ [ [ -103.600584340547016, 43.676987015123849 ], [ -103.709473466469163, 43.730105611061035 ], [ -103.729636616670703, 43.742382100609738 ], [ -103.713590276172269, 43.80667938007327 ], [ -103.695824410914057, 43.83164040091664 ], [ -103.616097285003079, 43.873776821723901 ], [ -103.615456790756241, 43.87360531671888 ], [ -103.561599134331431, 43.843219009799839 ], [ -103.478735572872978, 43.760664572180694 ], [ -103.600584340547016, 43.676987015123849 ] ] ] } },
{ "type": "Feature", "properties": { "OBJECTID": 3081, "ID": "0007557747", "NAME": "FALL RIVER HOSPITAL", "ADDRESS": "1201 HIGHWAY 71 SOUTH", "CITY": "HOT SPRINGS", "STATE": "SD", "ZIP": "57747", "ZIP4": "NOT AVAILABLE", "TELEPHONE": "(605) 745-8910", "TYPE": "CRITICAL ACCESS", "STATUS": "OPEN", "POPULATION": 25, "COUNTY": "FALL RIVER", "COUNTYFIPS": "46047", "COUNTRY": "USA", "LATITUDE": 43.417208125999998, "LONGITUDE": -103.480089406, "NAICS_CODE": "622110", "NAICS_DESC": "GENERAL MEDICAL AND SURGICAL HOSPITALS", "SOURCE": "https://apps.sd.gov/ph04lassnet/rptPH04LicenseList.Aspx", "SOURCEDATE": "2018-08-10T00:00:00.000Z", "VAL_METHOD": "IMAGERY", "VAL_DATE": "2016-11-08T00:00:00.000Z", "WEBSITE": "http://www.frhssd.org/", "STATE_ID": "NOT AVAILABLE", "ALT_NAME": "NOT AVAILABLE", "ST_FIPS": "46", "OWNER": "NON-PROFIT", "TTL_STAFF": -999, "BEDS": 25, "TRAUMA": "TRH", "HELIPAD": "Y" }, "geometry": { "type": "Polygon", "coordinates": [ [ [ -103.381676486104922, 43.342146277268704 ], [ -103.55910383711479, 43.335584167883063 ], [ -103.638828869039031, 43.431133470687932 ], [ -103.638855508743234, 43.441180466005413 ], [ -103.577824141937825, 43.462953195136457 ], [ -103.490980046861253, 43.478249212000875 ], [ -103.464897959222668, 43.478796800297722 ], [ -103.451614260142023, 43.477603098476173 ], [ -103.3573632, 43.448852099999989 ], [ -103.3570611, 43.44869510000003 ], [ -103.381543787565292, 43.342240976874777 ], [ -103.381676486104922, 43.342146277268704 ] ] ] } },
{ "type": "Feature", "properties": { "OBJECTID": 3083, "ID": "0001068818", "NAME": "MEMORIAL HOSPITAL", "ADDRESS": "1423 SEVENTH ST", "CITY": "AURORA", "STATE": "NE", "ZIP": "68818", "ZIP4": "NOT AVAILABLE", "TELEPHONE": "(402) 694-3171", "TYPE": "CRITICAL ACCESS", "STATUS": "OPEN", "POPULATION": 14, "COUNTY": "HAMILTON", "COUNTYFIPS": "31081", "COUNTRY": "USA", "LATITUDE": 40.871234339000097, "LONGITUDE": -98.010640624999994, "NAICS_CODE": "622110", "NAICS_DESC": "GENERAL MEDICAL AND SURGICAL HOSPITALS", "SOURCE": "http://dhhs.ne.gov/publichealth/Documents/Hospital%20Roster.pdf", "SOURCEDATE": "2018-08-09T00:00:00.000Z", "VAL_METHOD": "IMAGERY", "VAL_DATE": "2014-02-10T00:00:00.000Z", "WEBSITE": "http://www.memorialcommunityhealth.org/", "STATE_ID": "281320", "ALT_NAME": "NOT AVAILABLE", "ST_FIPS": "31", "OWNER": "NON-PROFIT", "TTL_STAFF": -999, "BEDS": 14, "TRAUMA": "NOT AVAILABLE", "HELIPAD": "Y" }, "geometry": { "type": "Polygon", "coordinates": [ [ [ -97.997012, 40.741881 ], [ -98.149593, 40.843747 ], [ -98.168771, 40.858103 ], [ -98.1879989, 40.872500100000011 ], [ -98.168925, 40.88719 ], [ -98.112331, 40.930232 ], [ -97.998146, 41.003395 ], [ -97.8452102, 40.886899199999924 ], [ -97.883117, 40.819263 ], [ -97.997012, 40.741881 ] ] ] } },
{ "type": "Feature", "properties": { "OBJECTID": 3084, "ID": "0008768920", "NAME": "HARLAN COUNTY HEALTH SYSTEM", "ADDRESS": "717 NORTH BROWN ST", "CITY": "ALMA", "STATE": "NE", "ZIP": "68920", "ZIP4": "NOT AVAILABLE", "TELEPHONE": "(308) 928-2151", "TYPE": "CRITICAL ACCESS", "STATUS": "OPEN", "POPULATION": 19, "COUNTY": "HARLAN", "COUNTYFIPS": "31083", "COUNTRY": "USA", "LATITUDE": 40.1049921910001, "LONGITUDE": -99.364928305000007, "NAICS_CODE": "622110", "NAICS_DESC": "GENERAL MEDICAL AND SURGICAL HOSPITALS", "SOURCE": "http://dhhs.ne.gov/publichealth/Documents/Hospital%20Roster.pdf", "SOURCEDATE": "2018-08-09T00:00:00.000Z", "VAL_METHOD": "IMAGERY", "VAL_DATE": "2014-02-10T00:00:00.000Z", "WEBSITE": "http://www.harlancountyhealth.com", "STATE_ID": "281300", "ALT_NAME": "NOT AVAILABLE", "ST_FIPS": "31", "OWNER": "GOVERNMENT - LOCAL", "TTL_STAFF": -999, "BEDS": 19, "TRAUMA": "NOT AVAILABLE", "HELIPAD": "Y" }, "geometry": { "type": "Polygon", "coordinates": [ [ [ -99.352105, 39.994514 ], [ -99.414321, 40.009354 ], [ -99.462086, 40.04583 ], [ -99.5170534, 40.131205900000026 ], [ -99.498809, 40.167834 ], [ -99.368294, 40.249142 ], [ -99.311578, 40.205546 ], [ -99.1791361, 40.103429500000018 ], [ -99.210798, 40.074849 ], [ -99.352105, 39.994514 ] ] ] } },
{ "type": "Feature", "properties": { "OBJECTID": 3090, "ID": "0002068467", "NAME": "YORK GENERAL HOSPITAL", "ADDRESS": "2222 NORTH LINCOLN AVE", "CITY": "YORK", "STATE": "NE", "ZIP": "68467", "ZIP4": "NOT AVAILABLE", "TELEPHONE": "(402) 362-6671", "TYPE": "CRITICAL ACCESS", "STATUS": "OPEN", "POPULATION": 25, "COUNTY": "YORK", "COUNTYFIPS": "31185", "COUNTRY": "USA", "LATITUDE": 40.882571794999997, "LONGITUDE": -97.592153396999905, "NAICS_CODE": "622110", "NAICS_DESC": "GENERAL MEDICAL AND SURGICAL HOSPITALS", "SOURCE": "http://dhhs.ne.gov/publichealth/Documents/Hospital%20Roster.pdf", "SOURCEDATE": "2018-08-09T00:00:00.000Z", "VAL_METHOD": "IMAGERY", "VAL_DATE": "2014-02-10T00:00:00.000Z", "WEBSITE": "http://www.yorkgeneral.org", "STATE_ID": "281336", "ALT_NAME": "NOT AVAILABLE", "ST_FIPS": "31", "OWNER": "NON-PROFIT", "TTL_STAFF": -999, "BEDS": 25, "TRAUMA": "NOT AVAILABLE", "HELIPAD": "Y" }, "geometry": { "type": "Polygon", "coordinates": [ [ [ -97.5974845, 40.7463598 ], [ -97.7001784, 40.8215249 ], [ -97.7692919, 40.887063900000022 ], [ -97.597678, 41.017132 ], [ -97.42546, 40.901413 ], [ -97.464061, 40.857588 ], [ -97.5974845, 40.7463598 ] ] ] } },
{ "type": "Feature", "properties": { "OBJECTID": 3110, "ID": "0005468359", "NAME": "WARREN MEMORIAL HOSPITAL", "ADDRESS": "905 SECOND ST", "CITY": "FRIEND", "STATE": "NE", "ZIP": "68359", "ZIP4": "NOT AVAILABLE", "TELEPHONE": "(402) 947-2541", "TYPE": "CRITICAL ACCESS", "STATUS": "OPEN", "POPULATION": 19, "COUNTY": "SALINE", "COUNTYFIPS": "31151", "COUNTRY": "USA", "LATITUDE": 40.653456237999997, "LONGITUDE": -97.281650268000007, "NAICS_CODE": "622110", "NAICS_DESC": "GENERAL MEDICAL AND SURGICAL HOSPITALS", "SOURCE": "http://dhhs.ne.gov/publichealth/Documents/Hospital%20Roster.pdf", "SOURCEDATE": "2018-08-09T00:00:00.000Z", "VAL_METHOD": "IMAGERY", "VAL_DATE": "2014-02-10T00:00:00.000Z", "WEBSITE": "http://www.warrenmemorialhospital.org", "STATE_ID": "281330", "ALT_NAME": "NOT AVAILABLE", "ST_FIPS": "31", "OWNER": "GOVERNMENT - LOCAL", "TTL_STAFF": -999, "BEDS": 19, "TRAUMA": "NOT AVAILABLE", "HELIPAD": "Y" }, "geometry": { "type": "Polygon", "coordinates": [ [ [ -97.254691, 40.553209 ], [ -97.292632, 40.553257 ], [ -97.330638, 40.567876 ], [ -97.444698, 40.626011 ], [ -97.463782, 40.64047 ], [ -97.450148, 40.655003 ], [ -97.292207, 40.785599 ], [ -97.122228, 40.683459 ], [ -97.103257, 40.668867 ], [ -97.103247, 40.654364 ], [ -97.1032619, 40.6433686 ], [ -97.103268, 40.642544 ], [ -97.103289, 40.639872 ], [ -97.122313, 40.625551 ], [ -97.159892, 40.604078 ], [ -97.254691, 40.553209 ] ] ] } },
{ "type": "Feature", "properties": { "OBJECTID": 3162, "ID": "0001857747", "NAME": "FALL RIVER HEALTH SERVICES", "ADDRESS": "209 NORTH 16TH STREET", "CITY": "HOT SPRINGS", "STATE": "SD", "ZIP": "57747", "ZIP4": "NOT AVAILABLE", "TELEPHONE": "(605) 745-3159", "TYPE": "GENERAL ACUTE CARE", "STATUS": "CLOSED", "POPULATION": 25, "COUNTY": "FALL RIVER", "COUNTYFIPS": "46047", "COUNTRY": "USA", "LATITUDE": 43.431181709000001, "LONGITUDE": -103.480144134, "NAICS_CODE": "622110", "NAICS_DESC": "GENERAL MEDICAL AND SURGICAL HOSPITALS", "SOURCE": "http://arcgis.sd.gov/ArcGIS/rest/services/SD_All/MapServer/38", "SOURCEDATE": "2012-11-24T00:00:00.000Z", "VAL_METHOD": "IMAGERY", "VAL_DATE": "2014-02-10T00:00:00.000Z", "WEBSITE": "http://www.fallriverhealthservices.com", "STATE_ID": "NOT AVAILABLE", "ALT_NAME": "NOT AVAILABLE", "ST_FIPS": "46", "OWNER": "NON-PROFIT", "TTL_STAFF": -999, "BEDS": 25, "TRAUMA": "NOT AVAILABLE", "HELIPAD": "N" }, "geometry": { "type": "Polygon", "coordinates": [ [ [ -103.382218508959824, 43.347066766857466 ], [ -103.546345212287335, 43.345311322506355 ], [ -103.638828869039031, 43.431133470687932 ], [ -103.638855508743234, 43.441180466005413 ], [ -103.577824141937825, 43.462953195136457 ], [ -103.490980046861253, 43.478249212000875 ], [ -103.464897959222668, 43.478796800297722 ], [ -103.451614260142023, 43.477603098476173 ], [ -103.3573632, 43.448852099999989 ], [ -103.3570611, 43.44869510000003 ], [ -103.382218508959824, 43.347066766857466 ] ] ] } },
{ "type": "Feature", "properties": { "OBJECTID": 3166, "ID": "0004657702", "NAME": "REGIONAL BEHAVIORAL HEALTH CENTER", "ADDRESS": "915 MOUNTAIN VIEW ROAD", "CITY": "RAPID CITY", "STATE": "SD", "ZIP": "57702", "ZIP4": "NOT AVAILABLE", "TELEPHONE": "(605) 719-7200", "TYPE": "PSYCHIATRIC", "STATUS": "OPEN", "POPULATION": -999, "COUNTY": "PENNINGTON", "COUNTYFIPS": "46103", "COUNTRY": "USA", "LATITUDE": 44.077838440999997, "LONGITUDE": -103.252711879, "NAICS_CODE": "622210", "NAICS_DESC": "PSYCHIATRIC AND SUBSTANCE ABUSE HOSPITALS", "SOURCE": "https://apps.sd.gov/ph04lassnet/rptPH04LicenseList.Aspx", "SOURCEDATE": "2018-08-10T00:00:00.000Z", "VAL_METHOD": "IMAGERY", "VAL_DATE": "2014-02-10T00:00:00.000Z", "WEBSITE": "http://www.regionalhealth.com/Our-Locations/Institutes/Regional-Behavioral-Health-Center.aspx", "STATE_ID": "NOT AVAILABLE", "ALT_NAME": "NOT AVAILABLE", "ST_FIPS": "46", "OWNER": "NON-PROFIT", "TTL_STAFF": -999, "BEDS": -999, "TRAUMA": "NOT AVAILABLE", "HELIPAD": "N" }, "geometry": { "type": "Polygon", "coordinates": [ [ [ -103.2685991, 43.991801100000018 ], [ -103.303859200000019, 44.008483400000017 ], [ -103.3644587, 44.054935399999934 ], [ -103.3624844, 44.111983900000027 ], [ -103.3214834, 44.169378799999983 ], [ -103.201876, 44.140914 ], [ -103.10584230000002, 44.114601300000018 ], [ -103.1399338, 44.052238399999979 ], [ -103.2685991, 43.991801100000018 ] ] ] } },
{ "type": "Feature", "properties": { "OBJECTID": 3539, "ID": "0107168845", "NAME": "KEARNEY REGIONAL MEDICAL CENTER", "ADDRESS": "804 22ND AVENUE", "CITY": "KEARNEY", "STATE": "NE", "ZIP": "68845", "ZIP4": "NOT AVAILABLE", "TELEPHONE": "(308) 455-3600", "TYPE": "GENERAL ACUTE CARE", "STATUS": "OPEN", "POPULATION": 89, "COUNTY": "BUFFALO", "COUNTYFIPS": "31019", "COUNTRY": "USA", "LATITUDE": 40.682050946000103, "LONGITUDE": -99.112589729000007, "NAICS_CODE": "622110", "NAICS_DESC": "GENERAL MEDICAL AND SURGICAL HOSPITALS", "SOURCE": "http://dhhs.ne.gov/publichealth/Documents/Hospital%20Roster.pdf", "SOURCEDATE": "2018-08-09T00:00:00.000Z", "VAL_METHOD": "IMAGERY/OTHER", "VAL_DATE": "2015-02-18T00:00:00.000Z", "WEBSITE": "https://www.kearneyregional.com/", "STATE_ID": "NOT AVAILABLE", "ALT_NAME": "NOT AVAILABLE", "ST_FIPS": "31", "OWNER": "PROPRIETARY", "TTL_STAFF": -999, "BEDS": 89, "TRAUMA": "NOT AVAILABLE", "HELIPAD": "N" }, "geometry": { "type": "Polygon", "coordinates": [ [ [ -99.086188, 40.6555108 ], [ -99.217858, 40.675486 ], [ -99.255682, 40.692297 ], [ -99.274257, 40.704662 ], [ -99.121748, 40.786183 ], [ -99.0833383, 40.773874099999979 ], [ -98.9693582, 40.7206841 ], [ -98.947821, 40.687688 ], [ -98.9516059, 40.6848046 ], [ -99.0085143, 40.6705187 ], [ -99.086188, 40.6555108 ] ] ] } },
{ "type": "Feature", "properties": { "OBJECTID": 3542, "ID": "0006568978", "NAME": "BRODSTONE MEMORIAL HOSP", "ADDRESS": "520 EAST 10TH ST", "CITY": "SUPERIOR", "STATE": "NE", "ZIP": "68978", "ZIP4": "NOT AVAILABLE", "TELEPHONE": "(402) 879-3281", "TYPE": "CRITICAL ACCESS", "STATUS": "OPEN", "POPULATION": 25, "COUNTY": "NUCKOLLS", "COUNTYFIPS": "31129", "COUNTRY": "USA", "LATITUDE": 40.026443384000103, "LONGITUDE": -98.065949124, "NAICS_CODE": "622110", "NAICS_DESC": "GENERAL MEDICAL AND SURGICAL HOSPITALS", "SOURCE": "http://dhhs.ne.gov/publichealth/Documents/Hospital%20Roster.pdf", "SOURCEDATE": "2018-08-09T00:00:00.000Z", "VAL_METHOD": "IMAGERY", "VAL_DATE": "2014-02-10T00:00:00.000Z", "WEBSITE": "http://www.brodstonehospital.org", "STATE_ID": "281315", "ALT_NAME": "NOT AVAILABLE", "ST_FIPS": "31", "OWNER": "NON-PROFIT", "TTL_STAFF": -999, "BEDS": 25, "TRAUMA": "NOT AVAILABLE", "HELIPAD": "Y" }, "geometry": { "type": "Polygon", "coordinates": [ [ [ -98.035326, 39.928562 ], [ -98.042686, 39.928585 ], [ -98.080159, 39.943438 ], [ -98.1771469, 40.01686829999997 ], [ -98.185464, 40.047005 ], [ -98.185446, 40.053097 ], [ -98.1799622, 40.0893338 ], [ -98.0690364, 40.176871100000014 ], [ -98.0286215, 40.14749 ], [ -97.895855, 40.016542 ], [ -97.9159584, 40.002134699999985 ], [ -98.035326, 39.928562 ] ] ] } },
{ "type": "Feature", "properties": { "OBJECTID": 3543, "ID": "0010969162", "NAME": "SIDNEY REGIONAL MEDICAL CENTER", "ADDRESS": "1000 POLE CREEK CROSSING", "CITY": "SIDNEY", "STATE": "NE", "ZIP": "69162", "ZIP4": "NOT AVAILABLE", "TELEPHONE": "(308) 254-5825", "TYPE": "GENERAL ACUTE CARE", "STATUS": "OPEN", "POPULATION": 25, "COUNTY": "CHEYENNE", "COUNTYFIPS": "31033", "COUNTRY": "USA", "LATITUDE": 41.136212141000001, "LONGITUDE": -102.952119553, "NAICS_CODE": "622110", "NAICS_DESC": "GENERAL MEDICAL AND SURGICAL HOSPITALS", "SOURCE": "http://dhhs.ne.gov/publichealth/Documents/Hospital%20Roster.pdf", "SOURCEDATE": "2018-08-09T00:00:00.000Z", "VAL_METHOD": "IMAGERY/OTHER", "VAL_DATE": "2016-08-19T00:00:00.000Z", "WEBSITE": "http://www.sidneyrmc.com/", "STATE_ID": "NOT AVAILABLE", "ALT_NAME": "NOT AVAILABLE", "ST_FIPS": "31", "OWNER": "NON-PROFIT", "TTL_STAFF": -999, "BEDS": 25, "TRAUMA": "NOT AVAILABLE", "HELIPAD": "Y" }, "geometry": { "type": "Polygon", "coordinates": [ [ [ -102.963908780338571, 41.03325073459532 ], [ -102.983071523158202, 41.033236596876989 ], [ -103.069572017960269, 41.076451947101056 ], [ -103.108354153466991, 41.184409270103643 ], [ -102.973656213183204, 41.264846038851637 ], [ -102.782693981334646, 41.155417227162829 ], [ -102.935771964738521, 41.047722614809025 ], [ -102.963908780338571, 41.03325073459532 ] ] ] } },
{ "type": "Feature", "properties": { "OBJECTID": 3774, "ID": "0001368371", "NAME": "HENDERSON HEALTH CARE SERVICES", "ADDRESS": "1621 FRONT STREET", "CITY": "HENDERSON", "STATE": "NE", "ZIP": "68371", "ZIP4": "NOT AVAILABLE", "TELEPHONE": "(402) 723-4512", "TYPE": "CRITICAL ACCESS", "STATUS": "OPEN", "POPULATION": 13, "COUNTY": "YORK", "COUNTYFIPS": "31185", "COUNTRY": "USA", "LATITUDE": 40.783347944000099, "LONGITUDE": -97.807545262000005, "NAICS_CODE": "622110", "NAICS_DESC": "GENERAL MEDICAL AND SURGICAL HOSPITALS", "SOURCE": "http://dhhs.ne.gov/publichealth/Documents/Hospital%20Roster.pdf", "SOURCEDATE": "2018-08-09T00:00:00.000Z", "VAL_METHOD": "IMAGERY", "VAL_DATE": "2014-02-10T00:00:00.000Z", "WEBSITE": "http://www.hendersonhealthcare.org/getpage.php?name=message", "STATE_ID": "281308", "ALT_NAME": "NOT AVAILABLE", "ST_FIPS": "31", "OWNER": "NON-PROFIT", "TTL_STAFF": -999, "BEDS": 13, "TRAUMA": "NOT AVAILABLE", "HELIPAD": "N" }, "geometry": { "type": "Polygon", "coordinates": [ [ [ -97.748108, 40.698703 ], [ -97.768525, 40.698584 ], [ -97.860786, 40.698489 ], [ -97.940179, 40.770865 ], [ -97.9401636, 40.799906399999962 ], [ -97.892797, 40.843422 ], [ -97.826107, 40.901402 ], [ -97.807519, 40.901451 ], [ -97.788473, 40.901468 ], [ -97.6395, 40.821107 ], [ -97.654745, 40.785515 ], [ -97.711647, 40.727612 ], [ -97.748108, 40.698703 ] ] ] } },
{ "type": "Feature", "properties": { "OBJECTID": 3775, "ID": "0004169162", "NAME": "SIDNEY REGIONAL MEDICAL CENTER", "ADDRESS": "645 OSAGE ST", "CITY": "SIDNEY", "STATE": "NE", "ZIP": "69162", "ZIP4": "NOT AVAILABLE", "TELEPHONE": "(308) 254-5825", "TYPE": "LONG TERM CARE", "STATUS": "CLOSED", "POPULATION": 88, "COUNTY": "CHEYENNE", "COUNTYFIPS": "31033", "COUNTRY": "USA", "LATITUDE": 41.1379372500001, "LONGITUDE": -102.972619561, "NAICS_CODE": "622110", "NAICS_DESC": "GENERAL MEDICAL AND SURGICAL HOSPITALS", "SOURCE": "http://dhhs.ne.gov/publichealth/Documents/Hospital%20Roster.pdf", "SOURCEDATE": "2016-08-16T00:00:00.000Z", "VAL_METHOD": "IMAGERY", "VAL_DATE": "2014-02-10T00:00:00.000Z", "WEBSITE": "http://www.sidneyrmc.com", "STATE_ID": "281357", "ALT_NAME": "NOT AVAILABLE", "ST_FIPS": "31", "OWNER": "NON-PROFIT", "TTL_STAFF": -999, "BEDS": 88, "TRAUMA": "NOT AVAILABLE", "HELIPAD": "N" }, "geometry": { "type": "Polygon", "coordinates": [ [ [ -102.963908780338571, 41.03325073459532 ], [ -102.983071523158202, 41.033236596876989 ], [ -103.068286844238926, 41.046571493640585 ], [ -103.069501051492452, 41.047499385697456 ], [ -103.135765679851843, 41.179688746591843 ], [ -103.120078885064032, 41.192509916859194 ], [ -102.992802130264977, 41.250292603029074 ], [ -102.973684477639353, 41.250292256426157 ], [ -102.801808429619044, 41.155806678813235 ], [ -102.935771964738521, 41.047722614809025 ], [ -102.963908780338571, 41.03325073459532 ] ] ] } },
{ "type": "Feature", "properties": { "OBJECTID": 3888, "ID": "0174568803", "NAME": "VA NEBRASKA-WESTERN IOWA HEALTH CARE SYSTEM", "ADDRESS": "2201 NO. BROADWELL AVENUE", "CITY": "GRAND ISLAND", "STATE": "NE", "ZIP": "68803", "ZIP4": "2196", "TELEPHONE": "(308) 382-3660", "TYPE": "MILITARY", "STATUS": "OPEN", "POPULATION": -999, "COUNTY": "HALL", "COUNTYFIPS": "31079", "COUNTRY": "USA", "LATITUDE": 40.943051, "LONGITUDE": -98.357221, "NAICS_CODE": "622110", "NAICS_DESC": "GENERAL MEDICAL AND SURGICAL HOSPITALS", "SOURCE": "https://www.va.gov/directory/guide/allstate.asp", "SOURCEDATE": "2018-09-26T00:00:00.000Z", "VAL_METHOD": "IMAGERY", "VAL_DATE": "2019-05-09T00:00:00.000Z", "WEBSITE": "https://www.nebraska.va.gov/locations/Grand_Island.asp", "STATE_ID": "NOT AVAILABLE", "ALT_NAME": "NOT AVAILABLE", "ST_FIPS": "31", "OWNER": "GOVERNMENT - FEDERAL", "TTL_STAFF": -999, "BEDS": -999, "TRAUMA": "NOT AVAILABLE", "HELIPAD": "N" }, "geometry": { "type": "Polygon", "coordinates": [ [ [ -98.3785814, 40.83183650000003 ], [ -98.379698, 40.831867399999979 ], [ -98.4648078, 40.871283200000029 ], [ -98.531104, 40.98545 ], [ -98.3632483, 41.0902743 ], [ -98.3589388, 41.090287500000024 ], [ -98.2144419, 40.9882041 ], [ -98.2258116, 40.944700300000036 ], [ -98.274236, 40.869729 ], [ -98.3783535, 40.831901400000071 ], [ -98.3785814, 40.83183650000003 ] ] ] } }
]
}
