{
"type": "FeatureCollection",
"crs": { "type": "name", "properties": { "name": "urn:ogc:def:crs:OGC:1.3:CRS84" } },
"features": [
{ "type": "Feature", "properties": { "OBJECTID": 1437, "ID": "0009146952", "NAME": "MARION GENERAL HOSPITAL", "ADDRESS": "441 N WABASH AVE", "CITY": "MARION", "STATE": "IN", "ZIP": "46952", "ZIP4": "NOT AVAILABLE", "TELEPHONE": "(765) 660-6000", "TYPE": "GENERAL ACUTE CARE", "STATUS": "OPEN", "POPULATION": 97, "COUNTY": "GRANT", "COUNTYFIPS": "18053", "COUNTRY": "USA", "LATITUDE": 40.563695203000101, "LONGITUDE": -85.664163259000006, "NAICS_CODE": "622110", "NAICS_DESC": "GENERAL MEDICAL AND SURGICAL HOSPITALS", "SOURCE": "http://www.in.gov/isdh/reports/QAMIS/hosdir", "SOURCEDATE": "2018-08-16T00:00:00.000Z", "VAL_METHOD": "IMAGERY", "VAL_DATE": "2014-02-10T00:00:00.000Z", "WEBSITE": "http://www.mgh.net", "STATE_ID": "17-005011-1", "ALT_NAME": "NOT AVAILABLE", "ST_FIPS": "18", "OWNER": "NON-PROFIT", "TTL_STAFF": -999, "BEDS": 97, "TRAUMA": "NOT AVAILABLE", "HELIPAD": "Y" }, "geometry": { "type": "Polygon", "coordinates": [ [ [ -85.6721666, 40.478288500000033 ], [ -85.693782, 40.480364800000032 ], [ -85.806851600000016, 40.574442900000044 ], [ -85.711188, 40.652684 ], [ -85.6258832, 40.647514900000019 ], [ -85.5416097, 40.553531599999971 ], [ -85.6347422, 40.4970303 ], [ -85.66878220000001, 40.478385399999944 ], [ -85.6721666, 40.478288500000033 ] ] ] } },
{ "type": "Feature", "properties": { "OBJECTID": 1440, "ID": "0010446750", "NAME": "PARKVIEW HUNTINGTON HOSPITAL", "ADDRESS": "2001 STULTS RD", "CITY": "HUNTINGTON", "STATE": "IN", "ZIP": "46750", "ZIP4": "NOT AVAILABLE", "TELEPHONE": "(260) 355-3000", "TYPE": "GENERAL ACUTE CARE", "STATUS": "OPEN", "POPULATION": 36, "COUNTY": "HUNTINGTON", "COUNTYFIPS": "18069", "COUNTRY": "USA", "LATITUDE": 40.9058777380001, "LONGITUDE": -85.488746982999899, "NAICS_CODE": "622110", "NAICS_DESC": "GENERAL MEDICAL AND SURGICAL HOSPITALS", "SOURCE": "http://www.in.gov/isdh/reports/QAMIS/hosdir", "SOURCEDATE": "2018-08-16T00:00:00.000Z", "VAL_METHOD": "IMAGERY", "VAL_DATE": "2014-02-10T00:00:00.000Z", "WEBSITE": "http://www.parkview.com", "STATE_ID": "17-005081-1", "ALT_NAME": "NOT AVAILABLE", "ST_FIPS": "18", "OWNER": "NON-PROFIT", "TTL_STAFF": -999, "BEDS": 36, "TRAUMA": "NOT AVAILABLE", "HELIPAD": "Y" }, "geometry": { "type": "Polygon", "coordinates": [ [ [ -85.543874, 40.814132 ], [ -85.641063, 40.852332 ], [ -85.641066, 40.85252670000002 ], [ -85.565914, 40.959196 ], [ -85.491061, 40.990077 ], [ -85.477765, 40.990121 ], [ -85.471628, 40.990131 ], [ -85.368494, 40.971165 ], [ -85.3527896, 40.960210500000038 ], [ -85.374613, 40.903714 ], [ -85.422288, 40.845057 ], [ -85.465322, 40.829648 ], [ -85.543569, 40.814135 ], [ -85.543874, 40.814132 ] ] ] } },
{ "type": "Feature", "properties": { "OBJECTID": 1481, "ID": "0016546992", "NAME": "PARKVIEW WABASH HOSPITAL", "ADDRESS": "710 N EAST ST", "CITY": "WABASH", "STATE": "IN", "ZIP": "46992", "ZIP4": "NOT AVAILABLE", "TELEPHONE": "(260) 563-3131", "TYPE": "CRITICAL ACCESS", "STATUS": "OPEN", "POPULATION": 25, "COUNTY": "WABASH", "COUNTYFIPS": "18169", "COUNTRY": "USA", "LATITUDE": 40.806916615, "LONGITUDE": -85.815870036000007, "NAICS_CODE": "622110", "NAICS_DESC": "GENERAL MEDICAL AND SURGICAL HOSPITALS", "SOURCE": "http://www.in.gov/isdh/reports/QAMIS/hosdir", "SOURCEDATE": "2018-08-16T00:00:00.000Z", "VAL_METHOD": "IMAGERY", "VAL_DATE": "2016-04-28T00:00:00.000Z", "WEBSITE": "http://www.wchospital.com", "STATE_ID": "17-005094-1", "ALT_NAME": "NOT AVAILABLE", "ST_FIPS": "18", "OWNER": "GOVERNMENT - LOCAL", "TTL_STAFF": -999, "BEDS": 25, "TRAUMA": "NOT AVAILABLE", "HELIPAD": "Y" }, "geometry": { "type": "Polygon", "coordinates": [ [ [ -85.827493, 40.701993 ], [ -85.9707696, 40.8079822 ], [ -85.970776, 40.808549 ], [ -85.887584, 40.868123 ], [ -85.79156, 40.901899 ], [ -85.680211, 40.852643 ], [ -85.680195, 40.852137 ], [ -85.680199, 40.851907 ], [ -85.781538, 40.724122 ], [ -85.827493, 40.701993 ] ] ] } },
{ "type": "Feature", "properties": { "OBJECTID": 2251, "ID": "0123645801", "NAME": "KINDRED HOSPITAL LIMA", "ADDRESS": "730 W MARKET ST", "CITY": "LIMA", "STATE": "OH", "ZIP": "45801", "ZIP4": "NOT AVAILABLE", "TELEPHONE": "(419) 224-1888", "TYPE": "LONG TERM CARE", "STATUS": "OPEN", "POPULATION": 26, "COUNTY": "ALLEN", "COUNTYFIPS": "39003", "COUNTRY": "USA", "LATITUDE": 40.741067731999998, "LONGITUDE": -84.117988122, "NAICS_CODE": "622310", "NAICS_DESC": "SPECIALTY (EXCEPT PSYCHIATRIC AND SUBSTANCE ABUSE) HOSPITALS", "SOURCE": "http://publicapps.odh.ohio.gov/EID/Provider_Search.aspx", "SOURCEDATE": "2018-08-10T00:00:00.000Z", "VAL_METHOD": "IMAGERY/OTHER", "VAL_DATE": "2015-03-10T00:00:00.000Z", "WEBSITE": "http://www.khlima.com/", "STATE_ID": "1425", "ALT_NAME": "NOT AVAILABLE", "ST_FIPS": "39", "OWNER": "PROPRIETARY", "TTL_STAFF": -999, "BEDS": 26, "TRAUMA": "NOT AVAILABLE", "HELIPAD": "Y" }, "geometry": { "type": "Polygon", "coordinates": [ [ [ -84.1341339, 40.644014499999933 ], [ -84.2230542, 40.71465059999997 ], [ -84.232961, 40.751217 ], [ -84.224007, 40.795791 ], [ -84.1570068, 40.8371144 ], [ -84.137863, 40.84582 ], [ -84.086792, 40.832458399999965 ], [ -84.0850713, 40.8319611 ], [ -84.018105, 40.796303 ], [ -84.013119, 40.7891847 ], [ -83.9847869, 40.731251899999961 ], [ -84.0020924, 40.705717099999987 ], [ -84.1341339, 40.644014499999933 ] ] ] } },
{ "type": "Feature", "properties": { "OBJECTID": 2287, "ID": "0014645801", "NAME": "ST RITA'S MEDICAL CENTER", "ADDRESS": "730 WEST MARKET STREET", "CITY": "LIMA", "STATE": "OH", "ZIP": "45801", "ZIP4": "NOT AVAILABLE", "TELEPHONE": "(419) 226-4584", "TYPE": "GENERAL ACUTE CARE", "STATUS": "OPEN", "POPULATION": 424, "COUNTY": "ALLEN", "COUNTYFIPS": "39003", "COUNTRY": "USA", "LATITUDE": 40.740932887, "LONGITUDE": -84.118445671000003, "NAICS_CODE": "622110", "NAICS_DESC": "GENERAL MEDICAL AND SURGICAL HOSPITALS", "SOURCE": "http://publicapps.odh.ohio.gov/EID/Provider_Search.aspx", "SOURCEDATE": "2018-08-10T00:00:00.000Z", "VAL_METHOD": "IMAGERY", "VAL_DATE": "2014-02-10T00:00:00.000Z", "WEBSITE": "http://www.ehealthconnection.com/regions/mercy_st_ritas/", "STATE_ID": "1103", "ALT_NAME": "NOT AVAILABLE", "ST_FIPS": "39", "OWNER": "NON-PROFIT", "TTL_STAFF": -999, "BEDS": 424, "TRAUMA": "LEVEL II", "HELIPAD": "Y" }, "geometry": { "type": "Polygon", "coordinates": [ [ [ -84.1341339, 40.644014499999933 ], [ -84.2230542, 40.71465059999997 ], [ -84.232961, 40.751217 ], [ -84.224007, 40.795791 ], [ -84.1570068, 40.8371144 ], [ -84.137863, 40.84582 ], [ -84.086792, 40.832458399999965 ], [ -84.0850713, 40.8319611 ], [ -84.018105, 40.796303 ], [ -84.013119, 40.7891847 ], [ -83.9847869, 40.731251899999961 ], [ -84.0020924, 40.705717099999987 ], [ -84.1341339, 40.644014499999933 ] ] ] } },
{ "type": "Feature", "properties": { "OBJECTID": 2301, "ID": "0005445885", "NAME": "JOINT TOWNSHIP DISTRICT MEMORIAL HOSPITAL", "ADDRESS": "200 SAINT CLAIR STREET", "CITY": "SAINT MARYS", "STATE": "OH", "ZIP": "45885", "ZIP4": "NOT AVAILABLE", "TELEPHONE": "(419) 394-3335", "TYPE": "GENERAL ACUTE CARE", "STATUS": "OPEN", "POPULATION": 140, "COUNTY": "AUGLAIZE", "COUNTYFIPS": "39011", "COUNTRY": "USA", "LATITUDE": 40.544350846, "LONGITUDE": -84.370713566999896, "NAICS_CODE": "622110", "NAICS_DESC": "GENERAL MEDICAL AND SURGICAL HOSPITALS", "SOURCE": "http://publicapps.odh.ohio.gov/EID/Provider_Search.aspx", "SOURCEDATE": "2018-08-10T00:00:00.000Z", "VAL_METHOD": "IMAGERY", "VAL_DATE": "2014-02-10T00:00:00.000Z", "WEBSITE": "http://www.grandlakehealth.org", "STATE_ID": "1111", "ALT_NAME": "GRAND LAKE HEALTH SYSTEM", "ST_FIPS": "39", "OWNER": "NON-PROFIT", "TTL_STAFF": -999, "BEDS": 140, "TRAUMA": "NOT AVAILABLE", "HELIPAD": "Y" }, "geometry": { "type": "Polygon", "coordinates": [ [ [ -84.377054, 40.465977 ], [ -84.4345619, 40.494985099999958 ], [ -84.444057, 40.505789 ], [ -84.474598, 40.551029 ], [ -84.475034, 40.593143 ], [ -84.415774, 40.611702 ], [ -84.353185, 40.617966 ], [ -84.226917, 40.565901 ], [ -84.2264015, 40.563151 ], [ -84.2867333, 40.496314400000017 ], [ -84.316795, 40.473834 ], [ -84.377054, 40.465977 ] ] ] } },
{ "type": "Feature", "properties": { "OBJECTID": 6042, "ID": "0000246733", "NAME": "ADAMS MEMORIAL HOSPITAL", "ADDRESS": "1100 MERCER AVE", "CITY": "DECATUR", "STATE": "IN", "ZIP": "46733", "ZIP4": "NOT AVAILABLE", "TELEPHONE": "(260) 724-2145", "TYPE": "CRITICAL ACCESS", "STATUS": "OPEN", "POPULATION": 35, "COUNTY": "ADAMS", "COUNTYFIPS": "18001", "COUNTRY": "USA", "LATITUDE": 40.81622244, "LONGITUDE": -84.914361670999895, "NAICS_CODE": "622110", "NAICS_DESC": "GENERAL MEDICAL AND SURGICAL HOSPITALS", "SOURCE": "http://www.in.gov/isdh/reports/QAMIS/hosdir", "SOURCEDATE": "2018-08-16T00:00:00.000Z", "VAL_METHOD": "IMAGERY", "VAL_DATE": "2014-01-22T00:00:00.000Z", "WEBSITE": "http://www.adamshospital.com", "STATE_ID": "17-004747-1", "ALT_NAME": "NOT AVAILABLE", "ST_FIPS": "18", "OWNER": "GOVERNMENT - LOCAL", "TTL_STAFF": -999, "BEDS": 35, "TRAUMA": "NOT AVAILABLE", "HELIPAD": "Y" }, "geometry": { "type": "Polygon", "coordinates": [ [ [ -84.951246457454985, 40.748046139939888 ], [ -84.951604358847277, 40.748218939480161 ], [ -85.014764932826438, 40.81623906107906 ], [ -85.02455999182726, 40.83178807303932 ], [ -85.015972923054804, 40.894530134534733 ], [ -84.957373682795065, 40.893184131453829 ], [ -84.89985047393273, 40.876847115337121 ], [ -84.861668335736965, 40.862617111607968 ], [ -84.823635, 40.841618 ], [ -84.825644, 40.768536 ], [ -84.841406265100233, 40.76128712251176 ], [ -84.898519468600853, 40.745652087427658 ], [ -84.898858469806683, 40.745658087126039 ], [ -84.951246457454985, 40.748046139939888 ] ] ] } },
{ "type": "Feature", "properties": { "OBJECTID": 6043, "ID": "0006447348", "NAME": "INDIANA UNIVERSITY HEALTH BLACKFORD HOSPITAL", "ADDRESS": "410 PILGRIM BLVD", "CITY": "HARTFORD CITY", "STATE": "IN", "ZIP": "47348", "ZIP4": "NOT AVAILABLE", "TELEPHONE": "(765) 348-0300", "TYPE": "CRITICAL ACCESS", "STATUS": "OPEN", "POPULATION": 15, "COUNTY": "BLACKFORD", "COUNTYFIPS": "18009", "COUNTRY": "USA", "LATITUDE": 40.467946044000001, "LONGITUDE": -85.372722522999894, "NAICS_CODE": "622110", "NAICS_DESC": "GENERAL MEDICAL AND SURGICAL HOSPITALS", "SOURCE": "http://www.in.gov/isdh/reports/QAMIS/hosdir", "SOURCEDATE": "2018-08-16T00:00:00.000Z", "VAL_METHOD": "IMAGERY", "VAL_DATE": "2014-03-12T00:00:00.000Z", "WEBSITE": "http://www.iuhealth.org", "STATE_ID": "17-005101-1", "ALT_NAME": "NOT AVAILABLE", "ST_FIPS": "18", "OWNER": "NON-PROFIT", "TTL_STAFF": -999, "BEDS": 15, "TRAUMA": "NOT AVAILABLE", "HELIPAD": "Y" }, "geometry": { "type": "Polygon", "coordinates": [ [ [ -85.369607, 40.378561 ], [ -85.4745259, 40.4518107 ], [ -85.474854, 40.466541 ], [ -85.390195, 40.552249 ], [ -85.371522, 40.567254 ], [ -85.352076, 40.552237 ], [ -85.277836, 40.478533 ], [ -85.276615, 40.449474 ], [ -85.350875, 40.385678 ], [ -85.369607, 40.378561 ] ] ] } },
{ "type": "Feature", "properties": { "OBJECTID": 6090, "ID": "0007747371", "NAME": "JAY COUNTY HOSPITAL", "ADDRESS": "500 W VOTAW ST", "CITY": "PORTLAND", "STATE": "IN", "ZIP": "47371", "ZIP4": "NOT AVAILABLE", "TELEPHONE": "(260) 726-7131", "TYPE": "CRITICAL ACCESS", "STATUS": "OPEN", "POPULATION": 35, "COUNTY": "JAY", "COUNTYFIPS": "18075", "COUNTRY": "USA", "LATITUDE": 40.441298365000101, "LONGITUDE": -84.984920242000001, "NAICS_CODE": "622110", "NAICS_DESC": "GENERAL MEDICAL AND SURGICAL HOSPITALS", "SOURCE": "http://www.in.gov/isdh/reports/QAMIS/hosdir", "SOURCEDATE": "2018-08-16T00:00:00.000Z", "VAL_METHOD": "IMAGERY", "VAL_DATE": "2014-01-23T00:00:00.000Z", "WEBSITE": "http://www.jaycountyhospital.com", "STATE_ID": "17-005029-1", "ALT_NAME": "NOT AVAILABLE", "ST_FIPS": "18", "OWNER": "GOVERNMENT - LOCAL", "TTL_STAFF": -999, "BEDS": 35, "TRAUMA": "NOT AVAILABLE", "HELIPAD": "Y" }, "geometry": { "type": "Polygon", "coordinates": [ [ [ -84.977567216616293, 40.35267269813275 ], [ -85.084937141574017, 40.385187204352327 ], [ -85.104955080783824, 40.444572117625988 ], [ -84.968225546880717, 40.528795175866676 ], [ -84.882457822376878, 40.433384213742883 ], [ -84.945771153018597, 40.374754505453886 ], [ -84.977567216616293, 40.35267269813275 ] ] ] } },
{ "type": "Feature", "properties": { "OBJECTID": 6149, "ID": "0015047394", "NAME": "ST VINCENT RANDOLPH HOSPITAL INC", "ADDRESS": "473 E GREENVILLE AVE", "CITY": "WINCHESTER", "STATE": "IN", "ZIP": "47394", "ZIP4": "NOT AVAILABLE", "TELEPHONE": "(765) 584-0004", "TYPE": "CRITICAL ACCESS", "STATUS": "OPEN", "POPULATION": 25, "COUNTY": "RANDOLPH", "COUNTYFIPS": "18135", "COUNTRY": "USA", "LATITUDE": 40.169614037000002, "LONGITUDE": -84.971309646999899, "NAICS_CODE": "622110", "NAICS_DESC": "GENERAL MEDICAL AND SURGICAL HOSPITALS", "SOURCE": "http://www.in.gov/isdh/reports/QAMIS/hosdir", "SOURCEDATE": "2018-08-16T00:00:00.000Z", "VAL_METHOD": "IMAGERY", "VAL_DATE": "2014-02-10T00:00:00.000Z", "WEBSITE": "http://www.stvincent.org", "STATE_ID": "17-005050-1", "ALT_NAME": "NOT AVAILABLE", "ST_FIPS": "18", "OWNER": "NON-PROFIT", "TTL_STAFF": -999, "BEDS": 25, "TRAUMA": "NOT AVAILABLE", "HELIPAD": "N" }, "geometry": { "type": "Polygon", "coordinates": [ [ [ -84.939459204226068, 40.072693017436414 ], [ -85.02981334993602, 40.120879041572373 ], [ -85.0966177036413, 40.17125511238492 ], [ -85.096345199221631, 40.172791312295587 ], [ -84.976239844882826, 40.258515068364979 ], [ -84.900336908563247, 40.207954122058325 ], [ -84.864863022482211, 40.128996085261463 ], [ -84.860063035480167, 40.117585077457129 ], [ -84.860332036463205, 40.11709107688398 ], [ -84.939459204226068, 40.072693017436414 ] ] ] } },
{ "type": "Feature", "properties": { "OBJECTID": 6521, "ID": "0015645828", "NAME": "MERCER COUNTY JOINT TOWNSHIP COMMUNITY HOSPITAL", "ADDRESS": "800 WEST MAIN STREET", "CITY": "COLDWATER", "STATE": "OH", "ZIP": "45828", "ZIP4": "NOT AVAILABLE", "TELEPHONE": "(419) 678-2341", "TYPE": "GENERAL ACUTE CARE", "STATUS": "OPEN", "POPULATION": 88, "COUNTY": "MERCER", "COUNTYFIPS": "39107", "COUNTRY": "USA", "LATITUDE": 40.480755908, "LONGITUDE": -84.638904251, "NAICS_CODE": "622110", "NAICS_DESC": "GENERAL MEDICAL AND SURGICAL HOSPITALS", "SOURCE": "http://publicapps.odh.ohio.gov/EID/Provider_Search.aspx", "SOURCEDATE": "2018-08-10T00:00:00.000Z", "VAL_METHOD": "IMAGERY", "VAL_DATE": "2014-01-31T00:00:00.000Z", "WEBSITE": "http://www.mercer-health.com", "STATE_ID": "1240", "ALT_NAME": "NOT AVAILABLE", "ST_FIPS": "39", "OWNER": "GOVERNMENT - DISTRICT/AUTHORITY", "TTL_STAFF": -999, "BEDS": 88, "TRAUMA": "NOT AVAILABLE", "HELIPAD": "Y" }, "geometry": { "type": "Polygon", "coordinates": [ [ [ -84.629032, 40.384578 ], [ -84.728115, 40.458854 ], [ -84.755126, 40.479076 ], [ -84.755104, 40.481343 ], [ -84.647588, 40.552967 ], [ -84.628636, 40.553003 ], [ -84.614654, 40.552986 ], [ -84.536219, 40.502821 ], [ -84.5218756, 40.48736 ], [ -84.561326, 40.436717 ], [ -84.590791, 40.406923 ], [ -84.610025, 40.392265 ], [ -84.628544, 40.38475 ], [ -84.629032, 40.384578 ] ] ] } },
{ "type": "Feature", "properties": { "OBJECTID": 6657, "ID": "0002245891", "NAME": "VAN WERT COUNTY HOSPITAL", "ADDRESS": "1250 S WASHINGTON STREET", "CITY": "VAN WERT", "STATE": "OH", "ZIP": "45891", "ZIP4": "NOT AVAILABLE", "TELEPHONE": "(419) 238-2390", "TYPE": "GENERAL ACUTE CARE", "STATUS": "OPEN", "POPULATION": 109, "COUNTY": "VAN WERT", "COUNTYFIPS": "39161", "COUNTRY": "USA", "LATITUDE": 40.850642902000097, "LONGITUDE": -84.578760675999902, "NAICS_CODE": "622110", "NAICS_DESC": "GENERAL MEDICAL AND SURGICAL HOSPITALS", "SOURCE": "http://publicapps.odh.ohio.gov/EID/Provider_Search.aspx", "SOURCEDATE": "2018-08-10T00:00:00.000Z", "VAL_METHOD": "IMAGERY", "VAL_DATE": "2014-02-10T00:00:00.000Z", "WEBSITE": "http://www.vanwerthospital.org", "STATE_ID": "1287", "ALT_NAME": "NOT AVAILABLE", "ST_FIPS": "39", "OWNER": "NON-PROFIT", "TTL_STAFF": -999, "BEDS": 109, "TRAUMA": "NOT AVAILABLE", "HELIPAD": "Y" }, "geometry": { "type": "Polygon", "coordinates": [ [ [ -84.590744, 40.756883 ], [ -84.619958, 40.778678 ], [ -84.628934, 40.785745 ], [ -84.707392, 40.851493 ], [ -84.673028, 40.9169 ], [ -84.672729, 40.917049 ], [ -84.672519100000017, 40.917114200000022 ], [ -84.672394, 40.917153 ], [ -84.5722841, 40.9463134 ], [ -84.523841, 40.928845 ], [ -84.485636, 40.878453 ], [ -84.475658, 40.85181 ], [ -84.475656, 40.830005 ], [ -84.571427, 40.757084 ], [ -84.581092, 40.756939 ], [ -84.590744, 40.756883 ] ] ] } },
{ "type": "Feature", "properties": { "OBJECTID": 4235, "ID": "0015745804", "NAME": "INSTITUTE FOR ORTHOPEDIC SURGERY", "ADDRESS": "801 MEDICAL DRIVE, SUITE B", "CITY": "LIMA", "STATE": "OH", "ZIP": "45804", "ZIP4": "NOT AVAILABLE", "TELEPHONE": "(419) 224-7586", "TYPE": "SPECIAL", "STATUS": "OPEN", "POPULATION": 12, "COUNTY": "ALLEN", "COUNTYFIPS": "39003", "COUNTRY": "USA", "LATITUDE": 40.69717236, "LONGITUDE": -84.087804002, "NAICS_CODE": "622310", "NAICS_DESC": "ORTHOPEDIC HOSPITALS", "SOURCE": "http://publicapps.odh.ohio.gov/EID/Provider_Search.aspx", "SOURCEDATE": "2018-08-10T00:00:00.000Z", "VAL_METHOD": "IMAGERY", "VAL_DATE": "2014-01-31T00:00:00.000Z", "WEBSITE": "http://www.ioshospital.com", "STATE_ID": "1445", "ALT_NAME": "NOT AVAILABLE", "ST_FIPS": "39", "OWNER": "PROPRIETARY", "TTL_STAFF": -999, "BEDS": 12, "TRAUMA": "NOT AVAILABLE", "HELIPAD": "Y" }, "geometry": { "type": "Polygon", "coordinates": [ [ [ -84.174788, 40.580535 ], [ -84.212196, 40.6860417 ], [ -84.1472444, 40.767008199999971 ], [ -84.1280361, 40.780394 ], [ -84.108855, 40.788274 ], [ -84.09428, 40.7938 ], [ -84.051272, 40.80171 ], [ -84.013139, 40.800229 ], [ -83.9758213, 40.731377899999977 ], [ -83.983859, 40.696412 ], [ -84.0874414, 40.602872 ], [ -84.166491, 40.582448 ], [ -84.174788, 40.580535 ] ] ] } },
{ "type": "Feature", "properties": { "OBJECTID": 825, "ID": "0125045863", "NAME": "RIDGEVIEW HOSPITAL", "ADDRESS": "17872 LINCOLN HIGHWAY", "CITY": "MIDDLE POINT", "STATE": "OH", "ZIP": "45863", "ZIP4": "NOT AVAILABLE", "TELEPHONE": "(419) 968-2950", "TYPE": "PSYCHIATRIC", "STATUS": "OPEN", "POPULATION": 86, "COUNTY": "VAN WERT", "COUNTYFIPS": "39161", "COUNTRY": "USA", "LATITUDE": 40.877400516000101, "LONGITUDE": -84.478966946, "NAICS_CODE": "622210", "NAICS_DESC": "PSYCHIATRIC AND SUBSTANCE ABUSE HOSPITALS", "SOURCE": "http://publicapps.odh.ohio.gov/EID/Provider_Search.aspx", "SOURCEDATE": "2018-08-10T00:00:00.000Z", "VAL_METHOD": "IMAGERY/OTHER", "VAL_DATE": "2015-03-11T00:00:00.000Z", "WEBSITE": "http://ridgeviewhospital.net/", "STATE_ID": "1505", "ALT_NAME": "NOT AVAILABLE", "ST_FIPS": "39", "OWNER": "PROPRIETARY", "TTL_STAFF": -999, "BEDS": 86, "TRAUMA": "NOT AVAILABLE", "HELIPAD": "N" }, "geometry": { "type": "Polygon", "coordinates": [ [ [ -84.486845, 40.79923 ], [ -84.595477, 40.860455 ], [ -84.629552, 40.89414 ], [ -84.629554, 40.895083 ], [ -84.629554, 40.895316 ], [ -84.475947, 40.93198 ], [ -84.451597, 40.931916 ], [ -84.3505349, 40.88868750000001 ], [ -84.349574, 40.887111 ], [ -84.345473, 40.859727 ], [ -84.387036, 40.837678 ], [ -84.468786, 40.799264 ], [ -84.486845, 40.79923 ] ] ] } },
{ "type": "Feature", "properties": { "OBJECTID": 3052, "ID": "0004846952", "NAME": "GRANT-BLACKFORD MENTAL HEALTH, INC", "ADDRESS": "505 WABASH AVE", "CITY": "MARION", "STATE": "IN", "ZIP": "46952", "ZIP4": "NOT AVAILABLE", "TELEPHONE": "(765) 662-3971", "TYPE": "PSYCHIATRIC", "STATUS": "OPEN", "POPULATION": 16, "COUNTY": "GRANT", "COUNTYFIPS": "18053", "COUNTRY": "USA", "LATITUDE": 40.564232785999998, "LONGITUDE": -85.6662408, "NAICS_CODE": "622210", "NAICS_DESC": "PSYCHIATRIC AND SUBSTANCE ABUSE HOSPITALS", "SOURCE": "http://www.in.gov/isdh/reports/QAMIS/hosdir", "SOURCEDATE": "2018-08-16T00:00:00.000Z", "VAL_METHOD": "IMAGERY", "VAL_DATE": "2014-02-10T00:00:00.000Z", "WEBSITE": "http://www.cornerstone.org/", "STATE_ID": "NOT AVAILABLE", "ALT_NAME": "NOT AVAILABLE", "ST_FIPS": "18", "OWNER": "NOT AVAILABLE", "TTL_STAFF": -999, "BEDS": 16, "TRAUMA": "NOT AVAILABLE", "HELIPAD": "Y" }, "geometry": { "type": "Polygon", "coordinates": [ [ [ -85.6721666, 40.478288500000033 ], [ -85.693782, 40.480364800000032 ], [ -85.7877101, 40.573916 ], [ -85.7877575, 40.5808547 ], [ -85.711188, 40.652684 ], [ -85.6258832, 40.647514900000019 ], [ -85.544965, 40.553539400000012 ], [ -85.550918, 40.549746 ], [ -85.6347422, 40.4970303 ], [ -85.66878220000001, 40.478385399999944 ], [ -85.6721666, 40.478288500000033 ] ] ] } },
{ "type": "Feature", "properties": { "OBJECTID": 3585, "ID": "0000745804", "NAME": "LIMA MEMORIAL HEALTH SYSTEM", "ADDRESS": "1001 BELLEFONTAINE AVENUE", "CITY": "LIMA", "STATE": "OH", "ZIP": "45804", "ZIP4": "NOT AVAILABLE", "TELEPHONE": "(419) 228-3335", "TYPE": "GENERAL ACUTE CARE", "STATUS": "OPEN", "POPULATION": 329, "COUNTY": "ALLEN", "COUNTYFIPS": "39003", "COUNTRY": "USA", "LATITUDE": 40.735745598000101, "LONGITUDE": -84.085958418999994, "NAICS_CODE": "622110", "NAICS_DESC": "GENERAL MEDICAL AND SURGICAL HOSPITALS", "SOURCE": "http://publicapps.odh.ohio.gov/EID/Provider_Search.aspx", "SOURCEDATE": "2018-08-10T00:00:00.000Z", "VAL_METHOD": "IMAGERY", "VAL_DATE": "2014-03-12T00:00:00.000Z", "WEBSITE": "http://www.limamemorial.org", "STATE_ID": "1102", "ALT_NAME": "NOT AVAILABLE", "ST_FIPS": "39", "OWNER": "NON-PROFIT", "TTL_STAFF": -999, "BEDS": 329, "TRAUMA": "LEVEL II", "HELIPAD": "Y" }, "geometry": { "type": "Polygon", "coordinates": [ [ [ -84.1374101, 40.6433784 ], [ -84.146865, 40.652241 ], [ -84.171854, 40.686324 ], [ -84.1906392, 40.7226266 ], [ -84.197962, 40.736788 ], [ -84.198244, 40.739891 ], [ -84.198261, 40.740422 ], [ -84.198398, 40.752561 ], [ -84.198241, 40.753677 ], [ -84.1893424, 40.781921 ], [ -84.129602, 40.817177 ], [ -84.0947155, 40.822692 ], [ -83.984157, 40.82689470000004 ], [ -83.9791477, 40.8269435 ], [ -83.960931, 40.731557 ], [ -83.9782352, 40.691290800000012 ], [ -84.089789, 40.643404 ], [ -84.1374101, 40.6433784 ] ] ] } },
{ "type": "Feature", "properties": { "OBJECTID": 3746, "ID": "0000546714", "NAME": "BLUFFTON REGIONAL MEDICAL CENTER", "ADDRESS": "303 S MAIN ST", "CITY": "BLUFFTON", "STATE": "IN", "ZIP": "46714", "ZIP4": "NOT AVAILABLE", "TELEPHONE": "(260) 824-3210", "TYPE": "GENERAL ACUTE CARE", "STATUS": "OPEN", "POPULATION": 79, "COUNTY": "WELLS", "COUNTYFIPS": "18179", "COUNTRY": "USA", "LATITUDE": 40.737354838999998, "LONGITUDE": -85.170774991000002, "NAICS_CODE": "622110", "NAICS_DESC": "GENERAL MEDICAL AND SURGICAL HOSPITALS", "SOURCE": "http://www.in.gov/isdh/reports/QAMIS/hosdir", "SOURCEDATE": "2018-08-16T00:00:00.000Z", "VAL_METHOD": "IMAGERY", "VAL_DATE": "2014-01-22T00:00:00.000Z", "WEBSITE": "http://www.blufftonregional.com", "STATE_ID": "17-005069-1", "ALT_NAME": "NOT AVAILABLE", "ST_FIPS": "18", "OWNER": "PROPRIETARY", "TTL_STAFF": -999, "BEDS": 79, "TRAUMA": "NOT AVAILABLE", "HELIPAD": "N" }, "geometry": { "type": "Polygon", "coordinates": [ [ [ -85.151334, 40.640262 ], [ -85.221667, 40.680668 ], [ -85.26091, 40.742251 ], [ -85.222964, 40.804029 ], [ -85.166252, 40.858958 ], [ -85.137499, 40.830158 ], [ -85.071007360304378, 40.743117995435668 ], [ -85.079749309738844, 40.700428012324565 ], [ -85.151334, 40.640262 ] ] ] } },
{ "type": "Feature", "properties": { "OBJECTID": 3981, "ID": "0005646953", "NAME": "VA MEDICAL CENTER - MARION, IN", "ADDRESS": "1700 E 38TH ST", "CITY": "MARION", "STATE": "IN", "ZIP": "46953", "ZIP4": "NOT AVAILABLE", "TELEPHONE": "(765) 674-3321", "TYPE": "MILITARY", "STATUS": "OPEN", "POPULATION": -999, "COUNTY": "GRANT", "COUNTYFIPS": "18053", "COUNTRY": "USA", "LATITUDE": 40.520461503999996, "LONGITUDE": -85.638268405000005, "NAICS_CODE": "622110", "NAICS_DESC": "GENERAL MEDICAL AND SURGICAL HOSPITALS", "SOURCE": "https://www.va.gov/directory/guide/allstate.asp", "SOURCEDATE": "2018-09-26T00:00:00.000Z", "VAL_METHOD": "IMAGERY/OTHER", "VAL_DATE": "2015-05-20T00:00:00.000Z", "WEBSITE": "http://www.northernindiana.va.gov/", "STATE_ID": "NOT AVAILABLE", "ALT_NAME": "NOT AVAILABLE", "ST_FIPS": "18", "OWNER": "GOVERNMENT - FEDERAL", "TTL_STAFF": -999, "BEDS": -999, "TRAUMA": "NOT AVAILABLE", "HELIPAD": "N" }, "geometry": { "type": "Polygon", "coordinates": [ [ [ -85.6724428, 40.4660026 ], [ -85.7010204, 40.480329100000063 ], [ -85.729665, 40.5236118 ], [ -85.6930605, 40.562426400000021 ], [ -85.67975850000002, 40.574581499999972 ], [ -85.6750049, 40.5760838 ], [ -85.6507242, 40.575419599999989 ], [ -85.6461068, 40.574506900000046 ], [ -85.5965168, 40.553496700000032 ], [ -85.570877, 40.528673 ], [ -85.570213, 40.517336 ], [ -85.5771139, 40.480756 ], [ -85.6212009, 40.463333 ], [ -85.6724428, 40.4660026 ] ] ] } }
]
}
