{
"type": "FeatureCollection",
"crs": { "type": "name", "properties": { "name": "urn:ogc:def:crs:OGC:1.3:CRS84" } },
"features": [
{ "type": "Feature", "properties": { "OBJECTID": 438, "ID": "0005060450", "NAME": "MORRIS HOSPITAL & HEALTHCARE CENTERS", "ADDRESS": "150 W HIGH ST", "CITY": "MORRIS", "STATE": "IL", "ZIP": "60450", "ZIP4": "NOT AVAILABLE", "TELEPHONE": "(815) 942-2932", "TYPE": "GENERAL ACUTE CARE", "STATUS": "OPEN", "POPULATION": 89, "COUNTY": "GRUNDY", "COUNTYFIPS": "17063", "COUNTRY": "USA", "LATITUDE": 41.369325902000099, "LONGITUDE": -88.426753305999995, "NAICS_CODE": "622110", "NAICS_DESC": "GENERAL MEDICAL AND SURGICAL HOSPITALS", "SOURCE": "https://data.illinois.gov/", "SOURCEDATE": "2018-08-09T00:00:00.000Z", "VAL_METHOD": "IMAGERY", "VAL_DATE": "2014-03-12T00:00:00.000Z", "WEBSITE": "http://www.morrishospital.org", "STATE_ID": "140101", "ALT_NAME": "NOT AVAILABLE", "ST_FIPS": "17", "OWNER": "NON-PROFIT", "TTL_STAFF": -999, "BEDS": 89, "TRAUMA": "LEVEL II", "HELIPAD": "Y" }, "geometry": { "type": "Polygon", "coordinates": [ [ [ -88.420272, 41.279455 ], [ -88.5170404, 41.3395543 ], [ -88.5567942, 41.370119600000024 ], [ -88.5574514, 41.384683100000018 ], [ -88.482399, 41.429473 ], [ -88.442933, 41.451715 ], [ -88.424091300000015, 41.4593402 ], [ -88.4230964, 41.459353 ], [ -88.3521132, 41.446035 ], [ -88.3139247, 41.4175875 ], [ -88.3826377, 41.3074955 ], [ -88.419843, 41.27946 ], [ -88.420272, 41.279455 ] ] ] } },
{ "type": "Feature", "properties": { "OBJECTID": 775, "ID": "0100460548", "NAME": "VALLEY WEST COMMUNITY HOSPITAL", "ADDRESS": "1302 NORTH MAIN STREET", "CITY": "SANDWICH", "STATE": "IL", "ZIP": "60548", "ZIP4": "NOT AVAILABLE", "TELEPHONE": "(815) 786-8484", "TYPE": "CRITICAL ACCESS", "STATUS": "OPEN", "POPULATION": 24, "COUNTY": "DEKALB", "COUNTYFIPS": "17037", "COUNTRY": "USA", "LATITUDE": 41.657190128000003, "LONGITUDE": -88.620734818999907, "NAICS_CODE": "622110", "NAICS_DESC": "GENERAL MEDICAL AND SURGICAL HOSPITALS", "SOURCE": "https://data.illinois.gov/", "SOURCEDATE": "2018-08-09T00:00:00.000Z", "VAL_METHOD": "IMAGERY/OTHER", "VAL_DATE": "2016-04-26T00:00:00.000Z", "WEBSITE": "http://www.kishhealth.org/locations/profile/?id=11", "STATE_ID": "NOT AVAILABLE", "ALT_NAME": "NOT AVAILABLE", "ST_FIPS": "17", "OWNER": "NON-PROFIT", "TTL_STAFF": -999, "BEDS": 24, "TRAUMA": "NOT AVAILABLE", "HELIPAD": "Y" }, "geometry": { "type": "Polygon", "coordinates": [ [ [ -88.6005851, 41.587881699999983 ], [ -88.6491478, 41.594779 ], [ -88.692892613772329, 41.60843552398736 ], [ -88.717171234366972, 41.627893408230108 ], [ -88.699827000004746, 41.659700262183762 ], [ -88.6518158, 41.711491299999942 ], [ -88.611716, 41.733941 ], [ -88.551156417327917, 41.625892652743623 ], [ -88.568696113082865, 41.609769672745145 ], [ -88.6005851, 41.587881699999983 ] ] ] } },
{ "type": "Feature", "properties": { "OBJECTID": 3331, "ID": "0005261350", "NAME": "OSF SAINT ELIZABETH MEDICAL CENTER", "ADDRESS": "1100 EAST NORRIS DRIVE", "CITY": "OTTAWA", "STATE": "IL", "ZIP": "61350", "ZIP4": "NOT AVAILABLE", "TELEPHONE": "(815) 433-3100", "TYPE": "GENERAL ACUTE CARE", "STATUS": "OPEN", "POPULATION": 90, "COUNTY": "LA SALLE", "COUNTYFIPS": "17099", "COUNTRY": "USA", "LATITUDE": 41.357701653, "LONGITUDE": -88.824413265999993, "NAICS_CODE": "622110", "NAICS_DESC": "GENERAL MEDICAL AND SURGICAL HOSPITALS", "SOURCE": "https://data.illinois.gov/", "SOURCEDATE": "2018-08-09T00:00:00.000Z", "VAL_METHOD": "IMAGERY", "VAL_DATE": "2014-03-12T00:00:00.000Z", "WEBSITE": "http://www.ottawaregional.org", "STATE_ID": "140110", "ALT_NAME": "NOT AVAILABLE", "ST_FIPS": "17", "OWNER": "NON-PROFIT", "TTL_STAFF": -999, "BEDS": 90, "TRAUMA": "NOT AVAILABLE", "HELIPAD": "Y" }, "geometry": { "type": "Polygon", "coordinates": [ [ [ -88.8411213, 41.299005400000013 ], [ -88.8829477, 41.316636200000026 ], [ -88.9332684, 41.352943 ], [ -88.8741461, 41.397110600000012 ], [ -88.8161329, 41.4317926 ], [ -88.8132914, 41.4315674 ], [ -88.7407237, 41.409339600000038 ], [ -88.7064016, 41.3832033 ], [ -88.6901426, 41.368593800000021 ], [ -88.7071108, 41.330240699999962 ], [ -88.8345905, 41.29899120000001 ], [ -88.8364087, 41.298951500000022 ], [ -88.8411213, 41.299005400000013 ] ] ] } }
]
}
