{
"type": "FeatureCollection",
"crs": { "type": "name", "properties": { "name": "urn:ogc:def:crs:OGC:1.3:CRS84" } },
"features": [
{ "type": "Feature", "properties": { "OBJECTID": 1145, "ID": "0005464683", "NAME": "WRIGHT MEMORIAL HOSPITAL", "ADDRESS": "191 IOWA BOULEVARD", "CITY": "TRENTON", "STATE": "MO", "ZIP": "64683", "ZIP4": "NOT AVAILABLE", "TELEPHONE": "(660) 358-5700", "TYPE": "CRITICAL ACCESS", "STATUS": "OPEN", "POPULATION": 25, "COUNTY": "GRUNDY", "COUNTYFIPS": "29079", "COUNTRY": "USA", "LATITUDE": 40.067866985000101, "LONGITUDE": -93.581639672999998, "NAICS_CODE": "622110", "NAICS_DESC": "GENERAL MEDICAL AND SURGICAL HOSPITALS", "SOURCE": "http://health.mo.gov/safety/healthservregs/directories.php", "SOURCEDATE": "2018-08-09T00:00:00.000Z", "VAL_METHOD": "IMAGERY", "VAL_DATE": "2014-02-10T00:00:00.000Z", "WEBSITE": "https://www.saintlukeskc.org/locations/wright-memorial-hospital?utm_source=local-listing&utm_medium=organic&utm_campaign=website-link", "STATE_ID": "H144", "ALT_NAME": "NOT AVAILABLE", "ST_FIPS": "29", "OWNER": "NON-PROFIT", "TTL_STAFF": -999, "BEDS": 25, "TRAUMA": "LEVEL III", "HELIPAD": "Y" }, "geometry": { "type": "Polygon", "coordinates": [ [ [ -93.579357, 39.978254 ], [ -93.716751, 40.032913 ], [ -93.716834, 40.045834 ], [ -93.710548, 40.082128 ], [ -93.646904, 40.134722 ], [ -93.595496, 40.17181 ], [ -93.5915, 40.170204 ], [ -93.461336, 40.090724 ], [ -93.461335, 40.083359 ], [ -93.492954, 40.030825 ], [ -93.541534, 39.979306 ], [ -93.574567, 39.978342 ], [ -93.579357, 39.978254 ] ] ] } },
{ "type": "Feature", "properties": { "OBJECTID": 1152, "ID": "0015963556", "NAME": "SULLIVAN COUNTY MEMORIAL HOSPITAL", "ADDRESS": "630 WEST 3RD STREET", "CITY": "MILAN", "STATE": "MO", "ZIP": "63556", "ZIP4": "NOT AVAILABLE", "TELEPHONE": "(660) 265-4212", "TYPE": "CRITICAL ACCESS", "STATUS": "OPEN", "POPULATION": 25, "COUNTY": "SULLIVAN", "COUNTYFIPS": "29211", "COUNTRY": "USA", "LATITUDE": 40.201627286000097, "LONGITUDE": -93.133814017000006, "NAICS_CODE": "622110", "NAICS_DESC": "GENERAL MEDICAL AND SURGICAL HOSPITALS", "SOURCE": "http://health.mo.gov/safety/healthservregs/directories.php", "SOURCEDATE": "2018-08-09T00:00:00.000Z", "VAL_METHOD": "IMAGERY", "VAL_DATE": "2014-02-10T00:00:00.000Z", "WEBSITE": "http://www.scmhospital.org", "STATE_ID": "H132", "ALT_NAME": "NOT AVAILABLE", "ST_FIPS": "29", "OWNER": "GOVERNMENT - LOCAL", "TTL_STAFF": -999, "BEDS": 25, "TRAUMA": "NOT AVAILABLE", "HELIPAD": "Y" }, "geometry": { "type": "Polygon", "coordinates": [ [ [ -93.153834, 40.109304 ], [ -93.170183, 40.120799 ], [ -93.193225, 40.142085 ], [ -93.226687, 40.195928 ], [ -93.17966, 40.272111 ], [ -93.179053, 40.273005 ], [ -93.11792370000002, 40.289776100000019 ], [ -93.009594, 40.242055 ], [ -93.0633943, 40.145995599999935 ], [ -93.153834, 40.109304 ] ] ] } },
{ "type": "Feature", "properties": { "OBJECTID": 1154, "ID": "0010363565", "NAME": "PUTNAM COUNTY MEMORIAL HOSPITAL", "ADDRESS": "1926 OAK STREET", "CITY": "UNIONVILLE", "STATE": "MO", "ZIP": "63565", "ZIP4": "NOT AVAILABLE", "TELEPHONE": "(660) 947-2411", "TYPE": "CRITICAL ACCESS", "STATUS": "OPEN", "POPULATION": 15, "COUNTY": "PUTNAM", "COUNTYFIPS": "29171", "COUNTRY": "USA", "LATITUDE": 40.48274509, "LONGITUDE": -93.005646017999894, "NAICS_CODE": "622110", "NAICS_DESC": "GENERAL MEDICAL AND SURGICAL HOSPITALS", "SOURCE": "http://health.mo.gov/safety/healthservregs/directories.php", "SOURCEDATE": "2018-08-09T00:00:00.000Z", "VAL_METHOD": "IMAGERY", "VAL_DATE": "2014-02-10T00:00:00.000Z", "WEBSITE": "http://www.pcmhosp.com", "STATE_ID": "H084", "ALT_NAME": "NOT AVAILABLE", "ST_FIPS": "29", "OWNER": "GOVERNMENT - LOCAL", "TTL_STAFF": -999, "BEDS": 15, "TRAUMA": "NOT AVAILABLE", "HELIPAD": "Y" }, "geometry": { "type": "Polygon", "coordinates": [ [ [ -93.050365, 40.400656 ], [ -93.066107, 40.40165 ], [ -93.111764, 40.458357 ], [ -93.120828, 40.492384 ], [ -93.024413, 40.586013 ], [ -93.004779, 40.573914 ], [ -92.976098, 40.551838 ], [ -92.874959, 40.465399 ], [ -92.878627, 40.458436 ], [ -92.940415, 40.420017 ], [ -93.030221, 40.400462 ], [ -93.050365, 40.400656 ] ] ] } },
{ "type": "Feature", "properties": { "OBJECTID": 1296, "ID": "0011450801", "NAME": "GREATER REGIONAL MEDICAL CENTER", "ADDRESS": "1700 WEST TOWNLINE ROAD", "CITY": "CRESTON", "STATE": "IA", "ZIP": "50801", "ZIP4": "NOT AVAILABLE", "TELEPHONE": "(641) 782-7091", "TYPE": "CRITICAL ACCESS", "STATUS": "OPEN", "POPULATION": 25, "COUNTY": "UNION", "COUNTYFIPS": "19175", "COUNTRY": "USA", "LATITUDE": 41.070166390000097, "LONGITUDE": -94.384095005999896, "NAICS_CODE": "622110", "NAICS_DESC": "GENERAL MEDICAL AND SURGICAL HOSPITALS", "SOURCE": "https://dia-hfd.iowa.gov/DIA_HFD/CTLEntitySearch.do", "SOURCEDATE": "2018-08-09T00:00:00.000Z", "VAL_METHOD": "IMAGERY/OTHER", "VAL_DATE": "2016-04-19T00:00:00.000Z", "WEBSITE": "http://www.greaterregional.org", "STATE_ID": "NOT AVAILABLE", "ALT_NAME": "NOT AVAILABLE", "ST_FIPS": "19", "OWNER": "GOVERNMENT - LOCAL", "TTL_STAFF": -999, "BEDS": 25, "TRAUMA": "LEVEL IV", "HELIPAD": "Y" }, "geometry": { "type": "Polygon", "coordinates": [ [ [ -94.376037, 40.985102 ], [ -94.433196, 40.994348 ], [ -94.499256, 41.085766 ], [ -94.43365, 41.143758 ], [ -94.414199, 41.157527 ], [ -94.357126, 41.143346 ], [ -94.299068, 41.085363 ], [ -94.288593, 41.072787 ], [ -94.2772027, 41.046663500000037 ], [ -94.376037, 40.985102 ] ] ] } },
{ "type": "Feature", "properties": { "OBJECTID": 1622, "ID": "0093450201", "NAME": "STORY COUNTY HOSPITAL", "ADDRESS": "640 SOUTH 19TH STREET", "CITY": "NEVADA", "STATE": "IA", "ZIP": "50201", "ZIP4": "NOT AVAILABLE", "TELEPHONE": "(515) 382-2111", "TYPE": "CRITICAL ACCESS", "STATUS": "OPEN", "POPULATION": 17, "COUNTY": "STORY", "COUNTYFIPS": "19169", "COUNTRY": "USA", "LATITUDE": 42.005062341, "LONGITUDE": -93.436913024000006, "NAICS_CODE": "622110", "NAICS_DESC": "GENERAL MEDICAL AND SURGICAL HOSPITALS", "SOURCE": "https://dia-hfd.iowa.gov/DIA_HFD/CTLEntitySearch.do", "SOURCEDATE": "2018-08-09T00:00:00.000Z", "VAL_METHOD": "IMAGERY/OTHER", "VAL_DATE": "2016-04-19T00:00:00.000Z", "WEBSITE": "http://www.storymedical.org", "STATE_ID": "NOT AVAILABLE", "ALT_NAME": "NOT AVAILABLE", "ST_FIPS": "19", "OWNER": "GOVERNMENT - LOCAL", "TTL_STAFF": -999, "BEDS": 17, "TRAUMA": "LEVEL IV", "HELIPAD": "Y" }, "geometry": { "type": "Polygon", "coordinates": [ [ [ -93.405341, 41.926679 ], [ -93.482971, 41.9355916 ], [ -93.610204, 41.997345 ], [ -93.6161146, 42.004634 ], [ -93.6163374, 42.008383800000018 ], [ -93.6162988, 42.008754899999985 ], [ -93.5815862, 42.034523399999983 ], [ -93.5697605, 42.039831200000023 ], [ -93.462618, 42.078036 ], [ -93.425247, 42.07807 ], [ -93.386345, 42.077953 ], [ -93.309593, 42.048811 ], [ -93.2317515, 42.008016899999959 ], [ -93.2317515, 42.0078124 ], [ -93.309384, 41.964521 ], [ -93.405341, 41.926679 ] ] ] } },
{ "type": "Feature", "properties": { "OBJECTID": 1876, "ID": "0003251012", "NAME": "CHEROKEE MENTAL HEALTH INSTITUTE", "ADDRESS": "1200 WEST CEDAR STREET", "CITY": "CHEROKEE", "STATE": "IA", "ZIP": "51012", "ZIP4": "NOT AVAILABLE", "TELEPHONE": "(712) 225-2594", "TYPE": "PSYCHIATRIC", "STATUS": "OPEN", "POPULATION": 58, "COUNTY": "CHEROKEE", "COUNTYFIPS": "19035", "COUNTRY": "USA", "LATITUDE": 42.757162850999997, "LONGITUDE": -95.572614310999896, "NAICS_CODE": "622110", "NAICS_DESC": "GENERAL MEDICAL AND SURGICAL HOSPITALS", "SOURCE": "https://dia-hfd.iowa.gov/DIA_HFD/CTLEntitySearch.do", "SOURCEDATE": "2018-08-09T00:00:00.000Z", "VAL_METHOD": "IMAGERY/OTHER", "VAL_DATE": "2016-04-14T00:00:00.000Z", "WEBSITE": "http://www.dhs.state.ia.us", "STATE_ID": "NOT AVAILABLE", "ALT_NAME": "NOT AVAILABLE", "ST_FIPS": "19", "OWNER": "GOVERNMENT - STATE", "TTL_STAFF": -999, "BEDS": 58, "TRAUMA": "NOT AVAILABLE", "HELIPAD": "N" }, "geometry": { "type": "Polygon", "coordinates": [ [ [ -95.554492, 42.662727 ], [ -95.584, 42.675463 ], [ -95.682458, 42.735394 ], [ -95.701649, 42.749858 ], [ -95.661784, 42.778781 ], [ -95.634459, 42.796628 ], [ -95.55425, 42.8368 ], [ -95.443733, 42.748655 ], [ -95.446626, 42.746097 ], [ -95.554492, 42.662727 ] ] ] } },
{ "type": "Feature", "properties": { "OBJECTID": 1884, "ID": "0093650310", "NAME": "VA CENTRAL IOWA HEALTHCARE SYSTEM", "ADDRESS": "3600 30TH STREET", "CITY": "DES MOINES", "STATE": "IA", "ZIP": "50310", "ZIP4": "NOT AVAILABLE", "TELEPHONE": "(515) 699-5999", "TYPE": "MILITARY", "STATUS": "OPEN", "POPULATION": -999, "COUNTY": "POLK", "COUNTYFIPS": "19153", "COUNTRY": "USA", "LATITUDE": 41.627751447000001, "LONGITUDE": -93.660672164999895, "NAICS_CODE": "622110", "NAICS_DESC": "GENERAL MEDICAL AND SURGICAL HOSPITALS", "SOURCE": "https://dia-hfd.iowa.gov/DIA_HFD/CTLEntitySearch.do", "SOURCEDATE": "2018-08-09T00:00:00.000Z", "VAL_METHOD": "IMAGERY/OTHER", "VAL_DATE": "2015-03-21T00:00:00.000Z", "WEBSITE": "http://www.centraliowa.va.gov/", "STATE_ID": "NOT AVAILABLE", "ALT_NAME": "NOT AVAILABLE", "ST_FIPS": "19", "OWNER": "GOVERNMENT - FEDERAL", "TTL_STAFF": -999, "BEDS": -999, "TRAUMA": "NOT AVAILABLE", "HELIPAD": "N" }, "geometry": { "type": "Polygon", "coordinates": [ [ [ -93.6450456, 41.5445988 ], [ -93.7035824, 41.5601127 ], [ -93.7768111, 41.592316300000022 ], [ -93.777011, 41.644975 ], [ -93.774960400000012, 41.6551164 ], [ -93.7072642, 41.698817399999967 ], [ -93.6224452, 41.70912409999994 ], [ -93.5747181, 41.680046499999975 ], [ -93.551538, 41.628272 ], [ -93.5515435, 41.6277995 ], [ -93.5515477, 41.6277007 ], [ -93.5632575, 41.600449200000043 ], [ -93.580762, 41.579108 ], [ -93.5970014, 41.565303200000017 ], [ -93.625744, 41.550913 ], [ -93.6449204, 41.544601300000039 ], [ -93.6450456, 41.5445988 ] ] ] } },
{ "type": "Feature", "properties": { "OBJECTID": 2032, "ID": "0007250201", "NAME": "STORY COUNTY HOSPITAL NORTH", "ADDRESS": "640 6TH STREET", "CITY": "NEVADA", "STATE": "IA", "ZIP": "50201", "ZIP4": "NOT AVAILABLE", "TELEPHONE": "(515) 382-2111", "TYPE": "GENERAL ACUTE CARE", "STATUS": "OPEN", "POPULATION": 17, "COUNTY": "STORY", "COUNTYFIPS": "19169", "COUNTRY": "USA", "LATITUDE": 42.017098267999998, "LONGITUDE": -93.452764762000001, "NAICS_CODE": "622110", "NAICS_DESC": "GENERAL MEDICAL AND SURGICAL HOSPITALS", "SOURCE": "https://dia-hfd.iowa.gov/DIA_HFD/CTLEntitySearch.do", "SOURCEDATE": "2018-08-09T00:00:00.000Z", "VAL_METHOD": "IMAGERY/OTHER", "VAL_DATE": "2016-04-19T00:00:00.000Z", "WEBSITE": "http://www.storymedical.org", "STATE_ID": "NOT AVAILABLE", "ALT_NAME": "NOT AVAILABLE", "ST_FIPS": "19", "OWNER": "GOVERNMENT - LOCAL", "TTL_STAFF": -999, "BEDS": 17, "TRAUMA": "NOT AVAILABLE", "HELIPAD": "N" }, "geometry": { "type": "Polygon", "coordinates": [ [ [ -93.482967, 41.928333 ], [ -93.633149, 42.003423 ], [ -93.5880731, 42.0344651 ], [ -93.5827661, 42.038061 ], [ -93.501757, 42.078182 ], [ -93.462687, 42.092498 ], [ -93.405807, 42.078004 ], [ -93.2706564, 42.007919700000024 ], [ -93.270654, 42.007698 ], [ -93.302857, 41.993463 ], [ -93.463373, 41.928365 ], [ -93.482967, 41.928333 ] ] ] } },
{ "type": "Feature", "properties": { "OBJECTID": 2033, "ID": "0006150248", "NAME": "STORY CITY MEMORIAL HOSPITAL", "ADDRESS": "812 ELM AVENUE", "CITY": "STORY CITY", "STATE": "IA", "ZIP": "50248", "ZIP4": "NOT AVAILABLE", "TELEPHONE": "(515) 733-5121", "TYPE": "GENERAL ACUTE CARE", "STATUS": "CLOSED", "POPULATION": 25, "COUNTY": "STORY", "COUNTYFIPS": "19169", "COUNTRY": "USA", "LATITUDE": 42.1900792550001, "LONGITUDE": -93.594118056999903, "NAICS_CODE": "622110", "NAICS_DESC": "GENERAL MEDICAL AND SURGICAL HOSPITALS", "SOURCE": "ftp://ftp.igsb.uiowa.edu/gis_library/IA_State/Infrastructure/", "SOURCEDATE": "2012-06-05T00:00:00.000Z", "VAL_METHOD": "IMAGERY", "VAL_DATE": "2016-04-19T00:00:00.000Z", "WEBSITE": "NOT AVAILABLE", "STATE_ID": "NOT AVAILABLE", "ALT_NAME": "NOT AVAILABLE", "ST_FIPS": "19", "OWNER": "GOVERNMENT - LOCAL", "TTL_STAFF": -999, "BEDS": 25, "TRAUMA": "NOT AVAILABLE", "HELIPAD": "N" }, "geometry": { "type": "Polygon", "coordinates": [ [ [ -93.5676348, 42.073186300000032 ], [ -93.581421, 42.077794 ], [ -93.6204679, 42.092366699999985 ], [ -93.698571, 42.166541 ], [ -93.6984043, 42.195409400000017 ], [ -93.6447412, 42.260005700000043 ], [ -93.64078240000002, 42.261339099999958 ], [ -93.5704176, 42.2429327 ], [ -93.5019641, 42.211932200000035 ], [ -93.482343, 42.188357 ], [ -93.4914712, 42.166512800000021 ], [ -93.56056, 42.07803 ], [ -93.5676348, 42.073186300000032 ] ] ] } },
{ "type": "Feature", "properties": { "OBJECTID": 2037, "ID": "0010450219", "NAME": "PELLA REGIONAL HEALTH CENTER", "ADDRESS": "404 JEFFERSON STREET", "CITY": "PELLA", "STATE": "IA", "ZIP": "50219", "ZIP4": "NOT AVAILABLE", "TELEPHONE": "(641) 628-3150", "TYPE": "CRITICAL ACCESS", "STATUS": "OPEN", "POPULATION": 25, "COUNTY": "MARION", "COUNTYFIPS": "19125", "COUNTRY": "USA", "LATITUDE": 41.413003240000101, "LONGITUDE": -92.910922564000003, "NAICS_CODE": "622110", "NAICS_DESC": "GENERAL MEDICAL AND SURGICAL HOSPITALS", "SOURCE": "https://dia-hfd.iowa.gov/DIA_HFD/CTLEntitySearch.do", "SOURCEDATE": "2018-08-09T00:00:00.000Z", "VAL_METHOD": "IMAGERY", "VAL_DATE": "2016-04-18T00:00:00.000Z", "WEBSITE": "http://www.pellahealth.org", "STATE_ID": "NOT AVAILABLE", "ALT_NAME": "NOT AVAILABLE", "ST_FIPS": "19", "OWNER": "NON-PROFIT", "TTL_STAFF": -999, "BEDS": 25, "TRAUMA": "LEVEL III", "HELIPAD": "Y" }, "geometry": { "type": "Polygon", "coordinates": [ [ [ -92.9402243, 41.342001199999977 ], [ -92.9880803, 41.361243100000017 ], [ -93.0245704, 41.4149168 ], [ -93.0355933, 41.43634930000001 ], [ -93.0435621, 41.473515400000025 ], [ -93.0434063, 41.473727599999982 ], [ -92.916492, 41.481989 ], [ -92.890148, 41.477108 ], [ -92.8131733, 41.444051299999984 ], [ -92.7849092, 41.3634526 ], [ -92.914091699999986, 41.34478720000002 ], [ -92.9402243, 41.342001199999977 ] ] ] } },
{ "type": "Feature", "properties": { "OBJECTID": 2334, "ID": "0009250314", "NAME": "BROADLAWNS MEDICAL CENTER", "ADDRESS": "1801 HICKMAN ROAD", "CITY": "DES MOINES", "STATE": "IA", "ZIP": "50314", "ZIP4": "NOT AVAILABLE", "TELEPHONE": "(515) 282-2200", "TYPE": "GENERAL ACUTE CARE", "STATUS": "OPEN", "POPULATION": 200, "COUNTY": "POLK", "COUNTYFIPS": "19153", "COUNTRY": "USA", "LATITUDE": 41.616616024000102, "LONGITUDE": -93.641774495999996, "NAICS_CODE": "622110", "NAICS_DESC": "GENERAL MEDICAL AND SURGICAL HOSPITALS", "SOURCE": "https://dia-hfd.iowa.gov/DIA_HFD/CTLEntitySearch.do", "SOURCEDATE": "2018-08-09T00:00:00.000Z", "VAL_METHOD": "IMAGERY/OTHER", "VAL_DATE": "2016-04-15T00:00:00.000Z", "WEBSITE": "http://www.broadlawns.org", "STATE_ID": "NOT AVAILABLE", "ALT_NAME": "NOT AVAILABLE", "ST_FIPS": "19", "OWNER": "GOVERNMENT - LOCAL", "TTL_STAFF": -999, "BEDS": 200, "TRAUMA": "LEVEL III", "HELIPAD": "Y" }, "geometry": { "type": "Polygon", "coordinates": [ [ [ -93.6450918, 41.5313556 ], [ -93.703559, 41.557612900000024 ], [ -93.7776509, 41.592312699999979 ], [ -93.7714883, 41.614941499999965 ], [ -93.736356, 41.653909899999981 ], [ -93.684868, 41.683186 ], [ -93.6214205, 41.7128791 ], [ -93.620077, 41.7127831 ], [ -93.5756419, 41.6876448 ], [ -93.529458, 41.658818 ], [ -93.532138, 41.615122 ], [ -93.5333707, 41.6005943 ], [ -93.54675, 41.583767 ], [ -93.583134900000019, 41.541898300000014 ], [ -93.596735, 41.535411 ], [ -93.625736, 41.531482 ], [ -93.6450918, 41.5313556 ] ] ] } },
{ "type": "Feature", "properties": { "OBJECTID": 2335, "ID": "0009350310", "NAME": "MERCY FRANKLIN CENTER", "ADDRESS": "1818 48TH STREET", "CITY": "DES MOINES", "STATE": "IA", "ZIP": "50310", "ZIP4": "NOT AVAILABLE", "TELEPHONE": "(515) 271-6000", "TYPE": "PSYCHIATRIC", "STATUS": "OPEN", "POPULATION": 18, "COUNTY": "POLK", "COUNTYFIPS": "19153", "COUNTRY": "USA", "LATITUDE": 41.610732766000098, "LONGITUDE": -93.683455222000006, "NAICS_CODE": "622110", "NAICS_DESC": "GENERAL MEDICAL AND SURGICAL HOSPITALS", "SOURCE": "https://dia-hfd.iowa.gov/DIA_HFD/CTLEntitySearch.do", "SOURCEDATE": "2018-08-09T00:00:00.000Z", "VAL_METHOD": "IMAGERY/OTHER", "VAL_DATE": "2016-04-19T00:00:00.000Z", "WEBSITE": "http://www.mercydesmoines.org/behavioralhealth/", "STATE_ID": "NOT AVAILABLE", "ALT_NAME": "NOT AVAILABLE", "ST_FIPS": "19", "OWNER": "NON-PROFIT", "TTL_STAFF": -999, "BEDS": 18, "TRAUMA": "NOT AVAILABLE", "HELIPAD": "N" }, "geometry": { "type": "Polygon", "coordinates": [ [ [ -93.697218, 41.526567 ], [ -93.7119832, 41.530517600000024 ], [ -93.7770041, 41.56464820000005 ], [ -93.8092275, 41.5846968 ], [ -93.8139232, 41.589745699999959 ], [ -93.8096254, 41.615736400000017 ], [ -93.7811499, 41.6440681 ], [ -93.7748762, 41.6501461 ], [ -93.7457176, 41.66825419999995 ], [ -93.7365646, 41.6730671 ], [ -93.697634, 41.691297 ], [ -93.690972, 41.690718 ], [ -93.686683, 41.689678 ], [ -93.6601323, 41.680404300000014 ], [ -93.6204022, 41.664758199999959 ], [ -93.598931400000012, 41.649858 ], [ -93.575095, 41.632011 ], [ -93.5708931, 41.627818 ], [ -93.563185, 41.614988 ], [ -93.561143, 41.61039760000002 ], [ -93.5580495, 41.60047239999998 ], [ -93.566102, 41.586916 ], [ -93.572947, 41.58061 ], [ -93.596854, 41.560165 ], [ -93.625752, 41.546327 ], [ -93.6449613, 41.54100020000002 ], [ -93.697083, 41.526566 ], [ -93.697218, 41.526567 ] ] ] } },
{ "type": "Feature", "properties": { "OBJECTID": 2342, "ID": "0012050049", "NAME": "LUCAS COUNTY HEALTH CENTER", "ADDRESS": "1200 NORTH 7TH STREET", "CITY": "CHARITON", "STATE": "IA", "ZIP": "50049", "ZIP4": "NOT AVAILABLE", "TELEPHONE": "(641) 774-3000", "TYPE": "GENERAL ACUTE CARE", "STATUS": "OPEN", "POPULATION": 25, "COUNTY": "LUCAS", "COUNTYFIPS": "19117", "COUNTRY": "USA", "LATITUDE": 41.02767377, "LONGITUDE": -93.301706152999898, "NAICS_CODE": "622110", "NAICS_DESC": "GENERAL MEDICAL AND SURGICAL HOSPITALS", "SOURCE": "https://dia-hfd.iowa.gov/DIA_HFD/CTLEntitySearch.do", "SOURCEDATE": "2018-08-09T00:00:00.000Z", "VAL_METHOD": "IMAGERY", "VAL_DATE": "2016-04-15T00:00:00.000Z", "WEBSITE": "http://www.lchcia.com", "STATE_ID": "NOT AVAILABLE", "ALT_NAME": "NOT AVAILABLE", "ST_FIPS": "19", "OWNER": "GOVERNMENT - LOCAL", "TTL_STAFF": -999, "BEDS": 25, "TRAUMA": "LEVEL IV", "HELIPAD": "Y" }, "geometry": { "type": "Polygon", "coordinates": [ [ [ -93.316722, 40.930539 ], [ -93.4115676, 41.029274 ], [ -93.36571, 41.073486 ], [ -93.3420149, 41.088028800000025 ], [ -93.2414947, 41.117066699999974 ], [ -93.2375438, 41.117213 ], [ -93.1936334, 41.000681699999973 ], [ -93.2125676, 40.9802309 ], [ -93.3071578, 40.930646100000011 ], [ -93.316722, 40.930539 ] ] ] } },
{ "type": "Feature", "properties": { "OBJECTID": 2803, "ID": "0011950213", "NAME": "CLARKE COUNTY PUBLIC HOSPITAL", "ADDRESS": "800 SOUTH FILLMORE", "CITY": "OSCEOLA", "STATE": "IA", "ZIP": "50213", "ZIP4": "NOT AVAILABLE", "TELEPHONE": "(641) 342-2184", "TYPE": "CRITICAL ACCESS", "STATUS": "OPEN", "POPULATION": 25, "COUNTY": "CLARKE", "COUNTYFIPS": "19039", "COUNTRY": "USA", "LATITUDE": 41.026119131000002, "LONGITUDE": -93.768526581999893, "NAICS_CODE": "622110", "NAICS_DESC": "GENERAL MEDICAL AND SURGICAL HOSPITALS", "SOURCE": "https://dia-hfd.iowa.gov/DIA_HFD/CTLEntitySearch.do", "SOURCEDATE": "2018-08-09T00:00:00.000Z", "VAL_METHOD": "IMAGERY/OTHER", "VAL_DATE": "2016-04-15T00:00:00.000Z", "WEBSITE": "http://www.clarkehosp.org", "STATE_ID": "NOT AVAILABLE", "ALT_NAME": "NOT AVAILABLE", "ST_FIPS": "19", "OWNER": "GOVERNMENT - LOCAL", "TTL_STAFF": -999, "BEDS": 25, "TRAUMA": "LEVEL IV", "HELIPAD": "Y" }, "geometry": { "type": "Polygon", "coordinates": [ [ [ -93.772545, 40.928393 ], [ -93.826446, 40.956349 ], [ -93.893663, 41.026845 ], [ -93.805584, 41.099345 ], [ -93.75035, 41.103546 ], [ -93.741003, 41.103586 ], [ -93.721058, 41.103494 ], [ -93.633946, 41.030393 ], [ -93.767723, 40.928382 ], [ -93.772545, 40.928393 ] ] ] } },
{ "type": "Feature", "properties": { "OBJECTID": 2810, "ID": "0008250112", "NAME": "GRINNELL GENERAL HOSPITAL", "ADDRESS": "210 FOURTH AVENUE", "CITY": "GRINNELL", "STATE": "IA", "ZIP": "50112", "ZIP4": "NOT AVAILABLE", "TELEPHONE": "(641) 236-7511", "TYPE": "GENERAL ACUTE CARE", "STATUS": "OPEN", "POPULATION": 49, "COUNTY": "POWESHIEK", "COUNTYFIPS": "19157", "COUNTRY": "USA", "LATITUDE": 41.742673472, "LONGITUDE": -92.734401149000007, "NAICS_CODE": "622110", "NAICS_DESC": "GENERAL MEDICAL AND SURGICAL HOSPITALS", "SOURCE": "https://dia-hfd.iowa.gov/DIA_HFD/CTLEntitySearch.do", "SOURCEDATE": "2018-08-09T00:00:00.000Z", "VAL_METHOD": "IMAGERY/OTHER", "VAL_DATE": "2016-04-15T00:00:00.000Z", "WEBSITE": "http://www.grmc.us", "STATE_ID": "NOT AVAILABLE", "ALT_NAME": "NOT AVAILABLE", "ST_FIPS": "19", "OWNER": "NON-PROFIT", "TTL_STAFF": -999, "BEDS": 49, "TRAUMA": "LEVEL III", "HELIPAD": "Y" }, "geometry": { "type": "Polygon", "coordinates": [ [ [ -92.727056, 41.630498 ], [ -92.8545372, 41.712165 ], [ -92.847563, 41.736263 ], [ -92.8340956, 41.7605999 ], [ -92.727554, 41.848987 ], [ -92.590952, 41.745769 ], [ -92.727056, 41.630498 ] ] ] } },
{ "type": "Feature", "properties": { "OBJECTID": 2814, "ID": "0006750036", "NAME": "BOONE COUNTY HOSPITAL", "ADDRESS": "1015 UNION", "CITY": "BOONE", "STATE": "IA", "ZIP": "50036", "ZIP4": "NOT AVAILABLE", "TELEPHONE": "(515) 432-3140", "TYPE": "CRITICAL ACCESS", "STATUS": "OPEN", "POPULATION": 42, "COUNTY": "BOONE", "COUNTYFIPS": "19015", "COUNTRY": "USA", "LATITUDE": 42.055993579000102, "LONGITUDE": -93.876962636000002, "NAICS_CODE": "622110", "NAICS_DESC": "GENERAL MEDICAL AND SURGICAL HOSPITALS", "SOURCE": "https://dia-hfd.iowa.gov/DIA_HFD/CTLEntitySearch.do", "SOURCEDATE": "2018-08-09T00:00:00.000Z", "VAL_METHOD": "IMAGERY/OTHER", "VAL_DATE": "2016-04-15T00:00:00.000Z", "WEBSITE": "http://www.boonehospital.com", "STATE_ID": "NOT AVAILABLE", "ALT_NAME": "NOT AVAILABLE", "ST_FIPS": "19", "OWNER": "GOVERNMENT - LOCAL", "TTL_STAFF": -999, "BEDS": 42, "TRAUMA": "LEVEL IV", "HELIPAD": "Y" }, "geometry": { "type": "Polygon", "coordinates": [ [ [ -93.841377, 41.979636 ], [ -93.953935, 42.003276 ], [ -94.028021, 42.028046 ], [ -94.0293761, 42.031975 ], [ -93.9507528, 42.100691299999987 ], [ -93.922493, 42.119818 ], [ -93.89828, 42.130303 ], [ -93.886208, 42.132595 ], [ -93.874, 42.130359 ], [ -93.854559, 42.123103 ], [ -93.795858, 42.092612 ], [ -93.7377908, 42.022908600000022 ], [ -93.841377, 41.979636 ] ] ] } },
{ "type": "Feature", "properties": { "OBJECTID": 2815, "ID": "0010950138", "NAME": "KNOXVILLE AREA COMMUNITY HOSPITAL", "ADDRESS": "1002 SOUTH LINCOLN", "CITY": "KNOXVILLE", "STATE": "IA", "ZIP": "50138", "ZIP4": "NOT AVAILABLE", "TELEPHONE": "(641) 842-2151", "TYPE": "CRITICAL ACCESS", "STATUS": "OPEN", "POPULATION": 25, "COUNTY": "MARION", "COUNTYFIPS": "19125", "COUNTRY": "USA", "LATITUDE": 41.311117805000002, "LONGITUDE": -93.111819842000003, "NAICS_CODE": "622110", "NAICS_DESC": "GENERAL MEDICAL AND SURGICAL HOSPITALS", "SOURCE": "https://dia-hfd.iowa.gov/DIA_HFD/CTLEntitySearch.do", "SOURCEDATE": "2018-08-09T00:00:00.000Z", "VAL_METHOD": "IMAGERY/OTHER", "VAL_DATE": "2016-04-18T00:00:00.000Z", "WEBSITE": "http://www.knoxvillehospital.org", "STATE_ID": "NOT AVAILABLE", "ALT_NAME": "NOT AVAILABLE", "ST_FIPS": "19", "OWNER": "NON-PROFIT", "TTL_STAFF": -999, "BEDS": 25, "TRAUMA": "LEVEL IV", "HELIPAD": "Y" }, "geometry": { "type": "Polygon", "coordinates": [ [ [ -93.1373412, 41.216868 ], [ -93.261965, 41.334931899999972 ], [ -93.2657748, 41.3553281 ], [ -93.12915, 41.400111 ], [ -93.1106589, 41.401815600000013 ], [ -93.091599400000021, 41.39295390000003 ], [ -92.9481725, 41.30635179999998 ], [ -92.9479558, 41.29965 ], [ -93.0227125, 41.237670300000012 ], [ -93.1373412, 41.216868 ] ] ] } },
{ "type": "Feature", "properties": { "OBJECTID": 6072, "ID": "0011752501", "NAME": "OTTUMWA REGIONAL HEALTH CENTER", "ADDRESS": "1001 EAST PENNSYLVANIA", "CITY": "OTTUMWA", "STATE": "IA", "ZIP": "52501", "ZIP4": "NOT AVAILABLE", "TELEPHONE": "(641) 684-2321", "TYPE": "GENERAL ACUTE CARE", "STATUS": "OPEN", "POPULATION": 217, "COUNTY": "WAPELLO", "COUNTYFIPS": "19179", "COUNTRY": "USA", "LATITUDE": 41.037389523999998, "LONGITUDE": -92.399293687999901, "NAICS_CODE": "622110", "NAICS_DESC": "GENERAL MEDICAL AND SURGICAL HOSPITALS", "SOURCE": "https://dia-hfd.iowa.gov/DIA_HFD/CTLEntitySearch.do", "SOURCEDATE": "2018-08-09T00:00:00.000Z", "VAL_METHOD": "IMAGERY/OTHER", "VAL_DATE": "2016-04-15T00:00:00.000Z", "WEBSITE": "http://www.ottumwaregionalhealth.com", "STATE_ID": "NOT AVAILABLE", "ALT_NAME": "NOT AVAILABLE", "ST_FIPS": "19", "OWNER": "PROPRIETARY", "TTL_STAFF": -999, "BEDS": 217, "TRAUMA": "LEVEL IV", "HELIPAD": "N" }, "geometry": { "type": "Polygon", "coordinates": [ [ [ -92.417456, 40.936949 ], [ -92.5342355, 41.008488899999975 ], [ -92.509647, 41.095432 ], [ -92.410136, 41.14803 ], [ -92.3191439, 41.075815400000067 ], [ -92.304033, 41.030867 ], [ -92.295268, 40.998767 ], [ -92.294853, 40.983445 ], [ -92.409174, 40.939672 ], [ -92.417456, 40.936949 ] ] ] } },
{ "type": "Feature", "properties": { "OBJECTID": 6350, "ID": "0093351301", "NAME": "SPENCER MUNICIPAL HOSPITAL", "ADDRESS": "1200 FIRST AVENUE EAST", "CITY": "SPENCER", "STATE": "IA", "ZIP": "51301", "ZIP4": "NOT AVAILABLE", "TELEPHONE": "(712) 264-6111", "TYPE": "GENERAL ACUTE CARE", "STATUS": "OPEN", "POPULATION": 99, "COUNTY": "CLAY", "COUNTYFIPS": "19041", "COUNTRY": "USA", "LATITUDE": 43.150026375000003, "LONGITUDE": -95.143089864000004, "NAICS_CODE": "622110", "NAICS_DESC": "GENERAL MEDICAL AND SURGICAL HOSPITALS", "SOURCE": "https://dia-hfd.iowa.gov/DIA_HFD/CTLEntitySearch.do", "SOURCEDATE": "2018-08-09T00:00:00.000Z", "VAL_METHOD": "IMAGERY/OTHER", "VAL_DATE": "2016-04-14T00:00:00.000Z", "WEBSITE": "http://www.spencerhospital.org", "STATE_ID": "NOT AVAILABLE", "ALT_NAME": "NOT AVAILABLE", "ST_FIPS": "19", "OWNER": "GOVERNMENT - LOCAL", "TTL_STAFF": -999, "BEDS": 99, "TRAUMA": "LEVEL IV", "HELIPAD": "Y" }, "geometry": { "type": "Polygon", "coordinates": [ [ [ -95.161327, 43.053949 ], [ -95.26934463496741, 43.141226739331302 ], [ -95.26921554610783, 43.183551655139773 ], [ -95.1502712, 43.284539299999977 ], [ -95.1499446, 43.284532500000026 ], [ -95.012122, 43.155617 ], [ -95.0330935, 43.1340551 ], [ -95.0430295, 43.126755 ], [ -95.112009, 43.083438 ], [ -95.161327, 43.053949 ] ] ] } },
{ "type": "Feature", "properties": { "OBJECTID": 6353, "ID": "0092950314", "NAME": "MERCY MEDICAL CENTER-DES MOINES", "ADDRESS": "1111 6TH AVENUE", "CITY": "DES MOINES", "STATE": "IA", "ZIP": "50314", "ZIP4": "NOT AVAILABLE", "TELEPHONE": "(515) 247-3222", "TYPE": "GENERAL ACUTE CARE", "STATUS": "OPEN", "POPULATION": 656, "COUNTY": "POLK", "COUNTYFIPS": "19153", "COUNTRY": "USA", "LATITUDE": 41.598781589000097, "LONGITUDE": -93.623119136999904, "NAICS_CODE": "622110", "NAICS_DESC": "GENERAL MEDICAL AND SURGICAL HOSPITALS", "SOURCE": "https://dia-hfd.iowa.gov/DIA_HFD/CTLEntitySearch.do", "SOURCEDATE": "2018-08-09T00:00:00.000Z", "VAL_METHOD": "IMAGERY/OTHER", "VAL_DATE": "2016-04-15T00:00:00.000Z", "WEBSITE": "http://www.mercydesmoines.org", "STATE_ID": "NOT AVAILABLE", "ALT_NAME": "NOT AVAILABLE", "ST_FIPS": "19", "OWNER": "NOT AVAILABLE", "TTL_STAFF": -999, "BEDS": 656, "TRAUMA": "LEVEL II, LEVEL II PEDIATRIC", "HELIPAD": "Y" }, "geometry": { "type": "Polygon", "coordinates": [ [ [ -93.6256328, 41.510810200000023 ], [ -93.7970556, 41.592222899999967 ], [ -93.6376365, 41.704594099999959 ], [ -93.6207432, 41.714092 ], [ -93.5758773, 41.696882900000027 ], [ -93.513623, 41.661128 ], [ -93.503228, 41.617516 ], [ -93.498899, 41.598715 ], [ -93.550177, 41.543999 ], [ -93.584293, 41.514757 ], [ -93.585954, 41.514359 ], [ -93.5967394, 41.511836799999969 ], [ -93.6256328, 41.510810200000023 ] ] ] } },
{ "type": "Feature", "properties": { "OBJECTID": 6383, "ID": "0010350022", "NAME": "CASS COUNTY MEMORIAL HOSPITAL", "ADDRESS": "1501 EAST TENTH STREET", "CITY": "ATLANTIC", "STATE": "IA", "ZIP": "50022", "ZIP4": "NOT AVAILABLE", "TELEPHONE": "(712) 243-3250", "TYPE": "CRITICAL ACCESS", "STATUS": "OPEN", "POPULATION": 33, "COUNTY": "CASS", "COUNTYFIPS": "19029", "COUNTRY": "USA", "LATITUDE": 41.401320358000099, "LONGITUDE": -94.991114561000003, "NAICS_CODE": "622110", "NAICS_DESC": "GENERAL MEDICAL AND SURGICAL HOSPITALS", "SOURCE": "https://dia-hfd.iowa.gov/DIA_HFD/CTLEntitySearch.do", "SOURCEDATE": "2018-08-09T00:00:00.000Z", "VAL_METHOD": "IMAGERY/OTHER", "VAL_DATE": "2016-04-15T00:00:00.000Z", "WEBSITE": "http://www.casshealth.org", "STATE_ID": "NOT AVAILABLE", "ALT_NAME": "NOT AVAILABLE", "ST_FIPS": "19", "OWNER": "GOVERNMENT - LOCAL", "TTL_STAFF": -999, "BEDS": 33, "TRAUMA": "LEVEL IV", "HELIPAD": "Y" }, "geometry": { "type": "Polygon", "coordinates": [ [ [ -94.98448, 41.302255 ], [ -95.068354, 41.3316 ], [ -95.084337, 41.346049 ], [ -95.110579, 41.403376 ], [ -95.110589, 41.403666 ], [ -95.110584, 41.403921 ], [ -95.10844, 41.446043 ], [ -95.003658, 41.49007 ], [ -94.950629, 41.47362 ], [ -94.853574, 41.414114 ], [ -94.872292, 41.389241 ], [ -94.926738, 41.345696 ], [ -94.98448, 41.302255 ] ] ] } },
{ "type": "Feature", "properties": { "OBJECTID": 6384, "ID": "0009450316", "NAME": "IOWA LUTHERAN HOSPITAL", "ADDRESS": "700 UNIVERSITY", "CITY": "DES MOINES", "STATE": "IA", "ZIP": "50316", "ZIP4": "NOT AVAILABLE", "TELEPHONE": "(515) 263-5612", "TYPE": "GENERAL ACUTE CARE", "STATUS": "OPEN", "POPULATION": 224, "COUNTY": "POLK", "COUNTYFIPS": "19153", "COUNTRY": "USA", "LATITUDE": 41.602014874000098, "LONGITUDE": -93.609595887999902, "NAICS_CODE": "622110", "NAICS_DESC": "GENERAL MEDICAL AND SURGICAL HOSPITALS", "SOURCE": "https://dia-hfd.iowa.gov/DIA_HFD/CTLEntitySearch.do", "SOURCEDATE": "2018-08-09T00:00:00.000Z", "VAL_METHOD": "IMAGERY/OTHER", "VAL_DATE": "2016-04-15T00:00:00.000Z", "WEBSITE": "http://www.iowahealth.org", "STATE_ID": "NOT AVAILABLE", "ALT_NAME": "NOT AVAILABLE", "ST_FIPS": "19", "OWNER": "NON-PROFIT", "TTL_STAFF": -999, "BEDS": 224, "TRAUMA": "LEVEL IV", "HELIPAD": "Y" }, "geometry": { "type": "Polygon", "coordinates": [ [ [ -93.5722595, 41.5064833 ], [ -93.6093277, 41.51192750000002 ], [ -93.6256533, 41.518092 ], [ -93.7776509, 41.592312699999979 ], [ -93.7745072, 41.595261199999975 ], [ -93.706377, 41.652606 ], [ -93.6340504, 41.7033723 ], [ -93.6241458, 41.7102363 ], [ -93.6220505, 41.7112 ], [ -93.6218132, 41.711284699999979 ], [ -93.5761414, 41.707960899999989 ], [ -93.5041912, 41.661947 ], [ -93.4914507, 41.598705 ], [ -93.4914675, 41.598492499999985 ], [ -93.5722595, 41.5064833 ] ] ] } },
{ "type": "Feature", "properties": { "OBJECTID": 6385, "ID": "0009850308", "NAME": "IOWA METHODIST MEDICAL CENTER", "ADDRESS": "1200 PLEASANT STREET", "CITY": "DES MOINES", "STATE": "IA", "ZIP": "50308", "ZIP4": "NOT AVAILABLE", "TELEPHONE": "(515) 241-6212", "TYPE": "GENERAL ACUTE CARE", "STATUS": "OPEN", "POPULATION": 460, "COUNTY": "POLK", "COUNTYFIPS": "19153", "COUNTRY": "USA", "LATITUDE": 41.589443326000001, "LONGITUDE": -93.63381099, "NAICS_CODE": "622110", "NAICS_DESC": "GENERAL MEDICAL AND SURGICAL HOSPITALS", "SOURCE": "https://dia-hfd.iowa.gov/DIA_HFD/CTLEntitySearch.do", "SOURCEDATE": "2018-08-09T00:00:00.000Z", "VAL_METHOD": "IMAGERY/OTHER", "VAL_DATE": "2016-04-15T00:00:00.000Z", "WEBSITE": "http://www.iowahealth.org", "STATE_ID": "NOT AVAILABLE", "ALT_NAME": "NOT AVAILABLE", "ST_FIPS": "19", "OWNER": "NON-PROFIT", "TTL_STAFF": -999, "BEDS": 460, "TRAUMA": "LEVEL I, LEVEL II PEDIATRIC", "HELIPAD": "Y" }, "geometry": { "type": "Polygon", "coordinates": [ [ [ -93.625714, 41.496205 ], [ -93.685345, 41.516382 ], [ -93.80121840000001, 41.592194300000038 ], [ -93.7767305, 41.610719099999983 ], [ -93.684796, 41.657846 ], [ -93.625248, 41.681379 ], [ -93.5756419, 41.6876448 ], [ -93.529458, 41.658818 ], [ -93.510798, 41.61508 ], [ -93.509988, 41.599312 ], [ -93.509986, 41.599184 ], [ -93.545383, 41.540651200000021 ], [ -93.5722595, 41.5064833 ], [ -93.625714, 41.496205 ] ] ] } },
{ "type": "Feature", "properties": { "OBJECTID": 6387, "ID": "0094751445", "NAME": "HORN MEMORIAL HOSPITAL", "ADDRESS": "701 E 2ND ST", "CITY": "IDA GROVE", "STATE": "IA", "ZIP": "51445", "ZIP4": "NOT AVAILABLE", "TELEPHONE": "(712) 364-3311", "TYPE": "CRITICAL ACCESS", "STATUS": "OPEN", "POPULATION": 25, "COUNTY": "IDA", "COUNTYFIPS": "19093", "COUNTRY": "USA", "LATITUDE": 42.338891156000003, "LONGITUDE": -95.459817502000007, "NAICS_CODE": "622110", "NAICS_DESC": "GENERAL MEDICAL AND SURGICAL HOSPITALS", "SOURCE": "https://dia-hfd.iowa.gov/DIA_HFD/CTLEntitySearch.do", "SOURCEDATE": "2018-08-09T00:00:00.000Z", "VAL_METHOD": "IMAGERY/OTHER", "VAL_DATE": "2016-04-15T00:00:00.000Z", "WEBSITE": "http://www.hornmemorialhospital.org", "STATE_ID": "NOT AVAILABLE", "ALT_NAME": "NOT AVAILABLE", "ST_FIPS": "19", "OWNER": "NON-PROFIT", "TTL_STAFF": -999, "BEDS": 25, "TRAUMA": "LEVEL IV", "HELIPAD": "Y" }, "geometry": { "type": "Polygon", "coordinates": [ [ [ -95.439363, 42.239721 ], [ -95.594172, 42.317951 ], [ -95.594185, 42.318536 ], [ -95.517127, 42.428374 ], [ -95.458394, 42.413896 ], [ -95.4202, 42.399316 ], [ -95.3424468, 42.355558100000025 ], [ -95.32291, 42.326582 ], [ -95.322903, 42.321489 ], [ -95.3229507, 42.3203367 ], [ -95.439363, 42.239721 ] ] ] } },
{ "type": "Feature", "properties": { "OBJECTID": 6390, "ID": "0095851442", "NAME": "CRAWFORD COUNTY MEMORIAL HOSPITAL", "ADDRESS": "100 MEDICAL PARKWAY", "CITY": "DENISON", "STATE": "IA", "ZIP": "51442", "ZIP4": "NOT AVAILABLE", "TELEPHONE": "(712) 263-5021", "TYPE": "CRITICAL ACCESS", "STATUS": "OPEN", "POPULATION": 25, "COUNTY": "CRAWFORD", "COUNTYFIPS": "19047", "COUNTRY": "USA", "LATITUDE": 42.02435225, "LONGITUDE": -95.378023932999994, "NAICS_CODE": "622110", "NAICS_DESC": "GENERAL MEDICAL AND SURGICAL HOSPITALS", "SOURCE": "https://dia-hfd.iowa.gov/DIA_HFD/CTLEntitySearch.do", "SOURCEDATE": "2018-08-09T00:00:00.000Z", "VAL_METHOD": "IMAGERY/OTHER", "VAL_DATE": "2016-04-15T00:00:00.000Z", "WEBSITE": "http://www.ccmhia.com/", "STATE_ID": "NOT AVAILABLE", "ALT_NAME": "NOT AVAILABLE", "ST_FIPS": "19", "OWNER": "GOVERNMENT - LOCAL", "TTL_STAFF": -999, "BEDS": 25, "TRAUMA": "LEVEL IV", "HELIPAD": "Y" }, "geometry": { "type": "Polygon", "coordinates": [ [ [ -95.3440135, 41.936540699999945 ], [ -95.429898, 41.967716 ], [ -95.430935, 41.968456 ], [ -95.517652, 42.045628 ], [ -95.43971, 42.109509 ], [ -95.32371, 42.108759 ], [ -95.311264, 42.101489 ], [ -95.248148, 42.033511 ], [ -95.305024, 41.966273 ], [ -95.338429, 41.937211 ], [ -95.3440135, 41.936540699999945 ] ] ] } },
{ "type": "Feature", "properties": { "OBJECTID": 6391, "ID": "0000000064", "NAME": "MERCY MEDICAL CENTER WEST LAKES", "ADDRESS": "1755 59TH PLACE", "CITY": "WEST DES MOINES", "STATE": "IA", "ZIP": "50266", "ZIP4": "NOT AVAILABLE", "TELEPHONE": "(515) 358-8000", "TYPE": "GENERAL ACUTE CARE", "STATUS": "OPEN", "POPULATION": 146, "COUNTY": "POLK", "COUNTYFIPS": "19153", "COUNTRY": "USA", "LATITUDE": 41.597178474000003, "LONGITUDE": -93.789768142999904, "NAICS_CODE": "622110", "NAICS_DESC": "GENERAL MEDICAL AND SURGICAL HOSPITALS", "SOURCE": "https://dia-hfd.iowa.gov/DIA_HFD/CTLEntitySearch.do", "SOURCEDATE": "2018-08-09T00:00:00.000Z", "VAL_METHOD": "IMAGERY/OTHER", "VAL_DATE": "2016-04-15T00:00:00.000Z", "WEBSITE": "http://www.mercydesmoines.org/", "STATE_ID": "NOT AVAILABLE", "ALT_NAME": "NOT AVAILABLE", "ST_FIPS": "19", "OWNER": "NOT AVAILABLE", "TTL_STAFF": -999, "BEDS": 146, "TRAUMA": "LEVEL IV", "HELIPAD": "Y" }, "geometry": { "type": "Polygon", "coordinates": [ [ [ -93.7319653, 41.512081199999983 ], [ -93.885795, 41.53151 ], [ -93.9588872, 41.546738299999966 ], [ -93.9545903, 41.55376620000002 ], [ -93.9107567, 41.6147641 ], [ -93.9046938, 41.622079 ], [ -93.7750484, 41.717474500000016 ], [ -93.7745343, 41.71748179999998 ], [ -93.69453919999998, 41.6620461 ], [ -93.6353081, 41.595421 ], [ -93.7297392, 41.512049400000045 ], [ -93.7319653, 41.512081199999983 ] ] ] } },
{ "type": "Feature", "properties": { "OBJECTID": 6392, "ID": "0000000065", "NAME": "METHODIST WEST HOSPITAL", "ADDRESS": "1660 60TH ST", "CITY": "WEST DES MOINES", "STATE": "IA", "ZIP": "50266", "ZIP4": "NOT AVAILABLE", "TELEPHONE": "(515) 343-1000", "TYPE": "GENERAL ACUTE CARE", "STATUS": "OPEN", "POPULATION": 95, "COUNTY": "POLK", "COUNTYFIPS": "19153", "COUNTRY": "USA", "LATITUDE": 41.596608258000103, "LONGITUDE": -93.795709648, "NAICS_CODE": "622110", "NAICS_DESC": "GENERAL MEDICAL AND SURGICAL HOSPITALS", "SOURCE": "https://dia-hfd.iowa.gov/DIA_HFD/CTLEntitySearch.do", "SOURCEDATE": "2018-08-09T00:00:00.000Z", "VAL_METHOD": "IMAGERY/OTHER", "VAL_DATE": "2016-04-15T00:00:00.000Z", "WEBSITE": "http://www.unitypoint.org/desmoines/methodist-west-hospital.aspx", "STATE_ID": "NOT AVAILABLE", "ALT_NAME": "NOT AVAILABLE", "ST_FIPS": "19", "OWNER": "NOT AVAILABLE", "TTL_STAFF": -999, "BEDS": 95, "TRAUMA": "LEVEL IV", "HELIPAD": "Y" }, "geometry": { "type": "Polygon", "coordinates": [ [ [ -93.891888, 41.521691 ], [ -93.949046, 41.538051 ], [ -93.9588872, 41.546738299999966 ], [ -93.9549546, 41.55443 ], [ -93.9107567, 41.6147641 ], [ -93.9046938, 41.622079 ], [ -93.7749673, 41.7028942 ], [ -93.7744928, 41.702903500000026 ], [ -93.7717653, 41.702901399999973 ], [ -93.691464, 41.651708 ], [ -93.6309984, 41.5955016 ], [ -93.6321667, 41.592100200000019 ], [ -93.7228222, 41.519084700000022 ], [ -93.7606938, 41.519499499999988 ], [ -93.891888, 41.521691 ] ] ] } },
{ "type": "Feature", "properties": { "OBJECTID": 6393, "ID": "0095552565", "NAME": "VAN BUREN COUNTY HOSPITAL", "ADDRESS": "304 FRANKLIN STREET", "CITY": "KEOSAUQUA", "STATE": "IA", "ZIP": "52565", "ZIP4": "NOT AVAILABLE", "TELEPHONE": "(319) 293-3171", "TYPE": "CRITICAL ACCESS", "STATUS": "OPEN", "POPULATION": 25, "COUNTY": "VAN BUREN", "COUNTYFIPS": "19177", "COUNTRY": "USA", "LATITUDE": 40.736539195, "LONGITUDE": -91.958044752999996, "NAICS_CODE": "622110", "NAICS_DESC": "GENERAL MEDICAL AND SURGICAL HOSPITALS", "SOURCE": "https://dia-hfd.iowa.gov/DIA_HFD/CTLEntitySearch.do", "SOURCEDATE": "2018-08-09T00:00:00.000Z", "VAL_METHOD": "IMAGERY/OTHER", "VAL_DATE": "2016-04-19T00:00:00.000Z", "WEBSITE": "http://www.vbch.org", "STATE_ID": "NOT AVAILABLE", "ALT_NAME": "NOT AVAILABLE", "ST_FIPS": "19", "OWNER": "GOVERNMENT - FEDERAL", "TTL_STAFF": -999, "BEDS": 25, "TRAUMA": "LEVEL IV", "HELIPAD": "Y" }, "geometry": { "type": "Polygon", "coordinates": [ [ [ -91.930559047256125, 40.669935074201121 ], [ -91.996265430830121, 40.674361063736633 ], [ -92.044517932315031, 40.725444982046291 ], [ -92.034851, 40.747359099999969 ], [ -92.0247245, 40.769295300000024 ], [ -91.9491902, 40.827857499999979 ], [ -91.9009694, 40.813573500000018 ], [ -91.857533074264111, 40.719022113555383 ], [ -91.911317752523004, 40.674701680045395 ], [ -91.930559047256125, 40.669935074201121 ] ] ] } },
{ "type": "Feature", "properties": { "OBJECTID": 6395, "ID": "0010750138", "NAME": "DEPARTMENT OF VETERANS AFFAIRS MEDICAL CENTER", "ADDRESS": "1515 WEST PLEASANT STREET", "CITY": "KNOXVILLE", "STATE": "IA", "ZIP": "50138", "ZIP4": "NOT AVAILABLE", "TELEPHONE": "(515) 842-3101", "TYPE": "MILITARY", "STATUS": "OPEN", "POPULATION": -999, "COUNTY": "MARION", "COUNTYFIPS": "19125", "COUNTRY": "USA", "LATITUDE": 41.322591595000098, "LONGITUDE": -93.114080646000005, "NAICS_CODE": "622110", "NAICS_DESC": "GENERAL MEDICAL AND SURGICAL HOSPITALS", "SOURCE": "https://dia-hfd.iowa.gov/DIA_HFD/CTLEntitySearch.do", "SOURCEDATE": "2018-08-09T00:00:00.000Z", "VAL_METHOD": "IMAGERY", "VAL_DATE": "2014-02-10T00:00:00.000Z", "WEBSITE": "http://www1.va.gov/directory/guide/facility.asp?ID=66", "STATE_ID": "NOT AVAILABLE", "ALT_NAME": "NOT AVAILABLE", "ST_FIPS": "19", "OWNER": "GOVERNMENT - FEDERAL", "TTL_STAFF": -999, "BEDS": -999, "TRAUMA": "NOT AVAILABLE", "HELIPAD": "N" }, "geometry": { "type": "Polygon", "coordinates": [ [ [ -93.1372871, 41.219643899999987 ], [ -93.261965, 41.334931899999972 ], [ -93.271473, 41.356615 ], [ -93.2703791, 41.3702718 ], [ -93.2700773, 41.3704278 ], [ -93.1387723, 41.400207100000046 ], [ -93.1106589, 41.401815600000013 ], [ -93.0727505, 41.394592099999969 ], [ -92.9718675, 41.302657600000046 ], [ -93.0304629, 41.2483006 ], [ -93.1372871, 41.219643899999987 ] ] ] } },
{ "type": "Feature", "properties": { "OBJECTID": 6397, "ID": "0095751632", "NAME": "CLARINDA REGIONAL HEALTH CENTER", "ADDRESS": "220 ESSIE DAVISON DRIVE", "CITY": "CLARINDA", "STATE": "IA", "ZIP": "51632", "ZIP4": "NOT AVAILABLE", "TELEPHONE": "(712) 542-2176", "TYPE": "CRITICAL ACCESS", "STATUS": "OPEN", "POPULATION": 25, "COUNTY": "PAGE", "COUNTYFIPS": "19145", "COUNTRY": "USA", "LATITUDE": 40.723481431000003, "LONGITUDE": -95.043205603000004, "NAICS_CODE": "622110", "NAICS_DESC": "GENERAL MEDICAL AND SURGICAL HOSPITALS", "SOURCE": "https://dia-hfd.iowa.gov/DIA_HFD/CTLEntitySearch.do", "SOURCEDATE": "2018-08-09T00:00:00.000Z", "VAL_METHOD": "IMAGERY/OTHER", "VAL_DATE": "2016-04-18T00:00:00.000Z", "WEBSITE": "NOT AVAILABLE", "STATE_ID": "NOT AVAILABLE", "ALT_NAME": "NOT AVAILABLE", "ST_FIPS": "19", "OWNER": "NOT AVAILABLE", "TTL_STAFF": -999, "BEDS": 25, "TRAUMA": "LEVEL IV", "HELIPAD": "Y" }, "geometry": { "type": "Polygon", "coordinates": [ [ [ -95.030450091886564, 40.615601179114215 ], [ -95.175444733520663, 40.742482661676455 ], [ -95.099434667165738, 40.785798301447933 ], [ -95.033498, 40.813825 ], [ -94.985831, 40.805523 ], [ -94.952346971260695, 40.778269716193762 ], [ -94.899304997280041, 40.728210093286286 ], [ -94.899294997637057, 40.727472093738847 ], [ -94.899298397782772, 40.727173693917237 ], [ -95.030450091886564, 40.615601179114215 ] ] ] } },
{ "type": "Feature", "properties": { "OBJECTID": 6399, "ID": "0095450854", "NAME": "RINGGOLD COUNTY HOSPITAL", "ADDRESS": "504 NORTH CLEVELAND STREET", "CITY": "MOUNT AYR", "STATE": "IA", "ZIP": "50854", "ZIP4": "NOT AVAILABLE", "TELEPHONE": "(641) 464-3226", "TYPE": "CRITICAL ACCESS", "STATUS": "OPEN", "POPULATION": 16, "COUNTY": "RINGGOLD", "COUNTYFIPS": "19159", "COUNTRY": "USA", "LATITUDE": 40.7188233050001, "LONGITUDE": -94.222578898999998, "NAICS_CODE": "622110", "NAICS_DESC": "GENERAL MEDICAL AND SURGICAL HOSPITALS", "SOURCE": "https://dia-hfd.iowa.gov/DIA_HFD/CTLEntitySearch.do", "SOURCEDATE": "2018-08-09T00:00:00.000Z", "VAL_METHOD": "IMAGERY/OTHER", "VAL_DATE": "2016-04-18T00:00:00.000Z", "WEBSITE": "NOT AVAILABLE", "STATE_ID": "NOT AVAILABLE", "ALT_NAME": "NOT AVAILABLE", "ST_FIPS": "19", "OWNER": "GOVERNMENT - LOCAL", "TTL_STAFF": -999, "BEDS": 16, "TRAUMA": "LEVEL IV", "HELIPAD": "Y" }, "geometry": { "type": "Polygon", "coordinates": [ [ [ -94.243245798813945, 40.638970800682515 ], [ -94.280972991127129, 40.653453004753878 ], [ -94.357456957568317, 40.71153203123535 ], [ -94.262196, 40.797516 ], [ -94.223497, 40.82591 ], [ -94.161953970428712, 40.78260112730117 ], [ -94.090950956097871, 40.710659107684869 ], [ -94.123909968363336, 40.692714077971416 ], [ -94.223601295363267, 40.638962709846822 ], [ -94.232996097013569, 40.638962705463918 ], [ -94.243245798813945, 40.638970800682515 ] ] ] } },
{ "type": "Feature", "properties": { "OBJECTID": 6406, "ID": "0012950060", "NAME": "WAYNE COUNTY HOSPITAL", "ADDRESS": "417 SOUTH EAST STREET", "CITY": "CORYDON", "STATE": "IA", "ZIP": "50060", "ZIP4": "NOT AVAILABLE", "TELEPHONE": "(641) 872-2260", "TYPE": "CRITICAL ACCESS", "STATUS": "OPEN", "POPULATION": 25, "COUNTY": "WAYNE", "COUNTYFIPS": "19185", "COUNTRY": "USA", "LATITUDE": 40.754051031000103, "LONGITUDE": -93.311521467999995, "NAICS_CODE": "622110", "NAICS_DESC": "GENERAL MEDICAL AND SURGICAL HOSPITALS", "SOURCE": "https://dia-hfd.iowa.gov/DIA_HFD/CTLEntitySearch.do", "SOURCEDATE": "2018-08-09T00:00:00.000Z", "VAL_METHOD": "IMAGERY", "VAL_DATE": "2016-04-19T00:00:00.000Z", "WEBSITE": "http://www.waynecountyhospital.org", "STATE_ID": "NOT AVAILABLE", "ALT_NAME": "NOT AVAILABLE", "ST_FIPS": "19", "OWNER": "GOVERNMENT - LOCAL", "TTL_STAFF": -999, "BEDS": 25, "TRAUMA": "LEVEL IV", "HELIPAD": "Y" }, "geometry": { "type": "Polygon", "coordinates": [ [ [ -93.307544028721395, 40.681194006495168 ], [ -93.366669027319077, 40.702105004530999 ], [ -93.369378027286118, 40.70364400442876 ], [ -93.379445027208291, 40.710194004031429 ], [ -93.442277016307401, 40.760254002366366 ], [ -93.317379, 40.8516 ], [ -93.306971, 40.849651 ], [ -93.304146, 40.848154 ], [ -93.173656072367464, 40.746507013763846 ], [ -93.269381030891921, 40.695863007344435 ], [ -93.307544028721395, 40.681194006495168 ] ] ] } },
{ "type": "Feature", "properties": { "OBJECTID": 6468, "ID": "0005550583", "NAME": "LORING HOSPITAL", "ADDRESS": "211 HIGHLAND AVENUE", "CITY": "SAC CITY", "STATE": "IA", "ZIP": "50583", "ZIP4": "NOT AVAILABLE", "TELEPHONE": "(712) 662-7105", "TYPE": "CRITICAL ACCESS", "STATUS": "OPEN", "POPULATION": 25, "COUNTY": "SAC", "COUNTYFIPS": "19161", "COUNTRY": "USA", "LATITUDE": 42.41899449, "LONGITUDE": -94.979506715, "NAICS_CODE": "622110", "NAICS_DESC": "GENERAL MEDICAL AND SURGICAL HOSPITALS", "SOURCE": "https://dia-hfd.iowa.gov/DIA_HFD/CTLEntitySearch.do", "SOURCEDATE": "2018-08-09T00:00:00.000Z", "VAL_METHOD": "IMAGERY", "VAL_DATE": "2016-04-18T00:00:00.000Z", "WEBSITE": "http://www.loringhospital.org", "STATE_ID": "NOT AVAILABLE", "ALT_NAME": "NOT AVAILABLE", "ST_FIPS": "19", "OWNER": "NON-PROFIT", "TTL_STAFF": -999, "BEDS": 25, "TRAUMA": "LEVEL IV", "HELIPAD": "Y" }, "geometry": { "type": "Polygon", "coordinates": [ [ [ -94.955288, 42.325589 ], [ -95.01311, 42.354858 ], [ -95.108863, 42.422115 ], [ -95.108909, 42.429363700000017 ], [ -95.091382, 42.476524 ], [ -95.052426, 42.488954 ], [ -94.993012, 42.503448 ], [ -94.93411, 42.485652 ], [ -94.8567895, 42.457351399999972 ], [ -94.8449469, 42.449804100000016 ], [ -94.8449441, 42.4495275 ], [ -94.855664, 42.421708 ], [ -94.91593, 42.354338 ], [ -94.955288, 42.325589 ] ] ] } },
{ "type": "Feature", "properties": { "OBJECTID": 6470, "ID": "0006551401", "NAME": "ST. ANTHONY'S REGIONAL HOSPITAL", "ADDRESS": "311 SOUTH CLARK STREET", "CITY": "CARROLL", "STATE": "IA", "ZIP": "51401", "ZIP4": "NOT AVAILABLE", "TELEPHONE": "(712) 792-3581", "TYPE": "GENERAL ACUTE CARE", "STATUS": "OPEN", "POPULATION": 99, "COUNTY": "CARROLL", "COUNTYFIPS": "19027", "COUNTRY": "USA", "LATITUDE": 42.056495865000002, "LONGITUDE": -94.86707423, "NAICS_CODE": "622110", "NAICS_DESC": "GENERAL MEDICAL AND SURGICAL HOSPITALS", "SOURCE": "https://dia-hfd.iowa.gov/DIA_HFD/CTLEntitySearch.do", "SOURCEDATE": "2018-08-09T00:00:00.000Z", "VAL_METHOD": "IMAGERY", "VAL_DATE": "2016-04-14T00:00:00.000Z", "WEBSITE": "http://www.stanthonyhospital.org", "STATE_ID": "NOT AVAILABLE", "ALT_NAME": "NOT AVAILABLE", "ST_FIPS": "19", "OWNER": "NON-PROFIT", "TTL_STAFF": -999, "BEDS": 99, "TRAUMA": "LEVEL IV", "HELIPAD": "Y" }, "geometry": { "type": "Polygon", "coordinates": [ [ [ -94.8797828, 41.975743199999968 ], [ -94.9177316, 41.999659100000017 ], [ -94.9949578, 42.078938600000036 ], [ -94.878138600000014, 42.152298899999977 ], [ -94.837214, 42.13934 ], [ -94.7231684, 42.064113500000012 ], [ -94.7219319, 42.062973499999949 ], [ -94.7260075, 42.060050600000011 ], [ -94.8123383, 42.0076775 ], [ -94.878798, 41.975904899999975 ], [ -94.8797828, 41.975743199999968 ] ] ] } },
{ "type": "Feature", "properties": { "OBJECTID": 6471, "ID": "0003950588", "NAME": "BUENA VISTA REGIONAL MEDICAL CENTER", "ADDRESS": "1525 WEST FIFTH STREET", "CITY": "STORM LAKE", "STATE": "IA", "ZIP": "50588", "ZIP4": "NOT AVAILABLE", "TELEPHONE": "(712) 732-4030", "TYPE": "CRITICAL ACCESS", "STATUS": "OPEN", "POPULATION": 35, "COUNTY": "BUENA VISTA", "COUNTYFIPS": "19021", "COUNTRY": "USA", "LATITUDE": 42.644782171000003, "LONGITUDE": -95.222793005, "NAICS_CODE": "622110", "NAICS_DESC": "GENERAL MEDICAL AND SURGICAL HOSPITALS", "SOURCE": "https://dia-hfd.iowa.gov/DIA_HFD/CTLEntitySearch.do", "SOURCEDATE": "2018-08-09T00:00:00.000Z", "VAL_METHOD": "IMAGERY/OTHER", "VAL_DATE": "2016-04-15T00:00:00.000Z", "WEBSITE": "http://www.bvrmc.org", "STATE_ID": "NOT AVAILABLE", "ALT_NAME": "NOT AVAILABLE", "ST_FIPS": "19", "OWNER": "GOVERNMENT - LOCAL", "TTL_STAFF": -999, "BEDS": 35, "TRAUMA": "LEVEL IV", "HELIPAD": "N" }, "geometry": { "type": "Polygon", "coordinates": [ [ [ -95.229419, 42.560993 ], [ -95.289479048485134, 42.589898819503453 ], [ -95.309112200000015, 42.604533699999969 ], [ -95.328845, 42.633788 ], [ -95.348284, 42.68641359999998 ], [ -95.28948742097721, 42.720100536520853 ], [ -95.2102277, 42.734324500000049 ], [ -95.1514234, 42.705382699999987 ], [ -95.1278976, 42.676295100000011 ], [ -95.111789, 42.633543 ], [ -95.131285, 42.60458 ], [ -95.1513233, 42.589993100000015 ], [ -95.229419, 42.560993 ] ] ] } },
{ "type": "Feature", "properties": { "OBJECTID": 6476, "ID": "0008350025", "NAME": "AUDUBON COUNTY MEMORIAL HOSPITAL", "ADDRESS": "515 PACIFIC", "CITY": "AUDUBON", "STATE": "IA", "ZIP": "50025", "ZIP4": "NOT AVAILABLE", "TELEPHONE": "(712) 563-2611", "TYPE": "CRITICAL ACCESS", "STATUS": "OPEN", "POPULATION": 25, "COUNTY": "AUDUBON", "COUNTYFIPS": "19009", "COUNTRY": "USA", "LATITUDE": 41.715351768000097, "LONGITUDE": -94.937836149000006, "NAICS_CODE": "622110", "NAICS_DESC": "GENERAL MEDICAL AND SURGICAL HOSPITALS", "SOURCE": "https://dia-hfd.iowa.gov/DIA_HFD/CTLEntitySearch.do", "SOURCEDATE": "2018-08-09T00:00:00.000Z", "VAL_METHOD": "IMAGERY/OTHER", "VAL_DATE": "2016-04-15T00:00:00.000Z", "WEBSITE": "http://www.acmhhosp.org", "STATE_ID": "NOT AVAILABLE", "ALT_NAME": "NOT AVAILABLE", "ST_FIPS": "19", "OWNER": "GOVERNMENT - LOCAL", "TTL_STAFF": -999, "BEDS": 25, "TRAUMA": "LEVEL IV", "HELIPAD": "Y" }, "geometry": { "type": "Polygon", "coordinates": [ [ [ -94.898844, 41.616196 ], [ -94.99578, 41.674211 ], [ -95.064873, 41.731643 ], [ -95.03431, 41.760515 ], [ -94.936978, 41.820117 ], [ -94.84059, 41.731611 ], [ -94.835613, 41.674025 ], [ -94.898844, 41.616196 ] ] ] } },
{ "type": "Feature", "properties": { "OBJECTID": 6483, "ID": "0000351360", "NAME": "LAKES REGIONAL HEALTHCARE", "ADDRESS": "2301 HIGHWAY 71 SOUTH", "CITY": "SPIRIT LAKE", "STATE": "IA", "ZIP": "51360", "ZIP4": "NOT AVAILABLE", "TELEPHONE": "(712) 336-1230", "TYPE": "GENERAL ACUTE CARE", "STATUS": "OPEN", "POPULATION": 49, "COUNTY": "DICKINSON", "COUNTYFIPS": "19059", "COUNTRY": "USA", "LATITUDE": 43.417745634, "LONGITUDE": -95.124672090999994, "NAICS_CODE": "622110", "NAICS_DESC": "GENERAL MEDICAL AND SURGICAL HOSPITALS", "SOURCE": "https://dia-hfd.iowa.gov/DIA_HFD/CTLEntitySearch.do", "SOURCEDATE": "2018-08-09T00:00:00.000Z", "VAL_METHOD": "IMAGERY/OTHER", "VAL_DATE": "2016-04-15T00:00:00.000Z", "WEBSITE": "http://www.lakeshealth.org", "STATE_ID": "NOT AVAILABLE", "ALT_NAME": "NOT AVAILABLE", "ST_FIPS": "19", "OWNER": "GOVERNMENT - LOCAL", "TTL_STAFF": -999, "BEDS": 49, "TRAUMA": "LEVEL IV", "HELIPAD": "Y" }, "geometry": { "type": "Polygon", "coordinates": [ [ [ -95.1499786, 43.32908469999996 ], [ -95.1513403, 43.329745299999963 ], [ -95.1527487, 43.3307229 ], [ -95.2890558, 43.430444100000024 ], [ -95.1747762, 43.510575899999957 ], [ -95.117251, 43.499565 ], [ -95.116612, 43.499319300000039 ], [ -95.0575962, 43.474687 ], [ -94.9924616, 43.433031300000017 ], [ -94.9918668, 43.432173099999972 ], [ -94.9918648, 43.432077200000023 ], [ -94.9923422, 43.431312 ], [ -95.0721472, 43.371415799999987 ], [ -95.1118437, 43.342390500000036 ], [ -95.1499786, 43.32908469999996 ] ] ] } },
{ "type": "Feature", "properties": { "OBJECTID": 6497, "ID": "0007150129", "NAME": "GREENE COUNTY MEDICAL CENTER", "ADDRESS": "1000 WEST LINCOLNWAY", "CITY": "JEFFERSON", "STATE": "IA", "ZIP": "50129", "ZIP4": "NOT AVAILABLE", "TELEPHONE": "(515) 386-2114", "TYPE": "CRITICAL ACCESS", "STATUS": "OPEN", "POPULATION": 25, "COUNTY": "GREENE", "COUNTYFIPS": "19073", "COUNTRY": "USA", "LATITUDE": 42.015997636000101, "LONGITUDE": -94.388933659000003, "NAICS_CODE": "622110", "NAICS_DESC": "GENERAL MEDICAL AND SURGICAL HOSPITALS", "SOURCE": "https://dia-hfd.iowa.gov/DIA_HFD/CTLEntitySearch.do", "SOURCEDATE": "2018-08-09T00:00:00.000Z", "VAL_METHOD": "IMAGERY/OTHER", "VAL_DATE": "2016-04-15T00:00:00.000Z", "WEBSITE": "http://www.gcmchealth.com", "STATE_ID": "NOT AVAILABLE", "ALT_NAME": "NOT AVAILABLE", "ST_FIPS": "19", "OWNER": "GOVERNMENT - LOCAL", "TTL_STAFF": -999, "BEDS": 25, "TRAUMA": "LEVEL IV", "HELIPAD": "Y" }, "geometry": { "type": "Polygon", "coordinates": [ [ [ -94.367198, 41.92095 ], [ -94.4158338, 41.935528899999987 ], [ -94.4936212, 42.008221699999972 ], [ -94.5178956, 42.03467610000002 ], [ -94.3933014, 42.106720200000034 ], [ -94.378006, 42.106995 ], [ -94.280826, 42.048861 ], [ -94.2617222, 42.0343916 ], [ -94.338145, 41.950329 ], [ -94.367198, 41.92095 ] ] ] } },
{ "type": "Feature", "properties": { "OBJECTID": 6498, "ID": "0008650115", "NAME": "GUTHRIE COUNTY HOSPITAL", "ADDRESS": "710 NORTH 12TH STREET", "CITY": "GUTHRIE CENTER", "STATE": "IA", "ZIP": "50115", "ZIP4": "NOT AVAILABLE", "TELEPHONE": "(641) 332-2201", "TYPE": "CRITICAL ACCESS", "STATUS": "OPEN", "POPULATION": 25, "COUNTY": "GUTHRIE", "COUNTYFIPS": "19077", "COUNTRY": "USA", "LATITUDE": 41.683619491000101, "LONGITUDE": -94.493676926999996, "NAICS_CODE": "622110", "NAICS_DESC": "GENERAL MEDICAL AND SURGICAL HOSPITALS", "SOURCE": "https://dia-hfd.iowa.gov/DIA_HFD/CTLEntitySearch.do", "SOURCEDATE": "2018-08-09T00:00:00.000Z", "VAL_METHOD": "IMAGERY", "VAL_DATE": "2016-04-15T00:00:00.000Z", "WEBSITE": "http://www.guthriecountyhospital.org", "STATE_ID": "NOT AVAILABLE", "ALT_NAME": "NOT AVAILABLE", "ST_FIPS": "19", "OWNER": "GOVERNMENT - LOCAL", "TTL_STAFF": -999, "BEDS": 25, "TRAUMA": "LEVEL IV", "HELIPAD": "Y" }, "geometry": { "type": "Polygon", "coordinates": [ [ [ -94.490584, 41.601793 ], [ -94.51292, 41.609136 ], [ -94.560469, 41.634181 ], [ -94.618395, 41.673406 ], [ -94.570398, 41.717043 ], [ -94.493038, 41.780934 ], [ -94.450305, 41.753088 ], [ -94.361373, 41.693966 ], [ -94.358439, 41.691759 ], [ -94.435046, 41.637849 ], [ -94.490584, 41.601793 ] ] ] } },
{ "type": "Feature", "properties": { "OBJECTID": 6570, "ID": "0011652531", "NAME": "MONROE COUNTY HOSPITAL", "ADDRESS": "6580 165TH ST", "CITY": "ALBIA", "STATE": "IA", "ZIP": "52531", "ZIP4": "NOT AVAILABLE", "TELEPHONE": "(641) 932-2134", "TYPE": "CRITICAL ACCESS", "STATUS": "OPEN", "POPULATION": 25, "COUNTY": "MONROE", "COUNTYFIPS": "19135", "COUNTRY": "USA", "LATITUDE": 41.043476451000103, "LONGITUDE": -92.796586879000003, "NAICS_CODE": "622110", "NAICS_DESC": "GENERAL MEDICAL AND SURGICAL HOSPITALS", "SOURCE": "https://dia-hfd.iowa.gov/DIA_HFD/CTLEntitySearch.do", "SOURCEDATE": "2018-08-09T00:00:00.000Z", "VAL_METHOD": "IMAGERY/OTHER", "VAL_DATE": "2016-04-18T00:00:00.000Z", "WEBSITE": "http://www.mchalbia.com", "STATE_ID": "NOT AVAILABLE", "ALT_NAME": "NOT AVAILABLE", "ST_FIPS": "19", "OWNER": "GOVERNMENT - LOCAL", "TTL_STAFF": -999, "BEDS": 25, "TRAUMA": "LEVEL IV", "HELIPAD": "Y" }, "geometry": { "type": "Polygon", "coordinates": [ [ [ -92.830986, 40.956676 ], [ -92.916725, 41.0127799 ], [ -92.8922424, 41.106848700000022 ], [ -92.740781, 41.116939 ], [ -92.7160693, 41.0268948 ], [ -92.7161923, 41.014467100000026 ], [ -92.741231, 40.990324 ], [ -92.778133, 40.964155 ], [ -92.8215243, 40.956710800000032 ], [ -92.8282283, 40.956674899999975 ], [ -92.830986, 40.956676 ] ] ] } },
{ "type": "Feature", "properties": { "OBJECTID": 6571, "ID": "0013252544", "NAME": "MERCY MEDICAL CENTER-CENTERVILLE", "ADDRESS": "ONE ST. JOSEPH DRIVE", "CITY": "CENTERVILLE", "STATE": "IA", "ZIP": "52544", "ZIP4": "NOT AVAILABLE", "TELEPHONE": "(641) 437-4111", "TYPE": "CRITICAL ACCESS", "STATUS": "OPEN", "POPULATION": 45, "COUNTY": "APPANOOSE", "COUNTYFIPS": "19007", "COUNTRY": "USA", "LATITUDE": 40.755623528999998, "LONGITUDE": -92.856900459000002, "NAICS_CODE": "622110", "NAICS_DESC": "GENERAL MEDICAL AND SURGICAL HOSPITALS", "SOURCE": "https://dia-hfd.iowa.gov/DIA_HFD/CTLEntitySearch.do", "SOURCEDATE": "2018-08-09T00:00:00.000Z", "VAL_METHOD": "IMAGERY", "VAL_DATE": "2016-04-15T00:00:00.000Z", "WEBSITE": "http://www.mercycenterville.org", "STATE_ID": "NOT AVAILABLE", "ALT_NAME": "NOT AVAILABLE", "ST_FIPS": "19", "OWNER": "NON-PROFIT", "TTL_STAFF": -999, "BEDS": 45, "TRAUMA": "LEVEL IV", "HELIPAD": "Y" }, "geometry": { "type": "Polygon", "coordinates": [ [ [ -92.875034573779871, 40.649229311971297 ], [ -92.945456770418048, 40.703561619039156 ], [ -92.963454068085326, 40.718106421813964 ], [ -92.951301192528874, 40.754040027858501 ], [ -92.950700191566867, 40.755391029580046 ], [ -92.913423, 40.819252 ], [ -92.906337, 40.8268084 ], [ -92.8301959, 40.8580327 ], [ -92.8061742, 40.82709650000001 ], [ -92.767537217474938, 40.739742098940432 ], [ -92.847827203345688, 40.667208010136214 ], [ -92.875034573779871, 40.649229311971297 ] ] ] } },
{ "type": "Feature", "properties": { "OBJECTID": 6572, "ID": "0006850158", "NAME": "UNITYPOINT HEALTH MARSHALLTOWN", "ADDRESS": "THREE SOUTH FOURTH AVENUE", "CITY": "MARSHALLTOWN", "STATE": "IA", "ZIP": "50158", "ZIP4": "NOT AVAILABLE", "TELEPHONE": "(641) 854-7021", "TYPE": "GENERAL ACUTE CARE", "STATUS": "OPEN", "POPULATION": 125, "COUNTY": "MARSHALL", "COUNTYFIPS": "19127", "COUNTRY": "USA", "LATITUDE": 42.048404639000097, "LONGITUDE": -92.90683107, "NAICS_CODE": "622110", "NAICS_DESC": "GENERAL MEDICAL AND SURGICAL HOSPITALS", "SOURCE": "https://dia-hfd.iowa.gov/DIA_HFD/CTLEntitySearch.do", "SOURCEDATE": "2018-08-09T00:00:00.000Z", "VAL_METHOD": "IMAGERY/OTHER", "VAL_DATE": "2016-04-15T00:00:00.000Z", "WEBSITE": "http://www.centraliowahealthcare.com/", "STATE_ID": "NOT AVAILABLE", "ALT_NAME": "CENTRAL IOWA HEALTHCARE", "ST_FIPS": "19", "OWNER": "NON-PROFIT", "TTL_STAFF": -999, "BEDS": 125, "TRAUMA": "LEVEL III", "HELIPAD": "Y" }, "geometry": { "type": "Polygon", "coordinates": [ [ [ -92.9171975, 41.949399399999962 ], [ -93.0245328, 42.004467600000019 ], [ -93.0249797, 42.004838099999951 ], [ -93.0257176, 42.008441199999979 ], [ -93.0195184, 42.0488831 ], [ -93.0005247, 42.0839487 ], [ -92.9618143, 42.122863299999985 ], [ -92.9041735, 42.1666693 ], [ -92.8188793, 42.103181899999989 ], [ -92.8056084, 42.0929224 ], [ -92.785783, 42.053130799999984 ], [ -92.7857409, 42.0494993 ], [ -92.8037226, 42.0065874 ], [ -92.9171975, 41.949399399999962 ] ] ] } },
{ "type": "Feature", "properties": { "OBJECTID": 6594, "ID": "0010550273", "NAME": "MADISON COUNTY HEALTHCARE SYSTEM", "ADDRESS": "300 WEST HUTCHINGS STREET", "CITY": "WINTERSET", "STATE": "IA", "ZIP": "50273", "ZIP4": "NOT AVAILABLE", "TELEPHONE": "(515) 462-2373", "TYPE": "CRITICAL ACCESS", "STATUS": "OPEN", "POPULATION": 25, "COUNTY": "MADISON", "COUNTYFIPS": "19121", "COUNTRY": "USA", "LATITUDE": 41.327997021999998, "LONGITUDE": -94.016906012999996, "NAICS_CODE": "622110", "NAICS_DESC": "GENERAL MEDICAL AND SURGICAL HOSPITALS", "SOURCE": "https://dia-hfd.iowa.gov/DIA_HFD/CTLEntitySearch.do", "SOURCEDATE": "2018-08-09T00:00:00.000Z", "VAL_METHOD": "IMAGERY/OTHER", "VAL_DATE": "2016-04-15T00:00:00.000Z", "WEBSITE": "http://www.madisonhealth.com", "STATE_ID": "NOT AVAILABLE", "ALT_NAME": "NOT AVAILABLE", "ST_FIPS": "19", "OWNER": "GOVERNMENT - LOCAL", "TTL_STAFF": -999, "BEDS": 25, "TRAUMA": "LEVEL IV", "HELIPAD": "Y" }, "geometry": { "type": "Polygon", "coordinates": [ [ [ -94.042416, 41.243602 ], [ -94.14626, 41.330246 ], [ -94.127059, 41.344713 ], [ -94.01323, 41.423758 ], [ -93.91211, 41.355765 ], [ -93.912119, 41.353199 ], [ -93.917216, 41.301295 ], [ -94.013264, 41.243543 ], [ -94.042416, 41.243602 ] ] ] } },
{ "type": "Feature", "properties": { "OBJECTID": 4017, "ID": "0017251455", "NAME": "MANNING REGIONAL HEALTHCARE", "ADDRESS": "1550 6TH STREET", "CITY": "MANNING", "STATE": "IA", "ZIP": "51455", "ZIP4": "1005", "TELEPHONE": "(712) 655-2072", "TYPE": "CRITICAL ACCESS", "STATUS": "OPEN", "POPULATION": 17, "COUNTY": "CARROLL", "COUNTYFIPS": "19027", "COUNTRY": "USA", "LATITUDE": 41.904542197000097, "LONGITUDE": -95.075554217000004, "NAICS_CODE": "622110", "NAICS_DESC": "GENERAL MEDICAL AND SURGICAL HOSPITALS", "SOURCE": "https://dia-hfd.iowa.gov/DIA_HFD/CTLEntitySearch.do", "SOURCEDATE": "2018-08-09T00:00:00.000Z", "VAL_METHOD": "IMAGERY", "VAL_DATE": "2016-04-15T00:00:00.000Z", "WEBSITE": "http://www.mrhcia.com", "STATE_ID": "NOT AVAILABLE", "ALT_NAME": "NOT AVAILABLE", "ST_FIPS": "19", "OWNER": "NOT AVAILABLE", "TTL_STAFF": -999, "BEDS": 17, "TRAUMA": "LEVEL IV", "HELIPAD": "Y" }, "geometry": { "type": "Polygon", "coordinates": [ [ [ -95.0929863, 41.820200100000022 ], [ -95.0938484, 41.82022 ], [ -95.150907, 41.849598 ], [ -95.17014, 41.863477 ], [ -95.189549, 41.877941 ], [ -95.2279675, 41.907217800000026 ], [ -95.16964, 41.951516 ], [ -95.150394, 41.965796 ], [ -95.111591, 41.97988 ], [ -95.07313, 41.979581 ], [ -95.034579, 41.96508 ], [ -94.976572, 41.935139 ], [ -94.9357132, 41.913601699999951 ], [ -94.9373995, 41.906403300000022 ], [ -95.029441, 41.849055 ], [ -95.030357, 41.848495 ], [ -95.0929863, 41.820200100000022 ] ] ] } },
{ "type": "Feature", "properties": { "OBJECTID": 4141, "ID": "0017550314", "NAME": "SELECT SPECIALTY HOSPITAL - DES MOINES", "ADDRESS": "1111 6TH AVENUE, 4TH FLOOR", "CITY": "DES MOINES", "STATE": "IA", "ZIP": "50314", "ZIP4": "NOT AVAILABLE", "TELEPHONE": "(515) 247-4400", "TYPE": "LONG TERM CARE", "STATUS": "OPEN", "POPULATION": 21, "COUNTY": "POLK", "COUNTYFIPS": "19153", "COUNTRY": "USA", "LATITUDE": 41.598876767, "LONGITUDE": -93.622113815000006, "NAICS_CODE": "622310", "NAICS_DESC": "SPECIALTY (EXCEPT PSYCHIATRIC AND SUBSTANCE ABUSE) HOSPITALS", "SOURCE": "https://dia-hfd.iowa.gov/DIA_HFD/CTLEntitySearch.do", "SOURCEDATE": "2018-08-09T00:00:00.000Z", "VAL_METHOD": "IMAGERY", "VAL_DATE": "2016-04-19T00:00:00.000Z", "WEBSITE": "http://desmoines.selectspecialtyhospitals.com/", "STATE_ID": "NOT AVAILABLE", "ALT_NAME": "NOT AVAILABLE", "ST_FIPS": "19", "OWNER": "PROPRIETARY", "TTL_STAFF": -999, "BEDS": 21, "TRAUMA": "NOT AVAILABLE", "HELIPAD": "Y" }, "geometry": { "type": "Polygon", "coordinates": [ [ [ -93.6256328, 41.510810200000023 ], [ -93.6304205, 41.512063199999957 ], [ -93.6522172, 41.520658599999983 ], [ -93.7023703, 41.541370400000048 ], [ -93.80121840000001, 41.592194300000038 ], [ -93.7767305, 41.610719099999983 ], [ -93.6376365, 41.704594099999959 ], [ -93.6207432, 41.714092 ], [ -93.5761414, 41.707960899999989 ], [ -93.5041912, 41.661947 ], [ -93.495473, 41.598815 ], [ -93.49547, 41.598615 ], [ -93.4990225, 41.593670499999966 ], [ -93.520836, 41.568448 ], [ -93.5758969, 41.510251899999979 ], [ -93.6256328, 41.510810200000023 ] ] ] } },
{ "type": "Feature", "properties": { "OBJECTID": 155, "ID": "0013050144", "NAME": "DECATUR COUNTY HOSPITAL", "ADDRESS": "1405 NORTHWEST CHURCH STREET", "CITY": "LEON", "STATE": "IA", "ZIP": "50144", "ZIP4": "NOT AVAILABLE", "TELEPHONE": "(641) 446-4871", "TYPE": "GENERAL ACUTE CARE", "STATUS": "OPEN", "POPULATION": 25, "COUNTY": "DECATUR", "COUNTYFIPS": "19053", "COUNTRY": "USA", "LATITUDE": 40.750876080000097, "LONGITUDE": -93.745476151000005, "NAICS_CODE": "622110", "NAICS_DESC": "GENERAL MEDICAL AND SURGICAL HOSPITALS", "SOURCE": "https://dia-hfd.iowa.gov/DIA_HFD/CTLEntitySearch.do", "SOURCEDATE": "2018-08-09T00:00:00.000Z", "VAL_METHOD": "IMAGERY", "VAL_DATE": "2016-04-15T00:00:00.000Z", "WEBSITE": "http://www.decaturcountyhospital.org", "STATE_ID": "NOT AVAILABLE", "ALT_NAME": "NOT AVAILABLE", "ST_FIPS": "19", "OWNER": "GOVERNMENT - LOCAL", "TTL_STAFF": -999, "BEDS": 25, "TRAUMA": "LEVEL IV", "HELIPAD": "Y" }, "geometry": { "type": "Polygon", "coordinates": [ [ [ -93.715033003754513, 40.64177900102154 ], [ -93.793423990910284, 40.675397025217961 ], [ -93.890644956891308, 40.732887105265384 ], [ -93.7675677, 40.870678800000015 ], [ -93.690335, 40.812349 ], [ -93.627523004703249, 40.7566009979002 ], [ -93.715033003754513, 40.64177900102154 ] ] ] } },
{ "type": "Feature", "properties": { "OBJECTID": 923, "ID": "0012751632", "NAME": "MENTAL HEALTH INSTITUTE", "ADDRESS": "1800 NORTH 16TH STREET", "CITY": "CLARINDA", "STATE": "IA", "ZIP": "51632", "ZIP4": "NOT AVAILABLE", "TELEPHONE": "(712) 542-2161", "TYPE": "PSYCHIATRIC", "STATUS": "CLOSED", "POPULATION": 35, "COUNTY": "PAGE", "COUNTYFIPS": "19145", "COUNTRY": "USA", "LATITUDE": 40.757823231000003, "LONGITUDE": -95.035580545000002, "NAICS_CODE": "622110", "NAICS_DESC": "GENERAL MEDICAL AND SURGICAL HOSPITALS", "SOURCE": "ftp://ftp.igsb.uiowa.edu/gis_library/IA_State/Infrastructure/", "SOURCEDATE": "2012-06-05T00:00:00.000Z", "VAL_METHOD": "IMAGERY/OTHER", "VAL_DATE": "2016-04-19T00:00:00.000Z", "WEBSITE": "http://dhs.state.ia.us/", "STATE_ID": "NOT AVAILABLE", "ALT_NAME": "NOT AVAILABLE", "ST_FIPS": "19", "OWNER": "GOVERNMENT - STATE", "TTL_STAFF": -999, "BEDS": 35, "TRAUMA": "NOT AVAILABLE", "HELIPAD": "N" }, "geometry": { "type": "Polygon", "coordinates": [ [ [ -95.031710057843696, 40.65887511838352 ], [ -95.035109055930391, 40.660365115488553 ], [ -95.137109949126241, 40.742565972198591 ], [ -95.042376, 40.842787 ], [ -95.029971, 40.850012 ], [ -94.985832, 40.800107 ], [ -94.966538969131335, 40.77823368434931 ], [ -94.928212002943013, 40.727408175814482 ], [ -95.031710057843696, 40.65887511838352 ] ] ] } },
{ "type": "Feature", "properties": { "OBJECTID": 7521, "ID": "0013151632", "NAME": "CLARINDA MUNICIPAL HOSPITAL", "ADDRESS": "17TH AND WELLS, PO BOX 217", "CITY": "CLARINDA", "STATE": "IA", "ZIP": "51632", "ZIP4": "NOT AVAILABLE", "TELEPHONE": "(712) 542-2176", "TYPE": "GENERAL ACUTE CARE", "STATUS": "CLOSED", "POPULATION": 25, "COUNTY": "PAGE", "COUNTYFIPS": "19145", "COUNTRY": "USA", "LATITUDE": 40.7297349, "LONGITUDE": -95.040120869000006, "NAICS_CODE": "622110", "NAICS_DESC": "GENERAL MEDICAL AND SURGICAL HOSPITALS", "SOURCE": "ftp://ftp.igsb.uiowa.edu/gis_library/IA_State/Infrastructure/", "SOURCEDATE": "2012-06-05T00:00:00.000Z", "VAL_METHOD": "IMAGERY/OTHER", "VAL_DATE": "2016-04-19T00:00:00.000Z", "WEBSITE": "http://www.clarindahealth.com", "STATE_ID": "NOT AVAILABLE", "ALT_NAME": "NOT AVAILABLE", "ST_FIPS": "19", "OWNER": "GOVERNMENT - LOCAL", "TTL_STAFF": -999, "BEDS": 25, "TRAUMA": "NOT AVAILABLE", "HELIPAD": "N" }, "geometry": { "type": "Polygon", "coordinates": [ [ [ -95.030450091886564, 40.615601179114215 ], [ -95.156611949935524, 40.734360978724609 ], [ -95.156615948985262, 40.735245977435547 ], [ -95.156571941169659, 40.742553566812788 ], [ -95.099434667165738, 40.785798301447933 ], [ -95.033498, 40.813825 ], [ -94.985831, 40.805523 ], [ -94.952346971260695, 40.778269716193762 ], [ -94.901342498009384, 40.727473892464836 ], [ -94.901360198153085, 40.727187692631553 ], [ -95.030450091886564, 40.615601179114215 ] ] ] } },
{ "type": "Feature", "properties": { "OBJECTID": 5042, "ID": "0011463555", "NAME": "SCOTLAND COUNTY HOSPITAL", "ADDRESS": "450 E. SIGLER AVENUE", "CITY": "MEMPHIS", "STATE": "MO", "ZIP": "63555", "ZIP4": "NOT AVAILABLE", "TELEPHONE": "(660) 465-8511", "TYPE": "CRITICAL ACCESS", "STATUS": "OPEN", "POPULATION": 25, "COUNTY": "SCOTLAND", "COUNTYFIPS": "29199", "COUNTRY": "USA", "LATITUDE": 40.464775390000099, "LONGITUDE": -92.164951493999993, "NAICS_CODE": "622110", "NAICS_DESC": "GENERAL MEDICAL AND SURGICAL HOSPITALS", "SOURCE": "http://health.mo.gov/safety/healthservregs/directories.php", "SOURCEDATE": "2018-08-09T00:00:00.000Z", "VAL_METHOD": "IMAGERY", "VAL_DATE": "2013-09-23T00:00:00.000Z", "WEBSITE": "http://www.scotlandcountyhospital.com", "STATE_ID": "H097", "ALT_NAME": "NOT AVAILABLE", "ST_FIPS": "29", "OWNER": "GOVERNMENT - DISTRICT/AUTHORITY", "TTL_STAFF": -999, "BEDS": 25, "TRAUMA": "NOT AVAILABLE", "HELIPAD": "Y" }, "geometry": { "type": "Polygon", "coordinates": [ [ [ -92.207212, 40.390813 ], [ -92.288482, 40.448267 ], [ -92.2742058, 40.488929 ], [ -92.241108, 40.514887 ], [ -92.15966, 40.563474 ], [ -92.095197, 40.506916 ], [ -92.058187, 40.455444 ], [ -92.091464, 40.434165 ], [ -92.124421, 40.417622 ], [ -92.207212, 40.390813 ] ] ] } },
{ "type": "Feature", "properties": { "OBJECTID": 5047, "ID": "0001163501", "NAME": "NORTHEAST REGIONAL MEDICAL CENTER", "ADDRESS": "315 SOUTH OSTEOPATHY", "CITY": "KIRKSVILLE", "STATE": "MO", "ZIP": "63501", "ZIP4": "NOT AVAILABLE", "TELEPHONE": "(660) 785-1000", "TYPE": "GENERAL ACUTE CARE", "STATUS": "OPEN", "POPULATION": 93, "COUNTY": "ADAIR", "COUNTYFIPS": "29001", "COUNTRY": "USA", "LATITUDE": 40.193511938, "LONGITUDE": -92.589064102999899, "NAICS_CODE": "622110", "NAICS_DESC": "GENERAL MEDICAL AND SURGICAL HOSPITALS", "SOURCE": "http://health.mo.gov/safety/healthservregs/directories.php", "SOURCEDATE": "2018-08-09T00:00:00.000Z", "VAL_METHOD": "IMAGERY", "VAL_DATE": "2014-02-10T00:00:00.000Z", "WEBSITE": "http://www.nermc.com", "STATE_ID": "H074", "ALT_NAME": "NOT AVAILABLE", "ST_FIPS": "29", "OWNER": "PROPRIETARY", "TTL_STAFF": -999, "BEDS": 93, "TRAUMA": "LEVEL III", "HELIPAD": "Y" }, "geometry": { "type": "Polygon", "coordinates": [ [ [ -92.5338489, 40.088167900000023 ], [ -92.595176, 40.107559 ], [ -92.6364629, 40.126722800000039 ], [ -92.6458922, 40.1332078 ], [ -92.6819157, 40.2339901 ], [ -92.6819029, 40.234406700000022 ], [ -92.5812766, 40.286135099999989 ], [ -92.5790285, 40.2861362 ], [ -92.5163049, 40.2360312 ], [ -92.4814927, 40.1975707 ], [ -92.4879783, 40.1681836 ], [ -92.5203694, 40.087992 ], [ -92.5205872, 40.0878089 ], [ -92.5338489, 40.088167900000023 ] ] ] } },
{ "type": "Feature", "properties": { "OBJECTID": 5428, "ID": "0008550208", "NAME": "SKIFF MEDICAL CENTER", "ADDRESS": "204 N FOURTH AVE E", "CITY": "NEWTON", "STATE": "IA", "ZIP": "50208", "ZIP4": "NOT AVAILABLE", "TELEPHONE": "(641) 792-1273", "TYPE": "GENERAL ACUTE CARE", "STATUS": "OPEN", "POPULATION": 68, "COUNTY": "JASPER", "COUNTYFIPS": "19099", "COUNTRY": "USA", "LATITUDE": 41.703065451000001, "LONGITUDE": -93.051626756000005, "NAICS_CODE": "622110", "NAICS_DESC": "GENERAL MEDICAL AND SURGICAL HOSPITALS", "SOURCE": "https://dia-hfd.iowa.gov/DIA_HFD/CTLEntitySearch.do", "SOURCEDATE": "2018-08-09T00:00:00.000Z", "VAL_METHOD": "IMAGERY/OTHER", "VAL_DATE": "2016-04-15T00:00:00.000Z", "WEBSITE": "http://www.skiffmed.com", "STATE_ID": "NOT AVAILABLE", "ALT_NAME": "NOT AVAILABLE", "ST_FIPS": "19", "OWNER": "GOVERNMENT - LOCAL", "TTL_STAFF": -999, "BEDS": 68, "TRAUMA": "LEVEL IV", "HELIPAD": "Y" }, "geometry": { "type": "Polygon", "coordinates": [ [ [ -93.09622, 41.615750899999988 ], [ -93.2029603, 41.685297100000014 ], [ -93.130539, 41.742721 ], [ -93.0581534, 41.791023600000024 ], [ -92.922195, 41.703607 ], [ -92.8950719, 41.6829391 ], [ -93.0389188, 41.615978 ], [ -93.09622, 41.615750899999988 ] ] ] } },
{ "type": "Feature", "properties": { "OBJECTID": 5431, "ID": "0092852591", "NAME": "KEOKUK COUNTY HEALTH CENTER", "ADDRESS": "23019 HIGHWAY 149", "CITY": "SIGOURNEY", "STATE": "IA", "ZIP": "52591", "ZIP4": "NOT AVAILABLE", "TELEPHONE": "(641) 622-2720", "TYPE": "CRITICAL ACCESS", "STATUS": "OPEN", "POPULATION": 25, "COUNTY": "KEOKUK", "COUNTYFIPS": "19107", "COUNTRY": "USA", "LATITUDE": 41.322506902000001, "LONGITUDE": -92.206086952999996, "NAICS_CODE": "622110", "NAICS_DESC": "GENERAL MEDICAL AND SURGICAL HOSPITALS", "SOURCE": "https://dia-hfd.iowa.gov/DIA_HFD/CTLEntitySearch.do", "SOURCEDATE": "2018-08-09T00:00:00.000Z", "VAL_METHOD": "IMAGERY/OTHER", "VAL_DATE": "2016-04-15T00:00:00.000Z", "WEBSITE": "http://www.kchc.net", "STATE_ID": "NOT AVAILABLE", "ALT_NAME": "NOT AVAILABLE", "ST_FIPS": "19", "OWNER": "GOVERNMENT - LOCAL", "TTL_STAFF": -999, "BEDS": 25, "TRAUMA": "LEVEL IV", "HELIPAD": "Y" }, "geometry": { "type": "Polygon", "coordinates": [ [ [ -92.2135588, 41.20234449999996 ], [ -92.339789, 41.332016 ], [ -92.3396158, 41.336176099999982 ], [ -92.170464, 41.424016099999982 ], [ -92.08347, 41.337006 ], [ -92.2135588, 41.20234449999996 ] ] ] } },
{ "type": "Feature", "properties": { "OBJECTID": 5433, "ID": "0093852537", "NAME": "DAVIS COUNTY HOSPITAL", "ADDRESS": "509 NORTH MADISON STREET", "CITY": "BLOOMFIELD", "STATE": "IA", "ZIP": "52537", "ZIP4": "NOT AVAILABLE", "TELEPHONE": "(641) 664-2145", "TYPE": "CRITICAL ACCESS", "STATUS": "OPEN", "POPULATION": 25, "COUNTY": "DAVIS", "COUNTYFIPS": "19051", "COUNTRY": "USA", "LATITUDE": 40.759171446000003, "LONGITUDE": -92.415524857999998, "NAICS_CODE": "622110", "NAICS_DESC": "GENERAL MEDICAL AND SURGICAL HOSPITALS", "SOURCE": "https://dia-hfd.iowa.gov/DIA_HFD/CTLEntitySearch.do", "SOURCEDATE": "2018-08-09T00:00:00.000Z", "VAL_METHOD": "IMAGERY/OTHER", "VAL_DATE": "2016-04-15T00:00:00.000Z", "WEBSITE": "http://www.daviscountyhospital.org", "STATE_ID": "NOT AVAILABLE", "ALT_NAME": "NOT AVAILABLE", "ST_FIPS": "19", "OWNER": "GOVERNMENT - LOCAL", "TTL_STAFF": -999, "BEDS": 25, "TRAUMA": "LEVEL IV", "HELIPAD": "Y" }, "geometry": { "type": "Polygon", "coordinates": [ [ [ -92.431006051589463, 40.676456009996663 ], [ -92.437384052061844, 40.676851008208885 ], [ -92.528601102291006, 40.732203989267013 ], [ -92.483045, 40.79864 ], [ -92.481737, 40.799649 ], [ -92.399301, 40.851913 ], [ -92.398426, 40.851929 ], [ -92.379958, 40.827998 ], [ -92.351394, 40.784564 ], [ -92.33225, 40.747756 ], [ -92.334496050986246, 40.697471041550671 ], [ -92.379784050209466, 40.682265025294782 ], [ -92.431006051589463, 40.676456009996663 ] ] ] } },
{ "type": "Feature", "properties": { "OBJECTID": 5525, "ID": "0001751245", "NAME": "BAUM-HARMON MEMORIAL HOSPITAL", "ADDRESS": "255 NORTH WELCH AVENUE", "CITY": "PRIMGHAR", "STATE": "IA", "ZIP": "51245", "ZIP4": "NOT AVAILABLE", "TELEPHONE": "(712) 754-2574", "TYPE": "CRITICAL ACCESS", "STATUS": "OPEN", "POPULATION": 25, "COUNTY": "O'BRIEN", "COUNTYFIPS": "19141", "COUNTRY": "USA", "LATITUDE": 43.088829048000001, "LONGITUDE": -95.623680925000002, "NAICS_CODE": "622110", "NAICS_DESC": "GENERAL MEDICAL AND SURGICAL HOSPITALS", "SOURCE": "https://dia-hfd.iowa.gov/DIA_HFD/CTLEntitySearch.do", "SOURCEDATE": "2018-08-09T00:00:00.000Z", "VAL_METHOD": "IMAGERY/OTHER", "VAL_DATE": "2016-04-18T00:00:00.000Z", "WEBSITE": "http://www.baumharmon.org", "STATE_ID": "NOT AVAILABLE", "ALT_NAME": "NOT AVAILABLE", "ST_FIPS": "19", "OWNER": "NON-PROFIT", "TTL_STAFF": -999, "BEDS": 25, "TRAUMA": "LEVEL IV", "HELIPAD": "N" }, "geometry": { "type": "Polygon", "coordinates": [ [ [ -95.623946, 42.983014 ], [ -95.633644, 42.983102 ], [ -95.7419664800845, 43.069591402035478 ], [ -95.762069385890243, 43.098777355511373 ], [ -95.647821749171641, 43.186054303845758 ], [ -95.643952739834134, 43.186065306517293 ], [ -95.624172192651741, 43.185955020505951 ], [ -95.620419983719103, 43.185927323175967 ], [ -95.604549045958748, 43.185796134511513 ], [ -95.545253650873306, 43.128028516960853 ], [ -95.505435629656446, 43.084570672121302 ], [ -95.505375664671263, 43.06852171476941 ], [ -95.623946, 42.983014 ] ] ] } },
{ "type": "Feature", "properties": { "OBJECTID": 5526, "ID": "0012250841", "NAME": "CHI HEALTH - MERCY CORNING", "ADDRESS": "603 ROSARY DRIVE", "CITY": "CORNING", "STATE": "IA", "ZIP": "50841", "ZIP4": "NOT AVAILABLE", "TELEPHONE": "(641) 322-3121", "TYPE": "CRITICAL ACCESS", "STATUS": "OPEN", "POPULATION": 22, "COUNTY": "ADAMS", "COUNTYFIPS": "19003", "COUNTRY": "USA", "LATITUDE": 40.989015819000002, "LONGITUDE": -94.748462984999904, "NAICS_CODE": "622110", "NAICS_DESC": "GENERAL MEDICAL AND SURGICAL HOSPITALS", "SOURCE": "https://dia-hfd.iowa.gov/DIA_HFD/CTLEntitySearch.do", "SOURCEDATE": "2018-08-09T00:00:00.000Z", "VAL_METHOD": "IMAGERY", "VAL_DATE": "2016-04-15T00:00:00.000Z", "WEBSITE": "http://www.chihealth.com/chi-health-mercy-corning", "STATE_ID": "NOT AVAILABLE", "ALT_NAME": "NOT AVAILABLE", "ST_FIPS": "19", "OWNER": "NON-PROFIT", "TTL_STAFF": -999, "BEDS": 22, "TRAUMA": "NOT AVAILABLE", "HELIPAD": "Y" }, "geometry": { "type": "Polygon", "coordinates": [ [ [ -94.738292, 40.900159 ], [ -94.824286, 40.958313 ], [ -94.85281, 40.979776 ], [ -94.853283, 40.986492 ], [ -94.7570873, 41.071909299999973 ], [ -94.690003, 41.044335 ], [ -94.623699, 40.979281 ], [ -94.738292, 40.900159 ] ] ] } },
{ "type": "Feature", "properties": { "OBJECTID": 5527, "ID": "0005951449", "NAME": "STEWART MEMORIAL COMMUNITY HOSPITAL", "ADDRESS": "1301 WEST MAIN STREET", "CITY": "LAKE CITY", "STATE": "IA", "ZIP": "51449", "ZIP4": "NOT AVAILABLE", "TELEPHONE": "(712) 464-4216", "TYPE": "CRITICAL ACCESS", "STATUS": "OPEN", "POPULATION": 25, "COUNTY": "CALHOUN", "COUNTYFIPS": "19025", "COUNTRY": "USA", "LATITUDE": 42.265617886000001, "LONGITUDE": -94.749184051, "NAICS_CODE": "622110", "NAICS_DESC": "GENERAL MEDICAL AND SURGICAL HOSPITALS", "SOURCE": "https://dia-hfd.iowa.gov/DIA_HFD/CTLEntitySearch.do", "SOURCEDATE": "2018-08-09T00:00:00.000Z", "VAL_METHOD": "IMAGERY/OTHER", "VAL_DATE": "2016-04-15T00:00:00.000Z", "WEBSITE": "http://www.stewartmemorial.org", "STATE_ID": "NOT AVAILABLE", "ALT_NAME": "NOT AVAILABLE", "ST_FIPS": "19", "OWNER": "NON-PROFIT", "TTL_STAFF": -999, "BEDS": 25, "TRAUMA": "LEVEL IV", "HELIPAD": "N" }, "geometry": { "type": "Polygon", "coordinates": [ [ [ -94.728414, 42.191694 ], [ -94.803241, 42.218939 ], [ -94.87769, 42.249438 ], [ -94.8827543, 42.2520866 ], [ -94.8825129, 42.2531702 ], [ -94.784633, 42.324972 ], [ -94.727344, 42.33952 ], [ -94.688196, 42.324867 ], [ -94.668612, 42.310633 ], [ -94.629155, 42.281864 ], [ -94.61009, 42.267238 ], [ -94.629003, 42.252938 ], [ -94.726431, 42.191716 ], [ -94.728414, 42.191694 ] ] ] } },
{ "type": "Feature", "properties": { "OBJECTID": 5528, "ID": "0007551455", "NAME": "MANNING GENERAL HOSPITAL", "ADDRESS": "410 MAIN STREET", "CITY": "MANNING", "STATE": "IA", "ZIP": "51455", "ZIP4": "NOT AVAILABLE", "TELEPHONE": "(712) 653-2072", "TYPE": "GENERAL ACUTE CARE", "STATUS": "CLOSED", "POPULATION": 87, "COUNTY": "CARROLL", "COUNTYFIPS": "19027", "COUNTRY": "USA", "LATITUDE": 41.907568871000102, "LONGITUDE": -95.064799052999902, "NAICS_CODE": "622110", "NAICS_DESC": "GENERAL MEDICAL AND SURGICAL HOSPITALS", "SOURCE": "ftp://ftp.igsb.uiowa.edu/gis_library/IA_State/Infrastructure/", "SOURCEDATE": "2012-06-05T00:00:00.000Z", "VAL_METHOD": "IMAGERY", "VAL_DATE": "2016-04-15T00:00:00.000Z", "WEBSITE": "http://www.mrhcia.com", "STATE_ID": "NOT AVAILABLE", "ALT_NAME": "NOT AVAILABLE", "ST_FIPS": "19", "OWNER": "NON-PROFIT", "TTL_STAFF": -999, "BEDS": 87, "TRAUMA": "NOT AVAILABLE", "HELIPAD": "N" }, "geometry": { "type": "Polygon", "coordinates": [ [ [ -95.092924, 41.834683 ], [ -95.150822, 41.856827 ], [ -95.208642, 41.907103 ], [ -95.176809, 41.937322 ], [ -95.111591, 41.97988 ], [ -95.0344405, 41.9794677 ], [ -94.95703, 41.935053 ], [ -94.9374972, 41.92079590000003 ], [ -94.9179285, 41.906231 ], [ -94.937639, 41.891956600000029 ], [ -95.021467, 41.848581 ], [ -95.092924, 41.834683 ] ] ] } },
{ "type": "Feature", "properties": { "OBJECTID": 5529, "ID": "0010850849", "NAME": "ADAIR COUNTY MEMORIAL HOSPITAL", "ADDRESS": "609 SE KENT ST", "CITY": "GREENFIELD", "STATE": "IA", "ZIP": "50849", "ZIP4": "NOT AVAILABLE", "TELEPHONE": "(641) 743-2123", "TYPE": "CRITICAL ACCESS", "STATUS": "OPEN", "POPULATION": 25, "COUNTY": "ADAIR", "COUNTYFIPS": "19001", "COUNTRY": "USA", "LATITUDE": 41.303797983000003, "LONGITUDE": -94.452035448999894, "NAICS_CODE": "622110", "NAICS_DESC": "GENERAL MEDICAL AND SURGICAL HOSPITALS", "SOURCE": "https://dia-hfd.iowa.gov/DIA_HFD/CTLEntitySearch.do", "SOURCEDATE": "2018-08-09T00:00:00.000Z", "VAL_METHOD": "IMAGERY/OTHER", "VAL_DATE": "2016-04-15T00:00:00.000Z", "WEBSITE": "http://www.adaircountyhealthsystem.org", "STATE_ID": "NOT AVAILABLE", "ALT_NAME": "NOT AVAILABLE", "ST_FIPS": "19", "OWNER": "GOVERNMENT - LOCAL", "TTL_STAFF": -999, "BEDS": 25, "TRAUMA": "LEVEL IV", "HELIPAD": "Y" }, "geometry": { "type": "Polygon", "coordinates": [ [ [ -94.453122, 41.201075 ], [ -94.589408, 41.287494 ], [ -94.470987, 41.403149 ], [ -94.4526291, 41.417225 ], [ -94.433466, 41.402951 ], [ -94.31803, 41.301841 ], [ -94.449204, 41.20111 ], [ -94.453122, 41.201075 ] ] ] } },
{ "type": "Feature", "properties": { "OBJECTID": 5531, "ID": "0007050010", "NAME": "MARY GREELEY MEDICAL CENTER", "ADDRESS": "1111 DUFF AVE", "CITY": "AMES", "STATE": "IA", "ZIP": "50010", "ZIP4": "NOT AVAILABLE", "TELEPHONE": "(515) 239-2011", "TYPE": "GENERAL ACUTE CARE", "STATUS": "OPEN", "POPULATION": 220, "COUNTY": "STORY", "COUNTYFIPS": "19169", "COUNTRY": "USA", "LATITUDE": 42.032591328000102, "LONGITUDE": -93.611506032999998, "NAICS_CODE": "622110", "NAICS_DESC": "GENERAL MEDICAL AND SURGICAL HOSPITALS", "SOURCE": "https://dia-hfd.iowa.gov/DIA_HFD/CTLEntitySearch.do", "SOURCEDATE": "2018-08-09T00:00:00.000Z", "VAL_METHOD": "IMAGERY/OTHER", "VAL_DATE": "2016-04-15T00:00:00.000Z", "WEBSITE": "http://www.mgmc.org", "STATE_ID": "NOT AVAILABLE", "ALT_NAME": "NOT AVAILABLE", "ST_FIPS": "19", "OWNER": "GOVERNMENT - LOCAL", "TTL_STAFF": -999, "BEDS": 220, "TRAUMA": "LEVEL III", "HELIPAD": "N" }, "geometry": { "type": "Polygon", "coordinates": [ [ [ -93.610428, 41.936024 ], [ -93.678061, 41.979389 ], [ -93.7148667, 42.0226955 ], [ -93.7148653, 42.023112899999951 ], [ -93.6883672, 42.071692099999964 ], [ -93.659199, 42.106913 ], [ -93.6204197, 42.1373105 ], [ -93.552852700000017, 42.123233799999944 ], [ -93.482422, 42.034635 ], [ -93.482257, 42.021323300000013 ], [ -93.482168, 42.009161 ], [ -93.482182, 42.008795 ], [ -93.482191, 42.008608 ], [ -93.610428, 41.936024 ] ] ] } },
{ "type": "Feature", "properties": { "OBJECTID": 5535, "ID": "0092251012", "NAME": "CHEROKEE REGIONAL MEDICAL CENTER", "ADDRESS": "300 SIOUX VALLEY DRIVE", "CITY": "CHEROKEE", "STATE": "IA", "ZIP": "51012", "ZIP4": "NOT AVAILABLE", "TELEPHONE": "(712) 225-5101", "TYPE": "CRITICAL ACCESS", "STATUS": "OPEN", "POPULATION": 25, "COUNTY": "CHEROKEE", "COUNTYFIPS": "19035", "COUNTRY": "USA", "LATITUDE": 42.759442433000103, "LONGITUDE": -95.54784298, "NAICS_CODE": "622110", "NAICS_DESC": "GENERAL MEDICAL AND SURGICAL HOSPITALS", "SOURCE": "https://dia-hfd.iowa.gov/DIA_HFD/CTLEntitySearch.do", "SOURCEDATE": "2018-08-09T00:00:00.000Z", "VAL_METHOD": "IMAGERY/OTHER", "VAL_DATE": "2016-04-15T00:00:00.000Z", "WEBSITE": "http://www.cherokeermc.org/", "STATE_ID": "NOT AVAILABLE", "ALT_NAME": "NOT AVAILABLE", "ST_FIPS": "19", "OWNER": "NOT AVAILABLE", "TTL_STAFF": -999, "BEDS": 25, "TRAUMA": "LEVEL IV", "HELIPAD": "Y" }, "geometry": { "type": "Polygon", "coordinates": [ [ [ -95.554751, 42.648192 ], [ -95.595764, 42.662841 ], [ -95.701649, 42.749858 ], [ -95.661641, 42.799542 ], [ -95.546164, 42.865627 ], [ -95.546043, 42.865626 ], [ -95.545786, 42.865623 ], [ -95.545121, 42.865608 ], [ -95.544522, 42.865592 ], [ -95.426976, 42.748668 ], [ -95.554751, 42.648192 ] ] ] } },
{ "type": "Feature", "properties": { "OBJECTID": 5536, "ID": "0092350220", "NAME": "DALLAS COUNTY HOSPITAL", "ADDRESS": "610 TENTH STREET", "CITY": "PERRY", "STATE": "IA", "ZIP": "50220", "ZIP4": "NOT AVAILABLE", "TELEPHONE": "(515) 465-3547", "TYPE": "CRITICAL ACCESS", "STATUS": "OPEN", "POPULATION": 25, "COUNTY": "DALLAS", "COUNTYFIPS": "19049", "COUNTRY": "USA", "LATITUDE": 41.833631551000103, "LONGITUDE": -94.093892202000006, "NAICS_CODE": "622110", "NAICS_DESC": "GENERAL MEDICAL AND SURGICAL HOSPITALS", "SOURCE": "https://dia-hfd.iowa.gov/DIA_HFD/CTLEntitySearch.do", "SOURCEDATE": "2018-08-09T00:00:00.000Z", "VAL_METHOD": "IMAGERY/OTHER", "VAL_DATE": "2016-04-15T00:00:00.000Z", "WEBSITE": "http://www.dallascohospital.org", "STATE_ID": "NOT AVAILABLE", "ALT_NAME": "NOT AVAILABLE", "ST_FIPS": "19", "OWNER": "GOVERNMENT - LOCAL", "TTL_STAFF": -999, "BEDS": 25, "TRAUMA": "LEVEL IV", "HELIPAD": "Y" }, "geometry": { "type": "Polygon", "coordinates": [ [ [ -94.106121, 41.746449 ], [ -94.22226, 41.820072 ], [ -94.24142, 41.834557 ], [ -94.2230641, 41.8446916 ], [ -94.144977, 41.884896 ], [ -94.02854, 41.92139 ], [ -93.920796, 41.84974 ], [ -93.9123553, 41.8351873 ], [ -93.912454, 41.820629 ], [ -94.0237532, 41.753962099999988 ], [ -94.106121, 41.746449 ] ] ] } },
{ "type": "Feature", "properties": { "OBJECTID": 5537, "ID": "0011252577", "NAME": "MAHASKA HEALTH PARTNERSHIP", "ADDRESS": "1229 C AVENUE EAST", "CITY": "OSKALOOSA", "STATE": "IA", "ZIP": "52577", "ZIP4": "NOT AVAILABLE", "TELEPHONE": "(641) 672-3100", "TYPE": "CRITICAL ACCESS", "STATUS": "OPEN", "POPULATION": 33, "COUNTY": "MAHASKA", "COUNTYFIPS": "19123", "COUNTRY": "USA", "LATITUDE": 41.2992892890001, "LONGITUDE": -92.629563587000007, "NAICS_CODE": "622110", "NAICS_DESC": "GENERAL MEDICAL AND SURGICAL HOSPITALS", "SOURCE": "https://dia-hfd.iowa.gov/DIA_HFD/CTLEntitySearch.do", "SOURCEDATE": "2018-08-09T00:00:00.000Z", "VAL_METHOD": "IMAGERY", "VAL_DATE": "2016-04-18T00:00:00.000Z", "WEBSITE": "http://www.mahaskahealth.com", "STATE_ID": "NOT AVAILABLE", "ALT_NAME": "NOT AVAILABLE", "ST_FIPS": "19", "OWNER": "GOVERNMENT - LOCAL", "TTL_STAFF": -999, "BEDS": 33, "TRAUMA": "LEVEL III", "HELIPAD": "Y" }, "geometry": { "type": "Polygon", "coordinates": [ [ [ -92.643312, 41.201908 ], [ -92.7650448, 41.291817 ], [ -92.7577347, 41.351126499999985 ], [ -92.7575343, 41.3513202 ], [ -92.656016900000012, 41.3863189 ], [ -92.4978729, 41.315659900000014 ], [ -92.554932, 41.226491 ], [ -92.631129, 41.2049011 ], [ -92.643312, 41.201908 ] ] ] } },
{ "type": "Feature", "properties": { "OBJECTID": 3618, "ID": "0013450854", "NAME": "RINGGOLD COUNTY HOSPITAL", "ADDRESS": "211 SHELLWAY DRIVE", "CITY": "MOUNT AYR", "STATE": "IA", "ZIP": "50854", "ZIP4": "NOT AVAILABLE", "TELEPHONE": "(515) 464-3226", "TYPE": "GENERAL ACUTE CARE", "STATUS": "CLOSED", "POPULATION": 16, "COUNTY": "RINGGOLD", "COUNTYFIPS": "19159", "COUNTRY": "USA", "LATITUDE": 40.712120184000099, "LONGITUDE": -94.246272669000007, "NAICS_CODE": "622110", "NAICS_DESC": "GENERAL MEDICAL AND SURGICAL HOSPITALS", "SOURCE": "ftp://ftp.igsb.uiowa.edu/gis_library/IA_State/Infrastructure/", "SOURCEDATE": "2012-06-05T00:00:00.000Z", "VAL_METHOD": "IMAGERY/OTHER", "VAL_DATE": "2014-02-10T00:00:00.000Z", "WEBSITE": "http://www.rchmtayr.org", "STATE_ID": "NOT AVAILABLE", "ALT_NAME": "NOT AVAILABLE", "ST_FIPS": "19", "OWNER": "NON-PROFIT", "TTL_STAFF": -999, "BEDS": 16, "TRAUMA": "NOT AVAILABLE", "HELIPAD": "Y" }, "geometry": { "type": "Polygon", "coordinates": [ [ [ -94.281138992759622, 40.624553002972583 ], [ -94.385768946336853, 40.711738039731024 ], [ -94.328591966530013, 40.754878034046612 ], [ -94.223777, 40.797065 ], [ -94.204934994285651, 40.782836096426642 ], [ -94.109881961316603, 40.710694094778702 ], [ -94.233210997391978, 40.62446700430835 ], [ -94.281138992759622, 40.624553002972583 ] ] ] } },
{ "type": "Feature", "properties": { "OBJECTID": 3649, "ID": "0006951442", "NAME": "CRAWFORD COUNTY MEMORIAL HOSPITAL", "ADDRESS": "2020 FIRST AVENUE SOUTH", "CITY": "DENISON", "STATE": "IA", "ZIP": "51442", "ZIP4": "NOT AVAILABLE", "TELEPHONE": "(712) 263-5021", "TYPE": "GENERAL ACUTE CARE", "STATUS": "CLOSED", "POPULATION": 25, "COUNTY": "CRAWFORD", "COUNTYFIPS": "19047", "COUNTRY": "USA", "LATITUDE": 42.015532204000102, "LONGITUDE": -95.342352598000005, "NAICS_CODE": "622110", "NAICS_DESC": "GENERAL MEDICAL AND SURGICAL HOSPITALS", "SOURCE": "ftp://ftp.igsb.uiowa.edu/gis_library/IA_State/Infrastructure/", "SOURCEDATE": "2012-06-05T00:00:00.000Z", "VAL_METHOD": "IMAGERY/OTHER", "VAL_DATE": "2016-04-15T00:00:00.000Z", "WEBSITE": "http://www.ccmhia.com", "STATE_ID": "NOT AVAILABLE", "ALT_NAME": "NOT AVAILABLE", "ST_FIPS": "19", "OWNER": "GOVERNMENT - LOCAL", "TTL_STAFF": -999, "BEDS": 25, "TRAUMA": "NOT AVAILABLE", "HELIPAD": "N" }, "geometry": { "type": "Polygon", "coordinates": [ [ [ -95.3440135, 41.936540699999945 ], [ -95.429898, 41.967716 ], [ -95.430935, 41.968456 ], [ -95.440319, 41.979114 ], [ -95.459397, 42.037193 ], [ -95.45941, 42.044379 ], [ -95.440046, 42.080556 ], [ -95.323625, 42.099581 ], [ -95.3228752, 42.099587699999979 ], [ -95.197591, 42.061203 ], [ -95.198048, 42.058761 ], [ -95.20794, 42.036477 ], [ -95.285807776219414, 41.951776993903898 ], [ -95.30545, 41.936634 ], [ -95.3440135, 41.936540699999945 ] ] ] } }
]
}
