{
"type": "FeatureCollection",
"crs": { "type": "name", "properties": { "name": "urn:ogc:def:crs:OGC:1.3:CRS84" } },
"features": [
{ "type": "Feature", "properties": { "OBJECTID": 2232, "ID": "0006645679", "NAME": "ADAMS COUNTY REGIONAL MEDICAL CENTER", "ADDRESS": "230 MEDICAL CENTER DRIVE", "CITY": "SEAMAN", "STATE": "OH", "ZIP": "45679", "ZIP4": "NOT AVAILABLE", "TELEPHONE": "(937) 386-3400", "TYPE": "CRITICAL ACCESS", "STATUS": "OPEN", "POPULATION": 25, "COUNTY": "ADAMS", "COUNTYFIPS": "39001", "COUNTRY": "USA", "LATITUDE": 38.93411952, "LONGITUDE": -83.584596968, "NAICS_CODE": "622110", "NAICS_DESC": "GENERAL MEDICAL AND SURGICAL HOSPITALS", "SOURCE": "http://publicapps.odh.ohio.gov/EID/Provider_Search.aspx", "SOURCEDATE": "2018-08-10T00:00:00.000Z", "VAL_METHOD": "IMAGERY", "VAL_DATE": "2014-02-03T00:00:00.000Z", "WEBSITE": "http://www.acrmc.com", "STATE_ID": "1100", "ALT_NAME": "NOT AVAILABLE", "ST_FIPS": "39", "OWNER": "GOVERNMENT - LOCAL", "TTL_STAFF": -999, "BEDS": 25, "TRAUMA": "NOT AVAILABLE", "HELIPAD": "Y" }, "geometry": { "type": "Polygon", "coordinates": [ [ [ -83.559418, 38.8706 ], [ -83.614954, 38.884052 ], [ -83.685420751745852, 38.905599967237812 ], [ -83.729278630727549, 38.963239086334525 ], [ -83.729238841742301, 38.964829283601865 ], [ -83.728737845278218, 38.965645581504646 ], [ -83.723991070497078, 38.972239764241635 ], [ -83.581051, 38.998906 ], [ -83.466014, 38.939833 ], [ -83.465656, 38.933138 ], [ -83.559418, 38.8706 ] ] ] } },
{ "type": "Feature", "properties": { "OBJECTID": 2499, "ID": "0004341339", "NAME": "KENTUCKY RIVER MEDICAL CENTER", "ADDRESS": "540 JETT DRIVE", "CITY": "JACKSON", "STATE": "KY", "ZIP": "41339", "ZIP4": "NOT AVAILABLE", "TELEPHONE": "(606) 666-4971", "TYPE": "GENERAL ACUTE CARE", "STATUS": "OPEN", "POPULATION": 55, "COUNTY": "BREATHITT", "COUNTYFIPS": "21025", "COUNTRY": "USA", "LATITUDE": 37.565887269000001, "LONGITUDE": -83.369620640999997, "NAICS_CODE": "622110", "NAICS_DESC": "GENERAL MEDICAL AND SURGICAL HOSPITALS", "SOURCE": "https://chfs.ky.gov/agencies/os/oig/dhc/Documents/Directories/Hospital_Directory.pdf", "SOURCEDATE": "2018-08-11T00:00:00.000Z", "VAL_METHOD": "IMAGERY", "VAL_DATE": "2014-02-10T00:00:00.000Z", "WEBSITE": "http://www.kentuckyrivermc.com", "STATE_ID": "100620", "ALT_NAME": "NOT AVAILABLE", "ST_FIPS": "21", "OWNER": "PROPRIETARY", "TTL_STAFF": -999, "BEDS": 55, "TRAUMA": "NOT AVAILABLE", "HELIPAD": "Y" }, "geometry": { "type": "Polygon", "coordinates": [ [ [ -83.344260501935068, 37.487973416761001 ], [ -83.431895627750194, 37.528090175812636 ], [ -83.461377662602757, 37.552320086878431 ], [ -83.430529538488159, 37.63583807320623 ], [ -83.412623509537994, 37.63113511506841 ], [ -83.410026505467656, 37.630289121329724 ], [ -83.357378430428085, 37.603439260552861 ], [ -83.315175375849151, 37.574266384557603 ], [ -83.294044364154161, 37.539320472797542 ], [ -83.293340364485488, 37.537222476910387 ], [ -83.293553365626167, 37.536261477596902 ], [ -83.306282401903815, 37.519899468548559 ], [ -83.344260501935068, 37.487973416761001 ] ] ] } },
{ "type": "Feature", "properties": { "OBJECTID": 2865, "ID": "0005740962", "NAME": "MEMORIAL HOSPITAL INC", "ADDRESS": "210 MARIE LANGDON DRIVE", "CITY": "MANCHESTER", "STATE": "KY", "ZIP": "40962", "ZIP4": "NOT AVAILABLE", "TELEPHONE": "(606) 598-5104", "TYPE": "GENERAL ACUTE CARE", "STATUS": "OPEN", "POPULATION": 63, "COUNTY": "CLAY", "COUNTYFIPS": "21051", "COUNTRY": "USA", "LATITUDE": 37.161977652000097, "LONGITUDE": -83.762024017000002, "NAICS_CODE": "622110", "NAICS_DESC": "GENERAL MEDICAL AND SURGICAL HOSPITALS", "SOURCE": "https://chfs.ky.gov/agencies/os/oig/dhc/Documents/Directories/Hospital_Directory.pdf", "SOURCEDATE": "2018-08-11T00:00:00.000Z", "VAL_METHOD": "IMAGERY", "VAL_DATE": "2014-03-12T00:00:00.000Z", "WEBSITE": "http://www.manchestermemorial.org/", "STATE_ID": "100075", "ALT_NAME": "NOT AVAILABLE", "ST_FIPS": "21", "OWNER": "NON-PROFIT", "TTL_STAFF": -999, "BEDS": 63, "TRAUMA": "NOT AVAILABLE", "HELIPAD": "Y" }, "geometry": { "type": "Polygon", "coordinates": [ [ [ -83.754888249943846, 37.098994959820466 ], [ -83.811788354265389, 37.11119881610631 ], [ -83.824494345330578, 37.161934764057058 ], [ -83.829596340470772, 37.184802743320823 ], [ -83.831867435259511, 37.199672032440034 ], [ -83.785627216369619, 37.230487812131535 ], [ -83.783652212437616, 37.23011681627645 ], [ -83.71119608893504, 37.183392002973491 ], [ -83.708070093749626, 37.16800002288069 ], [ -83.711620122849766, 37.140533037097619 ], [ -83.717777160310433, 37.109675046658111 ], [ -83.754888249943846, 37.098994959820466 ] ] ] } },
{ "type": "Feature", "properties": { "OBJECTID": 2867, "ID": "0001742717", "NAME": "CUMBERLAND COUNTY HOSPITAL", "ADDRESS": "299 GLASGOW ROAD", "CITY": "BURKESVILLE", "STATE": "KY", "ZIP": "42717", "ZIP4": "NOT AVAILABLE", "TELEPHONE": "(270) 864-2511", "TYPE": "CRITICAL ACCESS", "STATUS": "OPEN", "POPULATION": 25, "COUNTY": "CUMBERLAND", "COUNTYFIPS": "21057", "COUNTRY": "USA", "LATITUDE": 36.796194579000002, "LONGITUDE": -85.372962066, "NAICS_CODE": "622110", "NAICS_DESC": "GENERAL MEDICAL AND SURGICAL HOSPITALS", "SOURCE": "https://chfs.ky.gov/agencies/os/oig/dhc/Documents/Directories/Hospital_Directory.pdf", "SOURCEDATE": "2018-08-11T00:00:00.000Z", "VAL_METHOD": "IMAGERY", "VAL_DATE": "2014-02-10T00:00:00.000Z", "WEBSITE": "http://www.cchospital.org", "STATE_ID": "600068", "ALT_NAME": "NOT AVAILABLE", "ST_FIPS": "21", "OWNER": "NON-PROFIT", "TTL_STAFF": -999, "BEDS": 25, "TRAUMA": "NOT AVAILABLE", "HELIPAD": "Y" }, "geometry": { "type": "Polygon", "coordinates": [ [ [ -85.374117, 36.685041 ], [ -85.379839, 36.690289 ], [ -85.456239, 36.773926 ], [ -85.486819, 36.827654 ], [ -85.4179609, 36.8864258 ], [ -85.338765, 36.865646 ], [ -85.271726, 36.773772 ], [ -85.299084, 36.733223 ], [ -85.374117, 36.685041 ] ] ] } },
{ "type": "Feature", "properties": { "OBJECTID": 2868, "ID": "0005541647", "NAME": "MCDOWELL ARH HOSPITAL", "ADDRESS": "9879 KENTUCKY ROUTE 122", "CITY": "MCDOWELL", "STATE": "KY", "ZIP": "41647", "ZIP4": "NOT AVAILABLE", "TELEPHONE": "(606) 377-3400", "TYPE": "CRITICAL ACCESS", "STATUS": "OPEN", "POPULATION": 52, "COUNTY": "FLOYD", "COUNTYFIPS": "21071", "COUNTRY": "USA", "LATITUDE": 37.456706463000003, "LONGITUDE": -82.747207865999897, "NAICS_CODE": "622110", "NAICS_DESC": "GENERAL MEDICAL AND SURGICAL HOSPITALS", "SOURCE": "https://chfs.ky.gov/agencies/os/oig/dhc/Documents/Directories/Hospital_Directory.pdf", "SOURCEDATE": "2018-08-11T00:00:00.000Z", "VAL_METHOD": "IMAGERY", "VAL_DATE": "2014-02-10T00:00:00.000Z", "WEBSITE": "http://www.arh.org", "STATE_ID": "600082", "ALT_NAME": "NOT AVAILABLE", "ST_FIPS": "21", "OWNER": "NON-PROFIT", "TTL_STAFF": -999, "BEDS": 52, "TRAUMA": "NOT AVAILABLE", "HELIPAD": "N" }, "geometry": { "type": "Polygon", "coordinates": [ [ [ -82.750157678037525, 37.38277960813398 ], [ -82.800434644349011, 37.444916288906697 ], [ -82.816183614789622, 37.477592156923045 ], [ -82.81705158000365, 37.500300082193654 ], [ -82.816983579774572, 37.50075808164042 ], [ -82.785078527068535, 37.514555097470769 ], [ -82.749668471429544, 37.526290118640098 ], [ -82.748711471809528, 37.526439118032272 ], [ -82.649835688854282, 37.463652308064042 ], [ -82.649970726033217, 37.455021354423593 ], [ -82.694153809900286, 37.4046395805549 ], [ -82.717151787664093, 37.38616263778588 ], [ -82.725630762154168, 37.38431863464313 ], [ -82.750157678037525, 37.38277960813398 ] ] ] } },
{ "type": "Feature", "properties": { "OBJECTID": 2869, "ID": "0008841649", "NAME": "SAINT JOSEPH - MARTIN", "ADDRESS": "11203 MAIN STREET", "CITY": "MARTIN", "STATE": "KY", "ZIP": "41649", "ZIP4": "NOT AVAILABLE", "TELEPHONE": "(606) 285-5181", "TYPE": "CRITICAL ACCESS", "STATUS": "OPEN", "POPULATION": 25, "COUNTY": "FLOYD", "COUNTYFIPS": "21071", "COUNTRY": "USA", "LATITUDE": 37.57882455, "LONGITUDE": -82.750307751999998, "NAICS_CODE": "622110", "NAICS_DESC": "GENERAL MEDICAL AND SURGICAL HOSPITALS", "SOURCE": "https://chfs.ky.gov/agencies/os/oig/dhc/Documents/Directories/Hospital_Directory.pdf", "SOURCEDATE": "2018-08-11T00:00:00.000Z", "VAL_METHOD": "IMAGERY", "VAL_DATE": "2014-02-10T00:00:00.000Z", "WEBSITE": "http://www.saintjosephmartin.org", "STATE_ID": "600056", "ALT_NAME": "NOT AVAILABLE", "ST_FIPS": "21", "OWNER": "NON-PROFIT", "TTL_STAFF": -999, "BEDS": 25, "TRAUMA": "NOT AVAILABLE", "HELIPAD": "N" }, "geometry": { "type": "Polygon", "coordinates": [ [ [ -82.816884579750905, 37.500272082416402 ], [ -82.82230058794029, 37.501178075198531 ], [ -82.828122592055735, 37.518452045279311 ], [ -82.832851582630539, 37.575102963367108 ], [ -82.783656, 37.649114 ], [ -82.783545, 37.64921 ], [ -82.735835, 37.659288 ], [ -82.709216, 37.630478 ], [ -82.698396458569192, 37.607831984527955 ], [ -82.698386460487669, 37.603306990797698 ], [ -82.716340488721514, 37.516728118381721 ], [ -82.78093552548043, 37.498982126133932 ], [ -82.816884579750905, 37.500272082416402 ] ] ] } },
{ "type": "Feature", "properties": { "OBJECTID": 2871, "ID": "0010840330", "NAME": "THE JAMES B. HAGGIN MEMORIAL HOSPITAL", "ADDRESS": "464 LINDEN AVE.", "CITY": "HARRODSBURG", "STATE": "KY", "ZIP": "40330", "ZIP4": "NOT AVAILABLE", "TELEPHONE": "(859) 734-5441", "TYPE": "CRITICAL ACCESS", "STATUS": "OPEN", "POPULATION": 25, "COUNTY": "MERCER", "COUNTYFIPS": "21167", "COUNTRY": "USA", "LATITUDE": 37.7570638770001, "LONGITUDE": -84.848739112999993, "NAICS_CODE": "622110", "NAICS_DESC": "GENERAL MEDICAL AND SURGICAL HOSPITALS", "SOURCE": "https://chfs.ky.gov/agencies/os/oig/dhc/Documents/Directories/Hospital_Directory.pdf", "SOURCEDATE": "2018-08-11T00:00:00.000Z", "VAL_METHOD": "IMAGERY", "VAL_DATE": "2014-02-10T00:00:00.000Z", "WEBSITE": "http://www.hagginhosp.org", "STATE_ID": "600053", "ALT_NAME": "NOT AVAILABLE", "ST_FIPS": "21", "OWNER": "NON-PROFIT", "TTL_STAFF": -999, "BEDS": 25, "TRAUMA": "NOT AVAILABLE", "HELIPAD": "Y" }, "geometry": { "type": "Polygon", "coordinates": [ [ [ -84.9102624, 37.695222 ], [ -84.910475, 37.695271 ], [ -84.939167, 37.747711 ], [ -84.919722, 37.778647 ], [ -84.901858, 37.806745 ], [ -84.8534227, 37.867920200000022 ], [ -84.770087, 37.809086 ], [ -84.747872, 37.76156 ], [ -84.744977, 37.746669 ], [ -84.754886, 37.737636 ], [ -84.807706699999983, 37.70543559999998 ], [ -84.807900300000014, 37.705392099999983 ], [ -84.850401, 37.699026 ], [ -84.854117, 37.698561 ], [ -84.9102624, 37.695222 ] ] ] } },
{ "type": "Feature", "properties": { "OBJECTID": 6005, "ID": "0012845669", "NAME": "THREE GABLES SURGERY CENTER", "ADDRESS": "5897 COUNTY ROAD 107", "CITY": "PROCTORVILLE", "STATE": "OH", "ZIP": "45669", "ZIP4": "NOT AVAILABLE", "TELEPHONE": "(740) 886-9911", "TYPE": "GENERAL ACUTE CARE", "STATUS": "OPEN", "POPULATION": 8, "COUNTY": "LAWRENCE", "COUNTYFIPS": "39087", "COUNTRY": "USA", "LATITUDE": 38.441788476000099, "LONGITUDE": -82.392982106000005, "NAICS_CODE": "622110", "NAICS_DESC": "GENERAL MEDICAL AND SURGICAL HOSPITALS", "SOURCE": "http://publicapps.odh.ohio.gov/EID/Provider_Search.aspx", "SOURCEDATE": "2018-08-10T00:00:00.000Z", "VAL_METHOD": "IMAGERY", "VAL_DATE": "2014-02-03T00:00:00.000Z", "WEBSITE": "http://www.threegablessurgery.com", "STATE_ID": "1441", "ALT_NAME": "NOT AVAILABLE", "ST_FIPS": "39", "OWNER": "PROPRIETARY", "TTL_STAFF": -999, "BEDS": 8, "TRAUMA": "NOT AVAILABLE", "HELIPAD": "N" }, "geometry": { "type": "Polygon", "coordinates": [ [ [ -82.482165, 38.42097 ], [ -82.4912962, 38.4229851 ], [ -82.4711057, 38.450174800000049 ], [ -82.436946, 38.495879 ], [ -82.424785, 38.509997 ], [ -82.389296, 38.498228 ], [ -82.33541, 38.476725 ], [ -82.316106, 38.465365 ], [ -82.316346, 38.464659 ], [ -82.316854, 38.463429 ], [ -82.319455, 38.45714 ], [ -82.325173, 38.450271 ], [ -82.326347, 38.44891 ], [ -82.3267664, 38.448528300000021 ], [ -82.329833, 38.446277 ], [ -82.343878, 38.44137 ], [ -82.3899364, 38.43249010000001 ], [ -82.480073, 38.421023 ], [ -82.482165, 38.42097 ] ] ] } },
{ "type": "Feature", "properties": { "OBJECTID": 6409, "ID": "0011640536", "NAME": "UNIVERSITY OF KY HOSPITAL", "ADDRESS": "800 ROSE STREET", "CITY": "LEXINGTON", "STATE": "KY", "ZIP": "40536", "ZIP4": "NOT AVAILABLE", "TELEPHONE": "(859) 232-5445", "TYPE": "GENERAL ACUTE CARE", "STATUS": "OPEN", "POPULATION": 604, "COUNTY": "FAYETTE", "COUNTYFIPS": "21067", "COUNTRY": "USA", "LATITUDE": 38.030964611999998, "LONGITUDE": -84.507442990999905, "NAICS_CODE": "622110", "NAICS_DESC": "GENERAL MEDICAL AND SURGICAL HOSPITALS", "SOURCE": "https://chfs.ky.gov/agencies/os/oig/dhc/Documents/Directories/Hospital_Directory.pdf", "SOURCEDATE": "2018-08-11T00:00:00.000Z", "VAL_METHOD": "IMAGERY", "VAL_DATE": "2014-03-12T00:00:00.000Z", "WEBSITE": "http://www.ukhealthcare.uky.edu", "STATE_ID": "100121", "ALT_NAME": "ALBERT B. CHANDLER MEDICAL CENTER", "ST_FIPS": "21", "OWNER": "GOVERNMENT - STATE", "TTL_STAFF": -999, "BEDS": 604, "TRAUMA": "LEVEL I, LEVEL I PEDIATRIC", "HELIPAD": "Y" }, "geometry": { "type": "Polygon", "coordinates": [ [ [ -84.5174882, 37.956360400000015 ], [ -84.5197635, 37.956641299999987 ], [ -84.5724338, 37.9741142 ], [ -84.604675, 37.989523 ], [ -84.615391, 38.042724 ], [ -84.6142219, 38.045191599999953 ], [ -84.520567, 38.114839 ], [ -84.4265854, 38.094552500000027 ], [ -84.4263297, 38.094310800000038 ], [ -84.4117929, 38.040174799999974 ], [ -84.408036, 38.01754 ], [ -84.426387, 37.98345 ], [ -84.4671108, 37.965449899999946 ], [ -84.492814, 37.956578 ], [ -84.5174882, 37.956360400000015 ] ] ] } },
{ "type": "Feature", "properties": { "OBJECTID": 4018, "ID": "0175740511", "NAME": "LEXINGTON VA MEDICAL CENTER - LEESTOWN", "ADDRESS": "2250 LEESTOWN ROAD LEXINGTON", "CITY": "LEXINGTON", "STATE": "KY", "ZIP": "40511", "ZIP4": "NOT AVAILABLE", "TELEPHONE": "(859) 233-4511", "TYPE": "MILITARY", "STATUS": "OPEN", "POPULATION": -999, "COUNTY": "FAYETTE", "COUNTYFIPS": "21067", "COUNTRY": "USA", "LATITUDE": 38.073859, "LONGITUDE": -84.538381, "NAICS_CODE": "622110", "NAICS_DESC": "GENERAL MEDICAL AND SURGICAL HOSPITALS", "SOURCE": "https://www.va.gov/directory/guide/allstate.asp", "SOURCEDATE": "2018-09-26T00:00:00.000Z", "VAL_METHOD": "IMAGERY", "VAL_DATE": "2019-05-10T00:00:00.000Z", "WEBSITE": "https://www.lexington.va.gov/", "STATE_ID": "NOT AVAILABLE", "ALT_NAME": "NOT AVAILABLE", "ST_FIPS": "21", "OWNER": "GOVERNMENT - FEDERAL", "TTL_STAFF": -999, "BEDS": -999, "TRAUMA": "NOT AVAILABLE", "HELIPAD": "N" }, "geometry": { "type": "Polygon", "coordinates": [ [ [ -84.566084, 37.984828 ], [ -84.590355, 37.988393 ], [ -84.594254, 37.990569 ], [ -84.647724, 38.042786 ], [ -84.623378, 38.130267 ], [ -84.5439437, 38.152043700000029 ], [ -84.434025, 38.128298 ], [ -84.433784, 38.128205800000025 ], [ -84.4202561, 38.09836360000002 ], [ -84.418413, 38.040963 ], [ -84.420582, 38.0375 ], [ -84.440875, 38.024527 ], [ -84.5277338, 37.98207270000001 ], [ -84.566084, 37.984828 ] ] ] } },
{ "type": "Feature", "properties": { "OBJECTID": 4035, "ID": "0102640475", "NAME": "BAPTIST HEALTH RICHMOND", "ADDRESS": "801 EASTERN BYPASS", "CITY": "RICHMOND", "STATE": "KY", "ZIP": "40475", "ZIP4": "NOT AVAILABLE", "TELEPHONE": "(859) 623-3131", "TYPE": "GENERAL ACUTE CARE", "STATUS": "OPEN", "POPULATION": 105, "COUNTY": "MADISON", "COUNTYFIPS": "21151", "COUNTRY": "USA", "LATITUDE": 37.730923012000098, "LONGITUDE": -84.292369279999903, "NAICS_CODE": "622110", "NAICS_DESC": "GENERAL MEDICAL AND SURGICAL HOSPITALS", "SOURCE": "https://chfs.ky.gov/agencies/os/oig/dhc/Documents/Directories/Hospital_Directory.pdf", "SOURCEDATE": "2018-08-11T00:00:00.000Z", "VAL_METHOD": "IMAGERY/OTHER", "VAL_DATE": "2015-05-12T00:00:00.000Z", "WEBSITE": "NOT AVAILABLE", "STATE_ID": "NOT AVAILABLE", "ALT_NAME": "NOT AVAILABLE", "ST_FIPS": "21", "OWNER": "PROPRIETARY", "TTL_STAFF": -999, "BEDS": 105, "TRAUMA": "NOT AVAILABLE", "HELIPAD": "Y" }, "geometry": { "type": "Polygon", "coordinates": [ [ [ -84.317452, 37.650178 ], [ -84.359735, 37.674161 ], [ -84.396752, 37.710358 ], [ -84.395804, 37.717098699999973 ], [ -84.3859, 37.742531 ], [ -84.3654853, 37.792948400000014 ], [ -84.331763, 37.849049 ], [ -84.3158842, 37.851217499999976 ], [ -84.161343, 37.740007 ], [ -84.265592, 37.665943 ], [ -84.317452, 37.650178 ] ] ] } },
{ "type": "Feature", "properties": { "OBJECTID": 4451, "ID": "0123745662", "NAME": "KINGS DAUGHTERS MEDICAL CENTER OHIO", "ADDRESS": "1901 ARGONNE ROAD", "CITY": "PORTSMOUTH", "STATE": "OH", "ZIP": "45662", "ZIP4": "NOT AVAILABLE", "TELEPHONE": "(740) 991-0081", "TYPE": "GENERAL ACUTE CARE", "STATUS": "OPEN", "POPULATION": 10, "COUNTY": "SCIOTO", "COUNTYFIPS": "39145", "COUNTRY": "USA", "LATITUDE": 38.74825796, "LONGITUDE": -82.992629178000001, "NAICS_CODE": "622110", "NAICS_DESC": "GENERAL MEDICAL AND SURGICAL HOSPITALS", "SOURCE": "http://publicapps.odh.ohio.gov/EID/Provider_Search.aspx", "SOURCEDATE": "2018-08-10T00:00:00.000Z", "VAL_METHOD": "IMAGERY/OTHER", "VAL_DATE": "2015-03-10T00:00:00.000Z", "WEBSITE": "http://www.kdmcohio.com/", "STATE_ID": "1508", "ALT_NAME": "NOT AVAILABLE", "ST_FIPS": "39", "OWNER": "NON-PROFIT", "TTL_STAFF": -999, "BEDS": 10, "TRAUMA": "NOT AVAILABLE", "HELIPAD": "N" }, "geometry": { "type": "Polygon", "coordinates": [ [ [ -83.095923, 38.696669 ], [ -83.098238, 38.697505 ], [ -83.085417, 38.745422 ], [ -82.989433, 38.860131 ], [ -82.989256, 38.860198 ], [ -82.882941, 38.76806 ], [ -82.8722254, 38.754232900000012 ], [ -82.8740176, 38.748997600000017 ], [ -82.8743068, 38.7485692 ], [ -82.8743869, 38.748505 ], [ -82.946658, 38.703899 ], [ -83.025269, 38.696093 ], [ -83.062587, 38.693918 ], [ -83.095923, 38.696669 ] ] ] } },
{ "type": "Feature", "properties": { "OBJECTID": 4990, "ID": "0001542602", "NAME": "THE MEDICAL CENTER AT ALBANY", "ADDRESS": "723 BURKESVILLE ROAD", "CITY": "ALBANY", "STATE": "KY", "ZIP": "42602", "ZIP4": "NOT AVAILABLE", "TELEPHONE": "(606) 387-6421", "TYPE": "GENERAL ACUTE CARE", "STATUS": "OPEN", "POPULATION": 42, "COUNTY": "CLINTON", "COUNTYFIPS": "21053", "COUNTRY": "USA", "LATITUDE": 36.698187625000102, "LONGITUDE": -85.147554934, "NAICS_CODE": "622110", "NAICS_DESC": "GENERAL MEDICAL AND SURGICAL HOSPITALS", "SOURCE": "https://chfs.ky.gov/agencies/os/oig/dhc/Documents/Directories/Hospital_Directory.pdf", "SOURCEDATE": "2018-08-11T00:00:00.000Z", "VAL_METHOD": "IMAGERY", "VAL_DATE": "2014-02-10T00:00:00.000Z", "WEBSITE": "http://www.clintoncountyhospital.com", "STATE_ID": "100078", "ALT_NAME": "CLINTON COUNTY HOSPITAL", "ST_FIPS": "21", "OWNER": "NON-PROFIT", "TTL_STAFF": -999, "BEDS": 42, "TRAUMA": "NOT AVAILABLE", "HELIPAD": "Y" }, "geometry": { "type": "Polygon", "coordinates": [ [ [ -85.0883793, 36.621972500000034 ], [ -85.138679, 36.630884 ], [ -85.18715, 36.64041 ], [ -85.215648, 36.665254 ], [ -85.21792, 36.66753 ], [ -85.218189, 36.678494 ], [ -85.218338, 36.769164 ], [ -85.147722, 36.792714 ], [ -85.103112, 36.775165 ], [ -85.073126, 36.755019 ], [ -85.061712, 36.667812 ], [ -85.0883793, 36.621972500000034 ] ] ] } },
{ "type": "Feature", "properties": { "OBJECTID": 4991, "ID": "0003842743", "NAME": "JANE TODD CRAWFORD MEMORIAL HOSPITAL", "ADDRESS": "202-206 MILBY STREET", "CITY": "GREENSBURG", "STATE": "KY", "ZIP": "42743", "ZIP4": "NOT AVAILABLE", "TELEPHONE": "(270) 932-4211", "TYPE": "CRITICAL ACCESS", "STATUS": "OPEN", "POPULATION": 35, "COUNTY": "GREEN", "COUNTYFIPS": "21087", "COUNTRY": "USA", "LATITUDE": 37.242869922000096, "LONGITUDE": -85.494790913000003, "NAICS_CODE": "622110", "NAICS_DESC": "GENERAL MEDICAL AND SURGICAL HOSPITALS", "SOURCE": "https://chfs.ky.gov/agencies/os/oig/dhc/Documents/Directories/Hospital_Directory.pdf", "SOURCEDATE": "2018-08-11T00:00:00.000Z", "VAL_METHOD": "IMAGERY", "VAL_DATE": "2014-03-12T00:00:00.000Z", "WEBSITE": "NOT AVAILABLE", "STATE_ID": "600077", "ALT_NAME": "NOT AVAILABLE", "ST_FIPS": "21", "OWNER": "GOVERNMENT - LOCAL", "TTL_STAFF": -999, "BEDS": 35, "TRAUMA": "NOT AVAILABLE", "HELIPAD": "Y" }, "geometry": { "type": "Polygon", "coordinates": [ [ [ -85.52825, 37.180603 ], [ -85.562057, 37.203674 ], [ -85.546182, 37.268151 ], [ -85.530992, 37.313304 ], [ -85.529588, 37.314643 ], [ -85.468532, 37.316485 ], [ -85.432096, 37.305687 ], [ -85.431829, 37.304992 ], [ -85.419761, 37.211155 ], [ -85.429084, 37.179922 ], [ -85.52825, 37.180603 ] ] ] } },
{ "type": "Feature", "properties": { "OBJECTID": 4992, "ID": "0006640311", "NAME": "NICHOLAS COUNTY HOSPITAL", "ADDRESS": "2323 CONCRETE RD.", "CITY": "CARLISLE", "STATE": "KY", "ZIP": "40311", "ZIP4": "NOT AVAILABLE", "TELEPHONE": "(859) 289-7181", "TYPE": "GENERAL ACUTE CARE", "STATUS": "CLOSED", "POPULATION": 18, "COUNTY": "NICHOLAS", "COUNTYFIPS": "21181", "COUNTRY": "USA", "LATITUDE": 38.315903200999998, "LONGITUDE": -84.0593476559999, "NAICS_CODE": "622110", "NAICS_DESC": "GENERAL MEDICAL AND SURGICAL HOSPITALS", "SOURCE": "http://chfs.ky.gov/os/oig/directories.htm", "SOURCEDATE": "2012-08-01T00:00:00.000Z", "VAL_METHOD": "IMAGERY", "VAL_DATE": "2014-02-10T00:00:00.000Z", "WEBSITE": "http://www.johnsonmathers.org", "STATE_ID": "600054", "ALT_NAME": "NOT AVAILABLE", "ST_FIPS": "21", "OWNER": "NON-PROFIT", "TTL_STAFF": -999, "BEDS": 18, "TRAUMA": "NOT AVAILABLE", "HELIPAD": "Y" }, "geometry": { "type": "Polygon", "coordinates": [ [ [ -84.032616, 38.260014 ], [ -84.057702, 38.263854 ], [ -84.1583178, 38.2879659 ], [ -84.161447, 38.294737 ], [ -84.1550085, 38.3294616 ], [ -84.137974, 38.344142 ], [ -84.114533, 38.358636 ], [ -84.028588, 38.380193 ], [ -83.973102, 38.342804 ], [ -83.963313, 38.296948 ], [ -83.986555, 38.277637 ], [ -84.032616, 38.260014 ] ] ] } },
{ "type": "Feature", "properties": { "OBJECTID": 216, "ID": "0012142728", "NAME": "T J HEALTH COLUMBIA", "ADDRESS": "901 WESTLAKE DRIVE", "CITY": "COLUMBIA", "STATE": "KY", "ZIP": "42728", "ZIP4": "NOT AVAILABLE", "TELEPHONE": "(270) 384-4753", "TYPE": "GENERAL ACUTE CARE", "STATUS": "OPEN", "POPULATION": 77, "COUNTY": "ADAIR", "COUNTYFIPS": "21001", "COUNTRY": "USA", "LATITUDE": 37.096641573000099, "LONGITUDE": -85.29454565, "NAICS_CODE": "622110", "NAICS_DESC": "GENERAL MEDICAL AND SURGICAL HOSPITALS", "SOURCE": "https://chfs.ky.gov/agencies/os/oig/dhc/Documents/Directories/Hospital_Directory.pdf", "SOURCEDATE": "2018-08-11T00:00:00.000Z", "VAL_METHOD": "IMAGERY", "VAL_DATE": "2014-02-10T00:00:00.000Z", "WEBSITE": "http://www.westlakeregionalhospital.com", "STATE_ID": "100001", "ALT_NAME": "NOT AVAILABLE", "ST_FIPS": "21", "OWNER": "NON-PROFIT", "TTL_STAFF": -999, "BEDS": 77, "TRAUMA": "NOT AVAILABLE", "HELIPAD": "Y" }, "geometry": { "type": "Polygon", "coordinates": [ [ [ -85.309619, 37.016915 ], [ -85.371653, 37.035191 ], [ -85.375269, 37.036648 ], [ -85.405646, 37.074284 ], [ -85.40031, 37.086227 ], [ -85.384556, 37.114462 ], [ -85.327087, 37.188827 ], [ -85.323181, 37.189489 ], [ -85.266661, 37.16587 ], [ -85.215237, 37.143083 ], [ -85.194985, 37.081596 ], [ -85.205459, 37.065353 ], [ -85.256956, 37.03331 ], [ -85.309619, 37.016915 ] ] ] } },
{ "type": "Feature", "properties": { "OBJECTID": 217, "ID": "0001042539", "NAME": "CASEY COUNTY HOSPITAL", "ADDRESS": "187 WOLFORD AVENUE", "CITY": "LIBERTY", "STATE": "KY", "ZIP": "42539", "ZIP4": "NOT AVAILABLE", "TELEPHONE": "(606) 787-6275", "TYPE": "CRITICAL ACCESS", "STATUS": "OPEN", "POPULATION": 15, "COUNTY": "CASEY", "COUNTYFIPS": "21045", "COUNTRY": "USA", "LATITUDE": 37.3177168120001, "LONGITUDE": -84.933171912999995, "NAICS_CODE": "622110", "NAICS_DESC": "GENERAL MEDICAL AND SURGICAL HOSPITALS", "SOURCE": "https://chfs.ky.gov/agencies/os/oig/dhc/Documents/Directories/Hospital_Directory.pdf", "SOURCEDATE": "2018-08-11T00:00:00.000Z", "VAL_METHOD": "IMAGERY", "VAL_DATE": "2014-02-10T00:00:00.000Z", "WEBSITE": "NOT AVAILABLE", "STATE_ID": "600060", "ALT_NAME": "NOT AVAILABLE", "ST_FIPS": "21", "OWNER": "GOVERNMENT - LOCAL", "TTL_STAFF": -999, "BEDS": 15, "TRAUMA": "NOT AVAILABLE", "HELIPAD": "Y" }, "geometry": { "type": "Polygon", "coordinates": [ [ [ -84.963561, 37.216799 ], [ -85.030344, 37.274793 ], [ -85.029327, 37.278185 ], [ -85.004869, 37.327528 ], [ -84.974769, 37.380258 ], [ -84.86277, 37.400579 ], [ -84.84321, 37.362698 ], [ -84.844968, 37.346204 ], [ -84.846613, 37.341248 ], [ -84.861554, 37.303365 ], [ -84.95785, 37.21689 ], [ -84.963561, 37.216799 ] ] ] } },
{ "type": "Feature", "properties": { "OBJECTID": 218, "ID": "0005240336", "NAME": "MARCUM AND WALLACE MEMORIAL HOSPITAL", "ADDRESS": "60 MERCY COURT", "CITY": "IRVINE", "STATE": "KY", "ZIP": "40336", "ZIP4": "NOT AVAILABLE", "TELEPHONE": "(606) 723-2115", "TYPE": "CRITICAL ACCESS", "STATUS": "OPEN", "POPULATION": 25, "COUNTY": "ESTILL", "COUNTYFIPS": "21065", "COUNTRY": "USA", "LATITUDE": 37.706197098000104, "LONGITUDE": -83.977277144, "NAICS_CODE": "622110", "NAICS_DESC": "GENERAL MEDICAL AND SURGICAL HOSPITALS", "SOURCE": "https://chfs.ky.gov/agencies/os/oig/dhc/Documents/Directories/Hospital_Directory.pdf", "SOURCEDATE": "2018-08-11T00:00:00.000Z", "VAL_METHOD": "IMAGERY", "VAL_DATE": "2014-02-10T00:00:00.000Z", "WEBSITE": "http://www.marcumandwallace.org", "STATE_ID": "600052", "ALT_NAME": "NOT AVAILABLE", "ST_FIPS": "21", "OWNER": "NON-PROFIT", "TTL_STAFF": -999, "BEDS": 25, "TRAUMA": "LEVEL IV", "HELIPAD": "Y" }, "geometry": { "type": "Polygon", "coordinates": [ [ [ -83.989553733261928, 37.642925145747775 ], [ -84.037528824929453, 37.654488131004058 ], [ -84.056999867894532, 37.670337137339068 ], [ -84.076278916067409, 37.698018149241577 ], [ -84.085331935888263, 37.711951157948178 ], [ -84.012809, 37.783925 ], [ -84.010466, 37.785451 ], [ -84.006511, 37.786415 ], [ -83.9429362715819, 37.75963431051769 ], [ -83.936142547642874, 37.752476902298817 ], [ -83.885258517245802, 37.670025363053668 ], [ -83.922786596866459, 37.658528286330366 ], [ -83.987832729877539, 37.643308149398557 ], [ -83.989553733261928, 37.642925145747775 ] ] ] } },
{ "type": "Feature", "properties": { "OBJECTID": 219, "ID": "0003641653", "NAME": "HIGHLANDS REGIONAL MEDICAL CENTER", "ADDRESS": "5000 KENTUCKY ROUTE 321", "CITY": "PRESTONSBURG", "STATE": "KY", "ZIP": "41653", "ZIP4": "NOT AVAILABLE", "TELEPHONE": "(606) 886-8511", "TYPE": "GENERAL ACUTE CARE", "STATUS": "OPEN", "POPULATION": 174, "COUNTY": "FLOYD", "COUNTYFIPS": "21071", "COUNTRY": "USA", "LATITUDE": 37.729010056000099, "LONGITUDE": -82.767320076000004, "NAICS_CODE": "622110", "NAICS_DESC": "GENERAL MEDICAL AND SURGICAL HOSPITALS", "SOURCE": "https://chfs.ky.gov/agencies/os/oig/dhc/Documents/Directories/Hospital_Directory.pdf", "SOURCEDATE": "2018-08-11T00:00:00.000Z", "VAL_METHOD": "IMAGERY", "VAL_DATE": "2014-02-10T00:00:00.000Z", "WEBSITE": "http://www.hrmc.org", "STATE_ID": "100124", "ALT_NAME": "NOT AVAILABLE", "ST_FIPS": "21", "OWNER": "NON-PROFIT", "TTL_STAFF": -999, "BEDS": 174, "TRAUMA": "NOT AVAILABLE", "HELIPAD": "Y" }, "geometry": { "type": "Polygon", "coordinates": [ [ [ -82.798705, 37.641995 ], [ -82.815453, 37.651227 ], [ -82.820371, 37.654356 ], [ -82.821559, 37.655358 ], [ -82.842014, 37.69163 ], [ -82.85663, 37.719051 ], [ -82.851, 37.728941 ], [ -82.751377, 37.761132 ], [ -82.693909, 37.764964 ], [ -82.676326, 37.764402 ], [ -82.758463, 37.641654 ], [ -82.7637823, 37.6414056 ], [ -82.798705, 37.641995 ] ] ] } },
{ "type": "Feature", "properties": { "OBJECTID": 385, "ID": "0009140504", "NAME": "SAINT JOSEPH HOSPITAL", "ADDRESS": "ONE ST JOSEPH DRIVE", "CITY": "LEXINGTON", "STATE": "KY", "ZIP": "40504", "ZIP4": "NOT AVAILABLE", "TELEPHONE": "(859) 278-3436", "TYPE": "GENERAL ACUTE CARE", "STATUS": "OPEN", "POPULATION": 433, "COUNTY": "FAYETTE", "COUNTYFIPS": "21067", "COUNTRY": "USA", "LATITUDE": 38.032339731999997, "LONGITUDE": -84.52329929, "NAICS_CODE": "622110", "NAICS_DESC": "GENERAL MEDICAL AND SURGICAL HOSPITALS", "SOURCE": "https://chfs.ky.gov/agencies/os/oig/dhc/Documents/Directories/Hospital_Directory.pdf", "SOURCEDATE": "2018-08-11T00:00:00.000Z", "VAL_METHOD": "IMAGERY", "VAL_DATE": "2014-02-10T00:00:00.000Z", "WEBSITE": "http://www.sjhlex.org/system-locations-saint-joseph-hospital-lexington-ky", "STATE_ID": "100117", "ALT_NAME": "NOT AVAILABLE", "ST_FIPS": "21", "OWNER": "NON-PROFIT", "TTL_STAFF": -999, "BEDS": 433, "TRAUMA": "NOT AVAILABLE", "HELIPAD": "Y" }, "geometry": { "type": "Polygon", "coordinates": [ [ [ -84.5965982, 37.961172500000039 ], [ -84.63553, 38.010124 ], [ -84.647724, 38.042786 ], [ -84.520567, 38.114839 ], [ -84.452762, 38.1109 ], [ -84.4265854, 38.094552500000027 ], [ -84.4263297, 38.094310800000038 ], [ -84.4117929, 38.040174799999974 ], [ -84.416313, 38.026952 ], [ -84.436197, 37.992753 ], [ -84.4537097, 37.97539680000002 ], [ -84.49056, 37.957846 ], [ -84.5174882, 37.956360400000015 ], [ -84.5963762, 37.9611525 ], [ -84.5965982, 37.961172500000039 ] ] ] } },
{ "type": "Feature", "properties": { "OBJECTID": 386, "ID": "0009540502", "NAME": "SHRINERS HOSPITAL FOR CHILDREN", "ADDRESS": "1900 RICHMOND RD", "CITY": "LEXINGTON", "STATE": "KY", "ZIP": "40502", "ZIP4": "NOT AVAILABLE", "TELEPHONE": "(859) 266-2101", "TYPE": "CHILDREN", "STATUS": "OPEN", "POPULATION": 50, "COUNTY": "FAYETTE", "COUNTYFIPS": "21067", "COUNTRY": "USA", "LATITUDE": 38.022706609000103, "LONGITUDE": -84.472698523000005, "NAICS_CODE": "622110", "NAICS_DESC": "GENERAL MEDICAL AND SURGICAL HOSPITALS", "SOURCE": "https://chfs.ky.gov/agencies/os/oig/dhc/Documents/Directories/Hospital_Directory.pdf", "SOURCEDATE": "2018-08-11T00:00:00.000Z", "VAL_METHOD": "IMAGERY", "VAL_DATE": "2014-02-10T00:00:00.000Z", "WEBSITE": "http://www.shrinershospitalsforchildren.org/Hospitals/Locations/Lexington.aspx", "STATE_ID": "100116", "ALT_NAME": "NOT AVAILABLE", "ST_FIPS": "21", "OWNER": "NON-PROFIT", "TTL_STAFF": -999, "BEDS": 50, "TRAUMA": "NOT AVAILABLE", "HELIPAD": "N" }, "geometry": { "type": "Polygon", "coordinates": [ [ [ -84.413577, 37.923985 ], [ -84.4833761, 37.94388809999996 ], [ -84.535632, 37.963214 ], [ -84.550343, 37.981943 ], [ -84.563432, 38.008126 ], [ -84.563871, 38.009901 ], [ -84.5684597, 38.045405700000025 ], [ -84.5583614, 38.070085699999986 ], [ -84.5463995, 38.08086440000001 ], [ -84.5461922, 38.08103510000003 ], [ -84.515048, 38.104509899999982 ], [ -84.4842631, 38.104546100000015 ], [ -84.4809564, 38.1041951 ], [ -84.461106, 38.099046 ], [ -84.436832, 38.087721 ], [ -84.377067, 38.033752 ], [ -84.363273, 37.948695 ], [ -84.391041, 37.933668 ], [ -84.3989932, 37.929587799999972 ], [ -84.413577, 37.923985 ] ] ] } },
{ "type": "Feature", "properties": { "OBJECTID": 394, "ID": "0007341101", "NAME": "OUR LADY OF BELLEFONTE HOSPITAL", "ADDRESS": "1000 ST. CHRISTOPHER DRIVE", "CITY": "ASHLAND", "STATE": "KY", "ZIP": "41101", "ZIP4": "NOT AVAILABLE", "TELEPHONE": "(606) 833-3333", "TYPE": "GENERAL ACUTE CARE", "STATUS": "OPEN", "POPULATION": 190, "COUNTY": "GREENUP", "COUNTYFIPS": "21089", "COUNTRY": "USA", "LATITUDE": 38.508454319000101, "LONGITUDE": -82.692616508, "NAICS_CODE": "622110", "NAICS_DESC": "GENERAL MEDICAL AND SURGICAL HOSPITALS", "SOURCE": "https://chfs.ky.gov/agencies/os/oig/dhc/Documents/Directories/Hospital_Directory.pdf", "SOURCEDATE": "2018-08-11T00:00:00.000Z", "VAL_METHOD": "IMAGERY", "VAL_DATE": "2014-02-10T00:00:00.000Z", "WEBSITE": "http://www.olbh.com", "STATE_ID": "100154", "ALT_NAME": "NOT AVAILABLE", "ST_FIPS": "21", "OWNER": "NON-PROFIT", "TTL_STAFF": -999, "BEDS": 190, "TRAUMA": "NOT AVAILABLE", "HELIPAD": "N" }, "geometry": { "type": "Polygon", "coordinates": [ [ [ -82.70982, 38.438129 ], [ -82.710312, 38.438259 ], [ -82.725678, 38.445905 ], [ -82.7695506, 38.491721700000014 ], [ -82.776430500000018, 38.5018746 ], [ -82.808897, 38.560262 ], [ -82.739022, 38.553744 ], [ -82.734417, 38.553231 ], [ -82.724185, 38.551691 ], [ -82.722978, 38.551403 ], [ -82.694375, 38.5353 ], [ -82.6827189, 38.528023599999962 ], [ -82.6396114, 38.4806634 ], [ -82.6388069, 38.479597 ], [ -82.6388027, 38.475655599999989 ], [ -82.645673, 38.455967 ], [ -82.703016, 38.437945 ], [ -82.70982, 38.438129 ] ] ] } },
{ "type": "Feature", "properties": { "OBJECTID": 398, "ID": "0002640444", "NAME": "GARRARD COUNTY HOSPITAL", "ADDRESS": "308 WEST MAPLE AVENUE", "CITY": "LANCASTER", "STATE": "KY", "ZIP": "40444", "ZIP4": "NOT AVAILABLE", "TELEPHONE": "(859) 792-6844", "TYPE": "GENERAL ACUTE CARE", "STATUS": "CLOSED", "POPULATION": 15, "COUNTY": "GARRARD", "COUNTYFIPS": "21079", "COUNTRY": "USA", "LATITUDE": 37.622026064000103, "LONGITUDE": -84.585157253000006, "NAICS_CODE": "622110", "NAICS_DESC": "GENERAL MEDICAL AND SURGICAL HOSPITALS", "SOURCE": "http://chfs.ky.gov/os/oig/directories.htm", "SOURCEDATE": "2012-08-01T00:00:00.000Z", "VAL_METHOD": "IMAGERY", "VAL_DATE": "2014-02-10T00:00:00.000Z", "WEBSITE": "NOT AVAILABLE", "STATE_ID": "600051", "ALT_NAME": "NOT AVAILABLE", "ST_FIPS": "21", "OWNER": "PROPRIETARY", "TTL_STAFF": -999, "BEDS": 15, "TRAUMA": "NOT AVAILABLE", "HELIPAD": "Y" }, "geometry": { "type": "Polygon", "coordinates": [ [ [ -84.655053, 37.530121 ], [ -84.660669, 37.534675 ], [ -84.664988, 37.543503 ], [ -84.665622, 37.544879 ], [ -84.6640609, 37.691203099999974 ], [ -84.6638506, 37.691289 ], [ -84.661806, 37.692057 ], [ -84.568791, 37.686184 ], [ -84.515227, 37.675542 ], [ -84.513427, 37.674926 ], [ -84.50932, 37.668586 ], [ -84.479587, 37.588258 ], [ -84.540528, 37.544679 ], [ -84.652798, 37.530083 ], [ -84.655053, 37.530121 ] ] ] } },
{ "type": "Feature", "properties": { "OBJECTID": 426, "ID": "0002040484", "NAME": "EPHRAIM MCDOWELL FORT LOGAN HOSPITAL", "ADDRESS": "110 METKER TRAIL", "CITY": "STANFORD", "STATE": "KY", "ZIP": "40484", "ZIP4": "NOT AVAILABLE", "TELEPHONE": "(606) 365-2187", "TYPE": "CRITICAL ACCESS", "STATUS": "OPEN", "POPULATION": 25, "COUNTY": "LINCOLN", "COUNTYFIPS": "21137", "COUNTRY": "USA", "LATITUDE": 37.54279432, "LONGITUDE": -84.653036559, "NAICS_CODE": "622110", "NAICS_DESC": "GENERAL MEDICAL AND SURGICAL HOSPITALS", "SOURCE": "https://chfs.ky.gov/agencies/os/oig/dhc/Documents/Directories/Hospital_Directory.pdf", "SOURCEDATE": "2018-08-11T00:00:00.000Z", "VAL_METHOD": "IMAGERY", "VAL_DATE": "2014-02-10T00:00:00.000Z", "WEBSITE": "http://www.fortloganhospital.org", "STATE_ID": "600066", "ALT_NAME": "NOT AVAILABLE", "ST_FIPS": "21", "OWNER": "NON-PROFIT", "TTL_STAFF": -999, "BEDS": 25, "TRAUMA": "LEVEL IV", "HELIPAD": "Y" }, "geometry": { "type": "Polygon", "coordinates": [ [ [ -84.644242, 37.430304 ], [ -84.6905, 37.457404 ], [ -84.727355, 37.495487 ], [ -84.72767, 37.496576 ], [ -84.733424, 37.539428 ], [ -84.734163, 37.553165 ], [ -84.722488, 37.590328 ], [ -84.72217, 37.590635 ], [ -84.677943, 37.613047 ], [ -84.583278, 37.637179 ], [ -84.579974, 37.635027 ], [ -84.568394, 37.622261 ], [ -84.561251, 37.613893 ], [ -84.530804, 37.479114 ], [ -84.644242, 37.430304 ] ] ] } },
{ "type": "Feature", "properties": { "OBJECTID": 471, "ID": "0010542718", "NAME": "TAYLOR REGIONAL HOSPITAL", "ADDRESS": "1700 OLD LEBANON ROAD", "CITY": "CAMPBELLSVILLE", "STATE": "KY", "ZIP": "42718", "ZIP4": "NOT AVAILABLE", "TELEPHONE": "(270) 465-3561", "TYPE": "GENERAL ACUTE CARE", "STATUS": "OPEN", "POPULATION": 90, "COUNTY": "TAYLOR", "COUNTYFIPS": "21217", "COUNTRY": "USA", "LATITUDE": 37.3663517620001, "LONGITUDE": -85.338106556, "NAICS_CODE": "622110", "NAICS_DESC": "GENERAL MEDICAL AND SURGICAL HOSPITALS", "SOURCE": "https://chfs.ky.gov/agencies/os/oig/dhc/Documents/Directories/Hospital_Directory.pdf", "SOURCEDATE": "2018-08-11T00:00:00.000Z", "VAL_METHOD": "IMAGERY", "VAL_DATE": "2014-02-10T00:00:00.000Z", "WEBSITE": "http://www.trhosp.org", "STATE_ID": "100394", "ALT_NAME": "NOT AVAILABLE", "ST_FIPS": "21", "OWNER": "GOVERNMENT - DISTRICT/AUTHORITY", "TTL_STAFF": -999, "BEDS": 90, "TRAUMA": "LEVEL III", "HELIPAD": "Y" }, "geometry": { "type": "Polygon", "coordinates": [ [ [ -85.379572, 37.271801 ], [ -85.436949, 37.304419 ], [ -85.437567, 37.306 ], [ -85.421956, 37.383256 ], [ -85.403722, 37.422391 ], [ -85.379816, 37.438272 ], [ -85.3565329, 37.4493113 ], [ -85.282805, 37.417014 ], [ -85.273568, 37.386105 ], [ -85.272751, 37.320335 ], [ -85.295194, 37.301282 ], [ -85.355548, 37.277141 ], [ -85.379572, 37.271801 ] ] ] } },
{ "type": "Feature", "properties": { "OBJECTID": 508, "ID": "0008742642", "NAME": "RUSSELL COUNTY HOSPITAL", "ADDRESS": "153 DOWELL RD., PO BOX 1610", "CITY": "RUSSELL SPRINGS", "STATE": "KY", "ZIP": "42642", "ZIP4": "NOT AVAILABLE", "TELEPHONE": "(270) 866-4141", "TYPE": "GENERAL ACUTE CARE", "STATUS": "OPEN", "POPULATION": 25, "COUNTY": "RUSSELL", "COUNTYFIPS": "21207", "COUNTRY": "USA", "LATITUDE": 37.05758045, "LONGITUDE": -85.067352806000002, "NAICS_CODE": "622110", "NAICS_DESC": "GENERAL MEDICAL AND SURGICAL HOSPITALS", "SOURCE": "https://chfs.ky.gov/agencies/os/oig/dhc/Documents/Directories/Hospital_Directory.pdf", "SOURCEDATE": "2018-08-11T00:00:00.000Z", "VAL_METHOD": "IMAGERY", "VAL_DATE": "2013-12-18T00:00:00.000Z", "WEBSITE": "http://www.russellcohospital.org", "STATE_ID": "600081", "ALT_NAME": "NOT AVAILABLE", "ST_FIPS": "21", "OWNER": "GOVERNMENT - LOCAL", "TTL_STAFF": -999, "BEDS": 25, "TRAUMA": "NOT AVAILABLE", "HELIPAD": "Y" }, "geometry": { "type": "Polygon", "coordinates": [ [ [ -85.090461, 36.950701 ], [ -85.131522, 36.997734 ], [ -85.137661, 37.00681 ], [ -85.149905, 37.03186 ], [ -85.169782, 37.0779 ], [ -85.094541, 37.135162 ], [ -85.015166, 37.161726 ], [ -84.989121, 37.103374 ], [ -84.985372, 37.092019 ], [ -84.982239, 37.063209 ], [ -85.019889, 36.99078 ], [ -85.054656, 36.967357 ], [ -85.090461, 36.950701 ] ] ] } },
{ "type": "Feature", "properties": { "OBJECTID": 510, "ID": "0008640456", "NAME": "ROCKCASTLE REGIONAL HOSPITAL & RESPIRATORY CARE CENTER", "ADDRESS": "145 NEWCOMB AVE", "CITY": "MT VERNON", "STATE": "KY", "ZIP": "40456", "ZIP4": "NOT AVAILABLE", "TELEPHONE": "(606) 256-2195", "TYPE": "GENERAL ACUTE CARE", "STATUS": "OPEN", "POPULATION": 26, "COUNTY": "ROCKCASTLE", "COUNTYFIPS": "21203", "COUNTRY": "USA", "LATITUDE": 37.3579643200001, "LONGITUDE": -84.3359033199999, "NAICS_CODE": "622110", "NAICS_DESC": "GENERAL MEDICAL AND SURGICAL HOSPITALS", "SOURCE": "https://chfs.ky.gov/agencies/os/oig/dhc/Documents/Directories/Hospital_Directory.pdf", "SOURCEDATE": "2018-08-11T00:00:00.000Z", "VAL_METHOD": "IMAGERY/OTHER", "VAL_DATE": "2014-02-10T00:00:00.000Z", "WEBSITE": "http://www.rockcastleregional.org", "STATE_ID": "100960", "ALT_NAME": "NOT AVAILABLE", "ST_FIPS": "21", "OWNER": "NON-PROFIT", "TTL_STAFF": -999, "BEDS": 26, "TRAUMA": "LEVEL IV", "HELIPAD": "Y" }, "geometry": { "type": "Polygon", "coordinates": [ [ [ -84.352919, 37.284849 ], [ -84.411563, 37.290667 ], [ -84.421957, 37.353404 ], [ -84.4286846, 37.398166099999969 ], [ -84.343023, 37.43447 ], [ -84.3186767, 37.440990700000029 ], [ -84.31719, 37.439386 ], [ -84.267061, 37.37384 ], [ -84.2530676, 37.330220500000017 ], [ -84.305336, 37.30593 ], [ -84.352919, 37.284849 ] ] ] } },
{ "type": "Feature", "properties": { "OBJECTID": 517, "ID": "0007941240", "NAME": "PAUL B HALL REGIONAL MEDICAL CENTER", "ADDRESS": "625 JAMES S TRIMBLE BLVD", "CITY": "PAINTSVILLE", "STATE": "KY", "ZIP": "41240", "ZIP4": "NOT AVAILABLE", "TELEPHONE": "(606) 789-3511", "TYPE": "GENERAL ACUTE CARE", "STATUS": "OPEN", "POPULATION": 72, "COUNTY": "JOHNSON", "COUNTYFIPS": "21115", "COUNTRY": "USA", "LATITUDE": 37.815510936000102, "LONGITUDE": -82.813051294999994, "NAICS_CODE": "622110", "NAICS_DESC": "GENERAL MEDICAL AND SURGICAL HOSPITALS", "SOURCE": "https://chfs.ky.gov/agencies/os/oig/dhc/Documents/Directories/Hospital_Directory.pdf", "SOURCEDATE": "2018-08-11T00:00:00.000Z", "VAL_METHOD": "IMAGERY", "VAL_DATE": "2013-12-18T00:00:00.000Z", "WEBSITE": "http://www.pbhrmc.com/locations/paul-b-hall-regional-medical-center", "STATE_ID": "100263", "ALT_NAME": "NOT AVAILABLE", "ST_FIPS": "21", "OWNER": "PROPRIETARY", "TTL_STAFF": -999, "BEDS": 72, "TRAUMA": "NOT AVAILABLE", "HELIPAD": "N" }, "geometry": { "type": "Polygon", "coordinates": [ [ [ -82.8006892, 37.741844300000032 ], [ -82.9152921, 37.7965485 ], [ -82.870365, 37.868339 ], [ -82.833678, 37.885901 ], [ -82.81915, 37.890824 ], [ -82.774478, 37.890064 ], [ -82.774287, 37.889998 ], [ -82.719573, 37.804399 ], [ -82.719825, 37.80298 ], [ -82.725314, 37.791572 ], [ -82.752576, 37.769116 ], [ -82.770076, 37.755619 ], [ -82.787742, 37.745336 ], [ -82.8006892, 37.741844300000032 ] ] ] } },
{ "type": "Feature", "properties": { "OBJECTID": 541, "ID": "0005641056", "NAME": "MEADOWVIEW REGIONAL MEDICAL CENTER", "ADDRESS": "989 MEDICAL PARK DRIVE", "CITY": "MAYSVILLE", "STATE": "KY", "ZIP": "41056", "ZIP4": "NOT AVAILABLE", "TELEPHONE": "(606) 759-5311", "TYPE": "GENERAL ACUTE CARE", "STATUS": "OPEN", "POPULATION": 100, "COUNTY": "MASON", "COUNTYFIPS": "21161", "COUNTRY": "USA", "LATITUDE": 38.639974376000097, "LONGITUDE": -83.808105166000004, "NAICS_CODE": "622110", "NAICS_DESC": "GENERAL MEDICAL AND SURGICAL HOSPITALS", "SOURCE": "https://chfs.ky.gov/agencies/os/oig/dhc/Documents/Directories/Hospital_Directory.pdf", "SOURCEDATE": "2018-08-11T00:00:00.000Z", "VAL_METHOD": "IMAGERY", "VAL_DATE": "2014-02-10T00:00:00.000Z", "WEBSITE": "http://www.meadowviewregional.com", "STATE_ID": "100332", "ALT_NAME": "NOT AVAILABLE", "ST_FIPS": "21", "OWNER": "PROPRIETARY", "TTL_STAFF": -999, "BEDS": 100, "TRAUMA": "NOT AVAILABLE", "HELIPAD": "Y" }, "geometry": { "type": "Polygon", "coordinates": [ [ [ -83.826971363971637, 38.539193302270483 ], [ -83.827262264294859, 38.539270902429891 ], [ -83.939266, 38.659865 ], [ -83.941988, 38.684599 ], [ -83.8144437, 38.69896 ], [ -83.778458740613289, 38.6854389684434 ], [ -83.708409141799578, 38.633982375339258 ], [ -83.693267807326336, 38.572092521041768 ], [ -83.761987105543412, 38.545436592571804 ], [ -83.826971363971637, 38.539193302270483 ] ] ] } },
{ "type": "Feature", "properties": { "OBJECTID": 543, "ID": "0008140977", "NAME": "PINEVILLE COMMUNITY HOSPITAL", "ADDRESS": "850 RIVERVIEW AVE", "CITY": "PINEVILLE", "STATE": "KY", "ZIP": "40977", "ZIP4": "NOT AVAILABLE", "TELEPHONE": "(606) 337-3051", "TYPE": "GENERAL ACUTE CARE", "STATUS": "OPEN", "POPULATION": 120, "COUNTY": "BELL", "COUNTYFIPS": "21013", "COUNTRY": "USA", "LATITUDE": 36.76291694, "LONGITUDE": -83.707768725999998, "NAICS_CODE": "622110", "NAICS_DESC": "GENERAL MEDICAL AND SURGICAL HOSPITALS", "SOURCE": "https://chfs.ky.gov/agencies/os/oig/dhc/Documents/Directories/Hospital_Directory.pdf", "SOURCEDATE": "2018-08-11T00:00:00.000Z", "VAL_METHOD": "IMAGERY", "VAL_DATE": "2014-02-10T00:00:00.000Z", "WEBSITE": "http://www.pinevillehospital.com", "STATE_ID": "100020", "ALT_NAME": "NOT AVAILABLE", "ST_FIPS": "21", "OWNER": "NON-PROFIT", "TTL_STAFF": -999, "BEDS": 120, "TRAUMA": "NOT AVAILABLE", "HELIPAD": "Y" }, "geometry": { "type": "Polygon", "coordinates": [ [ [ -83.693520725948673, 36.668338249442883 ], [ -83.781401226491084, 36.753346972000088 ], [ -83.782444231236227, 36.755639970443163 ], [ -83.792628305799553, 36.833337945626617 ], [ -83.793012319967985, 36.857873941281213 ], [ -83.643094161787687, 36.817016061067548 ], [ -83.602024193617453, 36.785633356107709 ], [ -83.608460318761118, 36.73501753438002 ], [ -83.613684381868353, 36.721843567337189 ], [ -83.687776712609377, 36.66826126995911 ], [ -83.693520725948673, 36.668338249442883 ] ] ] } },
{ "type": "Feature", "properties": { "OBJECTID": 547, "ID": "0002140422", "NAME": "EPHRAIM MCDOWELL REGIONAL MEDICAL CENTER", "ADDRESS": "217 SOUTH THIRD STREET", "CITY": "DANVILLE", "STATE": "KY", "ZIP": "40422", "ZIP4": "NOT AVAILABLE", "TELEPHONE": "(859) 239-1000", "TYPE": "GENERAL ACUTE CARE", "STATUS": "OPEN", "POPULATION": 222, "COUNTY": "BOYLE", "COUNTYFIPS": "21021", "COUNTRY": "USA", "LATITUDE": 37.643873305000099, "LONGITUDE": -84.773001139000002, "NAICS_CODE": "622110", "NAICS_DESC": "GENERAL MEDICAL AND SURGICAL HOSPITALS", "SOURCE": "https://chfs.ky.gov/agencies/os/oig/dhc/Documents/Directories/Hospital_Directory.pdf", "SOURCEDATE": "2018-08-11T00:00:00.000Z", "VAL_METHOD": "IMAGERY", "VAL_DATE": "2014-02-10T00:00:00.000Z", "WEBSITE": "http://www.emrmc.org", "STATE_ID": "100034", "ALT_NAME": "NOT AVAILABLE", "ST_FIPS": "21", "OWNER": "NON-PROFIT", "TTL_STAFF": -999, "BEDS": 222, "TRAUMA": "LEVEL III", "HELIPAD": "N" }, "geometry": { "type": "Polygon", "coordinates": [ [ [ -84.81352, 37.570454 ], [ -84.866042, 37.610394 ], [ -84.913876, 37.653356 ], [ -84.838412, 37.694128 ], [ -84.807459, 37.704063 ], [ -84.807271, 37.704105 ], [ -84.7590919, 37.71440089999998 ], [ -84.756858, 37.714127 ], [ -84.6819586, 37.678441299999982 ], [ -84.6702156, 37.635981300000012 ], [ -84.670551, 37.635428599999976 ], [ -84.6801446, 37.623425500000018 ], [ -84.696191, 37.607459 ], [ -84.74127, 37.574965 ], [ -84.8056993, 37.570498799999974 ], [ -84.81352, 37.570454 ] ] ] } },
{ "type": "Feature", "properties": { "OBJECTID": 551, "ID": "0009740033", "NAME": "SPRING VIEW HOSPITAL", "ADDRESS": "320 LORETTO ROAD", "CITY": "LEBANON", "STATE": "KY", "ZIP": "40033", "ZIP4": "NOT AVAILABLE", "TELEPHONE": "(270) 692-3161", "TYPE": "GENERAL ACUTE CARE", "STATUS": "OPEN", "POPULATION": 75, "COUNTY": "MARION", "COUNTYFIPS": "21155", "COUNTRY": "USA", "LATITUDE": 37.569828878000102, "LONGITUDE": -85.261456408999905, "NAICS_CODE": "622110", "NAICS_DESC": "GENERAL MEDICAL AND SURGICAL HOSPITALS", "SOURCE": "https://chfs.ky.gov/agencies/os/oig/dhc/Documents/Directories/Hospital_Directory.pdf", "SOURCEDATE": "2018-08-11T00:00:00.000Z", "VAL_METHOD": "IMAGERY", "VAL_DATE": "2014-03-12T00:00:00.000Z", "WEBSITE": "http://www.springviewhospital.com", "STATE_ID": "100327", "ALT_NAME": "NOT AVAILABLE", "ST_FIPS": "21", "OWNER": "PROPRIETARY", "TTL_STAFF": -999, "BEDS": 75, "TRAUMA": "NOT AVAILABLE", "HELIPAD": "Y" }, "geometry": { "type": "Polygon", "coordinates": [ [ [ -85.300873, 37.478503 ], [ -85.320596, 37.497418 ], [ -85.358295, 37.556529 ], [ -85.365901, 37.586396 ], [ -85.351865, 37.615245 ], [ -85.291907, 37.644326 ], [ -85.208031, 37.631588 ], [ -85.206942, 37.631092 ], [ -85.177031, 37.611024 ], [ -85.176458, 37.610388 ], [ -85.153953, 37.575465 ], [ -85.1871432, 37.502679899999983 ], [ -85.1883294, 37.501237799999963 ], [ -85.300873, 37.478503 ] ] ] } },
{ "type": "Feature", "properties": { "OBJECTID": 563, "ID": "0008041501", "NAME": "PIKEVILLE MEDICAL CENTER", "ADDRESS": "911 BYPASS RD", "CITY": "PIKEVILLE", "STATE": "KY", "ZIP": "41501", "ZIP4": "NOT AVAILABLE", "TELEPHONE": "(606) 437-3500", "TYPE": "GENERAL ACUTE CARE", "STATUS": "OPEN", "POPULATION": 261, "COUNTY": "PIKE", "COUNTYFIPS": "21195", "COUNTRY": "USA", "LATITUDE": 37.471241665999997, "LONGITUDE": -82.522247496999995, "NAICS_CODE": "622110", "NAICS_DESC": "GENERAL MEDICAL AND SURGICAL HOSPITALS", "SOURCE": "https://chfs.ky.gov/agencies/os/oig/dhc/Documents/Directories/Hospital_Directory.pdf", "SOURCEDATE": "2018-08-11T00:00:00.000Z", "VAL_METHOD": "IMAGERY/OTHER", "VAL_DATE": "2014-02-10T00:00:00.000Z", "WEBSITE": "http://www.pikevillehospital.org", "STATE_ID": "100366", "ALT_NAME": "NOT AVAILABLE", "ST_FIPS": "21", "OWNER": "NON-PROFIT", "TTL_STAFF": -999, "BEDS": 261, "TRAUMA": "LEVEL II", "HELIPAD": "Y" }, "geometry": { "type": "Polygon", "coordinates": [ [ [ -82.555762112451049, 37.422066601608151 ], [ -82.571499998300425, 37.433586514273266 ], [ -82.589456664163563, 37.449342404916145 ], [ -82.602039340772208, 37.51878716760389 ], [ -82.598873325767016, 37.536519343570006 ], [ -82.58424722388979, 37.543809428495905 ], [ -82.577653023263949, 37.546542022470945 ], [ -82.56290782581398, 37.548502214293187 ], [ -82.449334232390129, 37.539013220862053 ], [ -82.449145532728451, 37.538974920980849 ], [ -82.449644939277022, 37.534663025864347 ], [ -82.462321998788397, 37.459587371734322 ], [ -82.478459815441525, 37.430071591191059 ], [ -82.494574013497726, 37.41585869299297 ], [ -82.555762112451049, 37.422066601608151 ] ] ] } },
{ "type": "Feature", "properties": { "OBJECTID": 567, "ID": "0001440391", "NAME": "CLARK REGIONAL MEDICAL CENTER", "ADDRESS": "175 HOSPITAL DRIVE", "CITY": "WINCHESTER", "STATE": "KY", "ZIP": "40391", "ZIP4": "NOT AVAILABLE", "TELEPHONE": "(859) 737-8559", "TYPE": "GENERAL ACUTE CARE", "STATUS": "OPEN", "POPULATION": 54, "COUNTY": "CLARK", "COUNTYFIPS": "21049", "COUNTRY": "USA", "LATITUDE": 38.001043223000103, "LONGITUDE": -84.195515862999997, "NAICS_CODE": "622110", "NAICS_DESC": "GENERAL MEDICAL AND SURGICAL HOSPITALS", "SOURCE": "https://chfs.ky.gov/agencies/os/oig/dhc/Documents/Directories/Hospital_Directory.pdf", "SOURCEDATE": "2018-08-11T00:00:00.000Z", "VAL_METHOD": "IMAGERY/OTHER", "VAL_DATE": "2014-02-10T00:00:00.000Z", "WEBSITE": "http://www.clarkregional.org", "STATE_ID": "100073", "ALT_NAME": "NOT AVAILABLE", "ST_FIPS": "21", "OWNER": "PROPRIETARY", "TTL_STAFF": -999, "BEDS": 54, "TRAUMA": "NOT AVAILABLE", "HELIPAD": "Y" }, "geometry": { "type": "Polygon", "coordinates": [ [ [ -84.2411, 37.927354 ], [ -84.2472402, 37.928961299999969 ], [ -84.2907759, 38.0304421 ], [ -84.284595, 38.037847 ], [ -84.28288, 38.039011 ], [ -84.174413, 38.06655 ], [ -84.068175, 38.031909 ], [ -84.108573, 37.964958 ], [ -84.111473, 37.962647 ], [ -84.150532, 37.938068 ], [ -84.186322, 37.931945 ], [ -84.2411, 37.927354 ] ] ] } },
{ "type": "Feature", "properties": { "OBJECTID": 568, "ID": "0003341701", "NAME": "HAZARD ARH REGIONAL MEDICAL CENTER", "ADDRESS": "100 MEDICAL CENTER DRIVE", "CITY": "HAZARD", "STATE": "KY", "ZIP": "41701", "ZIP4": "NOT AVAILABLE", "TELEPHONE": "(606) 439-6600", "TYPE": "GENERAL ACUTE CARE", "STATUS": "OPEN", "POPULATION": 358, "COUNTY": "PERRY", "COUNTYFIPS": "21193", "COUNTRY": "USA", "LATITUDE": 37.278297946000102, "LONGITUDE": -83.227882237000003, "NAICS_CODE": "622110", "NAICS_DESC": "GENERAL MEDICAL AND SURGICAL HOSPITALS", "SOURCE": "https://chfs.ky.gov/agencies/os/oig/dhc/Documents/Directories/Hospital_Directory.pdf", "SOURCEDATE": "2018-08-11T00:00:00.000Z", "VAL_METHOD": "IMAGERY", "VAL_DATE": "2014-02-10T00:00:00.000Z", "WEBSITE": "http://www.arh.org", "STATE_ID": "100365", "ALT_NAME": "NOT AVAILABLE", "ST_FIPS": "21", "OWNER": "NON-PROFIT", "TTL_STAFF": -999, "BEDS": 358, "TRAUMA": "NOT AVAILABLE", "HELIPAD": "Y" }, "geometry": { "type": "Polygon", "coordinates": [ [ [ -83.251080779872467, 37.213013961029404 ], [ -83.27992880803501, 37.217220882028741 ], [ -83.335765835448754, 37.2331737115937 ], [ -83.293542564633114, 37.349892671429323 ], [ -83.257743479257741, 37.363816740748966 ], [ -83.161667325335983, 37.354578893208043 ], [ -83.127297273209592, 37.349646948457682 ], [ -83.12535027552542, 37.34497595747046 ], [ -83.151248615304013, 37.214428194237314 ], [ -83.151357615827834, 37.214360194273027 ], [ -83.251080779872467, 37.213013961029404 ] ] ] } },
{ "type": "Feature", "properties": { "OBJECTID": 569, "ID": "0012341503", "NAME": "TUG VALLEY ARH REGIONAL MEDICAL CENTER", "ADDRESS": "260 HOSPITAL DRIVE", "CITY": "SOUTH WILLIAMSON", "STATE": "KY", "ZIP": "41503", "ZIP4": "NOT AVAILABLE", "TELEPHONE": "(606) 237-1700", "TYPE": "GENERAL ACUTE CARE", "STATUS": "OPEN", "POPULATION": 113, "COUNTY": "PIKE", "COUNTYFIPS": "21195", "COUNTRY": "USA", "LATITUDE": 37.676510644000103, "LONGITUDE": -82.297022721999994, "NAICS_CODE": "622110", "NAICS_DESC": "GENERAL MEDICAL AND SURGICAL HOSPITALS", "SOURCE": "https://chfs.ky.gov/agencies/os/oig/dhc/Documents/Directories/Hospital_Directory.pdf", "SOURCEDATE": "2018-08-11T00:00:00.000Z", "VAL_METHOD": "IMAGERY", "VAL_DATE": "2014-02-10T00:00:00.000Z", "WEBSITE": "http://www.arh.org/locations/tug_valley.aspx", "STATE_ID": "100368", "ALT_NAME": "WILLIAMSON ARH HOSPITAL", "ST_FIPS": "21", "OWNER": "NON-PROFIT", "TTL_STAFF": -999, "BEDS": 113, "TRAUMA": "LEVEL IV", "HELIPAD": "Y" }, "geometry": { "type": "Polygon", "coordinates": [ [ [ -82.2680218, 37.610504499999976 ], [ -82.2688981, 37.610680600000016 ], [ -82.3333025, 37.629526500000033 ], [ -82.349739, 37.659600499999982 ], [ -82.3355178, 37.7400027 ], [ -82.3348284, 37.741368299999955 ], [ -82.331194, 37.739911500000041 ], [ -82.235774, 37.656954399999968 ], [ -82.2416997, 37.616912700000022 ], [ -82.2424152, 37.616412700000019 ], [ -82.2680218, 37.610504499999976 ] ] ] } },
{ "type": "Feature", "properties": { "OBJECTID": 7116, "ID": "0003140831", "NAME": "HARLAN ARH HOSPITAL", "ADDRESS": "81 BALL PARK ROAD", "CITY": "HARLAN", "STATE": "KY", "ZIP": "40831", "ZIP4": "NOT AVAILABLE", "TELEPHONE": "(606) 573-8100", "TYPE": "GENERAL ACUTE CARE", "STATUS": "OPEN", "POPULATION": 150, "COUNTY": "HARLAN", "COUNTYFIPS": "21095", "COUNTRY": "USA", "LATITUDE": 36.809455171000003, "LONGITUDE": -83.313598393999897, "NAICS_CODE": "622110", "NAICS_DESC": "GENERAL MEDICAL AND SURGICAL HOSPITALS", "SOURCE": "https://chfs.ky.gov/agencies/os/oig/dhc/Documents/Directories/Hospital_Directory.pdf", "SOURCEDATE": "2018-08-11T00:00:00.000Z", "VAL_METHOD": "IMAGERY", "VAL_DATE": "2014-03-12T00:00:00.000Z", "WEBSITE": "http://www.arh.org/locations/harlan.aspx", "STATE_ID": "100163", "ALT_NAME": "NOT AVAILABLE", "ST_FIPS": "21", "OWNER": "NON-PROFIT", "TTL_STAFF": -999, "BEDS": 150, "TRAUMA": "LEVEL IV", "HELIPAD": "Y" }, "geometry": { "type": "Polygon", "coordinates": [ [ [ -83.332780300706091, 36.774620472732778 ], [ -83.382139129911494, 36.843120936070939 ], [ -83.383714722581928, 36.846372014098669 ], [ -83.382343101337057, 36.857555861786821 ], [ -83.382167101177686, 36.857686861711571 ], [ -83.360679096287797, 36.866108890171446 ], [ -83.285810083810446, 36.890782000827187 ], [ -83.277340083524734, 36.892847016237717 ], [ -83.27401808400505, 36.893377023816321 ], [ -83.265941486772661, 36.893924946387841 ], [ -83.264992088468532, 36.893366052594487 ], [ -83.203755421292868, 36.773051954150262 ], [ -83.204617825217014, 36.772381853094871 ], [ -83.332780300706091, 36.774620472732778 ] ] ] } },
{ "type": "Feature", "properties": { "OBJECTID": 7134, "ID": "0009040509", "NAME": "SAINT JOSEPH EAST", "ADDRESS": "150 N EAGLE CREEK DRIVE", "CITY": "LEXINGTON", "STATE": "KY", "ZIP": "40509", "ZIP4": "NOT AVAILABLE", "TELEPHONE": "(859) 268-3750", "TYPE": "GENERAL ACUTE CARE", "STATUS": "OPEN", "POPULATION": 217, "COUNTY": "FAYETTE", "COUNTYFIPS": "21067", "COUNTRY": "USA", "LATITUDE": 37.999420095000097, "LONGITUDE": -84.439154994999996, "NAICS_CODE": "622110", "NAICS_DESC": "GENERAL MEDICAL AND SURGICAL HOSPITALS", "SOURCE": "https://chfs.ky.gov/agencies/os/oig/dhc/Documents/Directories/Hospital_Directory.pdf", "SOURCEDATE": "2018-08-11T00:00:00.000Z", "VAL_METHOD": "IMAGERY/OTHER", "VAL_DATE": "2014-02-10T00:00:00.000Z", "WEBSITE": "http://www.sjhlex.org/system-locations-saint-joseph-east-lexington-ky-hospital", "STATE_ID": "100538", "ALT_NAME": "NOT AVAILABLE", "ST_FIPS": "21", "OWNER": "NON-PROFIT", "TTL_STAFF": -999, "BEDS": 217, "TRAUMA": "NOT AVAILABLE", "HELIPAD": "N" }, "geometry": { "type": "Polygon", "coordinates": [ [ [ -84.348584, 37.88834 ], [ -84.4193, 37.904218 ], [ -84.424095, 37.906662 ], [ -84.5073305, 37.951567199999985 ], [ -84.53411, 37.967726 ], [ -84.5548812, 38.01357030000004 ], [ -84.552184, 38.019354 ], [ -84.524252, 38.057558 ], [ -84.518086, 38.062034 ], [ -84.4968612, 38.0756144 ], [ -84.494124, 38.077354 ], [ -84.4701575, 38.08323189999998 ], [ -84.459881, 38.081608 ], [ -84.4510193, 38.078402300000036 ], [ -84.361923, 38.029875 ], [ -84.345178, 37.936249 ], [ -84.348584, 37.88834 ] ] ] } },
{ "type": "Feature", "properties": { "OBJECTID": 7155, "ID": "0012241858", "NAME": "WHITESBURG ARH HOSPITAL", "ADDRESS": "240 HOSPITAL ROAD", "CITY": "WHITESBURG", "STATE": "KY", "ZIP": "41858", "ZIP4": "NOT AVAILABLE", "TELEPHONE": "(606) 633-3500", "TYPE": "GENERAL ACUTE CARE", "STATUS": "OPEN", "POPULATION": 90, "COUNTY": "LETCHER", "COUNTYFIPS": "21133", "COUNTRY": "USA", "LATITUDE": 37.112927221000099, "LONGITUDE": -82.812521793000002, "NAICS_CODE": "622110", "NAICS_DESC": "GENERAL MEDICAL AND SURGICAL HOSPITALS", "SOURCE": "https://chfs.ky.gov/agencies/os/oig/dhc/Documents/Directories/Hospital_Directory.pdf", "SOURCEDATE": "2018-08-11T00:00:00.000Z", "VAL_METHOD": "IMAGERY", "VAL_DATE": "2014-02-10T00:00:00.000Z", "WEBSITE": "http://www.arh.org/whitesburg", "STATE_ID": "100288", "ALT_NAME": "NOT AVAILABLE", "ST_FIPS": "21", "OWNER": "NON-PROFIT", "TTL_STAFF": -999, "BEDS": 90, "TRAUMA": "LEVEL IV", "HELIPAD": "Y" }, "geometry": { "type": "Polygon", "coordinates": [ [ [ -82.839721269052205, 37.076004934559627 ], [ -82.906886952104685, 37.115232510054234 ], [ -82.89437147010851, 37.189174049707248 ], [ -82.889094468378175, 37.18912006578875 ], [ -82.828436484522868, 37.183686280854353 ], [ -82.779489521517945, 37.177011465784382 ], [ -82.753704572323514, 37.170088582041046 ], [ -82.709269021141935, 37.155899867482169 ], [ -82.698037368766535, 37.149587762074177 ], [ -82.698036169790157, 37.149473962836282 ], [ -82.740506061730358, 37.120919932589864 ], [ -82.809945305161136, 37.074980012091785 ], [ -82.839721269052205, 37.076004934559627 ] ] ] } },
{ "type": "Feature", "properties": { "OBJECTID": 7205, "ID": "0002840324", "NAME": "GEORGETOWN COMMUNITY HOSPITAL", "ADDRESS": "1140 LEXINGTON ROAD", "CITY": "GEORGETOWN", "STATE": "KY", "ZIP": "40324", "ZIP4": "NOT AVAILABLE", "TELEPHONE": "(502) 868-1100", "TYPE": "GENERAL ACUTE CARE", "STATUS": "OPEN", "POPULATION": 75, "COUNTY": "SCOTT", "COUNTYFIPS": "21209", "COUNTRY": "USA", "LATITUDE": 38.186518506, "LONGITUDE": -84.560910793999895, "NAICS_CODE": "622110", "NAICS_DESC": "GENERAL MEDICAL AND SURGICAL HOSPITALS", "SOURCE": "https://chfs.ky.gov/agencies/os/oig/dhc/Documents/Directories/Hospital_Directory.pdf", "SOURCEDATE": "2018-08-11T00:00:00.000Z", "VAL_METHOD": "IMAGERY", "VAL_DATE": "2013-12-18T00:00:00.000Z", "WEBSITE": "http://www.georgetowncommunityhospital.com", "STATE_ID": "100380", "ALT_NAME": "NOT AVAILABLE", "ST_FIPS": "21", "OWNER": "PROPRIETARY", "TTL_STAFF": -999, "BEDS": 75, "TRAUMA": "NOT AVAILABLE", "HELIPAD": "N" }, "geometry": { "type": "Polygon", "coordinates": [ [ [ -84.491834600000018, 38.082498599999965 ], [ -84.6369318, 38.128026299999981 ], [ -84.703499, 38.207314 ], [ -84.6557683, 38.2475342 ], [ -84.5622736, 38.2967716 ], [ -84.490082, 38.269282200000013 ], [ -84.464491, 38.220946 ], [ -84.441286, 38.124395 ], [ -84.461207, 38.083044 ], [ -84.491834600000018, 38.082498599999965 ] ] ] } },
{ "type": "Feature", "properties": { "OBJECTID": 7214, "ID": "0004541101", "NAME": "KINGS DAUGHTERS MEDICAL CENTER", "ADDRESS": "2201 LEXINGTON AVE", "CITY": "ASHLAND", "STATE": "KY", "ZIP": "41101", "ZIP4": "NOT AVAILABLE", "TELEPHONE": "(606) 327-4401", "TYPE": "GENERAL ACUTE CARE", "STATUS": "OPEN", "POPULATION": 455, "COUNTY": "BOYD", "COUNTYFIPS": "21019", "COUNTRY": "USA", "LATITUDE": 38.469941405, "LONGITUDE": -82.634516333999997, "NAICS_CODE": "622110", "NAICS_DESC": "GENERAL MEDICAL AND SURGICAL HOSPITALS", "SOURCE": "https://chfs.ky.gov/agencies/os/oig/dhc/Documents/Directories/Hospital_Directory.pdf", "SOURCEDATE": "2018-08-11T00:00:00.000Z", "VAL_METHOD": "IMAGERY", "VAL_DATE": "2014-02-10T00:00:00.000Z", "WEBSITE": "http://www.kdmc.com", "STATE_ID": "100958", "ALT_NAME": "NOT AVAILABLE", "ST_FIPS": "21", "OWNER": "NON-PROFIT", "TTL_STAFF": -999, "BEDS": 455, "TRAUMA": "NOT AVAILABLE", "HELIPAD": "Y" }, "geometry": { "type": "Polygon", "coordinates": [ [ [ -82.601038, 38.395236 ], [ -82.714873, 38.408346 ], [ -82.718872, 38.432757 ], [ -82.718933, 38.434729 ], [ -82.720015, 38.513928 ], [ -82.720174, 38.5598248 ], [ -82.719014, 38.560943 ], [ -82.715463, 38.561966 ], [ -82.647626, 38.553136 ], [ -82.639013, 38.549202 ], [ -82.583478, 38.50328 ], [ -82.5691585, 38.465654899999954 ], [ -82.569126, 38.463551 ], [ -82.5719302, 38.422189600000038 ], [ -82.601038, 38.395236 ] ] ] } },
{ "type": "Feature", "properties": { "OBJECTID": 7215, "ID": "0000540361", "NAME": "BOURBON COMMUNITY HOSPITAL", "ADDRESS": "9 LINVILLE DRIVE", "CITY": "PARIS", "STATE": "KY", "ZIP": "40361", "ZIP4": "NOT AVAILABLE", "TELEPHONE": "(859) 987-1000", "TYPE": "GENERAL ACUTE CARE", "STATUS": "OPEN", "POPULATION": 58, "COUNTY": "BOURBON", "COUNTYFIPS": "21017", "COUNTRY": "USA", "LATITUDE": 38.221193905000099, "LONGITUDE": -84.238352411999998, "NAICS_CODE": "622110", "NAICS_DESC": "GENERAL MEDICAL AND SURGICAL HOSPITALS", "SOURCE": "https://chfs.ky.gov/agencies/os/oig/dhc/Documents/Directories/Hospital_Directory.pdf", "SOURCEDATE": "2018-08-11T00:00:00.000Z", "VAL_METHOD": "IMAGERY", "VAL_DATE": "2014-03-12T00:00:00.000Z", "WEBSITE": "http://www.bourbonhospital.com", "STATE_ID": "100023", "ALT_NAME": "NOT AVAILABLE", "ST_FIPS": "21", "OWNER": "PROPRIETARY", "TTL_STAFF": -999, "BEDS": 58, "TRAUMA": "NOT AVAILABLE", "HELIPAD": "Y" }, "geometry": { "type": "Polygon", "coordinates": [ [ [ -84.337673, 38.15356 ], [ -84.337942, 38.153765 ], [ -84.357803, 38.221763 ], [ -84.306625, 38.269064 ], [ -84.299441, 38.274167 ], [ -84.238062, 38.304108 ], [ -84.146232800000021, 38.3116913 ], [ -84.127758, 38.21252 ], [ -84.1572201, 38.170789500000026 ], [ -84.216974, 38.147052 ], [ -84.337673, 38.15356 ] ] ] } },
{ "type": "Feature", "properties": { "OBJECTID": 7223, "ID": "0006241472", "NAME": "MORGAN COUNTY ARH HOSPITAL", "ADDRESS": "476 LIBERTY ROAD", "CITY": "WEST LIBERTY", "STATE": "KY", "ZIP": "41472", "ZIP4": "NOT AVAILABLE", "TELEPHONE": "(606) 743-3186", "TYPE": "CRITICAL ACCESS", "STATUS": "OPEN", "POPULATION": 25, "COUNTY": "MORGAN", "COUNTYFIPS": "21175", "COUNTRY": "USA", "LATITUDE": 37.920033137000097, "LONGITUDE": -83.265575509000001, "NAICS_CODE": "622110", "NAICS_DESC": "GENERAL MEDICAL AND SURGICAL HOSPITALS", "SOURCE": "https://chfs.ky.gov/agencies/os/oig/dhc/Documents/Directories/Hospital_Directory.pdf", "SOURCEDATE": "2018-08-11T00:00:00.000Z", "VAL_METHOD": "IMAGERY", "VAL_DATE": "2014-02-10T00:00:00.000Z", "WEBSITE": "http://www.arh.org", "STATE_ID": "600058", "ALT_NAME": "NOT AVAILABLE", "ST_FIPS": "21", "OWNER": "NON-PROFIT", "TTL_STAFF": -999, "BEDS": 25, "TRAUMA": "LEVEL IV", "HELIPAD": "Y" }, "geometry": { "type": "Polygon", "coordinates": [ [ [ -83.321404, 37.826308 ], [ -83.33809, 37.830632 ], [ -83.339088, 37.831516 ], [ -83.349663, 37.86662 ], [ -83.321765, 37.979196 ], [ -83.32112, 37.979685 ], [ -83.274338, 38.009366 ], [ -83.1998806, 37.965606899999983 ], [ -83.198215, 37.898034 ], [ -83.198351, 37.896687 ], [ -83.247171, 37.854409 ], [ -83.321404, 37.826308 ] ] ] } },
{ "type": "Feature", "properties": { "OBJECTID": 5247, "ID": "0000840504", "NAME": "CARDINAL HILL REHABILITATION HOSPITAL", "ADDRESS": "2050 VERSAILLES ROAD", "CITY": "LEXINGTON", "STATE": "KY", "ZIP": "40504", "ZIP4": "NOT AVAILABLE", "TELEPHONE": "(859) 254-5701", "TYPE": "REHABILITATION", "STATUS": "OPEN", "POPULATION": 158, "COUNTY": "FAYETTE", "COUNTYFIPS": "21067", "COUNTRY": "USA", "LATITUDE": 38.046972425, "LONGITUDE": -84.541388936000004, "NAICS_CODE": "622110", "NAICS_DESC": "GENERAL MEDICAL AND SURGICAL HOSPITALS", "SOURCE": "https://chfs.ky.gov/agencies/os/oig/dhc/Documents/Directories/Hospital_Directory.pdf", "SOURCEDATE": "2018-08-11T00:00:00.000Z", "VAL_METHOD": "IMAGERY", "VAL_DATE": "2014-02-10T00:00:00.000Z", "WEBSITE": "http://www.cardinalhill.org", "STATE_ID": "100100", "ALT_NAME": "NOT AVAILABLE", "ST_FIPS": "21", "OWNER": "NON-PROFIT", "TTL_STAFF": -999, "BEDS": 158, "TRAUMA": "NOT AVAILABLE", "HELIPAD": "N" }, "geometry": { "type": "Polygon", "coordinates": [ [ [ -84.534566, 37.966665 ], [ -84.5730614, 37.97279060000001 ], [ -84.5735551, 37.973031 ], [ -84.604675, 37.989523 ], [ -84.651745, 38.032873 ], [ -84.639254, 38.063766 ], [ -84.601388, 38.09076 ], [ -84.5733108, 38.103714700000012 ], [ -84.520567, 38.114839 ], [ -84.461106, 38.099046 ], [ -84.441215, 38.084832 ], [ -84.4409049, 38.084519799999974 ], [ -84.4378682, 38.0415695 ], [ -84.443691, 38.027586 ], [ -84.460533, 37.992992 ], [ -84.460622, 37.992892 ], [ -84.490437, 37.980882 ], [ -84.534566, 37.966665 ] ] ] } },
{ "type": "Feature", "properties": { "OBJECTID": 5280, "ID": "0006142167", "NAME": "MONROE COUNTY MEDICAL CENTER", "ADDRESS": "529 CAPP HARLAN RD", "CITY": "TOMPKINSVILLE", "STATE": "KY", "ZIP": "42167", "ZIP4": "NOT AVAILABLE", "TELEPHONE": "(270) 487-9231", "TYPE": "GENERAL ACUTE CARE", "STATUS": "OPEN", "POPULATION": 49, "COUNTY": "MONROE", "COUNTYFIPS": "21171", "COUNTRY": "USA", "LATITUDE": 36.698882495000099, "LONGITUDE": -85.676466258999895, "NAICS_CODE": "622110", "NAICS_DESC": "GENERAL MEDICAL AND SURGICAL HOSPITALS", "SOURCE": "https://chfs.ky.gov/agencies/os/oig/dhc/Documents/Directories/Hospital_Directory.pdf", "SOURCEDATE": "2018-08-11T00:00:00.000Z", "VAL_METHOD": "IMAGERY/OTHER", "VAL_DATE": "2014-02-10T00:00:00.000Z", "WEBSITE": "http://www.mcmccares.com", "STATE_ID": "100338", "ALT_NAME": "NOT AVAILABLE", "ST_FIPS": "21", "OWNER": "NON-PROFIT", "TTL_STAFF": -999, "BEDS": 49, "TRAUMA": "NOT AVAILABLE", "HELIPAD": "Y" }, "geometry": { "type": "Polygon", "coordinates": [ [ [ -85.746155, 36.651552 ], [ -85.763259, 36.700352 ], [ -85.755676, 36.739012 ], [ -85.746127, 36.746104 ], [ -85.723464, 36.758869 ], [ -85.6851736, 36.771836 ], [ -85.650144, 36.753416 ], [ -85.636403, 36.743977 ], [ -85.603788, 36.712195 ], [ -85.602658, 36.705382 ], [ -85.610491, 36.657126 ], [ -85.620177, 36.641043 ], [ -85.746155, 36.651552 ] ] ] } },
{ "type": "Feature", "properties": { "OBJECTID": 5281, "ID": "0009340353", "NAME": "SAINT JOSEPH MOUNT STERLING", "ADDRESS": "225 FALCON DRIVE", "CITY": "MT. STERLING", "STATE": "KY", "ZIP": "40353", "ZIP4": "NOT AVAILABLE", "TELEPHONE": "(859) 497-5018", "TYPE": "GENERAL ACUTE CARE", "STATUS": "OPEN", "POPULATION": 42, "COUNTY": "MONTGOMERY", "COUNTYFIPS": "21173", "COUNTRY": "USA", "LATITUDE": 38.077121254000097, "LONGITUDE": -83.945255795999998, "NAICS_CODE": "622110", "NAICS_DESC": "GENERAL MEDICAL AND SURGICAL HOSPITALS", "SOURCE": "https://chfs.ky.gov/agencies/os/oig/dhc/Documents/Directories/Hospital_Directory.pdf", "SOURCEDATE": "2018-08-11T00:00:00.000Z", "VAL_METHOD": "IMAGERY", "VAL_DATE": "2014-02-10T00:00:00.000Z", "WEBSITE": "http://www.sjhlex.org/system-locations-saint-joseph-mount-sterling-mount-sterling-ky", "STATE_ID": "100339", "ALT_NAME": "NOT AVAILABLE", "ST_FIPS": "21", "OWNER": "NON-PROFIT", "TTL_STAFF": -999, "BEDS": 42, "TRAUMA": "NOT AVAILABLE", "HELIPAD": "Y" }, "geometry": { "type": "Polygon", "coordinates": [ [ [ -83.940537, 37.984278 ], [ -83.974331, 37.991295 ], [ -84.02716, 38.025445 ], [ -84.02827, 38.03294 ], [ -84.038469, 38.113402 ], [ -83.9926, 38.150204 ], [ -83.978538, 38.156028 ], [ -83.9566575, 38.162795799999977 ], [ -83.87671454465945, 38.137580061057911 ], [ -83.871875243577932, 38.12810965054377 ], [ -83.856882244260419, 38.095517618263941 ], [ -83.853755248281345, 38.065921588710211 ], [ -83.854413248540283, 38.063050585369538 ], [ -83.879293641348198, 37.99205708992902 ], [ -83.879945140878775, 37.990694388305279 ], [ -83.883167239082582, 37.989958484774014 ], [ -83.940537, 37.984278 ] ] ] } },
{ "type": "Feature", "properties": { "OBJECTID": 5299, "ID": "0004742502", "NAME": "LAKE CUMBERLAND REGIONAL HOSPITAL", "ADDRESS": "305 LANGDON STREET", "CITY": "SOMERSET", "STATE": "KY", "ZIP": "42502", "ZIP4": "NOT AVAILABLE", "TELEPHONE": "(606) 679-7441", "TYPE": "GENERAL ACUTE CARE", "STATUS": "OPEN", "POPULATION": 295, "COUNTY": "PULASKI", "COUNTYFIPS": "21199", "COUNTRY": "USA", "LATITUDE": 37.08600628, "LONGITUDE": -84.620177051, "NAICS_CODE": "622110", "NAICS_DESC": "GENERAL MEDICAL AND SURGICAL HOSPITALS", "SOURCE": "https://chfs.ky.gov/agencies/os/oig/dhc/Documents/Directories/Hospital_Directory.pdf", "SOURCEDATE": "2018-08-11T00:00:00.000Z", "VAL_METHOD": "IMAGERY", "VAL_DATE": "2013-12-19T00:00:00.000Z", "WEBSITE": "http://www.lakecumberlandhospital.com", "STATE_ID": "100959", "ALT_NAME": "NOT AVAILABLE", "ST_FIPS": "21", "OWNER": "PROPRIETARY", "TTL_STAFF": -999, "BEDS": 295, "TRAUMA": "NOT AVAILABLE", "HELIPAD": "Y" }, "geometry": { "type": "Polygon", "coordinates": [ [ [ -84.6109919, 36.997990099999974 ], [ -84.620321, 36.999577 ], [ -84.6598581, 37.014900499999982 ], [ -84.693313, 37.047625 ], [ -84.692024, 37.108441 ], [ -84.6701756, 37.138790300000011 ], [ -84.641271, 37.177736 ], [ -84.637793, 37.181682 ], [ -84.6230117, 37.193725 ], [ -84.6227867, 37.1937786 ], [ -84.522951, 37.150497 ], [ -84.522841, 37.150258 ], [ -84.523349, 37.080652 ], [ -84.524527, 37.079272 ], [ -84.6085991, 36.997875499999971 ], [ -84.6109919, 36.997990099999974 ] ] ] } },
{ "type": "Feature", "properties": { "OBJECTID": 5575, "ID": "0008340509", "NAME": "THE RIDGE BEHAVIORAL HEALTH SYSTEM", "ADDRESS": "3050 RIO DOSA DRIVE", "CITY": "LEXINGTON", "STATE": "KY", "ZIP": "40509", "ZIP4": "NOT AVAILABLE", "TELEPHONE": "(859) 269-2325", "TYPE": "PSYCHIATRIC", "STATUS": "OPEN", "POPULATION": 110, "COUNTY": "FAYETTE", "COUNTYFIPS": "21067", "COUNTRY": "USA", "LATITUDE": 38.004793651999996, "LONGITUDE": -84.442405520999998, "NAICS_CODE": "622110", "NAICS_DESC": "GENERAL MEDICAL AND SURGICAL HOSPITALS", "SOURCE": "https://chfs.ky.gov/agencies/os/oig/dhc/Documents/Directories/Hospital_Directory.pdf", "SOURCEDATE": "2018-08-11T00:00:00.000Z", "VAL_METHOD": "IMAGERY", "VAL_DATE": "2014-02-10T00:00:00.000Z", "WEBSITE": "http://www.ridgebhs.com", "STATE_ID": "100534", "ALT_NAME": "NOT AVAILABLE", "ST_FIPS": "21", "OWNER": "PROPRIETARY", "TTL_STAFF": -999, "BEDS": 110, "TRAUMA": "NOT AVAILABLE", "HELIPAD": "N" }, "geometry": { "type": "Polygon", "coordinates": [ [ [ -84.420943, 37.911343 ], [ -84.5073305, 37.951567199999985 ], [ -84.534566, 37.966665 ], [ -84.5432896, 37.9806164 ], [ -84.5592124, 38.010824300000017 ], [ -84.5571275, 38.015691300000022 ], [ -84.532104, 38.058369 ], [ -84.507159, 38.077635 ], [ -84.48039, 38.097295 ], [ -84.441215, 38.084832 ], [ -84.356055, 38.033716 ], [ -84.36159, 37.948754 ], [ -84.365715, 37.91821 ], [ -84.420943, 37.911343 ] ] ] } },
{ "type": "Feature", "properties": { "OBJECTID": 5576, "ID": "0011540508", "NAME": "UK HEALTHCARE GOOD SAMARITAN HOSPITAL", "ADDRESS": "310 SOUTH LIMESTONE STREET", "CITY": "LEXINGTON", "STATE": "KY", "ZIP": "40508", "ZIP4": "NOT AVAILABLE", "TELEPHONE": "(859) 257-6467", "TYPE": "GENERAL ACUTE CARE", "STATUS": "OPEN", "POPULATION": 221, "COUNTY": "FAYETTE", "COUNTYFIPS": "21067", "COUNTRY": "USA", "LATITUDE": 38.042311407000099, "LONGITUDE": -84.501038955, "NAICS_CODE": "622110", "NAICS_DESC": "GENERAL MEDICAL AND SURGICAL HOSPITALS", "SOURCE": "https://chfs.ky.gov/agencies/os/oig/dhc/Documents/Directories/Hospital_Directory.pdf", "SOURCEDATE": "2018-08-11T00:00:00.000Z", "VAL_METHOD": "IMAGERY", "VAL_DATE": "2013-12-17T00:00:00.000Z", "WEBSITE": "http://www.ukhealthcare.uky.edu/samaritan", "STATE_ID": "100104", "ALT_NAME": "NOT AVAILABLE", "ST_FIPS": "21", "OWNER": "GOVERNMENT - STATE", "TTL_STAFF": -999, "BEDS": 221, "TRAUMA": "NOT AVAILABLE", "HELIPAD": "N" }, "geometry": { "type": "Polygon", "coordinates": [ [ [ -84.5240351, 37.959983400000034 ], [ -84.528345, 37.960697 ], [ -84.535632, 37.963214 ], [ -84.570397, 37.97803 ], [ -84.5952599, 37.988697199999933 ], [ -84.5994039, 37.991740900000011 ], [ -84.600947100000013, 37.994170100000012 ], [ -84.623626, 38.042935 ], [ -84.590153, 38.086705 ], [ -84.531525, 38.118112 ], [ -84.487052, 38.132054400000023 ], [ -84.441286, 38.124395 ], [ -84.410672, 38.10524 ], [ -84.4103999, 38.105020699999962 ], [ -84.4100446, 38.104718099999971 ], [ -84.377067, 38.033752 ], [ -84.4086342, 37.9738283 ], [ -84.4087287, 37.973704900000065 ], [ -84.421454, 37.968484 ], [ -84.49056, 37.957846 ], [ -84.5240351, 37.959983400000034 ] ] ] } },
{ "type": "Feature", "properties": { "OBJECTID": 3224, "ID": "0010241097", "NAME": "ST. ELIZABETH GRANT", "ADDRESS": "238 BARNES RD.", "CITY": "WILLIAMSTOWN", "STATE": "KY", "ZIP": "41097", "ZIP4": "NOT AVAILABLE", "TELEPHONE": "(859) 824-8240", "TYPE": "CRITICAL ACCESS", "STATUS": "OPEN", "POPULATION": 25, "COUNTY": "GRANT", "COUNTYFIPS": "21081", "COUNTRY": "USA", "LATITUDE": 38.647203648000101, "LONGITUDE": -84.578168434000006, "NAICS_CODE": "622110", "NAICS_DESC": "GENERAL MEDICAL AND SURGICAL HOSPITALS", "SOURCE": "https://chfs.ky.gov/agencies/os/oig/dhc/Documents/Directories/Hospital_Directory.pdf", "SOURCEDATE": "2018-08-11T00:00:00.000Z", "VAL_METHOD": "IMAGERY", "VAL_DATE": "2014-02-10T00:00:00.000Z", "WEBSITE": "http://www.stelizabeth.com", "STATE_ID": "600062", "ALT_NAME": "NOT AVAILABLE", "ST_FIPS": "21", "OWNER": "NON-PROFIT", "TTL_STAFF": -999, "BEDS": 25, "TRAUMA": "NOT AVAILABLE", "HELIPAD": "Y" }, "geometry": { "type": "Polygon", "coordinates": [ [ [ -84.586061, 38.576236 ], [ -84.631882, 38.620047 ], [ -84.6364, 38.627205 ], [ -84.664473, 38.680931799999954 ], [ -84.667243, 38.687837 ], [ -84.607549, 38.788471 ], [ -84.607244, 38.788214 ], [ -84.6048944, 38.786102699999986 ], [ -84.603194, 38.78456 ], [ -84.524324, 38.697172 ], [ -84.496438, 38.647649 ], [ -84.498566, 38.643836 ], [ -84.544208, 38.58655 ], [ -84.571771, 38.578575 ], [ -84.586061, 38.576236 ] ] ] } },
{ "type": "Feature", "properties": { "OBJECTID": 3340, "ID": "0002341041", "NAME": "FLEMING COUNTY HOSPITAL", "ADDRESS": "55 FOUNDATION DRIVE", "CITY": "FLEMINGSBURG", "STATE": "KY", "ZIP": "41041", "ZIP4": "NOT AVAILABLE", "TELEPHONE": "(606) 849-2351", "TYPE": "GENERAL ACUTE CARE", "STATUS": "OPEN", "POPULATION": 52, "COUNTY": "FLEMING", "COUNTYFIPS": "21069", "COUNTRY": "USA", "LATITUDE": 38.422151045000099, "LONGITUDE": -83.751545308999894, "NAICS_CODE": "622110", "NAICS_DESC": "GENERAL MEDICAL AND SURGICAL HOSPITALS", "SOURCE": "https://chfs.ky.gov/agencies/os/oig/dhc/Documents/Directories/Hospital_Directory.pdf", "SOURCEDATE": "2018-08-11T00:00:00.000Z", "VAL_METHOD": "IMAGERY", "VAL_DATE": "2014-02-10T00:00:00.000Z", "WEBSITE": "http://www.flemingcountyhospital.org", "STATE_ID": "100123", "ALT_NAME": "NOT AVAILABLE", "ST_FIPS": "21", "OWNER": "NON-PROFIT", "TTL_STAFF": -999, "BEDS": 52, "TRAUMA": "NOT AVAILABLE", "HELIPAD": "Y" }, "geometry": { "type": "Polygon", "coordinates": [ [ [ -83.7803153019657, 38.317653280815634 ], [ -83.86436, 38.426483 ], [ -83.863189, 38.427934 ], [ -83.75612815918366, 38.531468572715639 ], [ -83.707886197510263, 38.49857651888469 ], [ -83.672434, 38.470123 ], [ -83.660959, 38.440711 ], [ -83.652342, 38.409695 ], [ -83.650052, 38.382941 ], [ -83.67471, 38.362023 ], [ -83.7803153019657, 38.317653280815634 ] ] ] } },
{ "type": "Feature", "properties": { "OBJECTID": 3341, "ID": "0001240503", "NAME": "BAPTIST HEALTH LEXINGTON", "ADDRESS": "1740 NICHOLASVILLE ROAD", "CITY": "LEXINGTON", "STATE": "KY", "ZIP": "40503", "ZIP4": "NOT AVAILABLE", "TELEPHONE": "(859) 260-6100", "TYPE": "GENERAL ACUTE CARE", "STATUS": "OPEN", "POPULATION": 344, "COUNTY": "FAYETTE", "COUNTYFIPS": "21067", "COUNTRY": "USA", "LATITUDE": 38.018805193, "LONGITUDE": -84.511857714000001, "NAICS_CODE": "622110", "NAICS_DESC": "GENERAL MEDICAL AND SURGICAL HOSPITALS", "SOURCE": "https://chfs.ky.gov/agencies/os/oig/dhc/Documents/Directories/Hospital_Directory.pdf", "SOURCEDATE": "2018-08-11T00:00:00.000Z", "VAL_METHOD": "IMAGERY", "VAL_DATE": "2014-02-10T00:00:00.000Z", "WEBSITE": "https://www.baptisthealth.com/lexington/pages/default.aspx", "STATE_ID": "100101", "ALT_NAME": "CENTRAL BAPTIST HOSPITAL", "ST_FIPS": "21", "OWNER": "NON-PROFIT", "TTL_STAFF": -999, "BEDS": 391, "TRAUMA": "NOT AVAILABLE", "HELIPAD": "Y" }, "geometry": { "type": "Polygon", "coordinates": [ [ [ -84.4834194, 37.9426989 ], [ -84.57518, 37.968153 ], [ -84.5913105, 37.97832 ], [ -84.604675, 37.989523 ], [ -84.615391, 38.042724 ], [ -84.6142219, 38.045191599999953 ], [ -84.515048, 38.104509899999982 ], [ -84.4842631, 38.104546100000015 ], [ -84.4809564, 38.1041951 ], [ -84.441215, 38.084832 ], [ -84.4409049, 38.084519799999974 ], [ -84.412219, 38.040272 ], [ -84.419313499999987, 37.9801669 ], [ -84.4195769, 37.979908600000016 ], [ -84.452516, 37.957926 ], [ -84.4834194, 37.9426989 ] ] ] } },
{ "type": "Feature", "properties": { "OBJECTID": 3345, "ID": "0001940508", "NAME": "EASTERN STATE HOSPITAL", "ADDRESS": "1350 BULL LEA RD", "CITY": "LEXINGTON", "STATE": "KY", "ZIP": "40511", "ZIP4": "NOT AVAILABLE", "TELEPHONE": "(859) 246-8000", "TYPE": "PSYCHIATRIC", "STATUS": "OPEN", "POPULATION": 195, "COUNTY": "FAYETTE", "COUNTYFIPS": "21067", "COUNTRY": "USA", "LATITUDE": 38.082924061, "LONGITUDE": -84.4979543379999, "NAICS_CODE": "622110", "NAICS_DESC": "GENERAL MEDICAL AND SURGICAL HOSPITALS", "SOURCE": "https://chfs.ky.gov/agencies/os/oig/dhc/Documents/Directories/Hospital_Directory.pdf", "SOURCEDATE": "2018-08-11T00:00:00.000Z", "VAL_METHOD": "IMAGERY", "VAL_DATE": "2017-12-13T00:00:00.000Z", "WEBSITE": "http://ukhealthcare.uky.edu/ESH/", "STATE_ID": "100102", "ALT_NAME": "NOT AVAILABLE", "ST_FIPS": "21", "OWNER": "GOVERNMENT - STATE", "TTL_STAFF": -999, "BEDS": 195, "TRAUMA": "NOT AVAILABLE", "HELIPAD": "N" }, "geometry": { "type": "Polygon", "coordinates": [ [ [ -84.5185879, 38.005750100000014 ], [ -84.5545931, 38.013267600000042 ], [ -84.595433, 38.0357 ], [ -84.598867, 38.038408 ], [ -84.6029297, 38.043103700000032 ], [ -84.603815199999985, 38.044718800000012 ], [ -84.6139695, 38.154741300000026 ], [ -84.6130236, 38.1565257 ], [ -84.6116157, 38.158981799999978 ], [ -84.6112736, 38.159341200000036 ], [ -84.5564822, 38.172161600000059 ], [ -84.5062278, 38.1563253 ], [ -84.433784, 38.128205800000025 ], [ -84.4100446, 38.104718099999971 ], [ -84.404973, 38.082534 ], [ -84.396981, 38.03604 ], [ -84.400138, 38.0226558 ], [ -84.402142, 38.019118 ], [ -84.407534, 38.013699 ], [ -84.421899, 38.009038 ], [ -84.5185879, 38.005750100000014 ] ] ] } },
{ "type": "Feature", "properties": { "OBJECTID": 3350, "ID": "0003241031", "NAME": "HARRISON MEMORIAL HOSPITAL", "ADDRESS": "1210 KENTUCKY HIGHWAY 36 EAST", "CITY": "CYNTHIANA", "STATE": "KY", "ZIP": "41031", "ZIP4": "NOT AVAILABLE", "TELEPHONE": "(859) 234-2300", "TYPE": "GENERAL ACUTE CARE", "STATUS": "OPEN", "POPULATION": 61, "COUNTY": "HARRISON", "COUNTYFIPS": "21097", "COUNTRY": "USA", "LATITUDE": 38.383968729000102, "LONGITUDE": -84.277686454999994, "NAICS_CODE": "622110", "NAICS_DESC": "GENERAL MEDICAL AND SURGICAL HOSPITALS", "SOURCE": "https://chfs.ky.gov/agencies/os/oig/dhc/Documents/Directories/Hospital_Directory.pdf", "SOURCEDATE": "2018-08-11T00:00:00.000Z", "VAL_METHOD": "IMAGERY", "VAL_DATE": "2014-02-10T00:00:00.000Z", "WEBSITE": "http://www.harrisonmemhosp.com", "STATE_ID": "100167", "ALT_NAME": "NOT AVAILABLE", "ST_FIPS": "21", "OWNER": "NON-PROFIT", "TTL_STAFF": -999, "BEDS": 61, "TRAUMA": "LEVEL IV", "HELIPAD": "Y" }, "geometry": { "type": "Polygon", "coordinates": [ [ [ -84.367087, 38.322795 ], [ -84.384423, 38.403765 ], [ -84.354094, 38.440244 ], [ -84.289164200000016, 38.476157600000043 ], [ -84.286058, 38.475531 ], [ -84.243446, 38.4472655 ], [ -84.2002369, 38.4059169 ], [ -84.175977, 38.376921 ], [ -84.2257106, 38.3275678 ], [ -84.234379, 38.321995 ], [ -84.238355, 38.319547 ], [ -84.367087, 38.322795 ] ] ] } },
{ "type": "Feature", "properties": { "OBJECTID": 3368, "ID": "0005441749", "NAME": "MARY BRECKINRIDGE ARH HOSPITAL", "ADDRESS": "130 KATE IRELAND DRIVE", "CITY": "HYDEN", "STATE": "KY", "ZIP": "41749", "ZIP4": "NOT AVAILABLE", "TELEPHONE": "(606) 672-2901", "TYPE": "CRITICAL ACCESS", "STATUS": "OPEN", "POPULATION": 25, "COUNTY": "LESLIE", "COUNTYFIPS": "21131", "COUNTRY": "USA", "LATITUDE": 37.164105979000098, "LONGITUDE": -83.378583855000002, "NAICS_CODE": "622110", "NAICS_DESC": "GENERAL MEDICAL AND SURGICAL HOSPITALS", "SOURCE": "https://chfs.ky.gov/agencies/os/oig/dhc/Documents/Directories/Hospital_Directory.pdf", "SOURCEDATE": "2018-08-11T00:00:00.000Z", "VAL_METHOD": "IMAGERY", "VAL_DATE": "2014-02-10T00:00:00.000Z", "WEBSITE": "http://www.frontiernursing.org", "STATE_ID": "600067", "ALT_NAME": "NOT AVAILABLE", "ST_FIPS": "21", "OWNER": "NON-PROFIT", "TTL_STAFF": -999, "BEDS": 25, "TRAUMA": "NOT AVAILABLE", "HELIPAD": "N" }, "geometry": { "type": "Polygon", "coordinates": [ [ [ -83.393759438230802, 37.101140875256213 ], [ -83.447043373105842, 37.131706673497831 ], [ -83.468415382241901, 37.167862641192514 ], [ -83.454274196746198, 37.189066528825627 ], [ -83.447778170038063, 37.194373532745509 ], [ -83.425044116120461, 37.200073574719028 ], [ -83.39826305466508, 37.205407626925997 ], [ -83.38004205415703, 37.197987687604559 ], [ -83.307058081449341, 37.167298936024686 ], [ -83.305387086475847, 37.165736943815652 ], [ -83.303439092950498, 37.163794953193815 ], [ -83.315234234428658, 37.135371991657649 ], [ -83.385476424800927, 37.103251891252768 ], [ -83.392420436819563, 37.101285878292295 ], [ -83.393759438230802, 37.101140875256213 ] ] ] } },
{ "type": "Feature", "properties": { "OBJECTID": 3410, "ID": "0011842633", "NAME": "WAYNE COUNTY HOSPITAL", "ADDRESS": "166 HOSPITAL STREET", "CITY": "MONTICELLO", "STATE": "KY", "ZIP": "42633", "ZIP4": "NOT AVAILABLE", "TELEPHONE": "(606) 348-9343", "TYPE": "GENERAL ACUTE CARE", "STATUS": "OPEN", "POPULATION": 25, "COUNTY": "WAYNE", "COUNTYFIPS": "21231", "COUNTRY": "USA", "LATITUDE": 36.81986477, "LONGITUDE": -84.866892605000004, "NAICS_CODE": "622110", "NAICS_DESC": "GENERAL MEDICAL AND SURGICAL HOSPITALS", "SOURCE": "https://chfs.ky.gov/agencies/os/oig/dhc/Documents/Directories/Hospital_Directory.pdf", "SOURCEDATE": "2018-08-11T00:00:00.000Z", "VAL_METHOD": "IMAGERY", "VAL_DATE": "2014-02-10T00:00:00.000Z", "WEBSITE": "http://www.waynehospital.org", "STATE_ID": "600074", "ALT_NAME": "NOT AVAILABLE", "ST_FIPS": "21", "OWNER": "GOVERNMENT - STATE", "TTL_STAFF": -999, "BEDS": 25, "TRAUMA": "NOT AVAILABLE", "HELIPAD": "Y" }, "geometry": { "type": "Polygon", "coordinates": [ [ [ -84.86285, 36.771015 ], [ -84.939414, 36.793868 ], [ -84.940117, 36.804513 ], [ -84.924165, 36.872497 ], [ -84.894811, 36.891269 ], [ -84.890419, 36.892238 ], [ -84.80848, 36.894261 ], [ -84.798795, 36.890611 ], [ -84.798333, 36.890242 ], [ -84.795275, 36.886203 ], [ -84.793775, 36.883346 ], [ -84.784185, 36.812487 ], [ -84.805942, 36.795371 ], [ -84.862076, 36.771306 ], [ -84.86285, 36.771015 ] ] ] } },
{ "type": "Feature", "properties": { "OBJECTID": 3411, "ID": "0000340701", "NAME": "BAPTIST REGIONAL MEDICAL CENTER", "ADDRESS": "1 TRILLIUM WAY", "CITY": "CORBIN", "STATE": "KY", "ZIP": "40701", "ZIP4": "NOT AVAILABLE", "TELEPHONE": "(606) 528-1212", "TYPE": "GENERAL ACUTE CARE", "STATUS": "OPEN", "POPULATION": 273, "COUNTY": "WHITLEY", "COUNTYFIPS": "21235", "COUNTRY": "USA", "LATITUDE": 36.922822198000098, "LONGITUDE": -84.119729913, "NAICS_CODE": "622110", "NAICS_DESC": "GENERAL MEDICAL AND SURGICAL HOSPITALS", "SOURCE": "https://chfs.ky.gov/agencies/os/oig/dhc/Documents/Directories/Hospital_Directory.pdf", "SOURCEDATE": "2018-08-11T00:00:00.000Z", "VAL_METHOD": "IMAGERY", "VAL_DATE": "2014-02-10T00:00:00.000Z", "WEBSITE": "http://www.baptistregional.com/", "STATE_ID": "100417", "ALT_NAME": "NOT AVAILABLE", "ST_FIPS": "21", "OWNER": "NON-PROFIT", "TTL_STAFF": -999, "BEDS": 273, "TRAUMA": "NOT AVAILABLE", "HELIPAD": "Y" }, "geometry": { "type": "Polygon", "coordinates": [ [ [ -84.072933072062057, 36.86566047751964 ], [ -84.199681427536234, 36.880999348777742 ], [ -84.200595429793694, 36.884558341029148 ], [ -84.18626178324638, 36.924604275998206 ], [ -84.130921006261531, 36.969681849612641 ], [ -84.127199295002242, 36.968891255047211 ], [ -84.10356012467372, 36.961505293115998 ], [ -84.094503799245317, 36.955273513031173 ], [ -84.056607002244988, 36.916030412913067 ], [ -84.043928979528161, 36.887070468040619 ], [ -84.048893996450133, 36.881675472015132 ], [ -84.072933072062057, 36.86566047751964 ] ] ] } },
{ "type": "Feature", "properties": { "OBJECTID": 3412, "ID": "0004640906", "NAME": "BARBOURVILLE ARH HOSPITAL", "ADDRESS": "80 HOSPITAL DRIVE", "CITY": "BARBOURVILLE", "STATE": "KY", "ZIP": "40906", "ZIP4": "NOT AVAILABLE", "TELEPHONE": "(606) 546-4175", "TYPE": "CRITICAL ACCESS", "STATUS": "OPEN", "POPULATION": 25, "COUNTY": "KNOX", "COUNTYFIPS": "21121", "COUNTRY": "USA", "LATITUDE": 36.851051018000099, "LONGITUDE": -83.870165646000004, "NAICS_CODE": "622110", "NAICS_DESC": "GENERAL MEDICAL AND SURGICAL HOSPITALS", "SOURCE": "https://chfs.ky.gov/agencies/os/oig/dhc/Documents/Directories/Hospital_Directory.pdf", "SOURCEDATE": "2018-08-11T00:00:00.000Z", "VAL_METHOD": "IMAGERY", "VAL_DATE": "2014-02-10T00:00:00.000Z", "WEBSITE": "http://www.arh.org/locations/barbourville.aspx", "STATE_ID": "600080", "ALT_NAME": "KNOX COUNTY HOSPITAL", "ST_FIPS": "21", "OWNER": "NON-PROFIT", "TTL_STAFF": -999, "BEDS": 25, "TRAUMA": "NOT AVAILABLE", "HELIPAD": "Y" }, "geometry": { "type": "Polygon", "coordinates": [ [ [ -83.842596437208343, 36.800085871798494 ], [ -83.925236680841792, 36.815635727202043 ], [ -83.934883687757534, 36.897547630606518 ], [ -83.936875683073382, 36.933161590903687 ], [ -83.936643682541686, 36.933202591409803 ], [ -83.919466643717456, 36.934784630493816 ], [ -83.892031582415797, 36.932934696781025 ], [ -83.849626485985596, 36.927479799315755 ], [ -83.81843640951854, 36.913530875966728 ], [ -83.784314293576529, 36.852346958480695 ], [ -83.7784362707376, 36.840966970271388 ], [ -83.780009271159642, 36.834503967887152 ], [ -83.809965342079934, 36.80536992189036 ], [ -83.83949742802902, 36.800360876564504 ], [ -83.842596437208343, 36.800085871798494 ] ] ] } },
{ "type": "Feature", "properties": { "OBJECTID": 3413, "ID": "0009240741", "NAME": "SAINT JOSEPH HOSPITAL LONDON", "ADDRESS": "1001 SAINT JOSEPH LANE", "CITY": "LONDON", "STATE": "KY", "ZIP": "40741", "ZIP4": "NOT AVAILABLE", "TELEPHONE": "(606) 878-6520", "TYPE": "GENERAL ACUTE CARE", "STATUS": "OPEN", "POPULATION": 150, "COUNTY": "LAUREL", "COUNTYFIPS": "21125", "COUNTRY": "USA", "LATITUDE": 37.117712112, "LONGITUDE": -84.109002367000002, "NAICS_CODE": "622110", "NAICS_DESC": "GENERAL MEDICAL AND SURGICAL HOSPITALS", "SOURCE": "https://chfs.ky.gov/agencies/os/oig/dhc/Documents/Directories/Hospital_Directory.pdf", "SOURCEDATE": "2018-08-11T00:00:00.000Z", "VAL_METHOD": "IMAGERY", "VAL_DATE": "2014-02-10T00:00:00.000Z", "WEBSITE": "http://www.sjhlex.org/system-locations-saint-joseph-london-london-ky-hospital", "STATE_ID": "100281", "ALT_NAME": "NOT AVAILABLE", "ST_FIPS": "21", "OWNER": "NON-PROFIT", "TTL_STAFF": -999, "BEDS": 150, "TRAUMA": "NOT AVAILABLE", "HELIPAD": "Y" }, "geometry": { "type": "Polygon", "coordinates": [ [ [ -84.098299060965431, 37.043991241900407 ], [ -84.168989267253764, 37.052941160404572 ], [ -84.170168270664036, 37.053090159046661 ], [ -84.202136257277544, 37.156813139573515 ], [ -84.201615255170026, 37.157467140291381 ], [ -84.142048065453267, 37.188899214591927 ], [ -84.136405048323596, 37.191544221550657 ], [ -84.073616172535083, 37.207862396657411 ], [ -84.072591870814279, 37.20653429763005 ], [ -84.026053784929346, 37.145341342057563 ], [ -84.011355763206581, 37.108964353696877 ], [ -84.038793862904612, 37.072929316200032 ], [ -84.061291936769734, 37.061783288128673 ], [ -84.098299060965431, 37.043991241900407 ] ] ] } },
{ "type": "Feature", "properties": { "OBJECTID": 3414, "ID": "0011241230", "NAME": "THREE RIVERS MEDICAL CENTER", "ADDRESS": "2485 HWY 644", "CITY": "LOUISA", "STATE": "KY", "ZIP": "41230", "ZIP4": "NOT AVAILABLE", "TELEPHONE": "(606) 638-9451", "TYPE": "GENERAL ACUTE CARE", "STATUS": "OPEN", "POPULATION": 90, "COUNTY": "LAWRENCE", "COUNTYFIPS": "21127", "COUNTRY": "USA", "LATITUDE": 38.092486637, "LONGITUDE": -82.604408295, "NAICS_CODE": "622110", "NAICS_DESC": "GENERAL MEDICAL AND SURGICAL HOSPITALS", "SOURCE": "https://chfs.ky.gov/agencies/os/oig/dhc/Documents/Directories/Hospital_Directory.pdf", "SOURCEDATE": "2018-08-11T00:00:00.000Z", "VAL_METHOD": "IMAGERY/OTHER", "VAL_DATE": "2014-02-10T00:00:00.000Z", "WEBSITE": "http://www.threeriversmedicalcenter.com", "STATE_ID": "100282", "ALT_NAME": "NOT AVAILABLE", "ST_FIPS": "21", "OWNER": "PROPRIETARY", "TTL_STAFF": -999, "BEDS": 90, "TRAUMA": "NOT AVAILABLE", "HELIPAD": "Y" }, "geometry": { "type": "Polygon", "coordinates": [ [ [ -82.666708, 38.007247 ], [ -82.687573, 38.061813 ], [ -82.671596, 38.144434 ], [ -82.64754, 38.169864 ], [ -82.645035, 38.170235 ], [ -82.5860562, 38.106550399999989 ], [ -82.553817, 38.070401 ], [ -82.545605, 38.058691 ], [ -82.544908, 38.05271 ], [ -82.588569, 38.022001 ], [ -82.665095, 38.007325 ], [ -82.666708, 38.007247 ] ] ] } },
{ "type": "Feature", "properties": { "OBJECTID": 3444, "ID": "0009840351", "NAME": "ST. CLAIRE REGIONAL MEDICAL CENTER", "ADDRESS": "222 MEDICAL CIRCLE", "CITY": "MOREHEAD", "STATE": "KY", "ZIP": "40351", "ZIP4": "NOT AVAILABLE", "TELEPHONE": "(606) 783-6500", "TYPE": "GENERAL ACUTE CARE", "STATUS": "OPEN", "POPULATION": 149, "COUNTY": "ROWAN", "COUNTYFIPS": "21205", "COUNTRY": "USA", "LATITUDE": 38.179470448000103, "LONGITUDE": -83.439324254, "NAICS_CODE": "622110", "NAICS_DESC": "GENERAL MEDICAL AND SURGICAL HOSPITALS", "SOURCE": "https://chfs.ky.gov/agencies/os/oig/dhc/Documents/Directories/Hospital_Directory.pdf", "SOURCEDATE": "2018-08-11T00:00:00.000Z", "VAL_METHOD": "IMAGERY/OTHER", "VAL_DATE": "2014-02-10T00:00:00.000Z", "WEBSITE": "http://www.st-claire.org", "STATE_ID": "100377", "ALT_NAME": "NOT AVAILABLE", "ST_FIPS": "21", "OWNER": "NON-PROFIT", "TTL_STAFF": -999, "BEDS": 149, "TRAUMA": "NOT AVAILABLE", "HELIPAD": "N" }, "geometry": { "type": "Polygon", "coordinates": [ [ [ -83.4116574, 38.1145837 ], [ -83.427712, 38.119481 ], [ -83.521739, 38.148523 ], [ -83.557515, 38.173544 ], [ -83.557126, 38.18834 ], [ -83.501899, 38.234128 ], [ -83.38503, 38.248236 ], [ -83.340048, 38.251487 ], [ -83.339412, 38.243097499999955 ], [ -83.340849, 38.182967 ], [ -83.35726, 38.146222 ], [ -83.406832, 38.117074 ], [ -83.4116574, 38.1145837 ] ] ] } },
{ "type": "Feature", "properties": { "OBJECTID": 3446, "ID": "0008940403", "NAME": "SAINT JOSEPH BEREA", "ADDRESS": "305 ESTILL STREET", "CITY": "BEREA", "STATE": "KY", "ZIP": "40403", "ZIP4": "NOT AVAILABLE", "TELEPHONE": "(859) 986-3151", "TYPE": "CRITICAL ACCESS", "STATUS": "OPEN", "POPULATION": 25, "COUNTY": "MADISON", "COUNTYFIPS": "21151", "COUNTRY": "USA", "LATITUDE": 37.576094958000098, "LONGITUDE": -84.286570551999901, "NAICS_CODE": "622110", "NAICS_DESC": "GENERAL MEDICAL AND SURGICAL HOSPITALS", "SOURCE": "https://chfs.ky.gov/agencies/os/oig/dhc/Documents/Directories/Hospital_Directory.pdf", "SOURCEDATE": "2018-08-11T00:00:00.000Z", "VAL_METHOD": "IMAGERY/OTHER", "VAL_DATE": "2014-02-10T00:00:00.000Z", "WEBSITE": "http://www.saintjosephberea.org", "STATE_ID": "600079", "ALT_NAME": "NOT AVAILABLE", "ST_FIPS": "21", "OWNER": "NON-PROFIT", "TTL_STAFF": -999, "BEDS": 25, "TRAUMA": "NOT AVAILABLE", "HELIPAD": "Y" }, "geometry": { "type": "Polygon", "coordinates": [ [ [ -84.324673, 37.49674 ], [ -84.326218, 37.497295 ], [ -84.3710941, 37.577487600000019 ], [ -84.361578, 37.617371 ], [ -84.3213894, 37.6703313 ], [ -84.312544, 37.679403 ], [ -84.2963405, 37.68246620000005 ], [ -84.2961143, 37.682365199999985 ], [ -84.222473, 37.629028 ], [ -84.211116, 37.605442 ], [ -84.20014, 37.553734 ], [ -84.323553, 37.497001 ], [ -84.324673, 37.49674 ] ] ] } },
{ "type": "Feature", "properties": { "OBJECTID": 3465, "ID": "0006040965", "NAME": "MIDDLESBORO ARH HOSPITAL", "ADDRESS": "3600 W CUMBERLAND AVE", "CITY": "MIDDLESBORO", "STATE": "KY", "ZIP": "40965", "ZIP4": "NOT AVAILABLE", "TELEPHONE": "(606) 242-1100", "TYPE": "GENERAL ACUTE CARE", "STATUS": "OPEN", "POPULATION": 96, "COUNTY": "BELL", "COUNTYFIPS": "21013", "COUNTRY": "USA", "LATITUDE": 36.605826465000099, "LONGITUDE": -83.740192733999905, "NAICS_CODE": "622110", "NAICS_DESC": "GENERAL MEDICAL AND SURGICAL HOSPITALS", "SOURCE": "https://chfs.ky.gov/agencies/os/oig/dhc/Documents/Directories/Hospital_Directory.pdf", "SOURCEDATE": "2018-08-11T00:00:00.000Z", "VAL_METHOD": "IMAGERY", "VAL_DATE": "2014-02-10T00:00:00.000Z", "WEBSITE": "http://www.arh.org/middlesboro", "STATE_ID": "100019", "ALT_NAME": "NOT AVAILABLE", "ST_FIPS": "21", "OWNER": "NON-PROFIT", "TTL_STAFF": -999, "BEDS": 96, "TRAUMA": "NOT AVAILABLE", "HELIPAD": "Y" }, "geometry": { "type": "Polygon", "coordinates": [ [ [ -83.7847563, 36.583356299999984 ], [ -83.828603939390518, 36.609302949058772 ], [ -83.831280964883106, 36.614437943501642 ], [ -83.831135966056905, 36.614978943588575 ], [ -83.787767886999575, 36.638136003402217 ], [ -83.683708740807788, 36.678228284885869 ], [ -83.678636980484214, 36.609769403207054 ], [ -83.701417765329936, 36.591575027825868 ], [ -83.7847563, 36.583356299999984 ] ] ] } },
{ "type": "Feature", "properties": { "OBJECTID": 3611, "ID": "0010945121", "NAME": "SOUTHWEST REGIONAL MEDICAL CENTER", "ADDRESS": "425 HOME STREET", "CITY": "GEORGETOWN", "STATE": "OH", "ZIP": "45121", "ZIP4": "NOT AVAILABLE", "TELEPHONE": "(513) 378-7800", "TYPE": "GENERAL ACUTE CARE", "STATUS": "CLOSED", "POPULATION": 921, "COUNTY": "BROWN", "COUNTYFIPS": "39015", "COUNTRY": "USA", "LATITUDE": 38.858878822000101, "LONGITUDE": -83.896815989999894, "NAICS_CODE": "622110", "NAICS_DESC": "GENERAL MEDICAL AND SURGICAL HOSPITALS", "SOURCE": "http://publicapps.odh.ohio.gov/EID/Provider_Search.aspx", "SOURCEDATE": "2012-07-23T00:00:00.000Z", "VAL_METHOD": "IMAGERY", "VAL_DATE": "2014-02-04T00:00:00.000Z", "WEBSITE": "www.swrmed.org/", "STATE_ID": "360116", "ALT_NAME": "NOT AVAILABLE", "ST_FIPS": "39", "OWNER": "GOVERNMENT - LOCAL", "TTL_STAFF": -999, "BEDS": 921, "TRAUMA": "NOT AVAILABLE", "HELIPAD": "Y" }, "geometry": { "type": "Polygon", "coordinates": [ [ [ -83.895335, 38.796797200000057 ], [ -83.922505, 38.805232 ], [ -83.9414916, 38.8239772 ], [ -83.9607165, 38.8521222 ], [ -83.9789359, 38.915151700000017 ], [ -83.8971206, 38.935667 ], [ -83.889772, 38.935925 ], [ -83.8059942, 38.8679356 ], [ -83.7938487, 38.803238200000024 ], [ -83.7940702, 38.8028172 ], [ -83.7950862, 38.802734399999977 ], [ -83.895335, 38.796797200000057 ] ] ] } },
{ "type": "Feature", "properties": { "OBJECTID": 3729, "ID": "0004345662", "NAME": "SOUTHERN OHIO MEDICAL CENTER", "ADDRESS": "1805 27TH STREET", "CITY": "PORTSMOUTH", "STATE": "OH", "ZIP": "45662", "ZIP4": "NOT AVAILABLE", "TELEPHONE": "(740) 354-5000", "TYPE": "GENERAL ACUTE CARE", "STATUS": "OPEN", "POPULATION": 436, "COUNTY": "SCIOTO", "COUNTYFIPS": "39145", "COUNTRY": "USA", "LATITUDE": 38.753318458000102, "LONGITUDE": -82.977709740999998, "NAICS_CODE": "622110", "NAICS_DESC": "GENERAL MEDICAL AND SURGICAL HOSPITALS", "SOURCE": "http://publicapps.odh.ohio.gov/EID/Provider_Search.aspx", "SOURCEDATE": "2018-08-10T00:00:00.000Z", "VAL_METHOD": "IMAGERY", "VAL_DATE": "2014-02-10T00:00:00.000Z", "WEBSITE": "http://www.somc.org", "STATE_ID": "1264", "ALT_NAME": "NOT AVAILABLE", "ST_FIPS": "39", "OWNER": "NON-PROFIT", "TTL_STAFF": -999, "BEDS": 436, "TRAUMA": "NOT AVAILABLE", "HELIPAD": "Y" }, "geometry": { "type": "Polygon", "coordinates": [ [ [ -83.032137, 38.69594 ], [ -83.06869, 38.709759 ], [ -83.06762, 38.736942 ], [ -83.052952, 38.75753 ], [ -82.985981, 38.844777 ], [ -82.879057, 38.774331 ], [ -82.861366, 38.754319 ], [ -82.8640644, 38.7329225 ], [ -83.032137, 38.69594 ] ] ] } },
{ "type": "Feature", "properties": { "OBJECTID": 3878, "ID": "0175640502", "NAME": "LEXINGTON VA MEDICAL CENTER - COOPER", "ADDRESS": "1101 VETERANS DRIVE", "CITY": "LEXINGTON", "STATE": "KY", "ZIP": "40502", "ZIP4": "NOT AVAILABLE", "TELEPHONE": "(859) 233-4511", "TYPE": "MILITARY", "STATUS": "OPEN", "POPULATION": -999, "COUNTY": "FAYETTE", "COUNTYFIPS": "21067", "COUNTRY": "USA", "LATITUDE": 38.029804, "LONGITUDE": -84.506404, "NAICS_CODE": "622110", "NAICS_DESC": "GENERAL MEDICAL AND SURGICAL HOSPITALS", "SOURCE": "https://www.va.gov/directory/guide/allstate.asp", "SOURCEDATE": "2018-09-26T00:00:00.000Z", "VAL_METHOD": "IMAGERY", "VAL_DATE": "2019-05-10T00:00:00.000Z", "WEBSITE": "https://www.lexington.va.gov/", "STATE_ID": "NOT AVAILABLE", "ALT_NAME": "NOT AVAILABLE", "ST_FIPS": "21", "OWNER": "GOVERNMENT - FEDERAL", "TTL_STAFF": -999, "BEDS": -999, "TRAUMA": "NOT AVAILABLE", "HELIPAD": "Y" }, "geometry": { "type": "Polygon", "coordinates": [ [ [ -84.4856075, 37.951150500000018 ], [ -84.5197635, 37.956641299999987 ], [ -84.5730614, 37.97279060000001 ], [ -84.5735551, 37.973031 ], [ -84.604675, 37.989523 ], [ -84.623626, 38.042935 ], [ -84.5270712, 38.098133700000027 ], [ -84.5132561, 38.1057052 ], [ -84.4842631, 38.104546100000015 ], [ -84.4809564, 38.1041951 ], [ -84.461106, 38.099046 ], [ -84.436832, 38.087721 ], [ -84.4366465, 38.087527400000042 ], [ -84.4117929, 38.040174799999974 ], [ -84.4128878, 38.021519099999949 ], [ -84.422677, 37.981948 ], [ -84.425112, 37.979211 ], [ -84.4856075, 37.951150500000018 ] ] ] } }
]
}
