{
"type": "FeatureCollection",
"crs": { "type": "name", "properties": { "name": "urn:ogc:def:crs:OGC:1.3:CRS84" } },
"features": [
{ "type": "Feature", "properties": { "OBJECTID": 1079, "ID": "0015354449", "NAME": "MINISTRY SAINT JOSEPHS HOSPITAL", "ADDRESS": "611 ST JOSEPH AVE", "CITY": "MARSHFIELD", "STATE": "WI", "ZIP": "54449", "ZIP4": "NOT AVAILABLE", "TELEPHONE": "(715) 387-7850", "TYPE": "GENERAL ACUTE CARE", "STATUS": "OPEN", "POPULATION": 504, "COUNTY": "WOOD", "COUNTYFIPS": "55141", "COUNTRY": "USA", "LATITUDE": 44.677262097000003, "LONGITUDE": -90.178741800999902, "NAICS_CODE": "622110", "NAICS_DESC": "GENERAL MEDICAL AND SURGICAL HOSPITALS", "SOURCE": "https://www.dhs.wisconsin.gov/guide/hospital.htm", "SOURCEDATE": "2018-08-13T00:00:00.000Z", "VAL_METHOD": "IMAGERY", "VAL_DATE": "2014-03-12T00:00:00.000Z", "WEBSITE": "http://www.stjosephs-marshfield.org", "STATE_ID": "51", "ALT_NAME": "NOT AVAILABLE", "ST_FIPS": "55", "OWNER": "NON-PROFIT", "TTL_STAFF": -999, "BEDS": 504, "TRAUMA": "LEVEL II", "HELIPAD": "Y" }, "geometry": { "type": "Polygon", "coordinates": [ [ [ -90.1808604, 44.5838497 ], [ -90.298991, 44.677766 ], [ -90.2836673, 44.747114499999981 ], [ -90.2835028, 44.747222800000031 ], [ -90.170189100000016, 44.757468799999977 ], [ -90.076449, 44.743062700000031 ], [ -90.045403, 44.6702364 ], [ -90.0799384, 44.6251095 ], [ -90.1200265, 44.597529 ], [ -90.1404985, 44.583651 ], [ -90.1808604, 44.5838497 ] ] ] } },
{ "type": "Feature", "properties": { "OBJECTID": 1411, "ID": "0009952806", "NAME": "SELECT SPECIALTY HOSPITAL-QUAD CITIES", "ADDRESS": "1111 WEST KIMBERLY ROAD", "CITY": "DAVENPORT", "STATE": "IA", "ZIP": "52806", "ZIP4": "NOT AVAILABLE", "TELEPHONE": "(319) 391-2020", "TYPE": "LONG TERM CARE", "STATUS": "OPEN", "POPULATION": 50, "COUNTY": "SCOTT", "COUNTYFIPS": "19163", "COUNTRY": "USA", "LATITUDE": 41.559153599000098, "LONGITUDE": -90.589027288999901, "NAICS_CODE": "622110", "NAICS_DESC": "GENERAL MEDICAL AND SURGICAL HOSPITALS", "SOURCE": "https://dia-hfd.iowa.gov/DIA_HFD/CTLEntitySearch.do", "SOURCEDATE": "2018-08-09T00:00:00.000Z", "VAL_METHOD": "IMAGERY", "VAL_DATE": "2016-04-19T00:00:00.000Z", "WEBSITE": "http://www.selectspecialtyhospitals.com/company/locations/quadciti es.aspx", "STATE_ID": "NOT AVAILABLE", "ALT_NAME": "NOT AVAILABLE", "ST_FIPS": "19", "OWNER": "PROPRIETARY", "TTL_STAFF": -999, "BEDS": 50, "TRAUMA": "NOT AVAILABLE", "HELIPAD": "N" }, "geometry": { "type": "Polygon", "coordinates": [ [ [ -90.5040467, 41.4878241 ], [ -90.6248567, 41.493830300000013 ], [ -90.6412012, 41.4989048 ], [ -90.6453206, 41.5019849 ], [ -90.687922, 41.538178 ], [ -90.6902686, 41.579812700000019 ], [ -90.689475, 41.611038 ], [ -90.667648, 41.632887 ], [ -90.571922, 41.660265 ], [ -90.564286, 41.660251 ], [ -90.56238, 41.660246 ], [ -90.468109, 41.5968374 ], [ -90.4701156, 41.5753529 ], [ -90.4789888, 41.530442299999947 ], [ -90.4866282, 41.5114347 ], [ -90.501922100000016, 41.487768699999961 ], [ -90.5040467, 41.4878241 ] ] ] } },
{ "type": "Feature", "properties": { "OBJECTID": 1433, "ID": "0004450703", "NAME": "ALLEN MEMORIAL HOSPITAL", "ADDRESS": "1825 LOGAN AVENUE", "CITY": "WATERLOO", "STATE": "IA", "ZIP": "50703", "ZIP4": "NOT AVAILABLE", "TELEPHONE": "(319) 235-3941", "TYPE": "GENERAL ACUTE CARE", "STATUS": "OPEN", "POPULATION": 12, "COUNTY": "BLACK HAWK", "COUNTYFIPS": "19013", "COUNTRY": "USA", "LATITUDE": 42.5267548160001, "LONGITUDE": -92.33893747, "NAICS_CODE": "622110", "NAICS_DESC": "GENERAL MEDICAL AND SURGICAL HOSPITALS", "SOURCE": "https://dia-hfd.iowa.gov/DIA_HFD/CTLEntitySearch.do", "SOURCEDATE": "2018-08-09T00:00:00.000Z", "VAL_METHOD": "IMAGERY/OTHER", "VAL_DATE": "2016-04-14T00:00:00.000Z", "WEBSITE": "http://www.allenhospital.org", "STATE_ID": "NOT AVAILABLE", "ALT_NAME": "NOT AVAILABLE", "ST_FIPS": "19", "OWNER": "NON-PROFIT", "TTL_STAFF": -999, "BEDS": 12, "TRAUMA": "LEVEL III", "HELIPAD": "Y" }, "geometry": { "type": "Polygon", "coordinates": [ [ [ -92.2987733, 42.430628 ], [ -92.41475, 42.446264 ], [ -92.4574609, 42.498794899999979 ], [ -92.4746826, 42.5277218 ], [ -92.4764519, 42.5415006 ], [ -92.458414, 42.56227640000003 ], [ -92.3418828, 42.665217399999989 ], [ -92.337261, 42.667803 ], [ -92.2388903, 42.570404 ], [ -92.2193443, 42.527126 ], [ -92.21941, 42.523528 ], [ -92.222679603860996, 42.463532119907043 ], [ -92.2870127, 42.431925199999959 ], [ -92.29706, 42.430627 ], [ -92.2987733, 42.430628 ] ] ] } },
{ "type": "Feature", "properties": { "OBJECTID": 1621, "ID": "0094152742", "NAME": "GENESIS MEDICAL CENTER-DEWITT", "ADDRESS": "1118 11TH STREET", "CITY": "DEWITT", "STATE": "IA", "ZIP": "52742", "ZIP4": "NOT AVAILABLE", "TELEPHONE": "(563) 659-4200", "TYPE": "CRITICAL ACCESS", "STATUS": "OPEN", "POPULATION": 90, "COUNTY": "CLINTON", "COUNTYFIPS": "19045", "COUNTRY": "USA", "LATITUDE": 41.826453331000003, "LONGITUDE": -90.547482289000001, "NAICS_CODE": "622110", "NAICS_DESC": "GENERAL MEDICAL AND SURGICAL HOSPITALS", "SOURCE": "https://dia-hfd.iowa.gov/DIA_HFD/CTLEntitySearch.do", "SOURCEDATE": "2018-08-09T00:00:00.000Z", "VAL_METHOD": "IMAGERY/OTHER", "VAL_DATE": "2016-04-15T00:00:00.000Z", "WEBSITE": "http://www.genesishealth.com/facilities/hospital/dewitt/", "STATE_ID": "NOT AVAILABLE", "ALT_NAME": "NOT AVAILABLE", "ST_FIPS": "19", "OWNER": "NOT AVAILABLE", "TTL_STAFF": -999, "BEDS": 90, "TRAUMA": "LEVEL IV", "HELIPAD": "Y" }, "geometry": { "type": "Polygon", "coordinates": [ [ [ -90.568333872996064, 41.770312061018622 ], [ -90.597358275365977, 41.778985868688821 ], [ -90.660446469371379, 41.807338424310835 ], [ -90.674924588737838, 41.814646698112163 ], [ -90.684629949157824, 41.829171729301486 ], [ -90.60802411386058, 41.930006606640362 ], [ -90.60781301282141, 41.930182708194707 ], [ -90.607281510462101, 41.930595311966336 ], [ -90.587129305930759, 41.923800353959749 ], [ -90.529143187339329, 41.902052974864134 ], [ -90.3840071, 41.8161984 ], [ -90.3840068, 41.815789200000019 ], [ -90.3840403, 41.815146299999945 ], [ -90.4132464, 41.801111 ], [ -90.481078067256831, 41.782907025425281 ], [ -90.568333872996064, 41.770312061018622 ] ] ] } },
{ "type": "Feature", "properties": { "OBJECTID": 1879, "ID": "0007652732", "NAME": "MERCY MEDICAL CENTER-CLINTON", "ADDRESS": "1410 NORTH 4TH STREET", "CITY": "CLINTON", "STATE": "IA", "ZIP": "52732", "ZIP4": "NOT AVAILABLE", "TELEPHONE": "(563) 244-5555", "TYPE": "GENERAL ACUTE CARE", "STATUS": "OPEN", "POPULATION": 175, "COUNTY": "CLINTON", "COUNTYFIPS": "19045", "COUNTRY": "USA", "LATITUDE": 41.861501820999997, "LONGITUDE": -90.189015528, "NAICS_CODE": "622110", "NAICS_DESC": "GENERAL MEDICAL AND SURGICAL HOSPITALS", "SOURCE": "https://dia-hfd.iowa.gov/DIA_HFD/CTLEntitySearch.do", "SOURCEDATE": "2018-08-09T00:00:00.000Z", "VAL_METHOD": "IMAGERY", "VAL_DATE": "2016-04-14T00:00:00.000Z", "WEBSITE": "http://www.mercyclinton.com", "STATE_ID": "NOT AVAILABLE", "ALT_NAME": "NOT AVAILABLE", "ST_FIPS": "19", "OWNER": "NON-PROFIT", "TTL_STAFF": -999, "BEDS": 175, "TRAUMA": "LEVEL IV", "HELIPAD": "Y" }, "geometry": { "type": "Polygon", "coordinates": [ [ [ -90.26033, 41.785814399999964 ], [ -90.296406200000021, 41.815281 ], [ -90.3157074, 41.85915 ], [ -90.2767912, 41.903918200000035 ], [ -90.1971854, 41.960985500000028 ], [ -90.1835989, 41.94076950000003 ], [ -90.1823737, 41.935263 ], [ -90.1718951, 41.884866100000018 ], [ -90.171892600000021, 41.884448699999979 ], [ -90.173965, 41.8378811 ], [ -90.2500755, 41.785675 ], [ -90.2532308, 41.785653400000037 ], [ -90.26033, 41.785814399999964 ] ] ] } },
{ "type": "Feature", "properties": { "OBJECTID": 1880, "ID": "0002652043", "NAME": "CENTRAL COMMUNITY HOSPITAL", "ADDRESS": "901 DAVIDSON STREET NORTHWEST", "CITY": "ELKADER", "STATE": "IA", "ZIP": "52043", "ZIP4": "NOT AVAILABLE", "TELEPHONE": "(563) 245-7000", "TYPE": "CRITICAL ACCESS", "STATUS": "OPEN", "POPULATION": 25, "COUNTY": "CLAYTON", "COUNTYFIPS": "19043", "COUNTRY": "USA", "LATITUDE": 42.856670088000001, "LONGITUDE": -91.407572872999907, "NAICS_CODE": "622110", "NAICS_DESC": "GENERAL MEDICAL AND SURGICAL HOSPITALS", "SOURCE": "https://dia-hfd.iowa.gov/DIA_HFD/CTLEntitySearch.do", "SOURCEDATE": "2018-08-09T00:00:00.000Z", "VAL_METHOD": "IMAGERY/OTHER", "VAL_DATE": "2016-04-15T00:00:00.000Z", "WEBSITE": "http://www.centralcommunityhospital.com", "STATE_ID": "NOT AVAILABLE", "ALT_NAME": "NOT AVAILABLE", "ST_FIPS": "19", "OWNER": "NON-PROFIT", "TTL_STAFF": -999, "BEDS": 25, "TRAUMA": "LEVEL IV", "HELIPAD": "N" }, "geometry": { "type": "Polygon", "coordinates": [ [ [ -91.4776963, 42.762202399999978 ], [ -91.5471846, 42.8760414 ], [ -91.431201200000018, 42.9354721 ], [ -91.3361064, 42.950160699999948 ], [ -91.2846521, 42.885745300000032 ], [ -91.284035, 42.8842945 ], [ -91.2845073, 42.880875099999962 ], [ -91.3585881, 42.77687640000002 ], [ -91.36547, 42.77533 ], [ -91.4169117, 42.76755740000003 ], [ -91.4776963, 42.762202399999978 ] ] ] } },
{ "type": "Feature", "properties": { "OBJECTID": 1881, "ID": "0008152301", "NAME": "MARENGO MEMORIAL HOSPITAL", "ADDRESS": "300 MAY STREET, BOX 228", "CITY": "MARENGO", "STATE": "IA", "ZIP": "52301", "ZIP4": "NOT AVAILABLE", "TELEPHONE": "(319) 642-5543", "TYPE": "CRITICAL ACCESS", "STATUS": "OPEN", "POPULATION": 25, "COUNTY": "IOWA", "COUNTYFIPS": "19095", "COUNTRY": "USA", "LATITUDE": 41.802126168000001, "LONGITUDE": -92.073517108000004, "NAICS_CODE": "622110", "NAICS_DESC": "GENERAL MEDICAL AND SURGICAL HOSPITALS", "SOURCE": "https://dia-hfd.iowa.gov/DIA_HFD/CTLEntitySearch.do", "SOURCEDATE": "2018-08-09T00:00:00.000Z", "VAL_METHOD": "IMAGERY/OTHER", "VAL_DATE": "2016-04-15T00:00:00.000Z", "WEBSITE": "http://www.marengohospital.org", "STATE_ID": "NOT AVAILABLE", "ALT_NAME": "NOT AVAILABLE", "ST_FIPS": "19", "OWNER": "GOVERNMENT - LOCAL", "TTL_STAFF": -999, "BEDS": 25, "TRAUMA": "LEVEL IV", "HELIPAD": "Y" }, "geometry": { "type": "Polygon", "coordinates": [ [ [ -92.065794, 41.716793 ], [ -92.19144, 41.753165 ], [ -92.201164, 41.815648 ], [ -92.201137, 41.816413 ], [ -92.141872, 41.845961 ], [ -92.0998465, 41.862901100000016 ], [ -92.0894478, 41.863562899999984 ], [ -92.054396, 41.850887 ], [ -92.044658, 41.846881 ], [ -92.025929, 41.830195 ], [ -91.9678948, 41.777533 ], [ -91.966285, 41.775276 ], [ -91.967166, 41.77423 ], [ -91.987368, 41.759874 ], [ -92.065794, 41.716793 ] ] ] } },
{ "type": "Feature", "properties": { "OBJECTID": 1882, "ID": "0001450401", "NAME": "NORTH IOWA MEDICAL CENTER WEST CAMPUS", "ADDRESS": "910 NORTH EISENHOWER AVENUE", "CITY": "MASON CITY", "STATE": "IA", "ZIP": "50401", "ZIP4": "NOT AVAILABLE", "TELEPHONE": "(515) 424-0440", "TYPE": "GENERAL ACUTE CARE", "STATUS": "OPEN", "POPULATION": 240, "COUNTY": "CERRO GORDO", "COUNTYFIPS": "19033", "COUNTRY": "USA", "LATITUDE": 43.155560321000102, "LONGITUDE": -93.264376537000004, "NAICS_CODE": "622110", "NAICS_DESC": "GENERAL MEDICAL AND SURGICAL HOSPITALS", "SOURCE": "https://dia-hfd.iowa.gov/DIA_HFD/CTLEntitySearch.do", "SOURCEDATE": "2018-08-09T00:00:00.000Z", "VAL_METHOD": "IMAGERY/OTHER", "VAL_DATE": "2016-04-19T00:00:00.000Z", "WEBSITE": "http://www.mercynorthiowa.com", "STATE_ID": "NOT AVAILABLE", "ALT_NAME": "NOT AVAILABLE", "ST_FIPS": "19", "OWNER": "NON-PROFIT", "TTL_STAFF": -999, "BEDS": 240, "TRAUMA": "NOT AVAILABLE", "HELIPAD": "N" }, "geometry": { "type": "Polygon", "coordinates": [ [ [ -93.2012666, 43.066690199999968 ], [ -93.34332, 43.072713599999979 ], [ -93.4231316, 43.1380311 ], [ -93.4240938, 43.139510499999986 ], [ -93.4137255, 43.150299599999968 ], [ -93.3496164, 43.205890299999972 ], [ -93.299899899999986, 43.2218961 ], [ -93.210704, 43.199952 ], [ -93.1712647, 43.176566 ], [ -93.1466907, 43.151719200000031 ], [ -93.1465162, 43.1501978 ], [ -93.146822700000016, 43.148051900000013 ], [ -93.2012666, 43.066690199999968 ] ] ] } },
{ "type": "Feature", "properties": { "OBJECTID": 1883, "ID": "0012452641", "NAME": "MENTAL HEALTH INSTITUTE", "ADDRESS": "1200 EAST WASHINGTON STREET", "CITY": "MOUNT PLEASANT", "STATE": "IA", "ZIP": "52641", "ZIP4": "NOT AVAILABLE", "TELEPHONE": "(319) 385-7231", "TYPE": "PSYCHIATRIC", "STATUS": "OPEN", "POPULATION": 78, "COUNTY": "HENRY", "COUNTYFIPS": "19087", "COUNTRY": "USA", "LATITUDE": 40.95554287, "LONGITUDE": -91.535949375000001, "NAICS_CODE": "622110", "NAICS_DESC": "GENERAL MEDICAL AND SURGICAL HOSPITALS", "SOURCE": "https://dia-hfd.iowa.gov/DIA_HFD/CTLEntitySearch.do", "SOURCEDATE": "2018-08-09T00:00:00.000Z", "VAL_METHOD": "IMAGERY", "VAL_DATE": "2016-04-19T00:00:00.000Z", "WEBSITE": "http://www.dhs.state.ia.us", "STATE_ID": "NOT AVAILABLE", "ALT_NAME": "NOT AVAILABLE", "ST_FIPS": "19", "OWNER": "GOVERNMENT - STATE", "TTL_STAFF": -999, "BEDS": 78, "TRAUMA": "NOT AVAILABLE", "HELIPAD": "N" }, "geometry": { "type": "Polygon", "coordinates": [ [ [ -91.564624607942775, 40.821001828233491 ], [ -91.584047008845189, 40.848614030632099 ], [ -91.660069, 40.97207 ], [ -91.6599928, 40.9744709 ], [ -91.6599474, 40.974746400000022 ], [ -91.56319501100414, 41.06152100779498 ], [ -91.544561512937307, 41.075647911605436 ], [ -91.544070012945198, 41.075645011693766 ], [ -91.45782, 40.987737 ], [ -91.400575, 40.925682 ], [ -91.400504, 40.905673 ], [ -91.564214007903345, 40.820991028085892 ], [ -91.564624607942775, 40.821001828233491 ] ] ] } },
{ "type": "Feature", "properties": { "OBJECTID": 1979, "ID": "0002654456", "NAME": "MEMORIAL MEDICAL CTR", "ADDRESS": "216 SUNSET PLACE", "CITY": "NEILLSVILLE", "STATE": "WI", "ZIP": "54456", "ZIP4": "NOT AVAILABLE", "TELEPHONE": "(715) 743-3101", "TYPE": "GENERAL ACUTE CARE", "STATUS": "OPEN", "POPULATION": 25, "COUNTY": "CLARK", "COUNTYFIPS": "55019", "COUNTRY": "USA", "LATITUDE": 44.557886709000101, "LONGITUDE": -90.607874937000005, "NAICS_CODE": "622110", "NAICS_DESC": "GENERAL MEDICAL AND SURGICAL HOSPITALS", "SOURCE": "https://www.dhs.wisconsin.gov/guide/hospital.htm", "SOURCEDATE": "2018-08-13T00:00:00.000Z", "VAL_METHOD": "IMAGERY", "VAL_DATE": "2014-02-10T00:00:00.000Z", "WEBSITE": "http://www.memorialmedcenter.org", "STATE_ID": "1026", "ALT_NAME": "NOT AVAILABLE", "ST_FIPS": "55", "OWNER": "NON-PROFIT", "TTL_STAFF": -999, "BEDS": 25, "TRAUMA": "NOT AVAILABLE", "HELIPAD": "Y" }, "geometry": { "type": "Polygon", "coordinates": [ [ [ -90.604258992105343, 44.478758477450747 ], [ -90.619338020759301, 44.479941473155471 ], [ -90.651334115662237, 44.493580461489827 ], [ -90.740157, 44.571164 ], [ -90.741103, 44.580835 ], [ -90.596427257748331, 44.647260453754697 ], [ -90.529903079206775, 44.611049483833384 ], [ -90.47652489523324, 44.552892503469032 ], [ -90.53736292827061, 44.496419495616081 ], [ -90.58897896995299, 44.479933481505107 ], [ -90.604258992105343, 44.478758477450747 ] ] ] } },
{ "type": "Feature", "properties": { "OBJECTID": 1981, "ID": "0004153813", "NAME": "GRANT REG HLTH CTR", "ADDRESS": "507 S MONROE ST", "CITY": "LANCASTER", "STATE": "WI", "ZIP": "53813", "ZIP4": "NOT AVAILABLE", "TELEPHONE": "(608) 723-2143", "TYPE": "GENERAL ACUTE CARE", "STATUS": "OPEN", "POPULATION": 25, "COUNTY": "GRANT", "COUNTYFIPS": "55043", "COUNTRY": "USA", "LATITUDE": 42.843907552000097, "LONGITUDE": -90.708863101999995, "NAICS_CODE": "622110", "NAICS_DESC": "GENERAL MEDICAL AND SURGICAL HOSPITALS", "SOURCE": "https://www.dhs.wisconsin.gov/guide/hospital.htm", "SOURCEDATE": "2018-08-13T00:00:00.000Z", "VAL_METHOD": "IMAGERY", "VAL_DATE": "2014-02-10T00:00:00.000Z", "WEBSITE": "http://www.grantregional.com", "STATE_ID": "1025", "ALT_NAME": "NOT AVAILABLE", "ST_FIPS": "55", "OWNER": "NON-PROFIT", "TTL_STAFF": -999, "BEDS": 25, "TRAUMA": "LEVEL IV", "HELIPAD": "Y" }, "geometry": { "type": "Polygon", "coordinates": [ [ [ -90.681710697792994, 42.727092737166444 ], [ -90.681877297822325, 42.727145437184852 ], [ -90.836890408738043, 42.814530030521006 ], [ -90.826617414393439, 42.873261326642236 ], [ -90.771819222570102, 42.910402046226245 ], [ -90.656218176255749, 42.932744349009084 ], [ -90.630624208708298, 42.924171954979485 ], [ -90.606066771274712, 42.859443893259275 ], [ -90.579690786620347, 42.77651698461748 ], [ -90.681710697792994, 42.727092737166444 ] ] ] } },
{ "type": "Feature", "properties": { "OBJECTID": 1984, "ID": "0004854615", "NAME": "BLACK RIVER MEM HSPTL", "ADDRESS": "711 W ADAMS ST", "CITY": "BLACK RIVER FALLS", "STATE": "WI", "ZIP": "54615", "ZIP4": "NOT AVAILABLE", "TELEPHONE": "(715) 284-5361", "TYPE": "GENERAL ACUTE CARE", "STATUS": "OPEN", "POPULATION": 25, "COUNTY": "JACKSON", "COUNTYFIPS": "55053", "COUNTRY": "USA", "LATITUDE": 44.303241097000097, "LONGITUDE": -90.855151436, "NAICS_CODE": "622110", "NAICS_DESC": "GENERAL MEDICAL AND SURGICAL HOSPITALS", "SOURCE": "https://www.dhs.wisconsin.gov/guide/hospital.htm", "SOURCEDATE": "2018-08-13T00:00:00.000Z", "VAL_METHOD": "IMAGERY", "VAL_DATE": "2014-03-12T00:00:00.000Z", "WEBSITE": "http://www.brmh.net", "STATE_ID": "1037", "ALT_NAME": "NOT AVAILABLE", "ST_FIPS": "55", "OWNER": "NON-PROFIT", "TTL_STAFF": -999, "BEDS": 25, "TRAUMA": "LEVEL IV", "HELIPAD": "Y" }, "geometry": { "type": "Polygon", "coordinates": [ [ [ -90.835121, 44.200019 ], [ -90.8928602, 44.213520900000042 ], [ -90.924478, 44.232283 ], [ -90.9574223, 44.271256 ], [ -90.9585525, 44.273141199999955 ], [ -90.949940700000013, 44.29869129999998 ], [ -90.9090677, 44.3788957 ], [ -90.8221864, 44.392390400000032 ], [ -90.7822397, 44.368724 ], [ -90.739519944768304, 44.334756593665702 ], [ -90.710228845903757, 44.230358524820957 ], [ -90.834449, 44.2001724 ], [ -90.835121, 44.200019 ] ] ] } },
{ "type": "Feature", "properties": { "OBJECTID": 1994, "ID": "0012854758", "NAME": "MAYO CLINIC HEALTH SYSTEM-OAKRIDGE INC", "ADDRESS": "13025 8TH ST, PO BOX 70", "CITY": "OSSEO", "STATE": "WI", "ZIP": "54758", "ZIP4": "NOT AVAILABLE", "TELEPHONE": "(715) 597-3121", "TYPE": "GENERAL ACUTE CARE", "STATUS": "OPEN", "POPULATION": 18, "COUNTY": "TREMPEALEAU", "COUNTYFIPS": "55121", "COUNTRY": "USA", "LATITUDE": 44.5779668260001, "LONGITUDE": -91.213177016000003, "NAICS_CODE": "622110", "NAICS_DESC": "GENERAL MEDICAL AND SURGICAL HOSPITALS", "SOURCE": "https://www.dhs.wisconsin.gov/guide/hospital.htm", "SOURCEDATE": "2018-08-13T00:00:00.000Z", "VAL_METHOD": "IMAGERY", "VAL_DATE": "2014-03-12T00:00:00.000Z", "WEBSITE": "http://mayoclinichealthsystem.org/locations/osseo", "STATE_ID": "1003", "ALT_NAME": "NOT AVAILABLE", "ST_FIPS": "55", "OWNER": "NON-PROFIT", "TTL_STAFF": -999, "BEDS": 18, "TRAUMA": "LEVEL IV", "HELIPAD": "Y" }, "geometry": { "type": "Polygon", "coordinates": [ [ [ -91.214847, 44.469257 ], [ -91.252762, 44.4861596 ], [ -91.362351, 44.560925 ], [ -91.362406, 44.561895 ], [ -91.3115265, 44.625168200000019 ], [ -91.169897100000014, 44.66193810000005 ], [ -91.140307, 44.632854 ], [ -91.1146566, 44.603697599999983 ], [ -91.119095, 44.567678 ], [ -91.192555, 44.48751 ], [ -91.214847, 44.469257 ] ] ] } },
{ "type": "Feature", "properties": { "OBJECTID": 2022, "ID": "0093052040", "NAME": "MERCY MEDICAL CENTER-DYERSVILLE", "ADDRESS": "1111 3RD STREET SW", "CITY": "DYERSVILLE", "STATE": "IA", "ZIP": "52040", "ZIP4": "NOT AVAILABLE", "TELEPHONE": "(563) 875-7101", "TYPE": "CRITICAL ACCESS", "STATUS": "OPEN", "POPULATION": 25, "COUNTY": "DUBUQUE", "COUNTYFIPS": "19061", "COUNTRY": "USA", "LATITUDE": 42.4756271380001, "LONGITUDE": -91.130535680999998, "NAICS_CODE": "622110", "NAICS_DESC": "GENERAL MEDICAL AND SURGICAL HOSPITALS", "SOURCE": "https://dia-hfd.iowa.gov/DIA_HFD/CTLEntitySearch.do", "SOURCEDATE": "2018-08-09T00:00:00.000Z", "VAL_METHOD": "IMAGERY/OTHER", "VAL_DATE": "2016-04-15T00:00:00.000Z", "WEBSITE": "http://www.mercydubuque.com/mercy-dyersville", "STATE_ID": "NOT AVAILABLE", "ALT_NAME": "NOT AVAILABLE", "ST_FIPS": "19", "OWNER": "NOT AVAILABLE", "TTL_STAFF": -999, "BEDS": 25, "TRAUMA": "LEVEL IV", "HELIPAD": "Y" }, "geometry": { "type": "Polygon", "coordinates": [ [ [ -91.1227091, 42.394758900000021 ], [ -91.204271600000013, 42.42645930000004 ], [ -91.301723543897324, 42.470429979705273 ], [ -91.301885330953766, 42.47091367005995 ], [ -91.301906525260762, 42.471104365646553 ], [ -91.276333, 42.4853353 ], [ -91.2136638, 42.514759899999987 ], [ -91.1344117, 42.550009399999986 ], [ -91.1029851, 42.563490399999949 ], [ -91.0402809, 42.508062500000058 ], [ -91.000312662059997, 42.438973084995801 ], [ -91.003837402204056, 42.435224496924356 ], [ -91.116914, 42.3952682 ], [ -91.1177903, 42.395134300000038 ], [ -91.1227091, 42.394758900000021 ] ] ] } },
{ "type": "Feature", "properties": { "OBJECTID": 2023, "ID": "0093950616", "NAME": "FLOYD COUNTY MEMORIAL HOSPITAL", "ADDRESS": "800 11TH ST", "CITY": "CHARLES CITY", "STATE": "IA", "ZIP": "50616", "ZIP4": "NOT AVAILABLE", "TELEPHONE": "(641) 228-6830", "TYPE": "CRITICAL ACCESS", "STATUS": "OPEN", "POPULATION": 25, "COUNTY": "FLOYD", "COUNTYFIPS": "19067", "COUNTRY": "USA", "LATITUDE": 43.051454645, "LONGITUDE": -92.683643714, "NAICS_CODE": "622110", "NAICS_DESC": "GENERAL MEDICAL AND SURGICAL HOSPITALS", "SOURCE": "https://dia-hfd.iowa.gov/DIA_HFD/CTLEntitySearch.do", "SOURCEDATE": "2018-08-09T00:00:00.000Z", "VAL_METHOD": "IMAGERY/OTHER", "VAL_DATE": "2016-04-15T00:00:00.000Z", "WEBSITE": "http://www.fcmc.us.com/", "STATE_ID": "NOT AVAILABLE", "ALT_NAME": "NOT AVAILABLE", "ST_FIPS": "19", "OWNER": "GOVERNMENT - LOCAL", "TTL_STAFF": -999, "BEDS": 25, "TRAUMA": "LEVEL IV", "HELIPAD": "Y" }, "geometry": { "type": "Polygon", "coordinates": [ [ [ -92.672813, 42.936232 ], [ -92.810233, 43.057195 ], [ -92.810227, 43.05926 ], [ -92.810212, 43.060106 ], [ -92.7483442, 43.138093800000021 ], [ -92.7323557, 43.141519100000039 ], [ -92.672561, 43.134294 ], [ -92.653479, 43.123982 ], [ -92.550244, 43.067077 ], [ -92.550163, 43.066264 ], [ -92.557557, 42.96529840000003 ], [ -92.672813, 42.936232 ] ] ] } },
{ "type": "Feature", "properties": { "OBJECTID": 2031, "ID": "0013652627", "NAME": "FORT MADISON COMMUNITY HOSPITAL", "ADDRESS": "5445 AVENUE O", "CITY": "FORT MADISON", "STATE": "IA", "ZIP": "52627", "ZIP4": "NOT AVAILABLE", "TELEPHONE": "(319) 372-6530", "TYPE": "GENERAL ACUTE CARE", "STATUS": "OPEN", "POPULATION": 50, "COUNTY": "LEE", "COUNTYFIPS": "19111", "COUNTRY": "USA", "LATITUDE": 40.625806771000001, "LONGITUDE": -91.384313374000001, "NAICS_CODE": "622110", "NAICS_DESC": "GENERAL MEDICAL AND SURGICAL HOSPITALS", "SOURCE": "https://dia-hfd.iowa.gov/DIA_HFD/CTLEntitySearch.do", "SOURCEDATE": "2018-08-09T00:00:00.000Z", "VAL_METHOD": "IMAGERY/OTHER", "VAL_DATE": "2016-04-15T00:00:00.000Z", "WEBSITE": "http://www.fmchosp.com", "STATE_ID": "NOT AVAILABLE", "ALT_NAME": "NOT AVAILABLE", "ST_FIPS": "19", "OWNER": "NON-PROFIT", "TTL_STAFF": -999, "BEDS": 50, "TRAUMA": "LEVEL III", "HELIPAD": "Y" }, "geometry": { "type": "Polygon", "coordinates": [ [ [ -91.437808500000017, 40.5227724 ], [ -91.4383205, 40.522939899999976 ], [ -91.517215904251941, 40.635190584869918 ], [ -91.477786303301045, 40.660574094737498 ], [ -91.392204005062268, 40.698767607710664 ], [ -91.363306005813271, 40.703098910481586 ], [ -91.329874906686257, 40.704265513026343 ], [ -91.258622607982844, 40.676641113833199 ], [ -91.258249007984432, 40.676306813809944 ], [ -91.267624507311865, 40.651382009293663 ], [ -91.270161607167466, 40.64608460828368 ], [ -91.273830907031964, 40.642168907394293 ], [ -91.4112013, 40.5306014 ], [ -91.437808500000017, 40.5227724 ] ] ] } },
{ "type": "Feature", "properties": { "OBJECTID": 2034, "ID": "0004850501", "NAME": "TRINITY REGIONAL HOSPITAL", "ADDRESS": "802 SOUTH KENYON ROAD", "CITY": "FORT DODGE", "STATE": "IA", "ZIP": "50501", "ZIP4": "NOT AVAILABLE", "TELEPHONE": "(515) 573-3101", "TYPE": "GENERAL ACUTE CARE", "STATUS": "OPEN", "POPULATION": 200, "COUNTY": "WEBSTER", "COUNTYFIPS": "19187", "COUNTRY": "USA", "LATITUDE": 42.492210174999997, "LONGITUDE": -94.192179572000001, "NAICS_CODE": "622110", "NAICS_DESC": "GENERAL MEDICAL AND SURGICAL HOSPITALS", "SOURCE": "https://dia-hfd.iowa.gov/DIA_HFD/CTLEntitySearch.do", "SOURCEDATE": "2018-08-09T00:00:00.000Z", "VAL_METHOD": "IMAGERY/OTHER", "VAL_DATE": "2016-04-15T00:00:00.000Z", "WEBSITE": "http://www.unitypoint.org/fortdodge/Default.aspx", "STATE_ID": "NOT AVAILABLE", "ALT_NAME": "NOT AVAILABLE", "ST_FIPS": "19", "OWNER": "NON-PROFIT", "TTL_STAFF": -999, "BEDS": 200, "TRAUMA": "LEVEL III", "HELIPAD": "Y" }, "geometry": { "type": "Polygon", "coordinates": [ [ [ -94.184055, 42.398261 ], [ -94.300358, 42.440123 ], [ -94.3199038, 42.455847399999982 ], [ -94.3050797, 42.516197100000014 ], [ -94.2286671, 42.587084200000021 ], [ -94.178141, 42.57248 ], [ -94.089839, 42.501171 ], [ -94.1173765, 42.4501681 ], [ -94.147205, 42.42362 ], [ -94.184055, 42.398261 ] ] ] } },
{ "type": "Feature", "properties": { "OBJECTID": 2035, "ID": "0094650126", "NAME": "HANSEN FAMILY HOSPITAL", "ADDRESS": "920 SOUTH OAK STREET", "CITY": "IOWA FALLS", "STATE": "IA", "ZIP": "50126", "ZIP4": "NOT AVAILABLE", "TELEPHONE": "(641) 648-4631", "TYPE": "CRITICAL ACCESS", "STATUS": "OPEN", "POPULATION": 35, "COUNTY": "HARDIN", "COUNTYFIPS": "19083", "COUNTRY": "USA", "LATITUDE": 42.500695753000102, "LONGITUDE": -93.260686555999897, "NAICS_CODE": "622110", "NAICS_DESC": "GENERAL MEDICAL AND SURGICAL HOSPITALS", "SOURCE": "https://dia-hfd.iowa.gov/DIA_HFD/CTLEntitySearch.do", "SOURCEDATE": "2018-08-09T00:00:00.000Z", "VAL_METHOD": "IMAGERY", "VAL_DATE": "2016-04-15T00:00:00.000Z", "WEBSITE": "http://www.hansenfamilyhospital.com/", "STATE_ID": "NOT AVAILABLE", "ALT_NAME": "NOT AVAILABLE", "ST_FIPS": "19", "OWNER": "NOT AVAILABLE", "TTL_STAFF": -999, "BEDS": 35, "TRAUMA": "NOT AVAILABLE", "HELIPAD": "Y" }, "geometry": { "type": "Polygon", "coordinates": [ [ [ -93.2611237, 42.397469 ], [ -93.3792941, 42.44789549999998 ], [ -93.3699843, 42.514194900000028 ], [ -93.3114023, 42.5573136 ], [ -93.2619943, 42.586161800000028 ], [ -93.1997574, 42.55700420000003 ], [ -93.1644825, 42.521843 ], [ -93.1924136, 42.4553692 ], [ -93.2031687, 42.43364960000001 ], [ -93.251403900000014, 42.397468400000015 ], [ -93.2611237, 42.397469 ] ] ] } },
{ "type": "Feature", "properties": { "OBJECTID": 2036, "ID": "0095052205", "NAME": "JONES REGIONAL MEDICAL CENTER", "ADDRESS": "1795 HIGHWAY 64 EAST", "CITY": "ANAMOSA", "STATE": "IA", "ZIP": "52205", "ZIP4": "NOT AVAILABLE", "TELEPHONE": "(319) 462-6131", "TYPE": "CRITICAL ACCESS", "STATUS": "OPEN", "POPULATION": 22, "COUNTY": "JONES", "COUNTYFIPS": "19105", "COUNTRY": "USA", "LATITUDE": 42.1015127470001, "LONGITUDE": -91.262614849000002, "NAICS_CODE": "622110", "NAICS_DESC": "GENERAL MEDICAL AND SURGICAL HOSPITALS", "SOURCE": "https://dia-hfd.iowa.gov/DIA_HFD/CTLEntitySearch.do", "SOURCEDATE": "2018-08-09T00:00:00.000Z", "VAL_METHOD": "IMAGERY/OTHER", "VAL_DATE": "2016-04-15T00:00:00.000Z", "WEBSITE": "NOT AVAILABLE", "STATE_ID": "NOT AVAILABLE", "ALT_NAME": "NOT AVAILABLE", "ST_FIPS": "19", "OWNER": "NOT AVAILABLE", "TTL_STAFF": -999, "BEDS": 22, "TRAUMA": "LEVEL IV", "HELIPAD": "Y" }, "geometry": { "type": "Polygon", "coordinates": [ [ [ -91.248411, 42.012558 ], [ -91.3621088, 42.0194056 ], [ -91.3650453, 42.020083199999981 ], [ -91.4232674, 42.0572752 ], [ -91.4235625, 42.058403299999988 ], [ -91.3665103, 42.138463599999973 ], [ -91.315661, 42.179716 ], [ -91.195802, 42.208814 ], [ -91.189491, 42.210288 ], [ -91.1832257, 42.2078394 ], [ -91.1358734, 42.0670934 ], [ -91.241897, 42.012877 ], [ -91.248411, 42.012558 ] ] ] } },
{ "type": "Feature", "properties": { "OBJECTID": 2302, "ID": "0001650536", "NAME": "PALO ALTO COUNTY HOSPITAL", "ADDRESS": "3201 1ST STREET", "CITY": "EMMETSBURG", "STATE": "IA", "ZIP": "50536", "ZIP4": "NOT AVAILABLE", "TELEPHONE": "(712) 852-5500", "TYPE": "GENERAL ACUTE CARE", "STATUS": "OPEN", "POPULATION": 47, "COUNTY": "PALO ALTO", "COUNTYFIPS": "19147", "COUNTRY": "USA", "LATITUDE": 43.120193797000098, "LONGITUDE": -94.691241293000004, "NAICS_CODE": "622110", "NAICS_DESC": "GENERAL MEDICAL AND SURGICAL HOSPITALS", "SOURCE": "https://dia-hfd.iowa.gov/DIA_HFD/CTLEntitySearch.do", "SOURCEDATE": "2018-08-09T00:00:00.000Z", "VAL_METHOD": "IMAGERY/OTHER", "VAL_DATE": "2016-04-18T00:00:00.000Z", "WEBSITE": "http://www.pachs.com", "STATE_ID": "NOT AVAILABLE", "ALT_NAME": "NOT AVAILABLE", "ST_FIPS": "19", "OWNER": "GOVERNMENT - LOCAL", "TTL_STAFF": -999, "BEDS": 47, "TRAUMA": "LEVEL IV", "HELIPAD": "Y" }, "geometry": { "type": "Polygon", "coordinates": [ [ [ -94.678728, 43.031349 ], [ -94.757734, 43.083093 ], [ -94.797047, 43.126406 ], [ -94.773486, 43.15579 ], [ -94.757571, 43.169173 ], [ -94.678807, 43.204553 ], [ -94.675925, 43.204795 ], [ -94.580429, 43.112235 ], [ -94.580305, 43.106784 ], [ -94.580253, 43.102877 ], [ -94.678728, 43.031349 ] ] ] } },
{ "type": "Feature", "properties": { "OBJECTID": 2341, "ID": "0010152803", "NAME": "GENESIS MEDICAL CENTER-DAVENPORT", "ADDRESS": "1227 EAST RUSHOLME STREET", "CITY": "DAVENPORT", "STATE": "IA", "ZIP": "52803", "ZIP4": "NOT AVAILABLE", "TELEPHONE": "(563) 421-1000", "TYPE": "GENERAL ACUTE CARE", "STATUS": "OPEN", "POPULATION": 502, "COUNTY": "SCOTT", "COUNTYFIPS": "19163", "COUNTRY": "USA", "LATITUDE": 41.542167967000097, "LONGITUDE": -90.557257401000001, "NAICS_CODE": "622110", "NAICS_DESC": "GENERAL MEDICAL AND SURGICAL HOSPITALS", "SOURCE": "https://dia-hfd.iowa.gov/DIA_HFD/CTLEntitySearch.do", "SOURCEDATE": "2018-08-09T00:00:00.000Z", "VAL_METHOD": "IMAGERY/OTHER", "VAL_DATE": "2016-04-15T00:00:00.000Z", "WEBSITE": "http://www.genesishealth.com", "STATE_ID": "NOT AVAILABLE", "ALT_NAME": "NOT AVAILABLE", "ST_FIPS": "19", "OWNER": "NON-PROFIT", "TTL_STAFF": -999, "BEDS": 502, "TRAUMA": "LEVEL II", "HELIPAD": "Y" }, "geometry": { "type": "Polygon", "coordinates": [ [ [ -90.4953188, 41.4546171 ], [ -90.6248567, 41.493830300000013 ], [ -90.6412012, 41.4989048 ], [ -90.671944, 41.538209 ], [ -90.6487559, 41.5741 ], [ -90.624996, 41.604285 ], [ -90.5737678, 41.6291729 ], [ -90.5591107, 41.63147050000002 ], [ -90.487187700000021, 41.596418900000032 ], [ -90.4641365, 41.575338099999989 ], [ -90.457879, 41.543774 ], [ -90.4607722, 41.5122853 ], [ -90.484906, 41.471101800000042 ], [ -90.4953188, 41.4546171 ] ] ] } },
{ "type": "Feature", "properties": { "OBJECTID": 2498, "ID": "0006961362", "NAME": "ST MARGARETS HOSPITAL", "ADDRESS": "600 E 1ST ST", "CITY": "SPRING VALLEY", "STATE": "IL", "ZIP": "61362", "ZIP4": "NOT AVAILABLE", "TELEPHONE": "(815) 664-1362", "TYPE": "GENERAL ACUTE CARE", "STATUS": "OPEN", "POPULATION": -999, "COUNTY": "BUREAU", "COUNTYFIPS": "17011", "COUNTRY": "USA", "LATITUDE": 41.328742828000003, "LONGITUDE": -89.193117204999993, "NAICS_CODE": "622110", "NAICS_DESC": "GENERAL MEDICAL AND SURGICAL HOSPITALS", "SOURCE": "https://data.illinois.gov/", "SOURCEDATE": "2018-08-09T00:00:00.000Z", "VAL_METHOD": "IMAGERY/OTHER", "VAL_DATE": "2014-02-10T00:00:00.000Z", "WEBSITE": "http://www.aboutsmh.org/", "STATE_ID": "140143", "ALT_NAME": "NOT AVAILABLE", "ST_FIPS": "17", "OWNER": "NON-PROFIT", "TTL_STAFF": -999, "BEDS": -999, "TRAUMA": "NOT AVAILABLE", "HELIPAD": "Y" }, "geometry": { "type": "Polygon", "coordinates": [ [ [ -89.098089500000015, 41.291608 ], [ -89.1042639, 41.292293700000016 ], [ -89.308019, 41.324209 ], [ -89.3167086, 41.332986199999958 ], [ -89.3167864, 41.334063700000016 ], [ -89.284725, 41.364914 ], [ -89.277757, 41.369876 ], [ -89.2194173, 41.407951800000028 ], [ -89.101806300000021, 41.371482200000031 ], [ -89.0669318, 41.342532 ], [ -89.0653322, 41.336498 ], [ -89.078116, 41.310205399999987 ], [ -89.0876022, 41.295225 ], [ -89.098089500000015, 41.291608 ] ] ] } },
{ "type": "Feature", "properties": { "OBJECTID": 2507, "ID": "0014361342", "NAME": "MENDOTA COMMUNITY HOSPITAL", "ADDRESS": "1315 MEMORIAL DR", "CITY": "MENDOTA", "STATE": "IL", "ZIP": "61342", "ZIP4": "NOT AVAILABLE", "TELEPHONE": "(815) 539-7461", "TYPE": "CRITICAL ACCESS", "STATUS": "CLOSED", "POPULATION": 25, "COUNTY": "LA SALLE", "COUNTYFIPS": "17099", "COUNTRY": "USA", "LATITUDE": 41.5529062640001, "LONGITUDE": -89.129578768000002, "NAICS_CODE": "622110", "NAICS_DESC": "GENERAL MEDICAL AND SURGICAL HOSPITALS", "SOURCE": "https://data.illinois.gov/", "SOURCEDATE": "2012-07-27T00:00:00.000Z", "VAL_METHOD": "IMAGERY", "VAL_DATE": "2014-02-10T00:00:00.000Z", "WEBSITE": "http://www.mendotahospital.org", "STATE_ID": "141310", "ALT_NAME": "NOT AVAILABLE", "ST_FIPS": "17", "OWNER": "NON-PROFIT", "TTL_STAFF": -999, "BEDS": 25, "TRAUMA": "NOT AVAILABLE", "HELIPAD": "N" }, "geometry": { "type": "Polygon", "coordinates": [ [ [ -89.1267456, 41.454818 ], [ -89.247827, 41.538894 ], [ -89.235766, 41.562667 ], [ -89.148678109195373, 41.628589269225763 ], [ -89.090327700000017, 41.6128962 ], [ -89.0340626, 41.5721226 ], [ -89.0143886, 41.554654599999971 ], [ -89.0500296, 41.475483300000043 ], [ -89.1267456, 41.454818 ] ] ] } },
{ "type": "Feature", "properties": { "OBJECTID": 2766, "ID": "0001154768", "NAME": "OUR LADY OF VICTORY HSPTL", "ADDRESS": "1120 PINE ST", "CITY": "STANLEY", "STATE": "WI", "ZIP": "54768", "ZIP4": "NOT AVAILABLE", "TELEPHONE": "(715) 644-5571", "TYPE": "GENERAL ACUTE CARE", "STATUS": "OPEN", "POPULATION": 24, "COUNTY": "CLARK", "COUNTYFIPS": "55019", "COUNTRY": "USA", "LATITUDE": 44.953582087000001, "LONGITUDE": -90.918899754999998, "NAICS_CODE": "622110", "NAICS_DESC": "GENERAL MEDICAL AND SURGICAL HOSPITALS", "SOURCE": "https://www.dhs.wisconsin.gov/guide/hospital.htm", "SOURCEDATE": "2018-08-13T00:00:00.000Z", "VAL_METHOD": "IMAGERY", "VAL_DATE": "2014-02-10T00:00:00.000Z", "WEBSITE": "http://www.ministryhealth.org", "STATE_ID": "1013", "ALT_NAME": "NOT AVAILABLE", "ST_FIPS": "55", "OWNER": "NON-PROFIT", "TTL_STAFF": -999, "BEDS": 24, "TRAUMA": "LEVEL IV", "HELIPAD": "Y" }, "geometry": { "type": "Polygon", "coordinates": [ [ [ -90.942599, 44.879213 ], [ -91.066356, 44.929982 ], [ -91.0660171, 44.936080799999985 ], [ -91.0660024, 44.9363112 ], [ -91.065153, 44.944357 ], [ -90.984148, 45.002207 ], [ -90.933327, 45.031101 ], [ -90.739911, 44.952011 ], [ -90.739902, 44.951773 ], [ -90.800395, 44.929838 ], [ -90.942599, 44.879213 ] ] ] } },
{ "type": "Feature", "properties": { "OBJECTID": 2776, "ID": "0008854660", "NAME": "TOMAH MEM HSPTL", "ADDRESS": "321 BUTTS AVE", "CITY": "TOMAH", "STATE": "WI", "ZIP": "54660", "ZIP4": "NOT AVAILABLE", "TELEPHONE": "(608) 372-2181", "TYPE": "GENERAL ACUTE CARE", "STATUS": "OPEN", "POPULATION": 25, "COUNTY": "MONROE", "COUNTYFIPS": "55081", "COUNTRY": "USA", "LATITUDE": 43.984000736, "LONGITUDE": -90.5153532799999, "NAICS_CODE": "622110", "NAICS_DESC": "GENERAL MEDICAL AND SURGICAL HOSPITALS", "SOURCE": "https://www.dhs.wisconsin.gov/guide/hospital.htm", "SOURCEDATE": "2018-08-13T00:00:00.000Z", "VAL_METHOD": "IMAGERY", "VAL_DATE": "2014-03-12T00:00:00.000Z", "WEBSITE": "http://www.tomahhospital.org", "STATE_ID": "1023", "ALT_NAME": "NOT AVAILABLE", "ST_FIPS": "55", "OWNER": "NON-PROFIT", "TTL_STAFF": -999, "BEDS": 25, "TRAUMA": "LEVEL IV", "HELIPAD": "Y" }, "geometry": { "type": "Polygon", "coordinates": [ [ [ -90.483255993562537, 43.889718292413605 ], [ -90.551695002559285, 43.910188172371235 ], [ -90.616995158317408, 43.938668295982808 ], [ -90.623717343812089, 44.008472474748515 ], [ -90.526459603571624, 44.073021502192297 ], [ -90.506759602469927, 44.073211185764308 ], [ -90.505462402367357, 44.073215584678678 ], [ -90.427974465611314, 44.037198835759277 ], [ -90.4129135, 44.029558500000014 ], [ -90.3722379, 43.965666300000038 ], [ -90.3724142, 43.963448 ], [ -90.3769044, 43.958606400000015 ], [ -90.483255993562537, 43.889718292413605 ] ] ] } },
{ "type": "Feature", "properties": { "OBJECTID": 2786, "ID": "0012654451", "NAME": "MEMORIAL HEALTH CENTER CLINICS", "ADDRESS": "143 S GIBSON ST", "CITY": "MEDFORD", "STATE": "WI", "ZIP": "54451", "ZIP4": "NOT AVAILABLE", "TELEPHONE": "(715) 748-8100", "TYPE": "GENERAL ACUTE CARE", "STATUS": "CLOSED", "POPULATION": 124, "COUNTY": "TAYLOR", "COUNTYFIPS": "55119", "COUNTRY": "USA", "LATITUDE": 45.135088942000003, "LONGITUDE": -90.356140045999993, "NAICS_CODE": "622110", "NAICS_DESC": "GENERAL MEDICAL AND SURGICAL HOSPITALS", "SOURCE": "http://www.dhs.wisconsin.gov/bqaconsumer/healthcare/HospitalCty.pdf", "SOURCEDATE": "2013-07-10T00:00:00.000Z", "VAL_METHOD": "IMAGERY", "VAL_DATE": "2014-03-12T00:00:00.000Z", "WEBSITE": "http://www.memhc.com", "STATE_ID": "1027", "ALT_NAME": "NOT AVAILABLE", "ST_FIPS": "55", "OWNER": "NON-PROFIT", "TTL_STAFF": -999, "BEDS": 124, "TRAUMA": "NOT AVAILABLE", "HELIPAD": "Y" }, "geometry": { "type": "Polygon", "coordinates": [ [ [ -90.3557529, 45.061899200000056 ], [ -90.494385976584695, 45.130220511403387 ], [ -90.49443307396939, 45.132786410906164 ], [ -90.45386373233552, 45.161497205567336 ], [ -90.3737067, 45.205844499999948 ], [ -90.3088628, 45.22915 ], [ -90.2109848, 45.144175899999986 ], [ -90.304447, 45.070025 ], [ -90.3147651, 45.062598699999953 ], [ -90.3557529, 45.061899200000056 ] ] ] } },
{ "type": "Feature", "properties": { "OBJECTID": 2793, "ID": "0017853821", "NAME": "CROSSING RIVERS HEALTH MEDICAL CENTER", "ADDRESS": "37868 US HWY 18", "CITY": "PRAIRIE DU CHIEN", "STATE": "WI", "ZIP": "53821", "ZIP4": "NOT AVAILABLE", "TELEPHONE": "(608) 357-2000", "TYPE": "CRITICAL ACCESS", "STATUS": "OPEN", "POPULATION": 25, "COUNTY": "CRAWFORD", "COUNTYFIPS": "55023", "COUNTRY": "USA", "LATITUDE": 43.022206051000097, "LONGITUDE": -91.114399878, "NAICS_CODE": "622110", "NAICS_DESC": "GENERAL MEDICAL AND SURGICAL HOSPITALS", "SOURCE": "https://www.dhs.wisconsin.gov/guide/hospital.htm", "SOURCEDATE": "2018-08-13T00:00:00.000Z", "VAL_METHOD": "IMAGERY/OTHER", "VAL_DATE": "2016-02-02T00:00:00.000Z", "WEBSITE": "http://www.crossingrivers.org/clinics/crossing-rivers-health-clinic-prairie-du-chien.aspx", "STATE_ID": "1033", "ALT_NAME": "NOT AVAILABLE", "ST_FIPS": "55", "OWNER": "NON-PROFIT", "TTL_STAFF": -999, "BEDS": 25, "TRAUMA": "LEVEL IV", "HELIPAD": "Y" }, "geometry": { "type": "Polygon", "coordinates": [ [ [ -91.0509292, 42.999506099999934 ], [ -91.0654392, 43.001357 ], [ -91.1059916, 43.008267400000058 ], [ -91.130634, 43.012939 ], [ -91.176066600000013, 43.043984400000049 ], [ -91.1452139, 43.1065496 ], [ -91.14133870000002, 43.111593900000038 ], [ -90.9873346, 43.042621400000058 ], [ -90.989165, 43.0340773 ], [ -90.9913673, 43.032248399999979 ], [ -90.9960867, 43.02876089999998 ], [ -91.0509292, 42.999506099999934 ] ] ] } },
{ "type": "Feature", "properties": { "OBJECTID": 2802, "ID": "0002150659", "NAME": "MERCY MEDICAL CENTER-NEW HAMPTON", "ADDRESS": "308 NORTH MAPLE AVENUE", "CITY": "NEW HAMPTON", "STATE": "IA", "ZIP": "50659", "ZIP4": "NOT AVAILABLE", "TELEPHONE": "(641) 394-4121", "TYPE": "CRITICAL ACCESS", "STATUS": "OPEN", "POPULATION": 18, "COUNTY": "CHICKASAW", "COUNTYFIPS": "19037", "COUNTRY": "USA", "LATITUDE": 43.062713031999998, "LONGITUDE": -92.321544287999998, "NAICS_CODE": "622110", "NAICS_DESC": "GENERAL MEDICAL AND SURGICAL HOSPITALS", "SOURCE": "https://dia-hfd.iowa.gov/DIA_HFD/CTLEntitySearch.do", "SOURCEDATE": "2018-08-09T00:00:00.000Z", "VAL_METHOD": "IMAGERY", "VAL_DATE": "2016-04-15T00:00:00.000Z", "WEBSITE": "http://www.mercynewhampton.com", "STATE_ID": "NOT AVAILABLE", "ALT_NAME": "NOT AVAILABLE", "ST_FIPS": "19", "OWNER": "NON-PROFIT", "TTL_STAFF": -999, "BEDS": 18, "TRAUMA": "LEVEL IV", "HELIPAD": "Y" }, "geometry": { "type": "Polygon", "coordinates": [ [ [ -92.317709, 42.950756 ], [ -92.436743, 43.034768 ], [ -92.475619, 43.066737 ], [ -92.298741, 43.169207 ], [ -92.19058, 43.074121 ], [ -92.190429, 43.066825 ], [ -92.214135, 43.037419 ], [ -92.298234, 42.965278 ], [ -92.3172935, 42.9507638 ], [ -92.317709, 42.950756 ] ] ] } },
{ "type": "Feature", "properties": { "OBJECTID": 2812, "ID": "0013952722", "NAME": "UNITY POINT HEALTH TRINITY", "ADDRESS": "4500 UTICA RIDGE ROAD", "CITY": "BETTENDORF", "STATE": "IA", "ZIP": "52722", "ZIP4": "NOT AVAILABLE", "TELEPHONE": "(309) 779-5000", "TYPE": "GENERAL ACUTE CARE", "STATUS": "OPEN", "POPULATION": 139, "COUNTY": "SCOTT", "COUNTYFIPS": "19163", "COUNTRY": "USA", "LATITUDE": 41.566071805999997, "LONGITUDE": -90.519740060999894, "NAICS_CODE": "622110", "NAICS_DESC": "GENERAL MEDICAL AND SURGICAL HOSPITALS", "SOURCE": "https://dia-hfd.iowa.gov/DIA_HFD/CTLEntitySearch.do", "SOURCEDATE": "2018-08-09T00:00:00.000Z", "VAL_METHOD": "IMAGERY/OTHER", "VAL_DATE": "2016-04-15T00:00:00.000Z", "WEBSITE": "http://www.trinityqc.com", "STATE_ID": "NOT AVAILABLE", "ALT_NAME": "NOT AVAILABLE", "ST_FIPS": "19", "OWNER": "NON-PROFIT", "TTL_STAFF": -999, "BEDS": 139, "TRAUMA": "LEVEL IV", "HELIPAD": "Y" }, "geometry": { "type": "Polygon", "coordinates": [ [ [ -90.4893368, 41.4526005 ], [ -90.4967472, 41.452938300000028 ], [ -90.4988131, 41.453355699999989 ], [ -90.5859677, 41.5201567 ], [ -90.6257708, 41.560310300000054 ], [ -90.665224, 41.60376 ], [ -90.646619, 41.618607 ], [ -90.579661, 41.654715 ], [ -90.571943, 41.657631 ], [ -90.567978, 41.659059 ], [ -90.564286, 41.660251 ], [ -90.490686, 41.669864 ], [ -90.471271, 41.655422 ], [ -90.4125454, 41.5896376 ], [ -90.413601, 41.570884 ], [ -90.4759408, 41.470421 ], [ -90.4893368, 41.4526005 ] ] ] } },
{ "type": "Feature", "properties": { "OBJECTID": 2813, "ID": "0013852655", "NAME": "GREAT RIVER MEDICAL CENTER", "ADDRESS": "1221 SOUTH GEAR AVENUE", "CITY": "WEST BURLINGTON", "STATE": "IA", "ZIP": "52655", "ZIP4": "NOT AVAILABLE", "TELEPHONE": "(319) 768-1000", "TYPE": "GENERAL ACUTE CARE", "STATUS": "OPEN", "POPULATION": 213, "COUNTY": "DES MOINES", "COUNTYFIPS": "19057", "COUNTRY": "USA", "LATITUDE": 40.80934797, "LONGITUDE": -91.173080162000005, "NAICS_CODE": "622110", "NAICS_DESC": "GENERAL MEDICAL AND SURGICAL HOSPITALS", "SOURCE": "https://dia-hfd.iowa.gov/DIA_HFD/CTLEntitySearch.do", "SOURCEDATE": "2018-08-09T00:00:00.000Z", "VAL_METHOD": "IMAGERY/OTHER", "VAL_DATE": "2016-04-15T00:00:00.000Z", "WEBSITE": "http://www.greatrivermedical.org", "STATE_ID": "NOT AVAILABLE", "ALT_NAME": "NOT AVAILABLE", "ST_FIPS": "19", "OWNER": "NON-PROFIT", "TTL_STAFF": -999, "BEDS": 213, "TRAUMA": "LEVEL III", "HELIPAD": "Y" }, "geometry": { "type": "Polygon", "coordinates": [ [ [ -91.1812213, 40.731946599999986 ], [ -91.3281748, 40.8415844 ], [ -91.2507375, 40.880454400000026 ], [ -91.1709745, 40.888227400000019 ], [ -91.166188, 40.8884452 ], [ -91.135977, 40.876732 ], [ -91.1002903, 40.862261700000047 ], [ -91.0934832, 40.851347 ], [ -91.093445, 40.850114 ], [ -91.095237, 40.786704 ], [ -91.0959631, 40.77872610000005 ], [ -91.1166193, 40.758058800000057 ], [ -91.152672, 40.732799 ], [ -91.1812213, 40.731946599999986 ] ] ] } },
{ "type": "Feature", "properties": { "OBJECTID": 6069, "ID": "0005250702", "NAME": "COVENANT MEDICAL CENTER", "ADDRESS": "3421 WEST 9TH STREET", "CITY": "WATERLOO", "STATE": "IA", "ZIP": "50702", "ZIP4": "NOT AVAILABLE", "TELEPHONE": "(319) 272-8000", "TYPE": "GENERAL ACUTE CARE", "STATUS": "OPEN", "POPULATION": 346, "COUNTY": "BLACK HAWK", "COUNTYFIPS": "19013", "COUNTRY": "USA", "LATITUDE": 42.461182868999998, "LONGITUDE": -92.345873616999896, "NAICS_CODE": "622110", "NAICS_DESC": "GENERAL MEDICAL AND SURGICAL HOSPITALS", "SOURCE": "https://dia-hfd.iowa.gov/DIA_HFD/CTLEntitySearch.do", "SOURCEDATE": "2018-08-09T00:00:00.000Z", "VAL_METHOD": "IMAGERY/OTHER", "VAL_DATE": "2016-04-14T00:00:00.000Z", "WEBSITE": "http://www.wheatoniowa.org", "STATE_ID": "NOT AVAILABLE", "ALT_NAME": "NOT AVAILABLE", "ST_FIPS": "19", "OWNER": "NON-PROFIT", "TTL_STAFF": -999, "BEDS": 346, "TRAUMA": "LEVEL III", "HELIPAD": "Y" }, "geometry": { "type": "Polygon", "coordinates": [ [ [ -92.3472341, 42.369962 ], [ -92.452617, 42.408088299999989 ], [ -92.5270132, 42.4641204 ], [ -92.4167058, 42.5377994 ], [ -92.3954782, 42.546879799999942 ], [ -92.337445, 42.55595510000002 ], [ -92.183442, 42.449582100000022 ], [ -92.218359800000016, 42.4241067 ], [ -92.2569932, 42.399682900000023 ], [ -92.3472341, 42.369962 ] ] ] } },
{ "type": "Feature", "properties": { "OBJECTID": 6351, "ID": "0005450644", "NAME": "MENTAL HEALTH INSITUTE HOSPITAL", "ADDRESS": "2277 IOWA AVENUE", "CITY": "INDEPENDENCE", "STATE": "IA", "ZIP": "50644", "ZIP4": "NOT AVAILABLE", "TELEPHONE": "(319) 334-2583", "TYPE": "PSYCHIATRIC", "STATUS": "OPEN", "POPULATION": 95, "COUNTY": "BUCHANAN", "COUNTYFIPS": "19019", "COUNTRY": "USA", "LATITUDE": 42.456961191000097, "LONGITUDE": -91.926236697999997, "NAICS_CODE": "622110", "NAICS_DESC": "GENERAL MEDICAL AND SURGICAL HOSPITALS", "SOURCE": "https://dia-hfd.iowa.gov/DIA_HFD/CTLEntitySearch.do", "SOURCEDATE": "2018-08-09T00:00:00.000Z", "VAL_METHOD": "IMAGERY/OTHER", "VAL_DATE": "2016-04-14T00:00:00.000Z", "WEBSITE": "http://www.dhs.state.ia.us", "STATE_ID": "NOT AVAILABLE", "ALT_NAME": "INDEPENDENCE STATE HOSPITAL", "ST_FIPS": "19", "OWNER": "GOVERNMENT - STATE", "TTL_STAFF": -999, "BEDS": 95, "TRAUMA": "NOT AVAILABLE", "HELIPAD": "N" }, "geometry": { "type": "Polygon", "coordinates": [ [ [ -91.8893197, 42.370850900000015 ], [ -92.0553031, 42.42805 ], [ -92.0642902, 42.442447299999969 ], [ -92.06779521185446, 42.468214393500261 ], [ -92.061180188058728, 42.473204575558682 ], [ -91.983609, 42.497055 ], [ -91.8898321, 42.519599899999974 ], [ -91.746909249156332, 42.461420336898712 ], [ -91.8893197, 42.370850900000015 ] ] ] } },
{ "type": "Feature", "properties": { "OBJECTID": 6352, "ID": "0092452001", "NAME": "UNITYPOINT HEALTHCARE-FINLEY HOSPITAL", "ADDRESS": "350 NORTH GRANDVIEW AVENUE", "CITY": "DUBUQUE", "STATE": "IA", "ZIP": "52001", "ZIP4": "NOT AVAILABLE", "TELEPHONE": "(563) 582-1881", "TYPE": "GENERAL ACUTE CARE", "STATUS": "OPEN", "POPULATION": 142, "COUNTY": "DUBUQUE", "COUNTYFIPS": "19061", "COUNTRY": "USA", "LATITUDE": 42.496256981999998, "LONGITUDE": -90.686159015000001, "NAICS_CODE": "622110", "NAICS_DESC": "GENERAL MEDICAL AND SURGICAL HOSPITALS", "SOURCE": "https://dia-hfd.iowa.gov/DIA_HFD/CTLEntitySearch.do", "SOURCEDATE": "2018-08-09T00:00:00.000Z", "VAL_METHOD": "IMAGERY/OTHER", "VAL_DATE": "2016-04-15T00:00:00.000Z", "WEBSITE": "http://www.finleyhospital.org", "STATE_ID": "NOT AVAILABLE", "ALT_NAME": "NOT AVAILABLE", "ST_FIPS": "19", "OWNER": "NOT AVAILABLE", "TTL_STAFF": -999, "BEDS": 142, "TRAUMA": "LEVEL III", "HELIPAD": "Y" }, "geometry": { "type": "Polygon", "coordinates": [ [ [ -90.693146853674719, 42.407862395480045 ], [ -90.794893760972542, 42.439813809561073 ], [ -90.798442687159408, 42.481628660038439 ], [ -90.789568310157605, 42.500018030263206 ], [ -90.744528280203809, 42.555346485162517 ], [ -90.717226994400804, 42.56570978398706 ], [ -90.693056788192592, 42.559323777931574 ], [ -90.684226985242901, 42.556499275464354 ], [ -90.659243273505965, 42.546024867251894 ], [ -90.650566868590374, 42.541816564051189 ], [ -90.644800162754052, 42.537039861089042 ], [ -90.621253265586773, 42.43365631030543 ], [ -90.628179944972871, 42.418630920685317 ], [ -90.693146853674719, 42.407862395480045 ] ] ] } },
{ "type": "Feature", "properties": { "OBJECTID": 6382, "ID": "0095152001", "NAME": "MERCY MEDICAL CENTER-DUBUQUE", "ADDRESS": "250 MERCY DRIVE", "CITY": "DUBUQUE", "STATE": "IA", "ZIP": "52001", "ZIP4": "NOT AVAILABLE", "TELEPHONE": "(563) 589-8000", "TYPE": "GENERAL ACUTE CARE", "STATUS": "OPEN", "POPULATION": 303, "COUNTY": "DUBUQUE", "COUNTYFIPS": "19061", "COUNTRY": "USA", "LATITUDE": 42.492505643000101, "LONGITUDE": -90.674778626999995, "NAICS_CODE": "622110", "NAICS_DESC": "GENERAL MEDICAL AND SURGICAL HOSPITALS", "SOURCE": "https://dia-hfd.iowa.gov/DIA_HFD/CTLEntitySearch.do", "SOURCEDATE": "2018-08-09T00:00:00.000Z", "VAL_METHOD": "IMAGERY/OTHER", "VAL_DATE": "2016-04-15T00:00:00.000Z", "WEBSITE": "http://www.mercydubuque.com", "STATE_ID": "NOT AVAILABLE", "ALT_NAME": "NOT AVAILABLE", "ST_FIPS": "19", "OWNER": "NOT AVAILABLE", "TTL_STAFF": -999, "BEDS": 303, "TRAUMA": "LEVEL III", "HELIPAD": "Y" }, "geometry": { "type": "Polygon", "coordinates": [ [ [ -90.694462998703798, 42.39801216754563 ], [ -90.694947995179731, 42.398134266613781 ], [ -90.733826161404238, 42.412305460185998 ], [ -90.794893760972542, 42.439813809561073 ], [ -90.798442687159408, 42.481628660038439 ], [ -90.789568310157605, 42.500018030263206 ], [ -90.763318744032844, 42.526213595689534 ], [ -90.740055568929563, 42.545658681452196 ], [ -90.712633585548872, 42.55817198075362 ], [ -90.710941086121281, 42.558555180602788 ], [ -90.693056788192592, 42.559323777931574 ], [ -90.68443748580502, 42.556961975666646 ], [ -90.659243273505965, 42.546024867251894 ], [ -90.650566868590374, 42.541816564051189 ], [ -90.644800162754052, 42.537039861089042 ], [ -90.612238168164382, 42.409130091821289 ], [ -90.693850702326557, 42.398009667611134 ], [ -90.694462998703798, 42.39801216754563 ] ] ] } },
{ "type": "Feature", "properties": { "OBJECTID": 6386, "ID": "0013752632", "NAME": "KEOKUK AREA HOSPITAL", "ADDRESS": "1600 MORGAN STREET", "CITY": "KEOKUK", "STATE": "IA", "ZIP": "52632", "ZIP4": "NOT AVAILABLE", "TELEPHONE": "(319) 524-7150", "TYPE": "GENERAL ACUTE CARE", "STATUS": "OPEN", "POPULATION": 71, "COUNTY": "LEE", "COUNTYFIPS": "19111", "COUNTRY": "USA", "LATITUDE": 40.406943245999997, "LONGITUDE": -91.387053597000005, "NAICS_CODE": "622110", "NAICS_DESC": "GENERAL MEDICAL AND SURGICAL HOSPITALS", "SOURCE": "https://dia-hfd.iowa.gov/DIA_HFD/CTLEntitySearch.do", "SOURCEDATE": "2018-08-09T00:00:00.000Z", "VAL_METHOD": "IMAGERY/OTHER", "VAL_DATE": "2016-04-15T00:00:00.000Z", "WEBSITE": "http://www.keokukhealthsystems.org", "STATE_ID": "NOT AVAILABLE", "ALT_NAME": "NOT AVAILABLE", "ST_FIPS": "19", "OWNER": "NON-PROFIT", "TTL_STAFF": -999, "BEDS": 71, "TRAUMA": "LEVEL IV", "HELIPAD": "Y" }, "geometry": { "type": "Polygon", "coordinates": [ [ [ -91.4379402, 40.384408899999947 ], [ -91.4525503, 40.39498659999996 ], [ -91.4891578, 40.422594199999978 ], [ -91.4836317, 40.44244 ], [ -91.4460205, 40.4943451 ], [ -91.443761, 40.4943325 ], [ -91.395844, 40.4937895 ], [ -91.377346200000019, 40.493529500000015 ], [ -91.3750541, 40.396207799999956 ], [ -91.379004200000011, 40.3914491 ], [ -91.3821279, 40.389663400000011 ], [ -91.3974505, 40.3867064 ], [ -91.4379402, 40.384408899999947 ] ] ] } },
{ "type": "Feature", "properties": { "OBJECTID": 6388, "ID": "0094952556", "NAME": "JEFFERSON COUNTY HEALTH CENTER", "ADDRESS": "2000 S MAIN", "CITY": "FAIRFIELD", "STATE": "IA", "ZIP": "52556", "ZIP4": "NOT AVAILABLE", "TELEPHONE": "(641) 472-4111", "TYPE": "CRITICAL ACCESS", "STATUS": "OPEN", "POPULATION": 25, "COUNTY": "JEFFERSON", "COUNTYFIPS": "19101", "COUNTRY": "USA", "LATITUDE": 40.986462433, "LONGITUDE": -91.965548697000003, "NAICS_CODE": "622110", "NAICS_DESC": "GENERAL MEDICAL AND SURGICAL HOSPITALS", "SOURCE": "https://dia-hfd.iowa.gov/DIA_HFD/CTLEntitySearch.do", "SOURCEDATE": "2018-08-09T00:00:00.000Z", "VAL_METHOD": "IMAGERY/OTHER", "VAL_DATE": "2016-04-15T00:00:00.000Z", "WEBSITE": "NOT AVAILABLE", "STATE_ID": "NOT AVAILABLE", "ALT_NAME": "NOT AVAILABLE", "ST_FIPS": "19", "OWNER": "GOVERNMENT - LOCAL", "TTL_STAFF": -999, "BEDS": 25, "TRAUMA": "LEVEL IV", "HELIPAD": "Y" }, "geometry": { "type": "Polygon", "coordinates": [ [ [ -91.9486054, 40.878034500000048 ], [ -92.063923, 40.943655 ], [ -92.128913, 41.006201 ], [ -92.091429, 41.030548 ], [ -91.992124600000011, 41.0610082 ], [ -91.96807, 41.067707 ], [ -91.959847, 41.06777 ], [ -91.91586, 41.064362 ], [ -91.833003, 41.024819 ], [ -91.794923, 40.994899 ], [ -91.79715, 40.987584 ], [ -91.947177300000021, 40.8789738 ], [ -91.9486054, 40.878034500000048 ] ] ] } },
{ "type": "Feature", "properties": { "OBJECTID": 6389, "ID": "0095652172", "NAME": "VETERANS MEMORIAL HOSPITAL", "ADDRESS": "40 1ST STREET SE", "CITY": "WAUKON", "STATE": "IA", "ZIP": "52172", "ZIP4": "NOT AVAILABLE", "TELEPHONE": "(563) 568-3411", "TYPE": "CRITICAL ACCESS", "STATUS": "OPEN", "POPULATION": 25, "COUNTY": "ALLAMAKEE", "COUNTYFIPS": "19005", "COUNTRY": "USA", "LATITUDE": 43.26867508, "LONGITUDE": -91.474110992000007, "NAICS_CODE": "622110", "NAICS_DESC": "GENERAL MEDICAL AND SURGICAL HOSPITALS", "SOURCE": "https://dia-hfd.iowa.gov/DIA_HFD/CTLEntitySearch.do", "SOURCEDATE": "2018-08-09T00:00:00.000Z", "VAL_METHOD": "IMAGERY/OTHER", "VAL_DATE": "2016-04-15T00:00:00.000Z", "WEBSITE": "http://www.vmhospital.com", "STATE_ID": "NOT AVAILABLE", "ALT_NAME": "NOT AVAILABLE", "ST_FIPS": "19", "OWNER": "NOT AVAILABLE", "TTL_STAFF": -999, "BEDS": 25, "TRAUMA": "LEVEL IV", "HELIPAD": "Y" }, "geometry": { "type": "Polygon", "coordinates": [ [ [ -91.456292, 43.184175 ], [ -91.5270927, 43.2114835 ], [ -91.567696900000016, 43.2406867 ], [ -91.586892, 43.254976 ], [ -91.587179, 43.269452 ], [ -91.587277, 43.280246 ], [ -91.5873018, 43.283822899999954 ], [ -91.5470423, 43.320003899999982 ], [ -91.5058608, 43.352070499999968 ], [ -91.4963186, 43.354855299999933 ], [ -91.4422745, 43.353598500000011 ], [ -91.389263600000021, 43.3397096 ], [ -91.3466992, 43.261643 ], [ -91.3993736, 43.2007412 ], [ -91.409447, 43.193277 ], [ -91.456292, 43.184175 ] ] ] } },
{ "type": "Feature", "properties": { "OBJECTID": 6394, "ID": "0017152241", "NAME": "IOWA MEDICAL AND CLASSIFICATION CENTER", "ADDRESS": "2700 CORAL RIDGE AVENUE", "CITY": "CORALVILLE", "STATE": "IA", "ZIP": "52241", "ZIP4": "NOT AVAILABLE", "TELEPHONE": "(319) 626-2391", "TYPE": "GENERAL ACUTE CARE", "STATUS": "OPEN", "POPULATION": 46, "COUNTY": "JOHNSON", "COUNTYFIPS": "19103", "COUNTRY": "USA", "LATITUDE": 41.713638062000001, "LONGITUDE": -91.61097519, "NAICS_CODE": "622110", "NAICS_DESC": "GENERAL MEDICAL AND SURGICAL HOSPITALS", "SOURCE": "https://dia-hfd.iowa.gov/DIA_HFD/CTLEntitySearch.do", "SOURCEDATE": "2018-08-09T00:00:00.000Z", "VAL_METHOD": "IMAGERY/OTHER", "VAL_DATE": "2016-04-15T00:00:00.000Z", "WEBSITE": "http://oakdaleprison.com/", "STATE_ID": "NOT AVAILABLE", "ALT_NAME": "NOT AVAILABLE", "ST_FIPS": "19", "OWNER": "GOVERNMENT - STATE", "TTL_STAFF": -999, "BEDS": 46, "TRAUMA": "NOT AVAILABLE", "HELIPAD": "N" }, "geometry": { "type": "Polygon", "coordinates": [ [ [ -91.57404495821504, 41.651616366319701 ], [ -91.592798, 41.653273 ], [ -91.6087279, 41.65713140000004 ], [ -91.663421, 41.672154 ], [ -91.6906968, 41.687407 ], [ -91.700497, 41.712706 ], [ -91.6855787, 41.760199100000023 ], [ -91.666207, 41.81418 ], [ -91.546846606060498, 41.788608783631148 ], [ -91.544352633000571, 41.786041881197875 ], [ -91.4944836, 41.6939595 ], [ -91.4917923, 41.686510799999951 ], [ -91.525689943148436, 41.667932390638697 ], [ -91.527767234835451, 41.666860977100271 ], [ -91.530108925494829, 41.665766361518344 ], [ -91.57404495821504, 41.651616366319701 ] ] ] } },
{ "type": "Feature", "properties": { "OBJECTID": 6398, "ID": "0003350574", "NAME": "POCAHONTAS COMMUNITY HOSPITAL", "ADDRESS": "606 NORTHWEST 7TH", "CITY": "POCAHONTAS", "STATE": "IA", "ZIP": "50574", "ZIP4": "NOT AVAILABLE", "TELEPHONE": "(712) 335-3501", "TYPE": "CRITICAL ACCESS", "STATUS": "OPEN", "POPULATION": 25, "COUNTY": "POCAHONTAS", "COUNTYFIPS": "19151", "COUNTRY": "USA", "LATITUDE": 42.7410247870001, "LONGITUDE": -94.677875013999895, "NAICS_CODE": "622110", "NAICS_DESC": "GENERAL MEDICAL AND SURGICAL HOSPITALS", "SOURCE": "https://dia-hfd.iowa.gov/DIA_HFD/CTLEntitySearch.do", "SOURCEDATE": "2018-08-09T00:00:00.000Z", "VAL_METHOD": "IMAGERY", "VAL_DATE": "2016-04-18T00:00:00.000Z", "WEBSITE": "http://www.pocahontashospital.org", "STATE_ID": "NOT AVAILABLE", "ALT_NAME": "NOT AVAILABLE", "ST_FIPS": "19", "OWNER": "GOVERNMENT - LOCAL", "TTL_STAFF": -999, "BEDS": 25, "TRAUMA": "LEVEL IV", "HELIPAD": "Y" }, "geometry": { "type": "Polygon", "coordinates": [ [ [ -94.678388, 42.645235 ], [ -94.835801, 42.733163 ], [ -94.703122, 42.831754 ], [ -94.69965, 42.832826 ], [ -94.678926, 42.834832 ], [ -94.658979, 42.820466 ], [ -94.639105, 42.804743 ], [ -94.560856, 42.732725 ], [ -94.580491, 42.71767 ], [ -94.619142, 42.688844 ], [ -94.658398, 42.659824 ], [ -94.678388, 42.645235 ] ] ] } },
{ "type": "Feature", "properties": { "OBJECTID": 6403, "ID": "0092750525", "NAME": "IOWA SPECIALTY HOSPITAL-CLARION", "ADDRESS": "1316 SOUTH MAIN STREET", "CITY": "CLARION", "STATE": "IA", "ZIP": "50525", "ZIP4": "NOT AVAILABLE", "TELEPHONE": "(515) 532-2811", "TYPE": "CRITICAL ACCESS", "STATUS": "OPEN", "POPULATION": 25, "COUNTY": "WRIGHT", "COUNTYFIPS": "19197", "COUNTRY": "USA", "LATITUDE": 42.721400033000101, "LONGITUDE": -93.733247062999993, "NAICS_CODE": "622310", "NAICS_DESC": "SPECIALTY (EXCEPT PSYCHIATRIC AND SUBSTANCE ABUSE) HOSPITALS", "SOURCE": "https://dia-hfd.iowa.gov/DIA_HFD/CTLEntitySearch.do", "SOURCEDATE": "2018-08-09T00:00:00.000Z", "VAL_METHOD": "IMAGERY/OTHER", "VAL_DATE": "2016-04-19T00:00:00.000Z", "WEBSITE": "NOT AVAILABLE", "STATE_ID": "NOT AVAILABLE", "ALT_NAME": "NOT AVAILABLE", "ST_FIPS": "19", "OWNER": "PROPRIETARY", "TTL_STAFF": -999, "BEDS": 25, "TRAUMA": "LEVEL IV", "HELIPAD": "Y" }, "geometry": { "type": "Polygon", "coordinates": [ [ [ -93.735119700000013, 42.62991980000001 ], [ -93.7745535, 42.659146399999983 ], [ -93.8336583, 42.716860399999987 ], [ -93.8337114, 42.746245 ], [ -93.833653, 42.753511200000013 ], [ -93.7546811, 42.7968624 ], [ -93.7147952, 42.79680339999998 ], [ -93.6172286, 42.752017500000036 ], [ -93.6068373, 42.745726 ], [ -93.6065768, 42.7313156 ], [ -93.6369741, 42.695305900000029 ], [ -93.735119700000013, 42.62991980000001 ] ] ] } },
{ "type": "Feature", "properties": { "OBJECTID": 6404, "ID": "0092650421", "NAME": "IOWA SPECIALTY HOSPITAL - BELMOND", "ADDRESS": "403 FIRST STREET SE", "CITY": "BELMOND", "STATE": "IA", "ZIP": "50421", "ZIP4": "NOT AVAILABLE", "TELEPHONE": "(641) 444-3223", "TYPE": "CRITICAL ACCESS", "STATUS": "OPEN", "POPULATION": 22, "COUNTY": "WRIGHT", "COUNTYFIPS": "19197", "COUNTRY": "USA", "LATITUDE": 42.845270661000001, "LONGITUDE": -93.612283485999995, "NAICS_CODE": "622310", "NAICS_DESC": "SPECIALTY (EXCEPT PSYCHIATRIC AND SUBSTANCE ABUSE) HOSPITALS", "SOURCE": "https://dia-hfd.iowa.gov/DIA_HFD/CTLEntitySearch.do", "SOURCEDATE": "2018-08-09T00:00:00.000Z", "VAL_METHOD": "IMAGERY/OTHER", "VAL_DATE": "2016-04-19T00:00:00.000Z", "WEBSITE": "http://www.iowaspecialtyhospital.com/", "STATE_ID": "NOT AVAILABLE", "ALT_NAME": "NOT AVAILABLE", "ST_FIPS": "19", "OWNER": "PROPRIETARY", "TTL_STAFF": -999, "BEDS": 22, "TRAUMA": "LEVEL IV", "HELIPAD": "Y" }, "geometry": { "type": "Polygon", "coordinates": [ [ [ -93.633194, 42.731560400000063 ], [ -93.6834936, 42.7860106 ], [ -93.7147861, 42.863032799999971 ], [ -93.6164118, 42.9664852 ], [ -93.518385, 42.863376600000024 ], [ -93.5186804, 42.8487815 ], [ -93.5383076, 42.8039036 ], [ -93.5839179, 42.745832200000031 ], [ -93.6154009, 42.731339499999983 ], [ -93.633194, 42.731560400000063 ] ] ] } },
{ "type": "Feature", "properties": { "OBJECTID": 6405, "ID": "0011352353", "NAME": "WASHINGTON COUNTY HOSPITAL", "ADDRESS": "400 EAST POLK, PO BOX 909", "CITY": "WASHINGTON", "STATE": "IA", "ZIP": "52353", "ZIP4": "NOT AVAILABLE", "TELEPHONE": "(319) 653-5481", "TYPE": "CRITICAL ACCESS", "STATUS": "OPEN", "POPULATION": 25, "COUNTY": "WASHINGTON", "COUNTYFIPS": "19183", "COUNTRY": "USA", "LATITUDE": 41.289248358000101, "LONGITUDE": -91.687642186999895, "NAICS_CODE": "622110", "NAICS_DESC": "GENERAL MEDICAL AND SURGICAL HOSPITALS", "SOURCE": "https://dia-hfd.iowa.gov/DIA_HFD/CTLEntitySearch.do", "SOURCEDATE": "2018-08-09T00:00:00.000Z", "VAL_METHOD": "IMAGERY", "VAL_DATE": "2016-04-19T00:00:00.000Z", "WEBSITE": "http://www.wchc.org", "STATE_ID": "NOT AVAILABLE", "ALT_NAME": "NOT AVAILABLE", "ST_FIPS": "19", "OWNER": "GOVERNMENT - LOCAL", "TTL_STAFF": -999, "BEDS": 25, "TRAUMA": "LEVEL IV", "HELIPAD": "Y" }, "geometry": { "type": "Polygon", "coordinates": [ [ [ -91.7118913, 41.19925079999998 ], [ -91.772209800000013, 41.234942599999982 ], [ -91.812094, 41.292674 ], [ -91.7688829, 41.345869 ], [ -91.7155492, 41.380799100000011 ], [ -91.647018700000018, 41.366601100000018 ], [ -91.6194069, 41.337814 ], [ -91.575892319034153, 41.290518016256044 ], [ -91.576266719216392, 41.289714715793835 ], [ -91.6105789, 41.2579418 ], [ -91.6643714, 41.214132799999959 ], [ -91.7118913, 41.19925079999998 ] ] ] } },
{ "type": "Feature", "properties": { "OBJECTID": 6407, "ID": "0000652101", "NAME": "WINNESHIEK COUNTY MEMORIAL HOSPITAL", "ADDRESS": "901 MONTGOMERY STREET", "CITY": "DECORAH", "STATE": "IA", "ZIP": "52101", "ZIP4": "NOT AVAILABLE", "TELEPHONE": "(563) 382-2911", "TYPE": "CRITICAL ACCESS", "STATUS": "OPEN", "POPULATION": 25, "COUNTY": "WINNESHIEK", "COUNTYFIPS": "19191", "COUNTRY": "USA", "LATITUDE": 43.294645492000001, "LONGITUDE": -91.774273476999994, "NAICS_CODE": "622110", "NAICS_DESC": "GENERAL MEDICAL AND SURGICAL HOSPITALS", "SOURCE": "https://dia-hfd.iowa.gov/DIA_HFD/CTLEntitySearch.do", "SOURCEDATE": "2018-08-09T00:00:00.000Z", "VAL_METHOD": "IMAGERY", "VAL_DATE": "2016-04-19T00:00:00.000Z", "WEBSITE": "http://www.winmedical.org", "STATE_ID": "NOT AVAILABLE", "ALT_NAME": "NOT AVAILABLE", "ST_FIPS": "19", "OWNER": "GOVERNMENT - LOCAL", "TTL_STAFF": -999, "BEDS": 25, "TRAUMA": "LEVEL IV", "HELIPAD": "Y" }, "geometry": { "type": "Polygon", "coordinates": [ [ [ -91.806308, 43.226889 ], [ -91.85731, 43.24094 ], [ -91.903162, 43.284365 ], [ -91.883256, 43.31335 ], [ -91.804729, 43.371135 ], [ -91.760099, 43.352462 ], [ -91.708223, 43.323588 ], [ -91.684139, 43.291352 ], [ -91.694284, 43.242783 ], [ -91.806308, 43.226889 ] ] ] } },
{ "type": "Feature", "properties": { "OBJECTID": 6469, "ID": "0002050511", "NAME": "KOSSUTH COUNTY HOSPITAL", "ADDRESS": "1515 SOUTH PHILLIPS", "CITY": "ALGONA", "STATE": "IA", "ZIP": "50511", "ZIP4": "NOT AVAILABLE", "TELEPHONE": "(515) 295-2451", "TYPE": "CRITICAL ACCESS", "STATUS": "OPEN", "POPULATION": 25, "COUNTY": "KOSSUTH", "COUNTYFIPS": "19109", "COUNTRY": "USA", "LATITUDE": 43.056565217000099, "LONGITUDE": -94.22581258, "NAICS_CODE": "622110", "NAICS_DESC": "GENERAL MEDICAL AND SURGICAL HOSPITALS", "SOURCE": "https://dia-hfd.iowa.gov/DIA_HFD/CTLEntitySearch.do", "SOURCEDATE": "2018-08-09T00:00:00.000Z", "VAL_METHOD": "IMAGERY/OTHER", "VAL_DATE": "2016-04-15T00:00:00.000Z", "WEBSITE": "http://www.krhc.com", "STATE_ID": "NOT AVAILABLE", "ALT_NAME": "NOT AVAILABLE", "ST_FIPS": "19", "OWNER": "GOVERNMENT - LOCAL", "TTL_STAFF": -999, "BEDS": 25, "TRAUMA": "LEVEL IV", "HELIPAD": "Y" }, "geometry": { "type": "Polygon", "coordinates": [ [ [ -94.227004, 42.94036 ], [ -94.2468282, 42.951540299999962 ], [ -94.2962929, 43.00941710000005 ], [ -94.344377, 43.067394 ], [ -94.236517, 43.175756 ], [ -94.11855, 43.082901 ], [ -94.108735, 43.066689 ], [ -94.148536, 43.009252 ], [ -94.227004, 42.94036 ] ] ] } },
{ "type": "Feature", "properties": { "OBJECTID": 6513, "ID": "0003550548", "NAME": "HUMBOLDT COUNTY MEMORIAL HOSPITAL", "ADDRESS": "1000 15TH STREET NORTH", "CITY": "HUMBOLDT", "STATE": "IA", "ZIP": "50548", "ZIP4": "NOT AVAILABLE", "TELEPHONE": "(515) 332-4200", "TYPE": "CRITICAL ACCESS", "STATUS": "OPEN", "POPULATION": 49, "COUNTY": "HUMBOLDT", "COUNTYFIPS": "19091", "COUNTRY": "USA", "LATITUDE": 42.732697408999996, "LONGITUDE": -94.232213912000006, "NAICS_CODE": "622110", "NAICS_DESC": "GENERAL MEDICAL AND SURGICAL HOSPITALS", "SOURCE": "https://dia-hfd.iowa.gov/DIA_HFD/CTLEntitySearch.do", "SOURCEDATE": "2018-08-09T00:00:00.000Z", "VAL_METHOD": "IMAGERY/OTHER", "VAL_DATE": "2016-04-15T00:00:00.000Z", "WEBSITE": "http://www.humboldthospital.org", "STATE_ID": "NOT AVAILABLE", "ALT_NAME": "NOT AVAILABLE", "ST_FIPS": "19", "OWNER": "GOVERNMENT - LOCAL", "TTL_STAFF": -999, "BEDS": 49, "TRAUMA": "LEVEL IV", "HELIPAD": "Y" }, "geometry": { "type": "Polygon", "coordinates": [ [ [ -94.227381, 42.623118400000024 ], [ -94.3453289, 42.716952600000013 ], [ -94.364278, 42.732212 ], [ -94.22728, 42.848612 ], [ -94.090046, 42.731644 ], [ -94.227381, 42.623118400000024 ] ] ] } },
{ "type": "Feature", "properties": { "OBJECTID": 6533, "ID": "0004550126", "NAME": "ELLSWORTH MUNICIPAL HOSPITAL", "ADDRESS": "110 ROCKSYLVANIA AVENUE", "CITY": "IOWA FALLS", "STATE": "IA", "ZIP": "50126", "ZIP4": "NOT AVAILABLE", "TELEPHONE": "(515) 648-4631", "TYPE": "GENERAL ACUTE CARE", "STATUS": "CLOSED", "POPULATION": 23, "COUNTY": "HARDIN", "COUNTYFIPS": "19083", "COUNTRY": "USA", "LATITUDE": 42.522028466000101, "LONGITUDE": -93.259525745000005, "NAICS_CODE": "622110", "NAICS_DESC": "GENERAL MEDICAL AND SURGICAL HOSPITALS", "SOURCE": "ftp://ftp.igsb.uiowa.edu/gis_library/IA_State/Infrastructure/", "SOURCEDATE": "2012-06-05T00:00:00.000Z", "VAL_METHOD": "IMAGERY/OTHER", "VAL_DATE": "2014-01-07T00:00:00.000Z", "WEBSITE": "http://www.emhia.com", "STATE_ID": "NOT AVAILABLE", "ALT_NAME": "NOT AVAILABLE", "ST_FIPS": "19", "OWNER": "GOVERNMENT - LOCAL", "TTL_STAFF": -999, "BEDS": 23, "TRAUMA": "LEVEL IV", "HELIPAD": "Y" }, "geometry": { "type": "Polygon", "coordinates": [ [ [ -93.2612305, 42.419179699999972 ], [ -93.310049, 42.455389199999956 ], [ -93.3809468, 42.514209700000023 ], [ -93.3826333, 42.5173244 ], [ -93.3826292, 42.521294 ], [ -93.3409287, 42.55743540000001 ], [ -93.3308246, 42.564663200000027 ], [ -93.2619111, 42.6006868 ], [ -93.2047777, 42.586505900000041 ], [ -93.1641869, 42.556843200000017 ], [ -93.1240822, 42.5224056 ], [ -93.2612305, 42.419179699999972 ] ] ] } },
{ "type": "Feature", "properties": { "OBJECTID": 6550, "ID": "0002750674", "NAME": "COMMUNITY MEMORIAL HOSPITAL", "ADDRESS": "909 WEST 1ST STREET", "CITY": "SUMNER", "STATE": "IA", "ZIP": "50674", "ZIP4": "NOT AVAILABLE", "TELEPHONE": "(563) 578-3275", "TYPE": "CRITICAL ACCESS", "STATUS": "OPEN", "POPULATION": 25, "COUNTY": "BREMER", "COUNTYFIPS": "19017", "COUNTRY": "USA", "LATITUDE": 42.846981857000102, "LONGITUDE": -92.109229353000003, "NAICS_CODE": "622110", "NAICS_DESC": "GENERAL MEDICAL AND SURGICAL HOSPITALS", "SOURCE": "https://dia-hfd.iowa.gov/DIA_HFD/CTLEntitySearch.do", "SOURCEDATE": "2018-08-09T00:00:00.000Z", "VAL_METHOD": "IMAGERY/OTHER", "VAL_DATE": "2016-04-15T00:00:00.000Z", "WEBSITE": "http://www.cmhsumner.org", "STATE_ID": "NOT AVAILABLE", "ALT_NAME": "NOT AVAILABLE", "ST_FIPS": "19", "OWNER": "NON-PROFIT", "TTL_STAFF": -999, "BEDS": 25, "TRAUMA": "LEVEL IV", "HELIPAD": "Y" }, "geometry": { "type": "Polygon", "coordinates": [ [ [ -92.140596, 42.743975 ], [ -92.2531316, 42.847373900000022 ], [ -92.180781, 42.891081 ], [ -92.1444154, 42.906830499999984 ], [ -92.101134, 42.921329 ], [ -92.022962, 42.883883 ], [ -91.963691, 42.847423 ], [ -91.983581, 42.832918 ], [ -92.140596, 42.743975 ] ] ] } },
{ "type": "Feature", "properties": { "OBJECTID": 6553, "ID": "0007452403", "NAME": "MERCY MEDICAL CENTER", "ADDRESS": "701 TENTH STREET SE", "CITY": "CEDAR RAPIDS", "STATE": "IA", "ZIP": "52403", "ZIP4": "NOT AVAILABLE", "TELEPHONE": "(319) 398-6011", "TYPE": "GENERAL ACUTE CARE", "STATUS": "OPEN", "POPULATION": 454, "COUNTY": "LINN", "COUNTYFIPS": "19113", "COUNTRY": "USA", "LATITUDE": 41.978256465000101, "LONGITUDE": -91.655828564000004, "NAICS_CODE": "622110", "NAICS_DESC": "GENERAL MEDICAL AND SURGICAL HOSPITALS", "SOURCE": "https://dia-hfd.iowa.gov/DIA_HFD/CTLEntitySearch.do", "SOURCEDATE": "2018-08-09T00:00:00.000Z", "VAL_METHOD": "IMAGERY/OTHER", "VAL_DATE": "2016-04-15T00:00:00.000Z", "WEBSITE": "http://www.mercycare.org", "STATE_ID": "NOT AVAILABLE", "ALT_NAME": "NOT AVAILABLE", "ST_FIPS": "19", "OWNER": "NON-PROFIT", "TTL_STAFF": -999, "BEDS": 454, "TRAUMA": "LEVEL III", "HELIPAD": "Y" }, "geometry": { "type": "Polygon", "coordinates": [ [ [ -91.669506, 41.847882 ], [ -91.7743842, 41.9289473 ], [ -91.7877754, 41.963367 ], [ -91.770087600000011, 42.016382500000027 ], [ -91.710294, 42.091793 ], [ -91.701487300000011, 42.096727499999986 ], [ -91.692734, 42.094504 ], [ -91.547727332280019, 42.019667097322731 ], [ -91.526546891366692, 41.975900456975694 ], [ -91.525684908522464, 41.973571029955018 ], [ -91.529879010871014, 41.965757445628988 ], [ -91.542408716432206, 41.943551973263695 ], [ -91.544675915550755, 41.940065020847214 ], [ -91.669506, 41.847882 ] ] ] } },
{ "type": "Feature", "properties": { "OBJECTID": 6556, "ID": "0008752245", "NAME": "MERCY HOSPITAL", "ADDRESS": "500 EAST MARKET STREET", "CITY": "IOWA CITY", "STATE": "IA", "ZIP": "52245", "ZIP4": "NOT AVAILABLE", "TELEPHONE": "(319) 339-3540", "TYPE": "GENERAL ACUTE CARE", "STATUS": "OPEN", "POPULATION": 234, "COUNTY": "JOHNSON", "COUNTYFIPS": "19103", "COUNTRY": "USA", "LATITUDE": 41.663871483000001, "LONGITUDE": -91.527901363999902, "NAICS_CODE": "622110", "NAICS_DESC": "GENERAL MEDICAL AND SURGICAL HOSPITALS", "SOURCE": "https://dia-hfd.iowa.gov/DIA_HFD/CTLEntitySearch.do", "SOURCEDATE": "2018-08-09T00:00:00.000Z", "VAL_METHOD": "IMAGERY/OTHER", "VAL_DATE": "2016-04-15T00:00:00.000Z", "WEBSITE": "http://www.mercyiowacity.org/", "STATE_ID": "NOT AVAILABLE", "ALT_NAME": "NOT AVAILABLE", "ST_FIPS": "19", "OWNER": "NON-PROFIT", "TTL_STAFF": -999, "BEDS": 234, "TRAUMA": "LEVEL III", "HELIPAD": "N" }, "geometry": { "type": "Polygon", "coordinates": [ [ [ -91.509131, 41.576587 ], [ -91.638313, 41.616723 ], [ -91.646612, 41.69439 ], [ -91.6408342, 41.6993244 ], [ -91.6078169, 41.7194236 ], [ -91.561062726785266, 41.730271696824843 ], [ -91.4765906, 41.746757700000039 ], [ -91.4738124, 41.746885700000021 ], [ -91.424844, 41.670966 ], [ -91.424893, 41.663636 ], [ -91.443926, 41.605852 ], [ -91.509131, 41.576587 ] ] ] } },
{ "type": "Feature", "properties": { "OBJECTID": 6557, "ID": "0009052242", "NAME": "UNIVERSITY OF IOWA HOSPITAL & CLINICS", "ADDRESS": "200 HAWKINS DRIVE", "CITY": "IOWA CITY", "STATE": "IA", "ZIP": "52242", "ZIP4": "NOT AVAILABLE", "TELEPHONE": "(319) 356-1616", "TYPE": "GENERAL ACUTE CARE", "STATUS": "OPEN", "POPULATION": 1103, "COUNTY": "JOHNSON", "COUNTYFIPS": "19103", "COUNTRY": "USA", "LATITUDE": 41.660815689000103, "LONGITUDE": -91.547547419999901, "NAICS_CODE": "622110", "NAICS_DESC": "GENERAL MEDICAL AND SURGICAL HOSPITALS", "SOURCE": "https://dia-hfd.iowa.gov/DIA_HFD/CTLEntitySearch.do", "SOURCEDATE": "2018-08-09T00:00:00.000Z", "VAL_METHOD": "IMAGERY", "VAL_DATE": "2016-04-15T00:00:00.000Z", "WEBSITE": "http://www.uihealthcare.com", "STATE_ID": "NOT AVAILABLE", "ALT_NAME": "NOT AVAILABLE", "ST_FIPS": "19", "OWNER": "GOVERNMENT - STATE", "TTL_STAFF": -999, "BEDS": 1103, "TRAUMA": "LEVEL I, LEVEL I PEDIATRIC", "HELIPAD": "Y" }, "geometry": { "type": "Polygon", "coordinates": [ [ [ -91.546663945965548, 41.5545348230266 ], [ -91.647939, 41.619373 ], [ -91.6408342, 41.6993244 ], [ -91.6380578, 41.704207199999985 ], [ -91.563704325726661, 41.718486239133192 ], [ -91.479317, 41.720144 ], [ -91.441707, 41.670117 ], [ -91.443926, 41.605852 ], [ -91.541565356157378, 41.556868532402724 ], [ -91.546663945965548, 41.5545348230266 ] ] ] } },
{ "type": "Feature", "properties": { "OBJECTID": 6558, "ID": "0006352205", "NAME": "ANAMOSA COMMUNITY HOSPITAL", "ADDRESS": "104 BROADWAY PLACE", "CITY": "ANAMOSA", "STATE": "IA", "ZIP": "52205", "ZIP4": "NOT AVAILABLE", "TELEPHONE": "(319) 462-3588", "TYPE": "GENERAL ACUTE CARE", "STATUS": "CLOSED", "POPULATION": 38, "COUNTY": "JONES", "COUNTYFIPS": "19105", "COUNTRY": "USA", "LATITUDE": 42.112923842999997, "LONGITUDE": -91.288031406000002, "NAICS_CODE": "622110", "NAICS_DESC": "GENERAL MEDICAL AND SURGICAL HOSPITALS", "SOURCE": "ftp://ftp.igsb.uiowa.edu/gis_library/IA_State/Infrastructure/", "SOURCEDATE": "2012-06-05T00:00:00.000Z", "VAL_METHOD": "IMAGERY", "VAL_DATE": "2014-03-12T00:00:00.000Z", "WEBSITE": "http://www.jonesregional.org", "STATE_ID": "NOT AVAILABLE", "ALT_NAME": "NOT AVAILABLE", "ST_FIPS": "19", "OWNER": "NON-PROFIT", "TTL_STAFF": -999, "BEDS": 38, "TRAUMA": "NOT AVAILABLE", "HELIPAD": "N" }, "geometry": { "type": "Polygon", "coordinates": [ [ [ -91.248428, 42.028167800000041 ], [ -91.351524, 42.034468 ], [ -91.4043662, 42.062085700000019 ], [ -91.4043707, 42.062499 ], [ -91.3665103, 42.138463599999973 ], [ -91.3454715, 42.165359399999979 ], [ -91.31598, 42.1979624 ], [ -91.1960303, 42.2066013 ], [ -91.178885, 42.127956 ], [ -91.171405, 42.082883 ], [ -91.248428, 42.028167800000041 ] ] ] } },
{ "type": "Feature", "properties": { "OBJECTID": 6561, "ID": "0002552175", "NAME": "PALMER LUTHERAN HEALTH CENTER", "ADDRESS": "112 JEFFERSON", "CITY": "WEST UNION", "STATE": "IA", "ZIP": "52175", "ZIP4": "NOT AVAILABLE", "TELEPHONE": "(563) 422-3876", "TYPE": "CRITICAL ACCESS", "STATUS": "OPEN", "POPULATION": 25, "COUNTY": "FAYETTE", "COUNTYFIPS": "19065", "COUNTRY": "USA", "LATITUDE": 42.968288045000101, "LONGITUDE": -91.810114874999996, "NAICS_CODE": "622110", "NAICS_DESC": "GENERAL MEDICAL AND SURGICAL HOSPITALS", "SOURCE": "https://dia-hfd.iowa.gov/DIA_HFD/CTLEntitySearch.do", "SOURCEDATE": "2018-08-09T00:00:00.000Z", "VAL_METHOD": "IMAGERY/OTHER", "VAL_DATE": "2016-04-15T00:00:00.000Z", "WEBSITE": "http://www.palmerlutheran.org", "STATE_ID": "NOT AVAILABLE", "ALT_NAME": "NOT AVAILABLE", "ST_FIPS": "19", "OWNER": "NON-PROFIT", "TTL_STAFF": -999, "BEDS": 25, "TRAUMA": "LEVEL IV", "HELIPAD": "Y" }, "geometry": { "type": "Polygon", "coordinates": [ [ [ -91.813127, 42.851056 ], [ -91.95338820000002, 42.950273100000047 ], [ -91.953077, 42.968183 ], [ -91.838812, 43.064304 ], [ -91.7859, 43.047032 ], [ -91.662005, 42.996639 ], [ -91.685137, 42.954518 ], [ -91.725903, 42.903626 ], [ -91.813127, 42.851056 ] ] ] } },
{ "type": "Feature", "properties": { "OBJECTID": 6562, "ID": "0003850662", "NAME": "MERCY HOSPITAL OF FRANCISCAN SISTERS", "ADDRESS": "201 8TH AVENUE SOUTHEAST", "CITY": "OELWEIN", "STATE": "IA", "ZIP": "50662", "ZIP4": "NOT AVAILABLE", "TELEPHONE": "(319) 283-6000", "TYPE": "CRITICAL ACCESS", "STATUS": "OPEN", "POPULATION": 25, "COUNTY": "FAYETTE", "COUNTYFIPS": "19065", "COUNTRY": "USA", "LATITUDE": 42.675447646000102, "LONGITUDE": -91.9021483, "NAICS_CODE": "622110", "NAICS_DESC": "GENERAL MEDICAL AND SURGICAL HOSPITALS", "SOURCE": "https://dia-hfd.iowa.gov/DIA_HFD/CTLEntitySearch.do", "SOURCEDATE": "2018-08-09T00:00:00.000Z", "VAL_METHOD": "IMAGERY", "VAL_DATE": "2016-04-15T00:00:00.000Z", "WEBSITE": "http://www.wheatoniowa.org/", "STATE_ID": "NOT AVAILABLE", "ALT_NAME": "NOT AVAILABLE", "ST_FIPS": "19", "OWNER": "NON-PROFIT", "TTL_STAFF": -999, "BEDS": 25, "TRAUMA": "LEVEL IV", "HELIPAD": "Y" }, "geometry": { "type": "Polygon", "coordinates": [ [ [ -91.904749, 42.579170799999979 ], [ -91.982915, 42.656772 ], [ -92.01157, 42.68587 ], [ -92.020805, 42.71492 ], [ -91.941757, 42.75885 ], [ -91.902202, 42.773596 ], [ -91.885751, 42.773787 ], [ -91.745587, 42.68688 ], [ -91.904749, 42.579170799999979 ] ] ] } },
{ "type": "Feature", "properties": { "OBJECTID": 6566, "ID": "0006252349", "NAME": "VIRGINIA GAY HOSPITAL", "ADDRESS": "502 NORTH 9TH AVENUE", "CITY": "VINTON", "STATE": "IA", "ZIP": "52349", "ZIP4": "NOT AVAILABLE", "TELEPHONE": "(319) 472-6200", "TYPE": "CRITICAL ACCESS", "STATUS": "OPEN", "POPULATION": 25, "COUNTY": "BENTON", "COUNTYFIPS": "19011", "COUNTRY": "USA", "LATITUDE": 42.173420577000101, "LONGITUDE": -92.012540386999902, "NAICS_CODE": "622110", "NAICS_DESC": "GENERAL MEDICAL AND SURGICAL HOSPITALS", "SOURCE": "https://dia-hfd.iowa.gov/DIA_HFD/CTLEntitySearch.do", "SOURCEDATE": "2018-08-09T00:00:00.000Z", "VAL_METHOD": "IMAGERY", "VAL_DATE": "2016-04-15T00:00:00.000Z", "WEBSITE": "http://www.vghinc.com", "STATE_ID": "NOT AVAILABLE", "ALT_NAME": "NOT AVAILABLE", "ST_FIPS": "19", "OWNER": "NON-PROFIT", "TTL_STAFF": -999, "BEDS": 25, "TRAUMA": "LEVEL IV", "HELIPAD": "Y" }, "geometry": { "type": "Polygon", "coordinates": [ [ [ -92.0290592, 42.094199 ], [ -92.0953653, 42.137599 ], [ -92.1237265, 42.1810581 ], [ -92.0893505, 42.210552099999965 ], [ -92.065067, 42.225074 ], [ -92.0171167, 42.239302400000014 ], [ -92.0073629, 42.239284500000011 ], [ -91.9879711, 42.224769 ], [ -91.94935, 42.184418 ], [ -91.9314566, 42.1364127 ], [ -91.931490700000012, 42.133263099999986 ], [ -92.0290592, 42.094199 ] ] ] } },
{ "type": "Feature", "properties": { "OBJECTID": 6567, "ID": "0004350613", "NAME": "SARTORI MEMORIAL HOSPITAL", "ADDRESS": "515 COLLEGE STREET", "CITY": "CEDAR FALLS", "STATE": "IA", "ZIP": "50613", "ZIP4": "NOT AVAILABLE", "TELEPHONE": "(319) 268-3000", "TYPE": "GENERAL ACUTE CARE", "STATUS": "OPEN", "POPULATION": 101, "COUNTY": "BLACK HAWK", "COUNTYFIPS": "19013", "COUNTRY": "USA", "LATITUDE": 42.53353888, "LONGITUDE": -92.45793731000001, "NAICS_CODE": "622110", "NAICS_DESC": "GENERAL MEDICAL AND SURGICAL HOSPITALS", "SOURCE": "https://dia-hfd.iowa.gov/DIA_HFD/CTLEntitySearch.do", "SOURCEDATE": "2018-08-09T00:00:00.000Z", "VAL_METHOD": "IMAGERY/OTHER", "VAL_DATE": "2016-04-14T00:00:00.000Z", "WEBSITE": "http://www.wheatoniowa.org", "STATE_ID": "NOT AVAILABLE", "ALT_NAME": "NOT AVAILABLE", "ST_FIPS": "19", "OWNER": "NON-PROFIT", "TTL_STAFF": -999, "BEDS": 101, "TRAUMA": "LEVEL IV", "HELIPAD": "Y" }, "geometry": { "type": "Polygon", "coordinates": [ [ [ -92.465971400000015, 42.4282951 ], [ -92.534098, 42.456666 ], [ -92.5554858, 42.469612200000029 ], [ -92.574051, 42.527813 ], [ -92.574033300000011, 42.5423452 ], [ -92.5618772, 42.555859799999958 ], [ -92.5093611, 42.5992867 ], [ -92.4555915, 42.6209304 ], [ -92.4361027, 42.613838500000021 ], [ -92.3375137, 42.5486024 ], [ -92.317855, 42.527445899999982 ], [ -92.3200895, 42.512903199999961 ], [ -92.3312765, 42.4895309 ], [ -92.332225, 42.4887453 ], [ -92.3376149, 42.484538400000019 ], [ -92.3828903, 42.45361960000001 ], [ -92.465971400000015, 42.4282951 ] ] ] } },
{ "type": "Feature", "properties": { "OBJECTID": 6569, "ID": "0000750461", "NAME": "MITCHELL COUNTY MEMORIAL HOSPITAL", "ADDRESS": "616 NORTH 8TH STREET", "CITY": "OSAGE", "STATE": "IA", "ZIP": "50461", "ZIP4": "NOT AVAILABLE", "TELEPHONE": "(641) 732-6003", "TYPE": "CRITICAL ACCESS", "STATUS": "OPEN", "POPULATION": 25, "COUNTY": "MITCHELL", "COUNTYFIPS": "19131", "COUNTRY": "USA", "LATITUDE": 43.289528117000003, "LONGITUDE": -92.808440624, "NAICS_CODE": "622110", "NAICS_DESC": "GENERAL MEDICAL AND SURGICAL HOSPITALS", "SOURCE": "https://dia-hfd.iowa.gov/DIA_HFD/CTLEntitySearch.do", "SOURCEDATE": "2018-08-09T00:00:00.000Z", "VAL_METHOD": "IMAGERY/OTHER", "VAL_DATE": "2016-04-18T00:00:00.000Z", "WEBSITE": "http://www.mitchellcohospital-clinics.com", "STATE_ID": "NOT AVAILABLE", "ALT_NAME": "NOT AVAILABLE", "ST_FIPS": "19", "OWNER": "GOVERNMENT - LOCAL", "TTL_STAFF": -999, "BEDS": 25, "TRAUMA": "LEVEL IV", "HELIPAD": "Y" }, "geometry": { "type": "Polygon", "coordinates": [ [ [ -92.810449, 43.21287 ], [ -92.850257, 43.223643 ], [ -92.905248759268133, 43.255186084447118 ], [ -92.945023099675637, 43.284405715874378 ], [ -92.8303364, 43.378242899999968 ], [ -92.8095238, 43.384571 ], [ -92.790714, 43.371173 ], [ -92.6724457, 43.284447300000011 ], [ -92.732397, 43.241826 ], [ -92.7720786, 43.225636200000054 ], [ -92.810449, 43.21287 ] ] ] } },
{ "type": "Feature", "properties": { "OBJECTID": 6593, "ID": "0005350595", "NAME": "VAN DIEST MEDICAL CENTER", "ADDRESS": "2350 HOSPITAL DRIVE", "CITY": "WEBSTER CITY", "STATE": "IA", "ZIP": "50595", "ZIP4": "NOT AVAILABLE", "TELEPHONE": "(515) 832-7700", "TYPE": "CRITICAL ACCESS", "STATUS": "OPEN", "POPULATION": 25, "COUNTY": "HAMILTON", "COUNTYFIPS": "19079", "COUNTRY": "USA", "LATITUDE": 42.459067264000097, "LONGITUDE": -93.823496985999995, "NAICS_CODE": "622110", "NAICS_DESC": "GENERAL MEDICAL AND SURGICAL HOSPITALS", "SOURCE": "https://dia-hfd.iowa.gov/DIA_HFD/CTLEntitySearch.do", "SOURCEDATE": "2018-08-09T00:00:00.000Z", "VAL_METHOD": "IMAGERY", "VAL_DATE": "2016-04-15T00:00:00.000Z", "WEBSITE": "http://www.hamiltonhospital.com", "STATE_ID": "NOT AVAILABLE", "ALT_NAME": "NOT AVAILABLE", "ST_FIPS": "19", "OWNER": "GOVERNMENT - LOCAL", "TTL_STAFF": -999, "BEDS": 25, "TRAUMA": "LEVEL IV", "HELIPAD": "Y" }, "geometry": { "type": "Polygon", "coordinates": [ [ [ -93.7964501, 42.368863399999952 ], [ -93.8354666, 42.372597399999968 ], [ -93.9908109, 42.449018599999988 ], [ -93.9908025, 42.4492566 ], [ -93.8232186, 42.551061 ], [ -93.6470187, 42.448904 ], [ -93.7964501, 42.368863399999952 ] ] ] } },
{ "type": "Feature", "properties": { "OBJECTID": 6766, "ID": "0003255987", "NAME": "WINONA HEALTH SERVICES", "ADDRESS": "855 MANKATO AVENUE", "CITY": "WINONA", "STATE": "MN", "ZIP": "55987", "ZIP4": "NOT AVAILABLE", "TELEPHONE": "(507) 474-3328", "TYPE": "GENERAL ACUTE CARE", "STATUS": "OPEN", "POPULATION": 99, "COUNTY": "WINONA", "COUNTYFIPS": "27169", "COUNTRY": "USA", "LATITUDE": 44.033457692000098, "LONGITUDE": -91.622960626999898, "NAICS_CODE": "622110", "NAICS_DESC": "GENERAL MEDICAL AND SURGICAL HOSPITALS", "SOURCE": "http://www.health.state.mn.us/divs/fpc/directory/providerselect.cfm", "SOURCEDATE": "2018-08-09T00:00:00.000Z", "VAL_METHOD": "IMAGERY", "VAL_DATE": "2014-03-12T00:00:00.000Z", "WEBSITE": "http://www.winonahealth.org", "STATE_ID": "701", "ALT_NAME": "NOT AVAILABLE", "ST_FIPS": "27", "OWNER": "NON-PROFIT", "TTL_STAFF": -999, "BEDS": 99, "TRAUMA": "LEVEL IV", "HELIPAD": "Y" }, "geometry": { "type": "Polygon", "coordinates": [ [ [ -91.6749286, 43.947772600000015 ], [ -91.700032600000014, 43.9512123 ], [ -91.7557645, 44.0879052 ], [ -91.7542624, 44.093007200000024 ], [ -91.7538267, 44.0930694 ], [ -91.68745, 44.08149 ], [ -91.4723741, 44.002227099999949 ], [ -91.4390382, 43.988846199999969 ], [ -91.4391136, 43.988707399999981 ], [ -91.6161678, 43.9544835 ], [ -91.6749286, 43.947772600000015 ] ] ] } },
{ "type": "Feature", "properties": { "OBJECTID": 4180, "ID": "0017452402", "NAME": "CONTINUING CARE HOSPITAL", "ADDRESS": "1026 A AVENUE NE, 6TH FLOOR", "CITY": "CEDAR RAPIDS", "STATE": "IA", "ZIP": "52402", "ZIP4": "5036", "TELEPHONE": "(319) 369-8142", "TYPE": "LONG TERM CARE", "STATUS": "OPEN", "POPULATION": 24, "COUNTY": "LINN", "COUNTYFIPS": "19111", "COUNTRY": "USA", "LATITUDE": 41.985737405000101, "LONGITUDE": -91.65971818, "NAICS_CODE": "622310", "NAICS_DESC": "SPECIALTY (EXCEPT PSYCHIATRIC AND SUBSTANCE ABUSE) HOSPITALS", "SOURCE": "https://dia-hfd.iowa.gov/DIA_HFD/CTLEntitySearch.do", "SOURCEDATE": "2018-08-09T00:00:00.000Z", "VAL_METHOD": "IMAGERY", "VAL_DATE": "2016-04-19T00:00:00.000Z", "WEBSITE": "https://www.unitypoint.org/cedarrapids/services-continuing-care-hospital.aspx", "STATE_ID": "NOT AVAILABLE", "ALT_NAME": "NOT AVAILABLE", "ST_FIPS": "19", "OWNER": "NON-PROFIT", "TTL_STAFF": -999, "BEDS": 24, "TRAUMA": "NOT AVAILABLE", "HELIPAD": "Y" }, "geometry": { "type": "Polygon", "coordinates": [ [ [ -91.668276, 41.853124 ], [ -91.7743391, 41.9274972 ], [ -91.7877754, 41.963367 ], [ -91.769616, 42.018795 ], [ -91.718271, 42.097743600000015 ], [ -91.7170491, 42.098706 ], [ -91.6776689, 42.09501 ], [ -91.547727332280019, 42.019667097322731 ], [ -91.526546891366692, 41.975900456975694 ], [ -91.545184882766421, 41.946293955949237 ], [ -91.668276, 41.853124 ] ] ] } },
{ "type": "Feature", "properties": { "OBJECTID": 4300, "ID": "0016961356", "NAME": "PERRY MEMORIAL HOSPITAL", "ADDRESS": "530 PARK AVENUE EAST", "CITY": "PRINCETON", "STATE": "IL", "ZIP": "61356", "ZIP4": "NOT AVAILABLE", "TELEPHONE": "(815) 875-2811", "TYPE": "CRITICAL ACCESS", "STATUS": "OPEN", "POPULATION": 25, "COUNTY": "BUREAU", "COUNTYFIPS": "17011", "COUNTRY": "USA", "LATITUDE": 41.3669130420001, "LONGITUDE": -89.455857363000007, "NAICS_CODE": "622110", "NAICS_DESC": "GENERAL MEDICAL AND SURGICAL HOSPITALS", "SOURCE": "https://data.illinois.gov/", "SOURCEDATE": "2018-08-09T00:00:00.000Z", "VAL_METHOD": "IMAGERY", "VAL_DATE": "2014-03-12T00:00:00.000Z", "WEBSITE": "http://www.perry-memorial.org", "STATE_ID": "141337", "ALT_NAME": "NOT AVAILABLE", "ST_FIPS": "17", "OWNER": "GOVERNMENT - LOCAL", "TTL_STAFF": -999, "BEDS": 25, "TRAUMA": "NOT AVAILABLE", "HELIPAD": "Y" }, "geometry": { "type": "Polygon", "coordinates": [ [ [ -89.400284, 41.276100500000013 ], [ -89.512732, 41.313863 ], [ -89.585883, 41.364084 ], [ -89.58754780000001, 41.365371 ], [ -89.5670694, 41.394762799999981 ], [ -89.480906, 41.443999 ], [ -89.466177, 41.44758 ], [ -89.3875467, 41.437295200000037 ], [ -89.3257412, 41.3635132 ], [ -89.400284, 41.276100500000013 ] ] ] } },
{ "type": "Feature", "properties": { "OBJECTID": 4528, "ID": "0000552136", "NAME": "REGIONAL HEALTH SERVICES OF HOWARD COUNTY", "ADDRESS": "235 EIGHTH AVENUE WEST", "CITY": "CRESCO", "STATE": "IA", "ZIP": "52136", "ZIP4": "NOT AVAILABLE", "TELEPHONE": "(563) 547-2101", "TYPE": "CRITICAL ACCESS", "STATUS": "OPEN", "POPULATION": 19, "COUNTY": "HOWARD", "COUNTYFIPS": "19089", "COUNTRY": "USA", "LATITUDE": 43.381376579000097, "LONGITUDE": -92.117994402999997, "NAICS_CODE": "622110", "NAICS_DESC": "GENERAL MEDICAL AND SURGICAL HOSPITALS", "SOURCE": "https://dia-hfd.iowa.gov/DIA_HFD/CTLEntitySearch.do", "SOURCEDATE": "2018-08-09T00:00:00.000Z", "VAL_METHOD": "IMAGERY", "VAL_DATE": "2016-04-15T00:00:00.000Z", "WEBSITE": "http://www.rhshc.com", "STATE_ID": "NOT AVAILABLE", "ALT_NAME": "NOT AVAILABLE", "ST_FIPS": "19", "OWNER": "GOVERNMENT - LOCAL", "TTL_STAFF": -999, "BEDS": 19, "TRAUMA": "LEVEL IV", "HELIPAD": "Y" }, "geometry": { "type": "Polygon", "coordinates": [ [ [ -92.120647, 43.270145 ], [ -92.160142, 43.299057 ], [ -92.2486116, 43.3708603 ], [ -92.159916488332229, 43.450498030368209 ], [ -92.129922471728506, 43.472534005411489 ], [ -92.080030357950719, 43.443476973852654 ], [ -92.058159, 43.426207 ], [ -92.017369, 43.370877 ], [ -92.017427, 43.369406 ], [ -92.038209, 43.335362 ], [ -92.120647, 43.270145 ] ] ] } },
{ "type": "Feature", "properties": { "OBJECTID": 4537, "ID": "0015761443", "NAME": "OSF SAINT LUKE MEDICAL CENTER", "ADDRESS": "1051 WEST SOUTH STREET", "CITY": "KEWANEE", "STATE": "IL", "ZIP": "61443", "ZIP4": "NOT AVAILABLE", "TELEPHONE": "(309) 853-3361", "TYPE": "CRITICAL ACCESS", "STATUS": "OPEN", "POPULATION": 25, "COUNTY": "HENRY", "COUNTYFIPS": "17073", "COUNTRY": "USA", "LATITUDE": 41.220836818000102, "LONGITUDE": -89.94699282000001, "NAICS_CODE": "622110", "NAICS_DESC": "GENERAL MEDICAL AND SURGICAL HOSPITALS", "SOURCE": "https://data.illinois.gov/", "SOURCEDATE": "2018-08-09T00:00:00.000Z", "VAL_METHOD": "IMAGERY", "VAL_DATE": "2016-04-25T00:00:00.000Z", "WEBSITE": "https://www.osfhealthcare.org/saint-luke/", "STATE_ID": "141325", "ALT_NAME": "NOT AVAILABLE", "ST_FIPS": "17", "OWNER": "NON-PROFIT", "TTL_STAFF": -999, "BEDS": 25, "TRAUMA": "NOT AVAILABLE", "HELIPAD": "Y" }, "geometry": { "type": "Polygon", "coordinates": [ [ [ -89.931085, 41.149314 ], [ -89.9844322, 41.1640047 ], [ -90.0152472, 41.17876259999997 ], [ -90.041567, 41.222463 ], [ -90.040322, 41.229001 ], [ -90.03134, 41.242054699999983 ], [ -89.997337, 41.2735334 ], [ -89.9345335, 41.289451500000041 ], [ -89.9338211, 41.289453500000022 ], [ -89.8570448, 41.278253299999967 ], [ -89.8565059, 41.2733833 ], [ -89.8575673, 41.255097299999981 ], [ -89.866393, 41.178467 ], [ -89.931085, 41.149314 ] ] ] } },
{ "type": "Feature", "properties": { "OBJECTID": 4649, "ID": "0015554449", "NAME": "NORWOOD HLTH CTR", "ADDRESS": "1600 N CHESTNUT AVE", "CITY": "MARSHFIELD", "STATE": "WI", "ZIP": "54449", "ZIP4": "NOT AVAILABLE", "TELEPHONE": "(715) 384-2188", "TYPE": "PSYCHIATRIC", "STATUS": "OPEN", "POPULATION": 16, "COUNTY": "WOOD", "COUNTYFIPS": "55141", "COUNTRY": "USA", "LATITUDE": 44.682344483000101, "LONGITUDE": -90.165800301999994, "NAICS_CODE": "622210", "NAICS_DESC": "PSYCHIATRIC AND SUBSTANCE ABUSE HOSPITALS", "SOURCE": "https://www.dhs.wisconsin.gov/guide/hospital.htm", "SOURCEDATE": "2018-08-13T00:00:00.000Z", "VAL_METHOD": "IMAGERY", "VAL_DATE": "2014-02-10T00:00:00.000Z", "WEBSITE": "http://www.co.wood.wi.us/norwood/index.htm", "STATE_ID": "211", "ALT_NAME": "NOT AVAILABLE", "ST_FIPS": "55", "OWNER": "GOVERNMENT - LOCAL", "TTL_STAFF": -999, "BEDS": 16, "TRAUMA": "NOT AVAILABLE", "HELIPAD": "N" }, "geometry": { "type": "Polygon", "coordinates": [ [ [ -90.1404985, 44.583651 ], [ -90.180723, 44.591136 ], [ -90.190445, 44.5981008 ], [ -90.2590092, 44.656321100000021 ], [ -90.2789962, 44.677614800000022 ], [ -90.2638882, 44.733115199999965 ], [ -90.258882, 44.742959 ], [ -90.170576, 44.779015 ], [ -90.0793845, 44.757327900000014 ], [ -90.055717, 44.743104 ], [ -90.045403, 44.6702364 ], [ -90.0799384, 44.6251095 ], [ -90.1200265, 44.597529 ], [ -90.1404985, 44.583651 ] ] ] } },
{ "type": "Feature", "properties": { "OBJECTID": 4726, "ID": "0150554451", "NAME": "ASPIRUS MEDFORD HOSPITAL & CLINICS, INC", "ADDRESS": "135 S GIBSON ST", "CITY": "MEDFORD", "STATE": "WI", "ZIP": "54451", "ZIP4": "NOT AVAILABLE", "TELEPHONE": "(715) 748-8100", "TYPE": "CRITICAL ACCESS", "STATUS": "OPEN", "POPULATION": 25, "COUNTY": "TAYLOR", "COUNTYFIPS": "55119", "COUNTRY": "USA", "LATITUDE": 45.135115769000002, "LONGITUDE": -90.356071119000006, "NAICS_CODE": "622110", "NAICS_DESC": "GENERAL MEDICAL AND SURGICAL HOSPITALS", "SOURCE": "https://www.dhs.wisconsin.gov/guide/hospital.htm", "SOURCEDATE": "2018-08-13T00:00:00.000Z", "VAL_METHOD": "IMAGERY/OTHER", "VAL_DATE": "2015-03-27T00:00:00.000Z", "WEBSITE": "NOT AVAILABLE", "STATE_ID": "NOT AVAILABLE", "ALT_NAME": "NOT AVAILABLE", "ST_FIPS": "55", "OWNER": "NOT AVAILABLE", "TTL_STAFF": -999, "BEDS": 25, "TRAUMA": "LEVEL III", "HELIPAD": "Y" }, "geometry": { "type": "Polygon", "coordinates": [ [ [ -90.3557529, 45.061899200000056 ], [ -90.494385976584695, 45.130220511403387 ], [ -90.49443307396939, 45.132786410906164 ], [ -90.45386373233552, 45.161497205567336 ], [ -90.3737067, 45.205844499999948 ], [ -90.3088628, 45.22915 ], [ -90.2109848, 45.144175899999986 ], [ -90.304447, 45.070025 ], [ -90.3147651, 45.062598699999953 ], [ -90.3557529, 45.061899200000056 ] ] ] } },
{ "type": "Feature", "properties": { "OBJECTID": 4931, "ID": "0005354601", "NAME": "GUNDERSEN LUTH MED CTR", "ADDRESS": "1910 SOUTH AVE", "CITY": "LA CROSSE", "STATE": "WI", "ZIP": "54601", "ZIP4": "NOT AVAILABLE", "TELEPHONE": "(608) 782-7300", "TYPE": "GENERAL ACUTE CARE", "STATUS": "OPEN", "POPULATION": 325, "COUNTY": "LA CROSSE", "COUNTYFIPS": "55063", "COUNTRY": "USA", "LATITUDE": 43.794586024000097, "LONGITUDE": -91.246967162999994, "NAICS_CODE": "622110", "NAICS_DESC": "GENERAL MEDICAL AND SURGICAL HOSPITALS", "SOURCE": "https://www.dhs.wisconsin.gov/guide/hospital.htm", "SOURCEDATE": "2018-08-13T00:00:00.000Z", "VAL_METHOD": "IMAGERY", "VAL_DATE": "2014-03-12T00:00:00.000Z", "WEBSITE": "http://www.gundluth.org", "STATE_ID": "23", "ALT_NAME": "NOT AVAILABLE", "ST_FIPS": "55", "OWNER": "NON-PROFIT", "TTL_STAFF": -999, "BEDS": 325, "TRAUMA": "LEVEL II", "HELIPAD": "Y" }, "geometry": { "type": "Polygon", "coordinates": [ [ [ -91.2015188, 43.72003459999997 ], [ -91.2544709, 43.790219400000041 ], [ -91.2594052, 43.797849300000038 ], [ -91.2683039, 43.8145032 ], [ -91.2681891, 43.815877500000035 ], [ -91.2644643, 43.848699099999948 ], [ -91.2608129, 43.8521259 ], [ -91.2379405, 43.863305199999985 ], [ -91.209486500000011, 43.8717101 ], [ -91.1954219, 43.872497100000011 ], [ -91.1320052, 43.803679800000012 ], [ -91.1313993, 43.8028225 ], [ -91.179111, 43.724437 ], [ -91.1828516, 43.723274499999974 ], [ -91.2015188, 43.72003459999997 ] ] ] } },
{ "type": "Feature", "properties": { "OBJECTID": 4932, "ID": "0005454601", "NAME": "MAYO CLINIC HLTH SYSTEM- FRANCISCAN MED CTR", "ADDRESS": "700 WEST AVENUE SOUTH", "CITY": "LA CROSSE", "STATE": "WI", "ZIP": "54601", "ZIP4": "NOT AVAILABLE", "TELEPHONE": "(608) 785-0940", "TYPE": "GENERAL ACUTE CARE", "STATUS": "OPEN", "POPULATION": 331, "COUNTY": "LA CROSSE", "COUNTYFIPS": "55063", "COUNTRY": "USA", "LATITUDE": 43.803947932, "LONGITUDE": -91.240304033000001, "NAICS_CODE": "622110", "NAICS_DESC": "GENERAL MEDICAL AND SURGICAL HOSPITALS", "SOURCE": "https://www.dhs.wisconsin.gov/guide/hospital.htm", "SOURCEDATE": "2018-08-13T00:00:00.000Z", "VAL_METHOD": "IMAGERY", "VAL_DATE": "2014-03-12T00:00:00.000Z", "WEBSITE": "http://www.franciscanskemp.org", "STATE_ID": "24", "ALT_NAME": "NOT AVAILABLE", "ST_FIPS": "55", "OWNER": "NON-PROFIT", "TTL_STAFF": -999, "BEDS": 331, "TRAUMA": "LEVEL III", "HELIPAD": "Y" }, "geometry": { "type": "Polygon", "coordinates": [ [ [ -91.200514, 43.725125 ], [ -91.2544709, 43.790219400000041 ], [ -91.2594052, 43.797849300000038 ], [ -91.2683039, 43.8145032 ], [ -91.2676391, 43.850934100000011 ], [ -91.2654426, 43.854528500000029 ], [ -91.213151400000015, 43.888142599999966 ], [ -91.1785453, 43.8794556 ], [ -91.1784552, 43.879354300000024 ], [ -91.1777334, 43.878478700000031 ], [ -91.1313993, 43.8028225 ], [ -91.189176, 43.725477 ], [ -91.1893584, 43.725373299999987 ], [ -91.200514, 43.725125 ] ] ] } },
{ "type": "Feature", "properties": { "OBJECTID": 4954, "ID": "0094852246", "NAME": "IOWA CITY VA MEDICAL CENTER", "ADDRESS": "601 HIGHWAY 6 WEST", "CITY": "IOWA CITY", "STATE": "IA", "ZIP": "52246", "ZIP4": "NOT AVAILABLE", "TELEPHONE": "(319) 338-0581", "TYPE": "MILITARY", "STATUS": "OPEN", "POPULATION": -999, "COUNTY": "JOHNSON", "COUNTYFIPS": "19103", "COUNTRY": "USA", "LATITUDE": 41.6637023010001, "LONGITUDE": -91.548488514, "NAICS_CODE": "622110", "NAICS_DESC": "GENERAL MEDICAL AND SURGICAL HOSPITALS", "SOURCE": "https://dia-hfd.iowa.gov/DIA_HFD/CTLEntitySearch.do", "SOURCEDATE": "2018-08-09T00:00:00.000Z", "VAL_METHOD": "IMAGERY/OTHER", "VAL_DATE": "2015-03-21T00:00:00.000Z", "WEBSITE": "http://www.iowacity.va.gov/", "STATE_ID": "NOT AVAILABLE", "ALT_NAME": "NOT AVAILABLE", "ST_FIPS": "19", "OWNER": "GOVERNMENT - FEDERAL", "TTL_STAFF": -999, "BEDS": -999, "TRAUMA": "NOT AVAILABLE", "HELIPAD": "N" }, "geometry": { "type": "Polygon", "coordinates": [ [ [ -91.539658935078663, 41.593805649504603 ], [ -91.560522871679396, 41.594629522101421 ], [ -91.638313, 41.616723 ], [ -91.675868, 41.694284 ], [ -91.6666862, 41.707237899999988 ], [ -91.6483828, 41.719425699999967 ], [ -91.6076689, 41.728886600000038 ], [ -91.5757168, 41.7344612 ], [ -91.566619693719502, 41.733349613496621 ], [ -91.478678, 41.722025 ], [ -91.442761, 41.672156 ], [ -91.441707, 41.670117 ], [ -91.463274, 41.606966 ], [ -91.5058922, 41.598571899999968 ], [ -91.539658935078663, 41.593805649504603 ] ] ] } },
{ "type": "Feature", "properties": { "OBJECTID": 42, "ID": "0150754656", "NAME": "MAYO CLINIC HLTH SYSTM FRANCISCAN HLTHCARE SPARTA", "ADDRESS": "310 W MAIN ST", "CITY": "SPARTA", "STATE": "WI", "ZIP": "54656", "ZIP4": "NOT AVAILABLE", "TELEPHONE": "(608) 269-2132", "TYPE": "CRITICAL ACCESS", "STATUS": "OPEN", "POPULATION": 25, "COUNTY": "MONROE", "COUNTYFIPS": "55081", "COUNTRY": "USA", "LATITUDE": 43.944225964000097, "LONGITUDE": -90.814383593999906, "NAICS_CODE": "622110", "NAICS_DESC": "GENERAL MEDICAL AND SURGICAL HOSPITALS", "SOURCE": "https://www.dhs.wisconsin.gov/guide/hospital.htm", "SOURCEDATE": "2018-08-13T00:00:00.000Z", "VAL_METHOD": "IMAGERY/OTHER", "VAL_DATE": "2015-03-27T00:00:00.000Z", "WEBSITE": "NOT AVAILABLE", "STATE_ID": "NOT AVAILABLE", "ALT_NAME": "NOT AVAILABLE", "ST_FIPS": "55", "OWNER": "NOT AVAILABLE", "TTL_STAFF": -999, "BEDS": 25, "TRAUMA": "LEVEL IV", "HELIPAD": "Y" }, "geometry": { "type": "Polygon", "coordinates": [ [ [ -90.8117334, 43.8382888 ], [ -90.8394855, 43.85096019999996 ], [ -90.8410851, 43.85178640000008 ], [ -90.9139252, 43.926276099999967 ], [ -90.9113446, 43.949890599999989 ], [ -90.862848, 44.0504336 ], [ -90.8620234, 44.050387 ], [ -90.718673082131318, 44.000281880680689 ], [ -90.684874223668785, 43.941971262262442 ], [ -90.724694665553798, 43.874505172818672 ], [ -90.7883143, 43.844532599999965 ], [ -90.8117334, 43.8382888 ] ] ] } },
{ "type": "Feature", "properties": { "OBJECTID": 59, "ID": "0015954660", "NAME": "VA MEDICAL CENTER - TOMAH", "ADDRESS": "500 E VETERANS ST", "CITY": "TOMAH", "STATE": "WI", "ZIP": "54660", "ZIP4": "NOT AVAILABLE", "TELEPHONE": "(608) 372-3971", "TYPE": "MILITARY", "STATUS": "OPEN", "POPULATION": -999, "COUNTY": "MONROE", "COUNTYFIPS": "55081", "COUNTRY": "USA", "LATITUDE": 44.00308068, "LONGITUDE": -90.493319013999994, "NAICS_CODE": "622110", "NAICS_DESC": "GENERAL MEDICAL AND SURGICAL HOSPITALS", "SOURCE": "https://www.va.gov/directory/guide/allstate.asp", "SOURCEDATE": "2018-09-26T00:00:00.000Z", "VAL_METHOD": "IMAGERY/OTHER", "VAL_DATE": "2015-05-29T00:00:00.000Z", "WEBSITE": "http://www.tomah.va.gov/", "STATE_ID": "NOT AVAILABLE", "ALT_NAME": "NOT AVAILABLE", "ST_FIPS": "55", "OWNER": "GOVERNMENT - FEDERAL", "TTL_STAFF": -999, "BEDS": -999, "TRAUMA": "NOT AVAILABLE", "HELIPAD": "Y" }, "geometry": { "type": "Polygon", "coordinates": [ [ [ -90.488942270198422, 43.914525045848045 ], [ -90.544188561406997, 43.924625802044424 ], [ -90.57788610499108, 43.943355475791797 ], [ -90.602775674838057, 44.014851053239809 ], [ -90.533543193939963, 44.124469033775732 ], [ -90.531502093400093, 44.124521732504327 ], [ -90.4127904, 44.051036200000013 ], [ -90.3792953, 44.028303900000012 ], [ -90.355934, 43.954248 ], [ -90.3574418, 43.9520943 ], [ -90.488942270198422, 43.914525045848045 ] ] ] } },
{ "type": "Feature", "properties": { "OBJECTID": 118, "ID": "0003053821", "NAME": "PRAIRIE DU CHIEN MEMORIAL HOSPITAL", "ADDRESS": "705 E TAYLOR ST", "CITY": "PRAIRIE DU CHIEN", "STATE": "WI", "ZIP": "53821", "ZIP4": "NOT AVAILABLE", "TELEPHONE": "(608) 357-2000", "TYPE": "GENERAL ACUTE CARE", "STATUS": "CLOSED", "POPULATION": 25, "COUNTY": "CRAWFORD", "COUNTYFIPS": "55023", "COUNTRY": "USA", "LATITUDE": 43.044603705, "LONGITUDE": -91.137687506000006, "NAICS_CODE": "622110", "NAICS_DESC": "GENERAL MEDICAL AND SURGICAL HOSPITALS", "SOURCE": "http://www.dhs.wisconsin.gov/bqaconsumer/healthcare/HospitalCty.pdf", "SOURCEDATE": "2013-07-10T00:00:00.000Z", "VAL_METHOD": "IMAGERY/OTHER", "VAL_DATE": "2014-02-10T00:00:00.000Z", "WEBSITE": "http://www.pdcmemorialhospital.org", "STATE_ID": "1033", "ALT_NAME": "NOT AVAILABLE", "ST_FIPS": "55", "OWNER": "NON-PROFIT", "TTL_STAFF": -999, "BEDS": 25, "TRAUMA": "NOT AVAILABLE", "HELIPAD": "N" }, "geometry": { "type": "Polygon", "coordinates": [ [ [ -91.0509292, 42.999506099999934 ], [ -91.0654392, 43.001357 ], [ -91.1059916, 43.008267400000058 ], [ -91.130634, 43.012939 ], [ -91.176066600000013, 43.043984400000049 ], [ -91.141094, 43.153061499999986 ], [ -91.0539674, 43.1214313 ], [ -91.05102, 43.115113 ], [ -91.0274593, 43.024659600000064 ], [ -91.0509292, 42.999506099999934 ] ] ] } },
{ "type": "Feature", "properties": { "OBJECTID": 135, "ID": "0012754773", "NAME": "TRI COUNTY MEM HSPTL", "ADDRESS": "18601 LINCOLN ST PO BOX 65", "CITY": "WHITEHALL", "STATE": "WI", "ZIP": "54773", "ZIP4": "NOT AVAILABLE", "TELEPHONE": "(715) 538-4361", "TYPE": "GENERAL ACUTE CARE", "STATUS": "OPEN", "POPULATION": 25, "COUNTY": "TREMPEALEAU", "COUNTYFIPS": "55121", "COUNTRY": "USA", "LATITUDE": 44.364326252000097, "LONGITUDE": -91.318749501, "NAICS_CODE": "622110", "NAICS_DESC": "GENERAL MEDICAL AND SURGICAL HOSPITALS", "SOURCE": "https://www.dhs.wisconsin.gov/guide/hospital.htm", "SOURCEDATE": "2018-08-13T00:00:00.000Z", "VAL_METHOD": "IMAGERY", "VAL_DATE": "2014-02-10T00:00:00.000Z", "WEBSITE": "http://www.tricountymemorial.org/index.html", "STATE_ID": "1019", "ALT_NAME": "NOT AVAILABLE", "ST_FIPS": "55", "OWNER": "NON-PROFIT", "TTL_STAFF": -999, "BEDS": 25, "TRAUMA": "NOT AVAILABLE", "HELIPAD": "N" }, "geometry": { "type": "Polygon", "coordinates": [ [ [ -91.24645, 44.267803 ], [ -91.299418, 44.271991 ], [ -91.341375, 44.281139 ], [ -91.442874, 44.343688 ], [ -91.44196, 44.348739 ], [ -91.427333, 44.388395 ], [ -91.336227, 44.439696 ], [ -91.305428, 44.452451 ], [ -91.217378, 44.444866 ], [ -91.192406, 44.433115 ], [ -91.193509, 44.422038 ], [ -91.20121, 44.380976 ], [ -91.222107, 44.29458 ], [ -91.241866, 44.271604 ], [ -91.24645, 44.267803 ] ] ] } },
{ "type": "Feature", "properties": { "OBJECTID": 136, "ID": "0013154665", "NAME": "VERNON MEM HSPTL", "ADDRESS": "507 SOUTH MAIN ST", "CITY": "VIROQUA", "STATE": "WI", "ZIP": "54665", "ZIP4": "NOT AVAILABLE", "TELEPHONE": "(608) 637-2101", "TYPE": "GENERAL ACUTE CARE", "STATUS": "OPEN", "POPULATION": 25, "COUNTY": "VERNON", "COUNTYFIPS": "55123", "COUNTRY": "USA", "LATITUDE": 43.551673973000099, "LONGITUDE": -90.888391278, "NAICS_CODE": "622110", "NAICS_DESC": "GENERAL MEDICAL AND SURGICAL HOSPITALS", "SOURCE": "https://www.dhs.wisconsin.gov/guide/hospital.htm", "SOURCEDATE": "2018-08-13T00:00:00.000Z", "VAL_METHOD": "IMAGERY", "VAL_DATE": "2014-02-10T00:00:00.000Z", "WEBSITE": "http://www.vmh.org", "STATE_ID": "1053", "ALT_NAME": "NOT AVAILABLE", "ST_FIPS": "55", "OWNER": "NON-PROFIT", "TTL_STAFF": -999, "BEDS": 25, "TRAUMA": "LEVEL IV", "HELIPAD": "N" }, "geometry": { "type": "Polygon", "coordinates": [ [ [ -90.799363741151637, 43.456644001181253 ], [ -90.93286843146771, 43.46617506887177 ], [ -91.0282781, 43.555938500000046 ], [ -91.032792, 43.560763 ], [ -91.0277963, 43.567245899999982 ], [ -90.955123, 43.6181 ], [ -90.861992, 43.651449 ], [ -90.858982, 43.65229 ], [ -90.858238, 43.652057 ], [ -90.8575177, 43.651728 ], [ -90.75632638917385, 43.562166470429801 ], [ -90.756097390264358, 43.561868469639442 ], [ -90.762933141519326, 43.527000621748435 ], [ -90.799363741151637, 43.456644001181253 ] ] ] } },
{ "type": "Feature", "properties": { "OBJECTID": 140, "ID": "0151753805", "NAME": "GUNDERSEN BOSCOBEL AREA HOSPITAL AND CLINICS", "ADDRESS": "205 PARKER ST", "CITY": "BOSCOBEL", "STATE": "WI", "ZIP": "53805", "ZIP4": "NOT AVAILABLE", "TELEPHONE": "(608) 375-4112", "TYPE": "CRITICAL ACCESS", "STATUS": "OPEN", "POPULATION": 25, "COUNTY": "GRANT", "COUNTYFIPS": "55043", "COUNTRY": "USA", "LATITUDE": 43.133184129, "LONGITUDE": -90.708635156999904, "NAICS_CODE": "622110", "NAICS_DESC": "GENERAL MEDICAL AND SURGICAL HOSPITALS", "SOURCE": "https://www.dhs.wisconsin.gov/guide/hospital.htm", "SOURCEDATE": "2018-08-13T00:00:00.000Z", "VAL_METHOD": "IMAGERY/OTHER", "VAL_DATE": "2015-03-27T00:00:00.000Z", "WEBSITE": "http://www.gundersenhealth.org/boscobel", "STATE_ID": "1048", "ALT_NAME": "NOT AVAILABLE", "ST_FIPS": "55", "OWNER": "NON-PROFIT", "TTL_STAFF": -999, "BEDS": 25, "TRAUMA": "LEVEL IV", "HELIPAD": "Y" }, "geometry": { "type": "Polygon", "coordinates": [ [ [ -90.665985054246448, 43.024714000578435 ], [ -90.788335077440905, 43.066812881842047 ], [ -90.799653052938311, 43.075785888484823 ], [ -90.812612922707928, 43.086614596769529 ], [ -90.800580990127983, 43.102853887645431 ], [ -90.716278373322965, 43.152760405449285 ], [ -90.637454490029754, 43.16970511486889 ], [ -90.624400012149792, 43.171164899934439 ], [ -90.618357136315424, 43.165637695970759 ], [ -90.606408716740873, 43.140325395840428 ], [ -90.599115309081213, 43.10588670631855 ], [ -90.60761922865494, 43.089669622584985 ], [ -90.661459863616983, 43.024717997065153 ], [ -90.665985054246448, 43.024714000578435 ] ] ] } },
{ "type": "Feature", "properties": { "OBJECTID": 361, "ID": "0001961401", "NAME": "GALESBURG COTTAGE HOSPITAL", "ADDRESS": "695 N KELLOGG ST", "CITY": "GALESBURG", "STATE": "IL", "ZIP": "61401", "ZIP4": "NOT AVAILABLE", "TELEPHONE": "(309) 345-4555", "TYPE": "GENERAL ACUTE CARE", "STATUS": "OPEN", "POPULATION": 119, "COUNTY": "KNOX", "COUNTYFIPS": "17095", "COUNTRY": "USA", "LATITUDE": 40.95579903, "LONGITUDE": -90.365760264000002, "NAICS_CODE": "622110", "NAICS_DESC": "GENERAL MEDICAL AND SURGICAL HOSPITALS", "SOURCE": "https://data.illinois.gov/", "SOURCEDATE": "2018-08-09T00:00:00.000Z", "VAL_METHOD": "IMAGERY", "VAL_DATE": "2014-02-10T00:00:00.000Z", "WEBSITE": "http://www.cottagehospital.com", "STATE_ID": "140040", "ALT_NAME": "NOT AVAILABLE", "ST_FIPS": "17", "OWNER": "NON-PROFIT", "TTL_STAFF": -999, "BEDS": 119, "TRAUMA": "LEVEL II", "HELIPAD": "Y" }, "geometry": { "type": "Polygon", "coordinates": [ [ [ -90.3653228, 40.876604800000052 ], [ -90.3666886, 40.8772286 ], [ -90.4226038, 40.903611400000024 ], [ -90.488341, 40.947163 ], [ -90.381996, 41.042324 ], [ -90.2825975, 41.027031500000014 ], [ -90.2809983, 41.024877500000024 ], [ -90.245789700000017, 40.9259089 ], [ -90.2450263, 40.910846199999988 ], [ -90.2449721, 40.909156599999989 ], [ -90.2509375, 40.901286 ], [ -90.2821238, 40.894110699999963 ], [ -90.3653228, 40.876604800000052 ] ] ] } },
{ "type": "Feature", "properties": { "OBJECTID": 362, "ID": "0003361401", "NAME": "ST MARY MEDICAL CENTER", "ADDRESS": "3333 NORTH SEMINARY", "CITY": "GALESBURG", "STATE": "IL", "ZIP": "61401", "ZIP4": "NOT AVAILABLE", "TELEPHONE": "(309) 344-3161", "TYPE": "GENERAL ACUTE CARE", "STATUS": "OPEN", "POPULATION": 90, "COUNTY": "KNOX", "COUNTYFIPS": "17095", "COUNTRY": "USA", "LATITUDE": 40.986710283000001, "LONGITUDE": -90.360244917000003, "NAICS_CODE": "622110", "NAICS_DESC": "GENERAL MEDICAL AND SURGICAL HOSPITALS", "SOURCE": "https://data.illinois.gov/", "SOURCEDATE": "2018-08-09T00:00:00.000Z", "VAL_METHOD": "IMAGERY", "VAL_DATE": "2014-03-12T00:00:00.000Z", "WEBSITE": "http://www.osfstmary.org", "STATE_ID": "140064", "ALT_NAME": "NOT AVAILABLE", "ST_FIPS": "17", "OWNER": "NON-PROFIT", "TTL_STAFF": -999, "BEDS": 90, "TRAUMA": "LEVEL II", "HELIPAD": "Y" }, "geometry": { "type": "Polygon", "coordinates": [ [ [ -90.2821151, 40.8960032 ], [ -90.4034673, 40.9037779 ], [ -90.488421, 40.939945 ], [ -90.488341, 40.947163 ], [ -90.478526, 40.983873 ], [ -90.3813489, 41.078576199999979 ], [ -90.2676444, 41.0395403 ], [ -90.249072, 41.009619399999963 ], [ -90.2450263, 40.910846199999988 ], [ -90.2449721, 40.909156599999989 ], [ -90.2509375, 40.901286 ], [ -90.2821151, 40.8960032 ] ] ] } },
{ "type": "Feature", "properties": { "OBJECTID": 544, "ID": "0012061282", "NAME": "GENESIS MEDICAL CENTER ILLINI CAMPUS", "ADDRESS": "801 ILLINI DRIVE", "CITY": "SILVIS", "STATE": "IL", "ZIP": "61282", "ZIP4": "NOT AVAILABLE", "TELEPHONE": "(309) 792-9363", "TYPE": "GENERAL ACUTE CARE", "STATUS": "OPEN", "POPULATION": 101, "COUNTY": "ROCK ISLAND", "COUNTYFIPS": "17161", "COUNTRY": "USA", "LATITUDE": 41.4943257400001, "LONGITUDE": -90.418416113999996, "NAICS_CODE": "622110", "NAICS_DESC": "GENERAL MEDICAL AND SURGICAL HOSPITALS", "SOURCE": "https://data.illinois.gov/", "SOURCEDATE": "2018-08-09T00:00:00.000Z", "VAL_METHOD": "IMAGERY", "VAL_DATE": "2014-03-12T00:00:00.000Z", "WEBSITE": "http://www.genesishealth.com", "STATE_ID": "140275", "ALT_NAME": "NOT AVAILABLE", "ST_FIPS": "17", "OWNER": "NON-PROFIT", "TTL_STAFF": -999, "BEDS": 101, "TRAUMA": "LEVEL II", "HELIPAD": "Y" }, "geometry": { "type": "Polygon", "coordinates": [ [ [ -90.4893368, 41.4526005 ], [ -90.4967472, 41.452938300000028 ], [ -90.4988131, 41.453355699999989 ], [ -90.5284105, 41.4706009 ], [ -90.5288177, 41.471025399999945 ], [ -90.5332797, 41.493321700000017 ], [ -90.530098, 41.505734899999979 ], [ -90.5190369, 41.5262388 ], [ -90.5146935, 41.530821299999985 ], [ -90.3967927, 41.567634900000044 ], [ -90.3773953, 41.5719959 ], [ -90.357141, 41.569274 ], [ -90.3490719, 41.564761299999965 ], [ -90.319824, 41.54776619999997 ], [ -90.3217405, 41.534926400000032 ], [ -90.3342102, 41.513946 ], [ -90.3767297, 41.483402799999986 ], [ -90.4159065, 41.4604979 ], [ -90.484991, 41.452828700000012 ], [ -90.4871147, 41.452703100000029 ], [ -90.4893368, 41.4526005 ] ] ] } },
{ "type": "Feature", "properties": { "OBJECTID": 545, "ID": "0012261201", "NAME": "TRINITY ROCK ISLAND", "ADDRESS": "2701 17TH ST", "CITY": "ROCK ISLAND", "STATE": "IL", "ZIP": "61201", "ZIP4": "NOT AVAILABLE", "TELEPHONE": "(309) 779-5000", "TYPE": "GENERAL ACUTE CARE", "STATUS": "OPEN", "POPULATION": 343, "COUNTY": "ROCK ISLAND", "COUNTYFIPS": "17161", "COUNTRY": "USA", "LATITUDE": 41.482615267, "LONGITUDE": -90.570418129000004, "NAICS_CODE": "622110", "NAICS_DESC": "GENERAL MEDICAL AND SURGICAL HOSPITALS", "SOURCE": "https://data.illinois.gov/", "SOURCEDATE": "2018-08-09T00:00:00.000Z", "VAL_METHOD": "IMAGERY", "VAL_DATE": "2014-03-12T00:00:00.000Z", "WEBSITE": "http://www.trinityqc.com", "STATE_ID": "140280", "ALT_NAME": "NOT AVAILABLE", "ST_FIPS": "17", "OWNER": "NON-PROFIT", "TTL_STAFF": -999, "BEDS": 343, "TRAUMA": "LEVEL II", "HELIPAD": "Y" }, "geometry": { "type": "Polygon", "coordinates": [ [ [ -90.5779577, 41.3920941 ], [ -90.6158363, 41.4082217 ], [ -90.6547503, 41.4279684 ], [ -90.6770684, 41.4444958 ], [ -90.5953359, 41.50553 ], [ -90.588287, 41.50925440000001 ], [ -90.5662266, 41.518093500000013 ], [ -90.5166995, 41.536927300000023 ], [ -90.4799051, 41.513594900000022 ], [ -90.4785173, 41.512077600000019 ], [ -90.4633484, 41.4707389 ], [ -90.474843, 41.452737500000012 ], [ -90.5269253, 41.414765299999964 ], [ -90.5779577, 41.3920941 ] ] ] } },
{ "type": "Feature", "properties": { "OBJECTID": 628, "ID": "0015061462", "NAME": "OSF HOLY FAMILY MEDICAL CENTER", "ADDRESS": "1000 W HARLEM AVENUE", "CITY": "MONMOUTH", "STATE": "IL", "ZIP": "61462", "ZIP4": "NOT AVAILABLE", "TELEPHONE": "(309) 734-3141", "TYPE": "CRITICAL ACCESS", "STATUS": "OPEN", "POPULATION": 23, "COUNTY": "WARREN", "COUNTYFIPS": "17187", "COUNTRY": "USA", "LATITUDE": 40.922252932, "LONGITUDE": -90.658301335000004, "NAICS_CODE": "622110", "NAICS_DESC": "GENERAL MEDICAL AND SURGICAL HOSPITALS", "SOURCE": "https://data.illinois.gov/", "SOURCEDATE": "2018-08-09T00:00:00.000Z", "VAL_METHOD": "IMAGERY", "VAL_DATE": "2014-03-13T00:00:00.000Z", "WEBSITE": "http://www.osfholyfamily.org", "STATE_ID": "141318", "ALT_NAME": "NOT AVAILABLE", "ST_FIPS": "17", "OWNER": "NON-PROFIT", "TTL_STAFF": -999, "BEDS": 23, "TRAUMA": "NOT AVAILABLE", "HELIPAD": "Y" }, "geometry": { "type": "Polygon", "coordinates": [ [ [ -90.6580689, 40.804681 ], [ -90.749461, 40.849647 ], [ -90.7874756, 40.915967399999964 ], [ -90.787048, 40.916473 ], [ -90.766634, 40.930195 ], [ -90.669453, 40.987452 ], [ -90.629343, 41.00799 ], [ -90.553473, 40.962275 ], [ -90.517449, 40.936113 ], [ -90.5175011, 40.919062199999956 ], [ -90.5177953, 40.903689600000014 ], [ -90.6574353, 40.804980600000029 ], [ -90.6580689, 40.804681 ] ] ] } },
{ "type": "Feature", "properties": { "OBJECTID": 629, "ID": "0016161270", "NAME": "MORRISON COMMUNITY HOSPITAL", "ADDRESS": "303 N JACKSON STREET", "CITY": "MORRISON", "STATE": "IL", "ZIP": "61270", "ZIP4": "NOT AVAILABLE", "TELEPHONE": "(815) 772-4003", "TYPE": "CRITICAL ACCESS", "STATUS": "OPEN", "POPULATION": 36, "COUNTY": "WHITESIDE", "COUNTYFIPS": "17195", "COUNTRY": "USA", "LATITUDE": 41.80893488, "LONGITUDE": -89.957878081999993, "NAICS_CODE": "622110", "NAICS_DESC": "GENERAL MEDICAL AND SURGICAL HOSPITALS", "SOURCE": "https://data.illinois.gov/", "SOURCEDATE": "2018-08-09T00:00:00.000Z", "VAL_METHOD": "IMAGERY", "VAL_DATE": "2014-03-12T00:00:00.000Z", "WEBSITE": "http://www.morrisonhospital.com", "STATE_ID": "141329", "ALT_NAME": "NOT AVAILABLE", "ST_FIPS": "17", "OWNER": "GOVERNMENT - DISTRICT/AUTHORITY", "TTL_STAFF": -999, "BEDS": 36, "TRAUMA": "NOT AVAILABLE", "HELIPAD": "Y" }, "geometry": { "type": "Polygon", "coordinates": [ [ [ -89.9665392, 41.71824730000003 ], [ -89.9733545, 41.72099760000004 ], [ -90.0664018, 41.806322800000061 ], [ -90.0650737, 41.849910500000036 ], [ -89.9877821, 41.9020633 ], [ -89.9203244, 41.869712099999951 ], [ -89.8118764, 41.791018300000019 ], [ -89.9665392, 41.71824730000003 ] ] ] } },
{ "type": "Feature", "properties": { "OBJECTID": 774, "ID": "0101561342", "NAME": "MENDOTA COMMUNITY HOSPITAL", "ADDRESS": "1401 EAST 12TH STREET", "CITY": "MENDOTA", "STATE": "IL", "ZIP": "61342", "ZIP4": "NOT AVAILABLE", "TELEPHONE": "(815) 539-7461", "TYPE": "CRITICAL ACCESS", "STATUS": "OPEN", "POPULATION": -999, "COUNTY": "LA SALLE", "COUNTYFIPS": "17099", "COUNTRY": "USA", "LATITUDE": 41.553052905000101, "LONGITUDE": -89.087807752999893, "NAICS_CODE": "622110", "NAICS_DESC": "GENERAL MEDICAL AND SURGICAL HOSPITALS", "SOURCE": "https://data.illinois.gov/", "SOURCEDATE": "2018-08-09T00:00:00.000Z", "VAL_METHOD": "IMAGERY/OTHER", "VAL_DATE": "2015-01-17T00:00:00.000Z", "WEBSITE": "https://www.osfhealthcare.org/saint-paul/", "STATE_ID": "NOT AVAILABLE", "ALT_NAME": "OSF ST PAUL", "ST_FIPS": "17", "OWNER": "NOT AVAILABLE", "TTL_STAFF": -999, "BEDS": -999, "TRAUMA": "NOT AVAILABLE", "HELIPAD": "Y" }, "geometry": { "type": "Polygon", "coordinates": [ [ [ -89.083193, 41.46403150000004 ], [ -89.1270599, 41.483787 ], [ -89.226511, 41.542537 ], [ -89.166729, 41.599411 ], [ -89.1289679, 41.620564199999954 ], [ -89.109918361501158, 41.627593799071938 ], [ -89.090681386685176, 41.627319013309055 ], [ -89.071359412028826, 41.62702512760891 ], [ -88.9763516, 41.577009199999978 ], [ -88.9853817, 41.5478052 ], [ -89.0117881, 41.46957740000002 ], [ -89.0504847, 41.465579699999964 ], [ -89.083193, 41.46403150000004 ] ] ] } },
{ "type": "Feature", "properties": { "OBJECTID": 928, "ID": "0098261231", "NAME": "GENESIS MEDICAL CENTER ALEDO", "ADDRESS": "409 NORTHWEST 9TH AVENUE", "CITY": "ALEDO", "STATE": "IL", "ZIP": "61231", "ZIP4": "NOT AVAILABLE", "TELEPHONE": "(309) 582-9100", "TYPE": "CRITICAL ACCESS", "STATUS": "OPEN", "POPULATION": 22, "COUNTY": "MERCER", "COUNTYFIPS": "17131", "COUNTRY": "USA", "LATITUDE": 41.205523198000002, "LONGITUDE": -90.759473440999997, "NAICS_CODE": "622110", "NAICS_DESC": "GENERAL MEDICAL AND SURGICAL HOSPITALS", "SOURCE": "https://data.illinois.gov/", "SOURCEDATE": "2018-08-09T00:00:00.000Z", "VAL_METHOD": "IMAGERY/OTHER", "VAL_DATE": "2015-02-21T00:00:00.000Z", "WEBSITE": "http://www.genesishealth.com/facilities/hospital/aledo/genesis-medical-center-aledo/", "STATE_ID": "NOT AVAILABLE", "ALT_NAME": "NOT AVAILABLE", "ST_FIPS": "17", "OWNER": "NOT AVAILABLE", "TTL_STAFF": -999, "BEDS": 22, "TRAUMA": "NOT AVAILABLE", "HELIPAD": "Y" }, "geometry": { "type": "Polygon", "coordinates": [ [ [ -90.7445696, 41.112325200000022 ], [ -90.883430500000017, 41.194835900000029 ], [ -90.883941, 41.196640699999975 ], [ -90.8839193, 41.1985468 ], [ -90.8784942, 41.204481 ], [ -90.822535, 41.241464399999984 ], [ -90.7359549, 41.2691903 ], [ -90.6254965, 41.203314900000017 ], [ -90.7445696, 41.112325200000022 ] ] ] } },
{ "type": "Feature", "properties": { "OBJECTID": 7236, "ID": "0015161254", "NAME": "HAMMOND HENRY HOSPITAL", "ADDRESS": "600 N COLLEGE AVENUE", "CITY": "GENESEO", "STATE": "IL", "ZIP": "61254", "ZIP4": "NOT AVAILABLE", "TELEPHONE": "(309) 944-6431", "TYPE": "CRITICAL ACCESS", "STATUS": "OPEN", "POPULATION": 61, "COUNTY": "HENRY", "COUNTYFIPS": "17073", "COUNTRY": "USA", "LATITUDE": 41.460314785000001, "LONGITUDE": -90.157676844999997, "NAICS_CODE": "622110", "NAICS_DESC": "GENERAL MEDICAL AND SURGICAL HOSPITALS", "SOURCE": "https://data.illinois.gov/", "SOURCEDATE": "2018-08-09T00:00:00.000Z", "VAL_METHOD": "IMAGERY", "VAL_DATE": "2014-03-12T00:00:00.000Z", "WEBSITE": "http://www.hammondhenry.com", "STATE_ID": "141319", "ALT_NAME": "NOT AVAILABLE", "ST_FIPS": "17", "OWNER": "GOVERNMENT - DISTRICT/AUTHORITY", "TTL_STAFF": -999, "BEDS": 61, "TRAUMA": "NOT AVAILABLE", "HELIPAD": "Y" }, "geometry": { "type": "Polygon", "coordinates": [ [ [ -90.1650728, 41.368346800000033 ], [ -90.2599565, 41.425863200000038 ], [ -90.2938705, 41.454690900000031 ], [ -90.2545972, 41.49876 ], [ -90.15761, 41.552966 ], [ -90.138839, 41.542167 ], [ -90.058175, 41.457199399999986 ], [ -90.0584795, 41.4175978 ], [ -90.068152, 41.410462500000015 ], [ -90.1650728, 41.368346800000033 ] ] ] } },
{ "type": "Feature", "properties": { "OBJECTID": 7522, "ID": "0007852732", "NAME": "MERCY REHABILITATION SERVICES", "ADDRESS": "638 SOUTH BLUFF ROAD", "CITY": "CLINTON", "STATE": "IA", "ZIP": "52732", "ZIP4": "NOT AVAILABLE", "TELEPHONE": "(319) 244-5555", "TYPE": "GENERAL ACUTE CARE", "STATUS": "OPEN", "POPULATION": -999, "COUNTY": "CLINTON", "COUNTYFIPS": "19045", "COUNTRY": "USA", "LATITUDE": 41.840024289, "LONGITUDE": -90.213743565999906, "NAICS_CODE": "622110", "NAICS_DESC": "GENERAL MEDICAL AND SURGICAL HOSPITALS", "SOURCE": "https://dia-hfd.iowa.gov/DIA_HFD/CTLEntitySearch.do", "SOURCEDATE": "2018-08-09T00:00:00.000Z", "VAL_METHOD": "IMAGERY", "VAL_DATE": "2016-04-19T00:00:00.000Z", "WEBSITE": "http://www.mercyclinton.com", "STATE_ID": "NOT AVAILABLE", "ALT_NAME": "NOT AVAILABLE", "ST_FIPS": "19", "OWNER": "NON-PROFIT", "TTL_STAFF": -999, "BEDS": -999, "TRAUMA": "NOT AVAILABLE", "HELIPAD": "N" }, "geometry": { "type": "Polygon", "coordinates": [ [ [ -90.274298500000015, 41.7766687 ], [ -90.2976984, 41.7786219 ], [ -90.35997, 41.815791700000013 ], [ -90.2747747, 41.902725 ], [ -90.2250606, 41.9174396 ], [ -90.1956976, 41.91781229999998 ], [ -90.1734881, 41.889779099999984 ], [ -90.1729159, 41.8886458 ], [ -90.1720317, 41.8854485 ], [ -90.1718951, 41.884866100000018 ], [ -90.171892600000021, 41.884448699999979 ], [ -90.173965, 41.8378811 ], [ -90.2513384, 41.781593500000021 ], [ -90.253595, 41.780514700000026 ], [ -90.2547393, 41.779991099999954 ], [ -90.257129, 41.778955 ], [ -90.274298500000015, 41.7766687 ] ] ] } },
{ "type": "Feature", "properties": { "OBJECTID": 5291, "ID": "0000761021", "NAME": "KATHERINE SHAW BETHEA HOSPITAL", "ADDRESS": "403 E 1ST ST", "CITY": "DIXON", "STATE": "IL", "ZIP": "61021", "ZIP4": "NOT AVAILABLE", "TELEPHONE": "(815) 288-5531", "TYPE": "GENERAL ACUTE CARE", "STATUS": "OPEN", "POPULATION": 80, "COUNTY": "LEE", "COUNTYFIPS": "17103", "COUNTRY": "USA", "LATITUDE": 41.844778433999998, "LONGITUDE": -89.478895119999905, "NAICS_CODE": "622110", "NAICS_DESC": "GENERAL MEDICAL AND SURGICAL HOSPITALS", "SOURCE": "https://data.illinois.gov/", "SOURCEDATE": "2018-08-09T00:00:00.000Z", "VAL_METHOD": "IMAGERY", "VAL_DATE": "2014-03-12T00:00:00.000Z", "WEBSITE": "http://www.ksbhospital.com", "STATE_ID": "140012", "ALT_NAME": "NOT AVAILABLE", "ST_FIPS": "17", "OWNER": "NON-PROFIT", "TTL_STAFF": -999, "BEDS": 80, "TRAUMA": "NOT AVAILABLE", "HELIPAD": "Y" }, "geometry": { "type": "Polygon", "coordinates": [ [ [ -89.4771356, 41.7582561 ], [ -89.6120828, 41.8101243 ], [ -89.6118501, 41.8229424 ], [ -89.6118456, 41.823167599999977 ], [ -89.5616882, 41.916651799999975 ], [ -89.5473853, 41.9168288 ], [ -89.5229903, 41.916644 ], [ -89.46307, 41.9111122 ], [ -89.3928931, 41.896207900000014 ], [ -89.3420554, 41.837574100000033 ], [ -89.366646, 41.786290499999957 ], [ -89.438086, 41.7582156 ], [ -89.4572997, 41.758222300000035 ], [ -89.476588, 41.7582403 ], [ -89.4771356, 41.7582561 ] ] ] } },
{ "type": "Feature", "properties": { "OBJECTID": 5347, "ID": "0100361265", "NAME": "TRINITY MEDICAL CENTER - 7TH STREET CAMPUS - DBA TRINITY MOLINE", "ADDRESS": "500 JOHN DEERE ROAD, 7TH STREET CAMPUS", "CITY": "MOLINE", "STATE": "IL", "ZIP": "61265", "ZIP4": "NOT AVAILABLE", "TELEPHONE": "(309) 779-5000", "TYPE": "GENERAL ACUTE CARE", "STATUS": "OPEN", "POPULATION": -999, "COUNTY": "ROCK ISLAND", "COUNTYFIPS": "17161", "COUNTRY": "USA", "LATITUDE": 41.468307402999997, "LONGITUDE": -90.530979691, "NAICS_CODE": "622110", "NAICS_DESC": "GENERAL MEDICAL AND SURGICAL HOSPITALS", "SOURCE": "https://data.illinois.gov/", "SOURCEDATE": "2018-08-09T00:00:00.000Z", "VAL_METHOD": "IMAGERY/OTHER", "VAL_DATE": "2015-01-17T00:00:00.000Z", "WEBSITE": "NOT AVAILABLE", "STATE_ID": "NOT AVAILABLE", "ALT_NAME": "NOT AVAILABLE", "ST_FIPS": "17", "OWNER": "NOT AVAILABLE", "TTL_STAFF": -999, "BEDS": -999, "TRAUMA": "NOT AVAILABLE", "HELIPAD": "Y" }, "geometry": { "type": "Polygon", "coordinates": [ [ [ -90.5778938, 41.388923200000043 ], [ -90.587356, 41.392649200000015 ], [ -90.6062703, 41.400965199999945 ], [ -90.6077307, 41.402379100000019 ], [ -90.6387197, 41.443412 ], [ -90.6387049, 41.443965300000052 ], [ -90.5963375, 41.504244 ], [ -90.5953359, 41.50553 ], [ -90.5221509, 41.569864899999985 ], [ -90.4055264, 41.494294 ], [ -90.3986251, 41.485967400000028 ], [ -90.3975803, 41.484366199999954 ], [ -90.3977178, 41.483301699999956 ], [ -90.40002650000001, 41.47201459999998 ], [ -90.4145899, 41.4503906 ], [ -90.4569908, 41.416508500000013 ], [ -90.5225938, 41.391547099999968 ], [ -90.5778938, 41.388923200000043 ] ] ] } },
{ "type": "Feature", "properties": { "OBJECTID": 5387, "ID": "0000000066", "NAME": "GENESIS MEDICAL CENTER WEST-DAVENPORT", "ADDRESS": "1401 W CENTRAL PARK AVE", "CITY": "DAVENPORT", "STATE": "IA", "ZIP": "52804", "ZIP4": "NOT AVAILABLE", "TELEPHONE": "(563) 421-1000", "TYPE": "GENERAL ACUTE CARE", "STATUS": "OPEN", "POPULATION": 502, "COUNTY": "SCOTT", "COUNTYFIPS": "19163", "COUNTRY": "USA", "LATITUDE": 41.543674130000099, "LONGITUDE": -90.593765135999902, "NAICS_CODE": "622110", "NAICS_DESC": "GENERAL MEDICAL AND SURGICAL HOSPITALS", "SOURCE": "https://dia-hfd.iowa.gov/DIA_HFD/CTLEntitySearch.do", "SOURCEDATE": "2018-08-09T00:00:00.000Z", "VAL_METHOD": "IMAGERY/OTHER", "VAL_DATE": "2016-04-19T00:00:00.000Z", "WEBSITE": "http://www.genesishealth.com/", "STATE_ID": "NOT AVAILABLE", "ALT_NAME": "NOT AVAILABLE", "ST_FIPS": "19", "OWNER": "NOT AVAILABLE", "TTL_STAFF": -999, "BEDS": 502, "TRAUMA": "NOT AVAILABLE", "HELIPAD": "Y" }, "geometry": { "type": "Polygon", "coordinates": [ [ [ -90.6318452, 41.4848704 ], [ -90.6511263, 41.486685499999965 ], [ -90.688323, 41.508426 ], [ -90.7050082, 41.538097 ], [ -90.686396, 41.603833 ], [ -90.646619, 41.618607 ], [ -90.5679704, 41.628966 ], [ -90.5593973, 41.629312900000023 ], [ -90.51927, 41.596136 ], [ -90.499065, 41.575184 ], [ -90.496158, 41.560578 ], [ -90.490561, 41.526659 ], [ -90.5085273, 41.502209800000031 ], [ -90.6318452, 41.4848704 ] ] ] } },
{ "type": "Feature", "properties": { "OBJECTID": 5425, "ID": "0095250401", "NAME": "MERCY MEDICAL CENTER-NORTH IOWA", "ADDRESS": "1000 FOURTH STREET SW", "CITY": "MASON CITY", "STATE": "IA", "ZIP": "50401", "ZIP4": "NOT AVAILABLE", "TELEPHONE": "(641) 428-7000", "TYPE": "GENERAL ACUTE CARE", "STATUS": "OPEN", "POPULATION": 346, "COUNTY": "CERRO GORDO", "COUNTYFIPS": "19033", "COUNTRY": "USA", "LATITUDE": 43.150075581000102, "LONGITUDE": -93.216719308999998, "NAICS_CODE": "622110", "NAICS_DESC": "GENERAL MEDICAL AND SURGICAL HOSPITALS", "SOURCE": "https://dia-hfd.iowa.gov/DIA_HFD/CTLEntitySearch.do", "SOURCEDATE": "2018-08-09T00:00:00.000Z", "VAL_METHOD": "IMAGERY/OTHER", "VAL_DATE": "2016-04-14T00:00:00.000Z", "WEBSITE": "http://www.mercynorthiowa.com", "STATE_ID": "NOT AVAILABLE", "ALT_NAME": "NOT AVAILABLE", "ST_FIPS": "19", "OWNER": "NOT AVAILABLE", "TTL_STAFF": -999, "BEDS": 346, "TRAUMA": "LEVEL II", "HELIPAD": "Y" }, "geometry": { "type": "Polygon", "coordinates": [ [ [ -93.2027018, 43.052267900000039 ], [ -93.356373, 43.128863400000014 ], [ -93.3737372, 43.14404650000003 ], [ -93.2804992, 43.198681899999976 ], [ -93.210501, 43.2274349 ], [ -93.1637285, 43.198521800000023 ], [ -93.083238, 43.148130299999977 ], [ -93.1156318, 43.114125 ], [ -93.2013292, 43.0522625 ], [ -93.2027018, 43.052267900000039 ] ] ] } },
{ "type": "Feature", "properties": { "OBJECTID": 5427, "ID": "0007352402", "NAME": "ST. LUKE'S METHODIST HOSPITAL", "ADDRESS": "1026 A AVENUE NE", "CITY": "CEDAR RAPIDS", "STATE": "IA", "ZIP": "52402", "ZIP4": "NOT AVAILABLE", "TELEPHONE": "(319) 369-7211", "TYPE": "GENERAL ACUTE CARE", "STATUS": "OPEN", "POPULATION": 540, "COUNTY": "LINN", "COUNTYFIPS": "19113", "COUNTRY": "USA", "LATITUDE": 41.9852377180001, "LONGITUDE": -91.660586683000005, "NAICS_CODE": "622110", "NAICS_DESC": "GENERAL MEDICAL AND SURGICAL HOSPITALS", "SOURCE": "https://dia-hfd.iowa.gov/DIA_HFD/CTLEntitySearch.do", "SOURCEDATE": "2018-08-09T00:00:00.000Z", "VAL_METHOD": "IMAGERY", "VAL_DATE": "2016-04-15T00:00:00.000Z", "WEBSITE": "http://www.stlukescr.org/", "STATE_ID": "NOT AVAILABLE", "ALT_NAME": "NOT AVAILABLE", "ST_FIPS": "19", "OWNER": "NON-PROFIT", "TTL_STAFF": -999, "BEDS": 540, "TRAUMA": "LEVEL III", "HELIPAD": "Y" }, "geometry": { "type": "Polygon", "coordinates": [ [ [ -91.668276, 41.853124 ], [ -91.7822063, 41.927464 ], [ -91.7877754, 41.963367 ], [ -91.769616, 42.018795 ], [ -91.7198281, 42.097239399999957 ], [ -91.718931, 42.098338 ], [ -91.717953, 42.099145200000024 ], [ -91.716934, 42.09916960000001 ], [ -91.6776689, 42.09501 ], [ -91.550087910030228, 42.019924944771148 ], [ -91.526546891366692, 41.975900456975694 ], [ -91.525684908522464, 41.973571029955018 ], [ -91.545184882766421, 41.946293955949237 ], [ -91.668276, 41.853124 ] ] ] } },
{ "type": "Feature", "properties": { "OBJECTID": 5429, "ID": "0005150644", "NAME": "BUCHANAN COUNTY HEALTH CENTER", "ADDRESS": "1600 FIRST STREET EAST", "CITY": "INDEPENDENCE", "STATE": "IA", "ZIP": "50644", "ZIP4": "NOT AVAILABLE", "TELEPHONE": "(319) 332-0999", "TYPE": "CRITICAL ACCESS", "STATUS": "OPEN", "POPULATION": 25, "COUNTY": "BUCHANAN", "COUNTYFIPS": "19019", "COUNTRY": "USA", "LATITUDE": 42.470341357000102, "LONGITUDE": -91.874423733999905, "NAICS_CODE": "622110", "NAICS_DESC": "GENERAL MEDICAL AND SURGICAL HOSPITALS", "SOURCE": "https://dia-hfd.iowa.gov/DIA_HFD/CTLEntitySearch.do", "SOURCEDATE": "2018-08-09T00:00:00.000Z", "VAL_METHOD": "IMAGERY/OTHER", "VAL_DATE": "2016-04-15T00:00:00.000Z", "WEBSITE": "http://www.bchealth.info", "STATE_ID": "NOT AVAILABLE", "ALT_NAME": "NOT AVAILABLE", "ST_FIPS": "19", "OWNER": "GOVERNMENT - LOCAL", "TTL_STAFF": -999, "BEDS": 25, "TRAUMA": "LEVEL IV", "HELIPAD": "Y" }, "geometry": { "type": "Polygon", "coordinates": [ [ [ -91.889814, 42.392777 ], [ -91.920483, 42.407062 ], [ -92.007248320766365, 42.467907266829663 ], [ -91.9634287, 42.514171100000013 ], [ -91.904829, 42.541298 ], [ -91.89008, 42.541411 ], [ -91.8802434, 42.541443 ], [ -91.8258507, 42.5266949 ], [ -91.753255060186035, 42.468371869922258 ], [ -91.753280066666775, 42.463280764601429 ], [ -91.753310532480967, 42.460140761210894 ], [ -91.7827784, 42.417217099999981 ], [ -91.889814, 42.392777 ] ] ] } },
{ "type": "Feature", "properties": { "OBJECTID": 5430, "ID": "0092552641", "NAME": "HENRY COUNTY HEALTH CENTER", "ADDRESS": "407 S WHITE ST", "CITY": "MOUNT PLEASANT", "STATE": "IA", "ZIP": "52641", "ZIP4": "NOT AVAILABLE", "TELEPHONE": "(319) 385-3141", "TYPE": "CRITICAL ACCESS", "STATUS": "OPEN", "POPULATION": 74, "COUNTY": "HENRY", "COUNTYFIPS": "19087", "COUNTRY": "USA", "LATITUDE": 40.962297639, "LONGITUDE": -91.559509565, "NAICS_CODE": "622110", "NAICS_DESC": "GENERAL MEDICAL AND SURGICAL HOSPITALS", "SOURCE": "https://dia-hfd.iowa.gov/DIA_HFD/CTLEntitySearch.do", "SOURCEDATE": "2018-08-09T00:00:00.000Z", "VAL_METHOD": "IMAGERY/OTHER", "VAL_DATE": "2016-04-15T00:00:00.000Z", "WEBSITE": "http://www.hchc.org", "STATE_ID": "NOT AVAILABLE", "ALT_NAME": "NOT AVAILABLE", "ST_FIPS": "19", "OWNER": "GOVERNMENT - LOCAL", "TTL_STAFF": -999, "BEDS": 74, "TRAUMA": "LEVEL IV", "HELIPAD": "Y" }, "geometry": { "type": "Polygon", "coordinates": [ [ [ -91.56527490683942, 40.871842222015459 ], [ -91.62202, 40.908636 ], [ -91.646055, 40.926797 ], [ -91.6988704, 40.9741385 ], [ -91.6989529, 40.984879799999952 ], [ -91.6966392, 40.987406699999973 ], [ -91.544603612167634, 41.068884111132178 ], [ -91.544082812176057, 41.068879811218807 ], [ -91.424716, 40.929786 ], [ -91.418363500000012, 40.917557500000051 ], [ -91.564850006812776, 40.871833021910135 ], [ -91.56527490683942, 40.871842222015459 ] ] ] } },
{ "type": "Feature", "properties": { "OBJECTID": 5436, "ID": "0094350638", "NAME": "GRUNDY COUNTY MEMORIAL HOSPITAL", "ADDRESS": "201 EAST J AVENUE", "CITY": "GRUNDY CENTER", "STATE": "IA", "ZIP": "50638", "ZIP4": "NOT AVAILABLE", "TELEPHONE": "(319) 824-5421", "TYPE": "CRITICAL ACCESS", "STATUS": "OPEN", "POPULATION": 80, "COUNTY": "GRUNDY", "COUNTYFIPS": "19075", "COUNTRY": "USA", "LATITUDE": 42.359393189000102, "LONGITUDE": -92.761963282999901, "NAICS_CODE": "622110", "NAICS_DESC": "GENERAL MEDICAL AND SURGICAL HOSPITALS", "SOURCE": "https://dia-hfd.iowa.gov/DIA_HFD/CTLEntitySearch.do", "SOURCEDATE": "2018-08-09T00:00:00.000Z", "VAL_METHOD": "IMAGERY/OTHER", "VAL_DATE": "2016-04-15T00:00:00.000Z", "WEBSITE": "http://www.grundycountyhospital.com", "STATE_ID": "NOT AVAILABLE", "ALT_NAME": "NOT AVAILABLE", "ST_FIPS": "19", "OWNER": "GOVERNMENT - LOCAL", "TTL_STAFF": -999, "BEDS": 80, "TRAUMA": "LEVEL IV", "HELIPAD": "Y" }, "geometry": { "type": "Polygon", "coordinates": [ [ [ -92.758011600000017, 42.2825105 ], [ -92.826199, 42.296515 ], [ -92.885975, 42.354034499999976 ], [ -92.846253, 42.405389 ], [ -92.7692498, 42.470339 ], [ -92.768565, 42.470004 ], [ -92.7599647, 42.4627576 ], [ -92.710012, 42.412996 ], [ -92.63119, 42.332652 ], [ -92.7092868, 42.294135 ], [ -92.758011600000017, 42.2825105 ] ] ] } },
{ "type": "Feature", "properties": { "OBJECTID": 5437, "ID": "0094452052", "NAME": "GUTTENBERG MUNICIPAL HOSPITAL", "ADDRESS": "200 MAIN STREET", "CITY": "GUTTENBERG", "STATE": "IA", "ZIP": "52052", "ZIP4": "NOT AVAILABLE", "TELEPHONE": "(563) 252-1121", "TYPE": "CRITICAL ACCESS", "STATUS": "OPEN", "POPULATION": 25, "COUNTY": "CLAYTON", "COUNTYFIPS": "19043", "COUNTRY": "USA", "LATITUDE": 42.786127537, "LONGITUDE": -91.099461157999897, "NAICS_CODE": "622110", "NAICS_DESC": "GENERAL MEDICAL AND SURGICAL HOSPITALS", "SOURCE": "https://dia-hfd.iowa.gov/DIA_HFD/CTLEntitySearch.do", "SOURCEDATE": "2018-08-09T00:00:00.000Z", "VAL_METHOD": "IMAGERY/OTHER", "VAL_DATE": "2016-04-15T00:00:00.000Z", "WEBSITE": "http://www.guttenberghospital.org", "STATE_ID": "NOT AVAILABLE", "ALT_NAME": "NOT AVAILABLE", "ST_FIPS": "19", "OWNER": "NOT AVAILABLE", "TTL_STAFF": -999, "BEDS": 25, "TRAUMA": "LEVEL IV", "HELIPAD": "Y" }, "geometry": { "type": "Polygon", "coordinates": [ [ [ -91.0775119, 42.6817001 ], [ -91.163537, 42.728463 ], [ -91.2058508, 42.779551300000016 ], [ -91.2168613, 42.8390031 ], [ -91.1357563, 42.867702900000012 ], [ -91.104433, 42.870734 ], [ -91.0521285, 42.720842 ], [ -91.05183030000002, 42.7166838 ], [ -91.055112, 42.707943699999973 ], [ -91.0682181, 42.690129700000035 ], [ -91.0775119, 42.6817001 ] ] ] } },
{ "type": "Feature", "properties": { "OBJECTID": 5438, "ID": "0094550423", "NAME": "HANCOCK COUNTY HEALTH SYSTEM", "ADDRESS": "532 1ST ST NW", "CITY": "BRITT", "STATE": "IA", "ZIP": "50423", "ZIP4": "NOT AVAILABLE", "TELEPHONE": "(641) 843-5000", "TYPE": "CRITICAL ACCESS", "STATUS": "OPEN", "POPULATION": 25, "COUNTY": "HANCOCK", "COUNTYFIPS": "19081", "COUNTRY": "USA", "LATITUDE": 43.098214029000097, "LONGITUDE": -93.808195258999902, "NAICS_CODE": "622110", "NAICS_DESC": "GENERAL MEDICAL AND SURGICAL HOSPITALS", "SOURCE": "https://dia-hfd.iowa.gov/DIA_HFD/CTLEntitySearch.do", "SOURCEDATE": "2018-08-09T00:00:00.000Z", "VAL_METHOD": "IMAGERY/OTHER", "VAL_DATE": "2016-04-15T00:00:00.000Z", "WEBSITE": "http://www.trusthchs.com/hancock-county-health-system", "STATE_ID": "NOT AVAILABLE", "ALT_NAME": "NOT AVAILABLE", "ST_FIPS": "19", "OWNER": "GOVERNMENT - LOCAL", "TTL_STAFF": -999, "BEDS": 25, "TRAUMA": "LEVEL IV", "HELIPAD": "Y" }, "geometry": { "type": "Polygon", "coordinates": [ [ [ -93.7930794, 43.00952540000003 ], [ -93.9506038, 43.0971465 ], [ -93.8712814, 43.140829900000035 ], [ -93.7928496, 43.183781799999963 ], [ -93.6757922, 43.1124127 ], [ -93.665909400000018, 43.105107799999956 ], [ -93.7930794, 43.00952540000003 ] ] ] } },
{ "type": "Feature", "properties": { "OBJECTID": 5502, "ID": "0093552761", "NAME": "TRINITY MUSCATINE", "ADDRESS": "1518 MULBERRY AVENUE", "CITY": "MUSCATINE", "STATE": "IA", "ZIP": "52761", "ZIP4": "NOT AVAILABLE", "TELEPHONE": "(563) 264-9100", "TYPE": "GENERAL ACUTE CARE", "STATUS": "OPEN", "POPULATION": 48, "COUNTY": "MUSCATINE", "COUNTYFIPS": "19139", "COUNTRY": "USA", "LATITUDE": 41.433407824, "LONGITUDE": -91.054457509000002, "NAICS_CODE": "622110", "NAICS_DESC": "GENERAL MEDICAL AND SURGICAL HOSPITALS", "SOURCE": "https://dia-hfd.iowa.gov/DIA_HFD/CTLEntitySearch.do", "SOURCEDATE": "2018-08-09T00:00:00.000Z", "VAL_METHOD": "IMAGERY/OTHER", "VAL_DATE": "2016-04-15T00:00:00.000Z", "WEBSITE": "http://www.trinitymuscatine.org", "STATE_ID": "NOT AVAILABLE", "ALT_NAME": "NOT AVAILABLE", "ST_FIPS": "19", "OWNER": "NON-PROFIT", "TTL_STAFF": -999, "BEDS": 48, "TRAUMA": "LEVEL IV", "HELIPAD": "Y" }, "geometry": { "type": "Polygon", "coordinates": [ [ [ -91.1001042, 41.352463600000057 ], [ -91.140945, 41.364373 ], [ -91.141198, 41.364601 ], [ -91.190369, 41.44819 ], [ -91.102012, 41.508667 ], [ -91.038956, 41.507985 ], [ -90.9618322, 41.4995524 ], [ -90.935232, 41.433244 ], [ -91.076481, 41.35214 ], [ -91.1001042, 41.352463600000057 ] ] ] } },
{ "type": "Feature", "properties": { "OBJECTID": 5532, "ID": "0003650677", "NAME": "WAVERLY MUNICIPAL HOSPITAL", "ADDRESS": "312 9TH STREET SW", "CITY": "WAVERLY", "STATE": "IA", "ZIP": "50677", "ZIP4": "NOT AVAILABLE", "TELEPHONE": "(319) 352-4944", "TYPE": "CRITICAL ACCESS", "STATUS": "OPEN", "POPULATION": 25, "COUNTY": "BREMER", "COUNTYFIPS": "19017", "COUNTRY": "USA", "LATITUDE": 42.722688787000003, "LONGITUDE": -92.482576441999996, "NAICS_CODE": "622110", "NAICS_DESC": "GENERAL MEDICAL AND SURGICAL HOSPITALS", "SOURCE": "https://dia-hfd.iowa.gov/DIA_HFD/CTLEntitySearch.do", "SOURCEDATE": "2018-08-09T00:00:00.000Z", "VAL_METHOD": "IMAGERY/OTHER", "VAL_DATE": "2016-04-15T00:00:00.000Z", "WEBSITE": "http://www.waverlyhealthcenter.org", "STATE_ID": "NOT AVAILABLE", "ALT_NAME": "NOT AVAILABLE", "ST_FIPS": "19", "OWNER": "GOVERNMENT - LOCAL", "TTL_STAFF": -999, "BEDS": 25, "TRAUMA": "LEVEL IV", "HELIPAD": "Y" }, "geometry": { "type": "Polygon", "coordinates": [ [ [ -92.4802709, 42.632689700000043 ], [ -92.539275, 42.68595 ], [ -92.5548097, 42.702675200000044 ], [ -92.5612561, 42.714928299999968 ], [ -92.554472, 42.759124 ], [ -92.5348974, 42.818303499999978 ], [ -92.5343446, 42.8183084 ], [ -92.465437, 42.802883 ], [ -92.414826, 42.773449 ], [ -92.395456, 42.758975 ], [ -92.3429391, 42.7147498 ], [ -92.4361707, 42.6495211 ], [ -92.4533918, 42.6420876 ], [ -92.4802709, 42.632689700000043 ] ] ] } },
{ "type": "Feature", "properties": { "OBJECTID": 5533, "ID": "0005052057", "NAME": "REGIONAL MEDICAL CENTER", "ADDRESS": "709 WEST MAIN STREET", "CITY": "MANCHESTER", "STATE": "IA", "ZIP": "52057", "ZIP4": "NOT AVAILABLE", "TELEPHONE": "(563) 927-3232", "TYPE": "GENERAL ACUTE CARE", "STATUS": "OPEN", "POPULATION": 25, "COUNTY": "DELAWARE", "COUNTYFIPS": "19055", "COUNTRY": "USA", "LATITUDE": 42.484988670000099, "LONGITUDE": -91.466624517999904, "NAICS_CODE": "622110", "NAICS_DESC": "GENERAL MEDICAL AND SURGICAL HOSPITALS", "SOURCE": "https://dia-hfd.iowa.gov/DIA_HFD/CTLEntitySearch.do", "SOURCEDATE": "2018-08-09T00:00:00.000Z", "VAL_METHOD": "IMAGERY/OTHER", "VAL_DATE": "2016-04-15T00:00:00.000Z", "WEBSITE": "http://www.regmedctr.org", "STATE_ID": "NOT AVAILABLE", "ALT_NAME": "NOT AVAILABLE", "ST_FIPS": "19", "OWNER": "GOVERNMENT - LOCAL", "TTL_STAFF": -999, "BEDS": 25, "TRAUMA": "LEVEL IV", "HELIPAD": "Y" }, "geometry": { "type": "Polygon", "coordinates": [ [ [ -91.4808099, 42.3909264 ], [ -91.608493635476677, 42.469280468000662 ], [ -91.5202094, 42.549147 ], [ -91.469719400000017, 42.586036200000017 ], [ -91.301906525260762, 42.471104365646553 ], [ -91.301723543897324, 42.470429979705273 ], [ -91.4226727, 42.401661399999988 ], [ -91.442381, 42.390799 ], [ -91.4808099, 42.3909264 ] ] ] } },
{ "type": "Feature", "properties": { "OBJECTID": 5534, "ID": "0006452060", "NAME": "JACKSON COUNTY PUBLIC HOSPITAL", "ADDRESS": "700 WEST GROVE STREET", "CITY": "MAQUOKETA", "STATE": "IA", "ZIP": "52060", "ZIP4": "NOT AVAILABLE", "TELEPHONE": "(563) 652-2474", "TYPE": "CRITICAL ACCESS", "STATUS": "OPEN", "POPULATION": 25, "COUNTY": "JACKSON", "COUNTYFIPS": "19097", "COUNTRY": "USA", "LATITUDE": 42.072388871000001, "LONGITUDE": -90.673322827999996, "NAICS_CODE": "622110", "NAICS_DESC": "GENERAL MEDICAL AND SURGICAL HOSPITALS", "SOURCE": "https://dia-hfd.iowa.gov/DIA_HFD/CTLEntitySearch.do", "SOURCEDATE": "2018-08-09T00:00:00.000Z", "VAL_METHOD": "IMAGERY", "VAL_DATE": "2016-04-15T00:00:00.000Z", "WEBSITE": "http://www.jcrhc.org", "STATE_ID": "NOT AVAILABLE", "ALT_NAME": "NOT AVAILABLE", "ST_FIPS": "19", "OWNER": "GOVERNMENT - LOCAL", "TTL_STAFF": -999, "BEDS": 25, "TRAUMA": "LEVEL IV", "HELIPAD": "Y" }, "geometry": { "type": "Polygon", "coordinates": [ [ [ -90.636014251256611, 42.003666124504733 ], [ -90.733256084097619, 42.018339892785811 ], [ -90.753032337439763, 42.032825339428392 ], [ -90.802925701432912, 42.073048271649661 ], [ -90.765533486993547, 42.120614301849429 ], [ -90.671499408567016, 42.206933370921149 ], [ -90.591496870351619, 42.135171486513087 ], [ -90.553578152037915, 42.042693422473903 ], [ -90.636014251256611, 42.003666124504733 ] ] ] } },
{ "type": "Feature", "properties": { "OBJECTID": 3332, "ID": "0011261354", "NAME": "ILLINOIS VALLEY COMMUNITY HOSPITAL", "ADDRESS": "925 WEST ST", "CITY": "PERU", "STATE": "IL", "ZIP": "61354", "ZIP4": "NOT AVAILABLE", "TELEPHONE": "(815) 223-3300", "TYPE": "GENERAL ACUTE CARE", "STATUS": "OPEN", "POPULATION": 56, "COUNTY": "LA SALLE", "COUNTYFIPS": "17099", "COUNTRY": "USA", "LATITUDE": 41.328868574000097, "LONGITUDE": -89.124333749000002, "NAICS_CODE": "622110", "NAICS_DESC": "GENERAL MEDICAL AND SURGICAL HOSPITALS", "SOURCE": "https://data.illinois.gov/", "SOURCEDATE": "2018-08-09T00:00:00.000Z", "VAL_METHOD": "IMAGERY", "VAL_DATE": "2014-03-12T00:00:00.000Z", "WEBSITE": "http://www.ivch.org", "STATE_ID": "140234", "ALT_NAME": "NOT AVAILABLE", "ST_FIPS": "17", "OWNER": "NON-PROFIT", "TTL_STAFF": -999, "BEDS": 56, "TRAUMA": "NOT AVAILABLE", "HELIPAD": "Y" }, "geometry": { "type": "Polygon", "coordinates": [ [ [ -89.0780667, 41.217547100000019 ], [ -89.2480687, 41.3350235 ], [ -89.243308, 41.343823 ], [ -89.21880520000002, 41.366006900000038 ], [ -89.1264387, 41.425565100000014 ], [ -89.0101383, 41.371673700000031 ], [ -89.0029644, 41.367587 ], [ -89.035403, 41.296388500000027 ], [ -89.0598383, 41.250583699999972 ], [ -89.0780667, 41.217547100000019 ] ] ] } },
{ "type": "Feature", "properties": { "OBJECTID": 3374, "ID": "0001662321", "NAME": "MEMORIAL HOSPITAL ASSOCIATION", "ADDRESS": "1454 NORTH COUNTY ROAD 2050", "CITY": "CARTHAGE", "STATE": "IL", "ZIP": "62321", "ZIP4": "NOT AVAILABLE", "TELEPHONE": "(217) 357-8500", "TYPE": "CRITICAL ACCESS", "STATUS": "OPEN", "POPULATION": 18, "COUNTY": "HANCOCK", "COUNTYFIPS": "17067", "COUNTRY": "USA", "LATITUDE": 40.407996805000003, "LONGITUDE": -91.113265025000004, "NAICS_CODE": "622110", "NAICS_DESC": "GENERAL MEDICAL AND SURGICAL HOSPITALS", "SOURCE": "https://data.illinois.gov/", "SOURCEDATE": "2018-08-09T00:00:00.000Z", "VAL_METHOD": "IMAGERY", "VAL_DATE": "2014-03-12T00:00:00.000Z", "WEBSITE": "http://www.mhtlc.org", "STATE_ID": "0005611", "ALT_NAME": "NOT AVAILABLE", "ST_FIPS": "17", "OWNER": "NON-PROFIT", "TTL_STAFF": -999, "BEDS": 18, "TRAUMA": "NOT AVAILABLE", "HELIPAD": "Y" }, "geometry": { "type": "Polygon", "coordinates": [ [ [ -91.122279, 40.290643 ], [ -91.227042, 40.395401 ], [ -91.177217, 40.461265 ], [ -91.143554, 40.490673 ], [ -91.139, 40.490582 ], [ -91.024036, 40.450905 ], [ -90.951234, 40.413714699999979 ], [ -90.9513237, 40.41349189999994 ], [ -91.122031, 40.29064 ], [ -91.122279, 40.290643 ] ] ] } },
{ "type": "Feature", "properties": { "OBJECTID": 3385, "ID": "0002061081", "NAME": "CGH MEDICAL CENTER", "ADDRESS": "100 EAST LEFEVRE ROAD", "CITY": "STERLING", "STATE": "IL", "ZIP": "61081", "ZIP4": "NOT AVAILABLE", "TELEPHONE": "(815) 625-0400", "TYPE": "GENERAL ACUTE CARE", "STATUS": "OPEN", "POPULATION": 99, "COUNTY": "WHITESIDE", "COUNTYFIPS": "17195", "COUNTRY": "USA", "LATITUDE": 41.802205620000102, "LONGITUDE": -89.696655578000005, "NAICS_CODE": "622110", "NAICS_DESC": "GENERAL MEDICAL AND SURGICAL HOSPITALS", "SOURCE": "https://data.illinois.gov/", "SOURCEDATE": "2018-08-09T00:00:00.000Z", "VAL_METHOD": "IMAGERY", "VAL_DATE": "2014-03-12T00:00:00.000Z", "WEBSITE": "http://www.cghmc.com", "STATE_ID": "140043", "ALT_NAME": "NOT AVAILABLE", "ST_FIPS": "17", "OWNER": "GOVERNMENT - LOCAL", "TTL_STAFF": -999, "BEDS": 99, "TRAUMA": "NOT AVAILABLE", "HELIPAD": "Y" }, "geometry": { "type": "Polygon", "coordinates": [ [ [ -89.6898476, 41.7074695 ], [ -89.6984744, 41.710771700000031 ], [ -89.7668991, 41.745678 ], [ -89.7885688, 41.76137 ], [ -89.804557, 41.844244300000057 ], [ -89.8044728, 41.847913799999958 ], [ -89.727712, 41.901055600000021 ], [ -89.725892900000019, 41.902033699999976 ], [ -89.5659533, 41.824981299999976 ], [ -89.563786, 41.8212068 ], [ -89.6017396, 41.758162700000014 ], [ -89.6318094, 41.736533099999974 ], [ -89.6898476, 41.7074695 ] ] ] } },
{ "type": "Feature", "properties": { "OBJECTID": 3408, "ID": "0013761036", "NAME": "MIDWEST MEDICAL CENTER", "ADDRESS": "ONE MEDICAL CENTER DRIVE", "CITY": "GALENA", "STATE": "IL", "ZIP": "61036", "ZIP4": "NOT AVAILABLE", "TELEPHONE": "(815) 777-1340", "TYPE": "CRITICAL ACCESS", "STATUS": "OPEN", "POPULATION": 25, "COUNTY": "JO DAVIESS", "COUNTYFIPS": "17085", "COUNTRY": "USA", "LATITUDE": 42.449177567, "LONGITUDE": -90.4577401, "NAICS_CODE": "622110", "NAICS_DESC": "GENERAL MEDICAL AND SURGICAL HOSPITALS", "SOURCE": "https://data.illinois.gov/", "SOURCEDATE": "2018-08-09T00:00:00.000Z", "VAL_METHOD": "IMAGERY", "VAL_DATE": "2014-03-12T00:00:00.000Z", "WEBSITE": "http://www.midwestmedicalcenter.org", "STATE_ID": "141302", "ALT_NAME": "NOT AVAILABLE", "ST_FIPS": "17", "OWNER": "PROPRIETARY", "TTL_STAFF": -999, "BEDS": 25, "TRAUMA": "NOT AVAILABLE", "HELIPAD": "Y" }, "geometry": { "type": "Polygon", "coordinates": [ [ [ -90.41767, 42.379477 ], [ -90.466222847178003, 42.388432613284188 ], [ -90.607577935549784, 42.464083086338562 ], [ -90.623408764902806, 42.477494986931355 ], [ -90.623339765480267, 42.477546986549569 ], [ -90.623042367997058, 42.477758584995996 ], [ -90.621683780465759, 42.478238981484203 ], [ -90.510147334231149, 42.512584322906505 ], [ -90.436938275351736, 42.507573865746878 ], [ -90.395506, 42.499186 ], [ -90.382307, 42.48338 ], [ -90.349862, 42.430947 ], [ -90.351776, 42.421925 ], [ -90.372073, 42.383121 ], [ -90.41767, 42.379477 ] ] ] } },
{ "type": "Feature", "properties": { "OBJECTID": 3998, "ID": "0003450441", "NAME": "FRANKLIN GENERAL HOSPITAL", "ADDRESS": "1720 CENTRAL AVENUE EAST, PO BOX 417", "CITY": "HAMPTON", "STATE": "IA", "ZIP": "50441", "ZIP4": "NOT AVAILABLE", "TELEPHONE": "(641) 456-5000", "TYPE": "CRITICAL ACCESS", "STATUS": "OPEN", "POPULATION": 25, "COUNTY": "FRANKLIN", "COUNTYFIPS": "19069", "COUNTRY": "USA", "LATITUDE": 42.743562556000001, "LONGITUDE": -93.185579575000006, "NAICS_CODE": "622110", "NAICS_DESC": "GENERAL MEDICAL AND SURGICAL HOSPITALS", "SOURCE": "https://dia-hfd.iowa.gov/DIA_HFD/CTLEntitySearch.do", "SOURCEDATE": "2018-08-09T00:00:00.000Z", "VAL_METHOD": "IMAGERY", "VAL_DATE": "2016-04-15T00:00:00.000Z", "WEBSITE": "http://www.franklingeneral.com", "STATE_ID": "NOT AVAILABLE", "ALT_NAME": "NOT AVAILABLE", "ST_FIPS": "19", "OWNER": "GOVERNMENT - LOCAL", "TTL_STAFF": -999, "BEDS": 25, "TRAUMA": "LEVEL IV", "HELIPAD": "Y" }, "geometry": { "type": "Polygon", "coordinates": [ [ [ -93.2033813, 42.650700199999918 ], [ -93.320750800000013, 42.745382800000058 ], [ -93.2023662, 42.833546899999959 ], [ -93.025888101496633, 42.745125501214766 ], [ -93.1049643, 42.694165299999973 ], [ -93.1301195, 42.6797677 ], [ -93.1320466, 42.678843299999983 ], [ -93.2033813, 42.650700199999918 ] ] ] } }
]
}
