{
"type": "FeatureCollection",
"crs": { "type": "name", "properties": { "name": "urn:ogc:def:crs:OGC:1.3:CRS84" } },
"features": [
{ "type": "Feature", "properties": { "OBJECTID": 1445, "ID": "0007347960", "NAME": "INDIANA UNIVERSITY HEALTH WHITE MEMORIAL HOSPITAL", "ADDRESS": "720 SOUTH SIXTH ST", "CITY": "MONTICELLO", "STATE": "IN", "ZIP": "47960", "ZIP4": "NOT AVAILABLE", "TELEPHONE": "(574) 583-7111", "TYPE": "CRITICAL ACCESS", "STATUS": "OPEN", "POPULATION": 25, "COUNTY": "WHITE", "COUNTYFIPS": "18181", "COUNTRY": "USA", "LATITUDE": 40.733974689, "LONGITUDE": -86.777599605000006, "NAICS_CODE": "622110", "NAICS_DESC": "GENERAL MEDICAL AND SURGICAL HOSPITALS", "SOURCE": "http://www.in.gov/isdh/reports/QAMIS/hosdir", "SOURCEDATE": "2018-08-16T00:00:00.000Z", "VAL_METHOD": "IMAGERY", "VAL_DATE": "2014-02-10T00:00:00.000Z", "WEBSITE": "http://www.iuhealth.org/white-memorial", "STATE_ID": "17-005034-1", "ALT_NAME": "NOT AVAILABLE", "ST_FIPS": "18", "OWNER": "NON-PROFIT", "TTL_STAFF": -999, "BEDS": 25, "TRAUMA": "NOT AVAILABLE", "HELIPAD": "Y" }, "geometry": { "type": "Polygon", "coordinates": [ [ [ -86.812963843890302, 40.666559410048094 ], [ -86.881009578005447, 40.749095230945173 ], [ -86.876245978604501, 40.754437132870287 ], [ -86.794451923972503, 40.797841037117287 ], [ -86.782282033415441, 40.80226693543819 ], [ -86.744907766515809, 40.803209531188422 ], [ -86.715809200225522, 40.788519825380803 ], [ -86.696854422169864, 40.77762831778243 ], [ -86.677921244111644, 40.758808405008018 ], [ -86.765100478223388, 40.671638012850806 ], [ -86.768078176892274, 40.668991011601783 ], [ -86.812963843890302, 40.666559410048094 ] ] ] } },
{ "type": "Feature", "properties": { "OBJECTID": 6066, "ID": "0007647978", "NAME": "FRANCISCAN HEALTHCARE RENSSLAER", "ADDRESS": "1104 E GRACE ST", "CITY": "RENSSELAER", "STATE": "IN", "ZIP": "47978", "ZIP4": "NOT AVAILABLE", "TELEPHONE": "(219) 866-5141", "TYPE": "CRITICAL ACCESS", "STATUS": "OPEN", "POPULATION": 46, "COUNTY": "JASPER", "COUNTYFIPS": "18073", "COUNTRY": "USA", "LATITUDE": 40.934513124, "LONGITUDE": -87.138779208999907, "NAICS_CODE": "622110", "NAICS_DESC": "GENERAL MEDICAL AND SURGICAL HOSPITALS", "SOURCE": "http://www.in.gov/isdh/reports/QAMIS/hosdir", "SOURCEDATE": "2018-08-16T00:00:00.000Z", "VAL_METHOD": "IMAGERY", "VAL_DATE": "2016-04-28T00:00:00.000Z", "WEBSITE": "http://www.jchh.com", "STATE_ID": "17-005072-1", "ALT_NAME": "NOT AVAILABLE", "ST_FIPS": "18", "OWNER": "GOVERNMENT - LOCAL", "TTL_STAFF": -999, "BEDS": 46, "TRAUMA": "NOT AVAILABLE", "HELIPAD": "Y" }, "geometry": { "type": "Polygon", "coordinates": [ [ [ -87.154574, 40.851824 ], [ -87.237694, 40.911644 ], [ -87.25732, 40.926129 ], [ -87.2526, 40.940697 ], [ -87.151756, 41.019694 ], [ -87.0219595, 40.935982400000022 ], [ -87.0220245, 40.9340033 ], [ -87.035503, 40.915082 ], [ -87.119224, 40.86662 ], [ -87.154574, 40.851824 ] ] ] } },
{ "type": "Feature", "properties": { "OBJECTID": 418, "ID": "0014860942", "NAME": "HOOPESTON COMMUNITY MEMORIAL HOSPITAL", "ADDRESS": "701 EAST ORANGE STREET", "CITY": "HOOPESTON", "STATE": "IL", "ZIP": "60942", "ZIP4": "NOT AVAILABLE", "TELEPHONE": "(217) 283-5531", "TYPE": "CRITICAL ACCESS", "STATUS": "OPEN", "POPULATION": 99, "COUNTY": "VERMILION", "COUNTYFIPS": "17183", "COUNTRY": "USA", "LATITUDE": 40.458689892000102, "LONGITUDE": -87.659733270999894, "NAICS_CODE": "622110", "NAICS_DESC": "GENERAL MEDICAL AND SURGICAL HOSPITALS", "SOURCE": "https://data.illinois.gov/", "SOURCEDATE": "2018-08-09T00:00:00.000Z", "VAL_METHOD": "IMAGERY", "VAL_DATE": "2014-03-12T00:00:00.000Z", "WEBSITE": "http://www.carle.org", "STATE_ID": "141316", "ALT_NAME": "NOT AVAILABLE", "ST_FIPS": "17", "OWNER": "NON-PROFIT", "TTL_STAFF": -999, "BEDS": 99, "TRAUMA": "NOT AVAILABLE", "HELIPAD": "Y" }, "geometry": { "type": "Polygon", "coordinates": [ [ [ -87.6703806, 40.382170400000014 ], [ -87.7813297, 40.458816199999973 ], [ -87.69217, 40.531113 ], [ -87.555058, 40.468376 ], [ -87.5451495, 40.461361 ], [ -87.605357, 40.409559 ], [ -87.6703806, 40.382170400000014 ] ] ] } },
{ "type": "Feature", "properties": { "OBJECTID": 419, "ID": "0004761832", "NAME": "PRESENCE UNITED SAMARITANS MEDCTR-LOGAN", "ADDRESS": "812 N LOGAN", "CITY": "DANVILLE", "STATE": "IL", "ZIP": "61832", "ZIP4": "NOT AVAILABLE", "TELEPHONE": "(217) 443-5000", "TYPE": "GENERAL ACUTE CARE", "STATUS": "OPEN", "POPULATION": 127, "COUNTY": "VERMILION", "COUNTYFIPS": "17183", "COUNTRY": "USA", "LATITUDE": 40.137832453000001, "LONGITUDE": -87.645433243999904, "NAICS_CODE": "622110", "NAICS_DESC": "GENERAL MEDICAL AND SURGICAL HOSPITALS", "SOURCE": "https://data.illinois.gov/", "SOURCEDATE": "2018-08-09T00:00:00.000Z", "VAL_METHOD": "IMAGERY", "VAL_DATE": "2016-04-25T00:00:00.000Z", "WEBSITE": "http://www.presencehealth.org/presence-united-samaritans-medical-center-danville", "STATE_ID": "140093", "ALT_NAME": "NOT AVAILABLE", "ST_FIPS": "17", "OWNER": "NON-PROFIT", "TTL_STAFF": -999, "BEDS": 127, "TRAUMA": "NOT AVAILABLE", "HELIPAD": "Y" }, "geometry": { "type": "Polygon", "coordinates": [ [ [ -87.6385866, 40.0409295 ], [ -87.7336499, 40.114859 ], [ -87.748491700000017, 40.1276854 ], [ -87.7205961, 40.159995400000021 ], [ -87.6697672, 40.210546199999975 ], [ -87.641541, 40.221327099999989 ], [ -87.6400015, 40.221330399999935 ], [ -87.6225428, 40.209629699999972 ], [ -87.5107843, 40.1176488 ], [ -87.6385866, 40.0409295 ] ] ] } },
{ "type": "Feature", "properties": { "OBJECTID": 476, "ID": "0003561603", "NAME": "SAINT FRANCIS MEDICAL CENTER", "ADDRESS": "530 NE GLEN OAK AVE", "CITY": "PEORIA", "STATE": "IL", "ZIP": "61603", "ZIP4": "NOT AVAILABLE", "TELEPHONE": "(309) 655-2000", "TYPE": "GENERAL ACUTE CARE", "STATUS": "OPEN", "POPULATION": 631, "COUNTY": "PEORIA", "COUNTYFIPS": "17143", "COUNTRY": "USA", "LATITUDE": 40.702746816999998, "LONGITUDE": -89.591965424999998, "NAICS_CODE": "622110", "NAICS_DESC": "GENERAL MEDICAL AND SURGICAL HOSPITALS", "SOURCE": "https://data.illinois.gov/", "SOURCEDATE": "2018-08-09T00:00:00.000Z", "VAL_METHOD": "IMAGERY", "VAL_DATE": "2014-03-12T00:00:00.000Z", "WEBSITE": "http://www.osfsaintfrancis.org", "STATE_ID": "140067", "ALT_NAME": "NOT AVAILABLE", "ST_FIPS": "17", "OWNER": "NON-PROFIT", "TTL_STAFF": -999, "BEDS": 631, "TRAUMA": "LEVEL I, LEVEL I PEDIATRIC", "HELIPAD": "Y" }, "geometry": { "type": "Polygon", "coordinates": [ [ [ -89.654436982961414, 40.625925939592257 ], [ -89.6732739, 40.645169899999956 ], [ -89.700899, 40.699117600000015 ], [ -89.6799064, 40.778028099999972 ], [ -89.679244, 40.77905430000007 ], [ -89.666883, 40.781538500000018 ], [ -89.6309951, 40.784220699999963 ], [ -89.602490800000012, 40.7836223 ], [ -89.5771697, 40.779885200000017 ], [ -89.5085497, 40.748407499999956 ], [ -89.5084084, 40.7483404 ], [ -89.5079264, 40.748106699999965 ], [ -89.464886, 40.717527199999978 ], [ -89.4644559, 40.717120699999981 ], [ -89.5330649, 40.639981099999972 ], [ -89.5412048, 40.63361050000001 ], [ -89.654436982961414, 40.625925939592257 ] ] ] } },
{ "type": "Feature", "properties": { "OBJECTID": 482, "ID": "0010261603", "NAME": "METHODIST MEDICAL CENTER OF ILLINOIS", "ADDRESS": "221 N E GLEN OAK AVE", "CITY": "PEORIA", "STATE": "IL", "ZIP": "61606", "ZIP4": "NOT AVAILABLE", "TELEPHONE": "(309) 672-5522", "TYPE": "GENERAL ACUTE CARE", "STATUS": "OPEN", "POPULATION": 269, "COUNTY": "PEORIA", "COUNTYFIPS": "17143", "COUNTRY": "USA", "LATITUDE": 40.700305796000102, "LONGITUDE": -89.594916835999996, "NAICS_CODE": "622110", "NAICS_DESC": "GENERAL MEDICAL AND SURGICAL HOSPITALS", "SOURCE": "https://data.illinois.gov/", "SOURCEDATE": "2018-08-09T00:00:00.000Z", "VAL_METHOD": "IMAGERY", "VAL_DATE": "2016-04-26T00:00:00.000Z", "WEBSITE": "http://www.mymethodist.net", "STATE_ID": "140209", "ALT_NAME": "NOT AVAILABLE", "ST_FIPS": "17", "OWNER": "NON-PROFIT", "TTL_STAFF": -999, "BEDS": 269, "TRAUMA": "LEVEL II", "HELIPAD": "Y" }, "geometry": { "type": "Polygon", "coordinates": [ [ [ -89.657535013749055, 40.617203327768124 ], [ -89.679298, 40.645171300000037 ], [ -89.6896541, 40.6691202 ], [ -89.700899, 40.699117600000015 ], [ -89.6841637, 40.7806935 ], [ -89.6791801, 40.7827356 ], [ -89.631083600000011, 40.789612599999963 ], [ -89.6026566, 40.789461600000031 ], [ -89.5085497, 40.748407499999956 ], [ -89.5084084, 40.7483404 ], [ -89.5079264, 40.748106699999965 ], [ -89.4664623, 40.716712799999975 ], [ -89.513169569375023, 40.631084439219215 ], [ -89.657535013749055, 40.617203327768124 ] ] ] } },
{ "type": "Feature", "properties": { "OBJECTID": 570, "ID": "0007961701", "NAME": "ST JOSEPH MEDICAL CENTER", "ADDRESS": "2200 E WASHINGTON", "CITY": "BLOOMINGTON", "STATE": "IL", "ZIP": "61701", "ZIP4": "NOT AVAILABLE", "TELEPHONE": "(309) 662-3311", "TYPE": "GENERAL ACUTE CARE", "STATUS": "OPEN", "POPULATION": -999, "COUNTY": "MCLEAN", "COUNTYFIPS": "17113", "COUNTRY": "USA", "LATITUDE": 40.482676588000103, "LONGITUDE": -88.955562196000002, "NAICS_CODE": "622110", "NAICS_DESC": "GENERAL MEDICAL AND SURGICAL HOSPITALS", "SOURCE": "https://data.illinois.gov/", "SOURCEDATE": "2018-08-09T00:00:00.000Z", "VAL_METHOD": "IMAGERY", "VAL_DATE": "2014-03-12T00:00:00.000Z", "WEBSITE": "http://www.osfstjoseph.org/", "STATE_ID": "140162", "ALT_NAME": "NOT AVAILABLE", "ST_FIPS": "17", "OWNER": "NON-PROFIT", "TTL_STAFF": -999, "BEDS": -999, "TRAUMA": "LEVEL II", "HELIPAD": "Y" }, "geometry": { "type": "Polygon", "coordinates": [ [ [ -88.990207279453841, 40.400689489040474 ], [ -89.051884262686841, 40.412335502861609 ], [ -89.060375443264405, 40.458782649201609 ], [ -89.059567234256619, 40.494996365133652 ], [ -89.018674404627674, 40.539319237903555 ], [ -88.96383147091916, 40.561714053466687 ], [ -88.903235997583536, 40.576281132333108 ], [ -88.902710001362124, 40.576269132639609 ], [ -88.896101048053495, 40.575935136136472 ], [ -88.859635041267254, 40.497594032580487 ], [ -88.863599767602253, 40.458186102352045 ], [ -88.88918996083828, 40.409874703955616 ], [ -88.990207279453841, 40.400689489040474 ] ] ] } },
{ "type": "Feature", "properties": { "OBJECTID": 573, "ID": "0006461761", "NAME": "BROMENN HEALTHCARE", "ADDRESS": "1304 FRANKLIN AVENUE", "CITY": "NORMAL", "STATE": "IL", "ZIP": "61761", "ZIP4": "NOT AVAILABLE", "TELEPHONE": "(309) 454-1400", "TYPE": "GENERAL ACUTE CARE", "STATUS": "OPEN", "POPULATION": 200, "COUNTY": "MCLEAN", "COUNTYFIPS": "17113", "COUNTRY": "USA", "LATITUDE": 40.496970978999997, "LONGITUDE": -88.990850001999902, "NAICS_CODE": "622110", "NAICS_DESC": "GENERAL MEDICAL AND SURGICAL HOSPITALS", "SOURCE": "https://data.illinois.gov/", "SOURCEDATE": "2018-08-09T00:00:00.000Z", "VAL_METHOD": "IMAGERY", "VAL_DATE": "2016-04-26T00:00:00.000Z", "WEBSITE": "www.advocatehealth.com/bromenn", "STATE_ID": "140127", "ALT_NAME": "NOT AVAILABLE", "ST_FIPS": "17", "OWNER": "NON-PROFIT", "TTL_STAFF": -999, "BEDS": 200, "TRAUMA": "LEVEL II", "HELIPAD": "Y" }, "geometry": { "type": "Polygon", "coordinates": [ [ [ -89.051884262686841, 40.412335502861609 ], [ -89.096911891019573, 40.487393815844747 ], [ -89.070824267098644, 40.540343900663267 ], [ -89.000600455722889, 40.600856149993575 ], [ -88.984435496910905, 40.59079212523789 ], [ -88.925092591689122, 40.547086750299925 ], [ -88.883424836293131, 40.502482008396861 ], [ -88.902104231375333, 40.469151174437378 ], [ -88.932450584657175, 40.43328170457454 ], [ -88.951547461603511, 40.426715649007512 ], [ -88.989839209404224, 40.418581553067376 ], [ -89.051884262686841, 40.412335502861609 ] ] ] } },
{ "type": "Feature", "properties": { "OBJECTID": 7148, "ID": "0002461832", "NAME": "VETERANS AFFAIRS ILLIANA HEALTH CARE SYSTEM", "ADDRESS": "1900 E. MAIN", "CITY": "DANVILLE", "STATE": "IL", "ZIP": "61832", "ZIP4": "NOT AVAILABLE", "TELEPHONE": "(217) 554-3000", "TYPE": "MILITARY", "STATUS": "OPEN", "POPULATION": 221, "COUNTY": "VERMILION", "COUNTYFIPS": "17183", "COUNTRY": "USA", "LATITUDE": 40.123271713000101, "LONGITUDE": -87.586953131000001, "NAICS_CODE": "622110", "NAICS_DESC": "GENERAL MEDICAL AND SURGICAL HOSPITALS", "SOURCE": "https://data.illinois.gov/", "SOURCEDATE": "2018-08-09T00:00:00.000Z", "VAL_METHOD": "IMAGERY/OTHER", "VAL_DATE": "2014-03-12T00:00:00.000Z", "WEBSITE": "http://www.danville.va.gov/", "STATE_ID": "14004F", "ALT_NAME": "NOT AVAILABLE", "ST_FIPS": "17", "OWNER": "GOVERNMENT - FEDERAL", "TTL_STAFF": -999, "BEDS": 221, "TRAUMA": "NOT AVAILABLE", "HELIPAD": "Y" }, "geometry": { "type": "Polygon", "coordinates": [ [ [ -87.6348878, 40.072478900000021 ], [ -87.672557, 40.094339 ], [ -87.7062006, 40.121391599999988 ], [ -87.6302379, 40.174947299999985 ], [ -87.6033388, 40.175642300000014 ], [ -87.5598431, 40.162412400000029 ], [ -87.5006797, 40.1178004 ], [ -87.5543404, 40.096246 ], [ -87.6348878, 40.072478900000021 ] ] ] } },
{ "type": "Feature", "properties": { "OBJECTID": 7190, "ID": "0000961605", "NAME": "GREATER PEORIA SPECIALTY HOSPITAL LLC - DBA KINDRED HOSPITAL PEORIA", "ADDRESS": "500 WEST ROMEO B GARRETT AVENUE", "CITY": "PEORIA", "STATE": "IL", "ZIP": "61605", "ZIP4": "NOT AVAILABLE", "TELEPHONE": "(309) 680-1500", "TYPE": "LONG TERM CARE", "STATUS": "OPEN", "POPULATION": 50, "COUNTY": "PEORIA", "COUNTYFIPS": "17143", "COUNTRY": "USA", "LATITUDE": 40.692888623999998, "LONGITUDE": -89.600729650999895, "NAICS_CODE": "622110", "NAICS_DESC": "GENERAL MEDICAL AND SURGICAL HOSPITALS", "SOURCE": "https://data.illinois.gov/", "SOURCEDATE": "2018-08-09T00:00:00.000Z", "VAL_METHOD": "IMAGERY", "VAL_DATE": "2014-02-10T00:00:00.000Z", "WEBSITE": "http://www.khpeoria.com/", "STATE_ID": "0005777", "ALT_NAME": "NOT AVAILABLE", "ST_FIPS": "17", "OWNER": "PROPRIETARY", "TTL_STAFF": -999, "BEDS": 50, "TRAUMA": "NOT AVAILABLE", "HELIPAD": "N" }, "geometry": { "type": "Polygon", "coordinates": [ [ [ -89.6640483, 40.605237 ], [ -89.714029700000012, 40.691511300000037 ], [ -89.6694902, 40.7740683 ], [ -89.6682595, 40.774688099999985 ], [ -89.6568972, 40.77626410000002 ], [ -89.6310909, 40.77678750000004 ], [ -89.6030002, 40.775463499999951 ], [ -89.6025397, 40.775440199999963 ], [ -89.6011307, 40.775363 ], [ -89.5738555, 40.772616800000058 ], [ -89.5125149, 40.743957199999976 ], [ -89.5119763, 40.743643099999979 ], [ -89.4745324, 40.71602950000004 ], [ -89.49012430179306, 40.621957094918976 ], [ -89.6640483, 40.605237 ] ] ] } },
{ "type": "Feature", "properties": { "OBJECTID": 7191, "ID": "0000861614", "NAME": "PROCTOR HOSPITAL", "ADDRESS": "5409 N KNOXVILLE AVE", "CITY": "PEORIA", "STATE": "IL", "ZIP": "61614", "ZIP4": "NOT AVAILABLE", "TELEPHONE": "(309) 691-1000", "TYPE": "GENERAL ACUTE CARE", "STATUS": "OPEN", "POPULATION": 172, "COUNTY": "PEORIA", "COUNTYFIPS": "17143", "COUNTRY": "USA", "LATITUDE": 40.752968051000003, "LONGITUDE": -89.597865557999995, "NAICS_CODE": "622110", "NAICS_DESC": "GENERAL MEDICAL AND SURGICAL HOSPITALS", "SOURCE": "https://data.illinois.gov/", "SOURCEDATE": "2018-08-09T00:00:00.000Z", "VAL_METHOD": "IMAGERY", "VAL_DATE": "2014-03-12T00:00:00.000Z", "WEBSITE": "http://www.proctor.org", "STATE_ID": "140013", "ALT_NAME": "NOT AVAILABLE", "ST_FIPS": "17", "OWNER": "NON-PROFIT", "TTL_STAFF": -999, "BEDS": 172, "TRAUMA": "NOT AVAILABLE", "HELIPAD": "Y" }, "geometry": { "type": "Polygon", "coordinates": [ [ [ -89.58756790000001, 40.6669428 ], [ -89.6200308, 40.670033199999978 ], [ -89.6760188, 40.699248300000065 ], [ -89.7082913, 40.782986 ], [ -89.6189903, 40.8366527 ], [ -89.6183686, 40.8367765 ], [ -89.5599326, 40.828332299999964 ], [ -89.4790972, 40.715889900000022 ], [ -89.58756790000001, 40.6669428 ] ] ] } },
{ "type": "Feature", "properties": { "OBJECTID": 7220, "ID": "0006061554", "NAME": "PEKIN MEMORIAL HOSPITAL", "ADDRESS": "600 SOUTH 13TH STREET", "CITY": "PEKIN", "STATE": "IL", "ZIP": "61554", "ZIP4": "NOT AVAILABLE", "TELEPHONE": "(309) 347-1151", "TYPE": "GENERAL ACUTE CARE", "STATUS": "OPEN", "POPULATION": 125, "COUNTY": "TAZEWELL", "COUNTYFIPS": "17179", "COUNTRY": "USA", "LATITUDE": 40.563128601000102, "LONGITUDE": -89.632472848999996, "NAICS_CODE": "622110", "NAICS_DESC": "GENERAL MEDICAL AND SURGICAL HOSPITALS", "SOURCE": "https://data.illinois.gov/", "SOURCEDATE": "2018-08-09T00:00:00.000Z", "VAL_METHOD": "IMAGERY", "VAL_DATE": "2014-02-10T00:00:00.000Z", "WEBSITE": "http://www.pekinhospital.org", "STATE_ID": "140120", "ALT_NAME": "NOT AVAILABLE", "ST_FIPS": "17", "OWNER": "NON-PROFIT", "TTL_STAFF": -999, "BEDS": 125, "TRAUMA": "NOT AVAILABLE", "HELIPAD": "N" }, "geometry": { "type": "Polygon", "coordinates": [ [ [ -89.6397063, 40.48013329999997 ], [ -89.663787, 40.491185 ], [ -89.7125113, 40.5370571 ], [ -89.624252264275157, 40.631724346906331 ], [ -89.6046055, 40.6455687 ], [ -89.6029665, 40.646279499999977 ], [ -89.600003, 40.646793200000012 ], [ -89.5977037, 40.646915300000039 ], [ -89.5332731, 40.59253930000002 ], [ -89.494476, 40.527657599999962 ], [ -89.6157096, 40.480423 ], [ -89.6252851, 40.480304100000012 ], [ -89.6347345, 40.480191100000013 ], [ -89.6397063, 40.48013329999997 ] ] ] } },
{ "type": "Feature", "properties": { "OBJECTID": 5292, "ID": "0007861764", "NAME": "SAINT JAMES HOSPITAL", "ADDRESS": "2500 WEST REYNOLDS STREET", "CITY": "PONTIAC", "STATE": "IL", "ZIP": "61764", "ZIP4": "NOT AVAILABLE", "TELEPHONE": "(815) 842-2828", "TYPE": "GENERAL ACUTE CARE", "STATUS": "OPEN", "POPULATION": 42, "COUNTY": "LIVINGSTON", "COUNTYFIPS": "17105", "COUNTRY": "USA", "LATITUDE": 40.870997483000103, "LONGITUDE": -88.679515093999996, "NAICS_CODE": "622110", "NAICS_DESC": "GENERAL MEDICAL AND SURGICAL HOSPITALS", "SOURCE": "https://data.illinois.gov/", "SOURCEDATE": "2018-08-09T00:00:00.000Z", "VAL_METHOD": "IMAGERY", "VAL_DATE": "2014-03-12T00:00:00.000Z", "WEBSITE": "http://www.osfsaintjames.org/", "STATE_ID": "140161", "ALT_NAME": "NOT AVAILABLE", "ST_FIPS": "17", "OWNER": "NON-PROFIT", "TTL_STAFF": -999, "BEDS": 42, "TRAUMA": "NOT AVAILABLE", "HELIPAD": "Y" }, "geometry": { "type": "Polygon", "coordinates": [ [ [ -88.719027, 40.814582 ], [ -88.7769641, 40.857466 ], [ -88.7960971, 40.871846 ], [ -88.725207, 40.931298400000045 ], [ -88.643705, 40.961023499999982 ], [ -88.5857695, 40.917895899999984 ], [ -88.5851582, 40.8450672 ], [ -88.6229044, 40.8152352 ], [ -88.6781968, 40.814359699999969 ], [ -88.719027, 40.814582 ] ] ] } },
{ "type": "Feature", "properties": { "OBJECTID": 3142, "ID": "0015447993", "NAME": "ST VINCENT WILLIAMSPORT HOSPITAL INC", "ADDRESS": "412 N MONROE ST", "CITY": "WILLIAMSPORT", "STATE": "IN", "ZIP": "47993", "ZIP4": "NOT AVAILABLE", "TELEPHONE": "(765) 762-4000", "TYPE": "CRITICAL ACCESS", "STATUS": "OPEN", "POPULATION": 16, "COUNTY": "WARREN", "COUNTYFIPS": "18171", "COUNTRY": "USA", "LATITUDE": 40.290432114000097, "LONGITUDE": -87.296701466999906, "NAICS_CODE": "622110", "NAICS_DESC": "GENERAL MEDICAL AND SURGICAL HOSPITALS", "SOURCE": "http://www.in.gov/isdh/reports/QAMIS/hosdir", "SOURCEDATE": "2018-08-16T00:00:00.000Z", "VAL_METHOD": "IMAGERY", "VAL_DATE": "2014-02-10T00:00:00.000Z", "WEBSITE": "http://www.stvincent.org", "STATE_ID": "17-005092-1", "ALT_NAME": "NOT AVAILABLE", "ST_FIPS": "18", "OWNER": "NON-PROFIT", "TTL_STAFF": -999, "BEDS": 16, "TRAUMA": "NOT AVAILABLE", "HELIPAD": "Y" }, "geometry": { "type": "Polygon", "coordinates": [ [ [ -87.2996641, 40.25346960000001 ], [ -87.3521576, 40.2579797 ], [ -87.3866813, 40.265425600000029 ], [ -87.3879634, 40.266363 ], [ -87.4039883, 40.279903399999966 ], [ -87.3540462, 40.363286 ], [ -87.3537953, 40.363426900000015 ], [ -87.3481333, 40.364109 ], [ -87.2751078, 40.361227900000031 ], [ -87.2243449, 40.328854 ], [ -87.2243347, 40.3218294 ], [ -87.2541514, 40.29471 ], [ -87.2996641, 40.25346960000001 ] ] ] } },
{ "type": "Feature", "properties": { "OBJECTID": 3330, "ID": "0001261364", "NAME": "ST MARYS HOSPITAL", "ADDRESS": "111  SPRING STREET", "CITY": "STREATOR", "STATE": "IL", "ZIP": "61364", "ZIP4": "NOT AVAILABLE", "TELEPHONE": "(815) 673-2311", "TYPE": "GENERAL ACUTE CARE", "STATUS": "OPEN", "POPULATION": 98, "COUNTY": "LA SALLE", "COUNTYFIPS": "17099", "COUNTRY": "USA", "LATITUDE": 41.11359098, "LONGITUDE": -88.834582237000006, "NAICS_CODE": "622110", "NAICS_DESC": "GENERAL MEDICAL AND SURGICAL HOSPITALS", "SOURCE": "https://data.illinois.gov/", "SOURCEDATE": "2018-08-09T00:00:00.000Z", "VAL_METHOD": "IMAGERY", "VAL_DATE": "2014-03-12T00:00:00.000Z", "WEBSITE": "http://www.stmaryshospital.org", "STATE_ID": "140026", "ALT_NAME": "NOT AVAILABLE", "ST_FIPS": "17", "OWNER": "NON-PROFIT", "TTL_STAFF": -999, "BEDS": 98, "TRAUMA": "NOT AVAILABLE", "HELIPAD": "Y" }, "geometry": { "type": "Polygon", "coordinates": [ [ [ -88.8432908, 41.0318961 ], [ -88.8673718, 41.045991400000013 ], [ -88.8908404, 41.060104399999979 ], [ -88.9314233, 41.120368399999983 ], [ -88.8766147, 41.163969 ], [ -88.8360831, 41.193515400000017 ], [ -88.816539, 41.179133 ], [ -88.739784, 41.121385699999948 ], [ -88.7760834, 41.061937099999966 ], [ -88.8004117, 41.043646099999961 ], [ -88.8337304, 41.03214859999995 ], [ -88.8432908, 41.0318961 ] ] ] } },
{ "type": "Feature", "properties": { "OBJECTID": 3357, "ID": "0008260970", "NAME": "IROQUOIS MEMORIAL HOSPITAL", "ADDRESS": "200 FAIRMAN STREET", "CITY": "WATSEKA", "STATE": "IL", "ZIP": "60970", "ZIP4": "NOT AVAILABLE", "TELEPHONE": "(815) 432-5201", "TYPE": "GENERAL ACUTE CARE", "STATUS": "OPEN", "POPULATION": 84, "COUNTY": "IROQUOIS", "COUNTYFIPS": "17075", "COUNTRY": "USA", "LATITUDE": 40.765601887000102, "LONGITUDE": -87.732517480999903, "NAICS_CODE": "622110", "NAICS_DESC": "GENERAL MEDICAL AND SURGICAL HOSPITALS", "SOURCE": "https://data.illinois.gov/", "SOURCEDATE": "2018-08-09T00:00:00.000Z", "VAL_METHOD": "IMAGERY/OTHER", "VAL_DATE": "2014-03-12T00:00:00.000Z", "WEBSITE": "http://www.iroquoismemorial.com", "STATE_ID": "140167", "ALT_NAME": "NOT AVAILABLE", "ST_FIPS": "17", "OWNER": "NON-PROFIT", "TTL_STAFF": -999, "BEDS": 84, "TRAUMA": "NOT AVAILABLE", "HELIPAD": "Y" }, "geometry": { "type": "Polygon", "coordinates": [ [ [ -87.749662, 40.699743 ], [ -87.784646, 40.728089 ], [ -87.824966, 40.770992 ], [ -87.792635, 40.808041 ], [ -87.745797, 40.847536 ], [ -87.652901, 40.789358 ], [ -87.635584, 40.775099 ], [ -87.632934, 40.760386 ], [ -87.664706, 40.716097 ], [ -87.683522, 40.704776 ], [ -87.749662, 40.699743 ] ] ] } },
{ "type": "Feature", "properties": { "OBJECTID": 3375, "ID": "0014261530", "NAME": "ADVOCATE EUREKA  HOSPITAL", "ADDRESS": "101 S MAJOR ST", "CITY": "EUREKA", "STATE": "IL", "ZIP": "61530", "ZIP4": "NOT AVAILABLE", "TELEPHONE": "(309) 467-2371", "TYPE": "CRITICAL ACCESS", "STATUS": "OPEN", "POPULATION": 18, "COUNTY": "WOODFORD", "COUNTYFIPS": "17203", "COUNTRY": "USA", "LATITUDE": 40.721389861, "LONGITUDE": -89.271586428999996, "NAICS_CODE": "622110", "NAICS_DESC": "GENERAL MEDICAL AND SURGICAL HOSPITALS", "SOURCE": "https://data.illinois.gov/", "SOURCEDATE": "2018-08-09T00:00:00.000Z", "VAL_METHOD": "IMAGERY", "VAL_DATE": "2014-02-10T00:00:00.000Z", "WEBSITE": "http://www.advocatehealth.com/eureka/", "STATE_ID": "141309", "ALT_NAME": "NOT AVAILABLE", "ST_FIPS": "17", "OWNER": "NON-PROFIT", "TTL_STAFF": -999, "BEDS": 18, "TRAUMA": "NOT AVAILABLE", "HELIPAD": "N" }, "geometry": { "type": "Polygon", "coordinates": [ [ [ -89.2747749, 40.634851300000015 ], [ -89.3103722, 40.660918899999984 ], [ -89.3328648, 40.6898958 ], [ -89.3309444, 40.7628165 ], [ -89.2928598, 40.792134599999926 ], [ -89.2736539, 40.792577699999988 ], [ -89.2155538, 40.7788526 ], [ -89.1574307, 40.742980899999985 ], [ -89.1572825, 40.735273899999989 ], [ -89.1760555, 40.7063818 ], [ -89.1949277, 40.6908928 ], [ -89.2747749, 40.634851300000015 ] ] ] } }
]
}
