{
"type": "FeatureCollection",
"crs": { "type": "name", "properties": { "name": "urn:ogc:def:crs:OGC:1.3:CRS84" } },
"features": [
{ "type": "Feature", "properties": { "OBJECTID": 1411, "ID": "0009952806", "NAME": "SELECT SPECIALTY HOSPITAL-QUAD CITIES", "ADDRESS": "1111 WEST KIMBERLY ROAD", "CITY": "DAVENPORT", "STATE": "IA", "ZIP": "52806", "ZIP4": "NOT AVAILABLE", "TELEPHONE": "(319) 391-2020", "TYPE": "LONG TERM CARE", "STATUS": "OPEN", "POPULATION": 50, "COUNTY": "SCOTT", "COUNTYFIPS": "19163", "COUNTRY": "USA", "LATITUDE": 41.559153599000098, "LONGITUDE": -90.589027288999901, "NAICS_CODE": "622110", "NAICS_DESC": "GENERAL MEDICAL AND SURGICAL HOSPITALS", "SOURCE": "https://dia-hfd.iowa.gov/DIA_HFD/CTLEntitySearch.do", "SOURCEDATE": "2018-08-09T00:00:00.000Z", "VAL_METHOD": "IMAGERY", "VAL_DATE": "2016-04-19T00:00:00.000Z", "WEBSITE": "http://www.selectspecialtyhospitals.com/company/locations/quadciti es.aspx", "STATE_ID": "NOT AVAILABLE", "ALT_NAME": "NOT AVAILABLE", "ST_FIPS": "19", "OWNER": "PROPRIETARY", "TTL_STAFF": -999, "BEDS": 50, "TRAUMA": "NOT AVAILABLE", "HELIPAD": "N" }, "geometry": { "type": "Polygon", "coordinates": [ [ [ -90.5040467, 41.4878241 ], [ -90.6248567, 41.493830300000013 ], [ -90.6412012, 41.4989048 ], [ -90.683384, 41.538193 ], [ -90.690233, 41.580682 ], [ -90.689475, 41.611038 ], [ -90.667648, 41.632887 ], [ -90.571922, 41.660265 ], [ -90.564619, 41.662073 ], [ -90.468109, 41.5968374 ], [ -90.4701156, 41.5753529 ], [ -90.4789888, 41.530442299999947 ], [ -90.4866282, 41.5114347 ], [ -90.501922100000016, 41.487768699999961 ], [ -90.5040467, 41.4878241 ] ] ] } },
{ "type": "Feature", "properties": { "OBJECTID": 1433, "ID": "0004450703", "NAME": "ALLEN MEMORIAL HOSPITAL", "ADDRESS": "1825 LOGAN AVENUE", "CITY": "WATERLOO", "STATE": "IA", "ZIP": "50703", "ZIP4": "NOT AVAILABLE", "TELEPHONE": "(319) 235-3941", "TYPE": "GENERAL ACUTE CARE", "STATUS": "OPEN", "POPULATION": 12, "COUNTY": "BLACK HAWK", "COUNTYFIPS": "19013", "COUNTRY": "USA", "LATITUDE": 42.5267548160001, "LONGITUDE": -92.33893747, "NAICS_CODE": "622110", "NAICS_DESC": "GENERAL MEDICAL AND SURGICAL HOSPITALS", "SOURCE": "https://dia-hfd.iowa.gov/DIA_HFD/CTLEntitySearch.do", "SOURCEDATE": "2018-08-09T00:00:00.000Z", "VAL_METHOD": "IMAGERY/OTHER", "VAL_DATE": "2016-04-14T00:00:00.000Z", "WEBSITE": "http://www.allenhospital.org", "STATE_ID": "NOT AVAILABLE", "ALT_NAME": "NOT AVAILABLE", "ST_FIPS": "19", "OWNER": "NON-PROFIT", "TTL_STAFF": -999, "BEDS": 12, "TRAUMA": "LEVEL III", "HELIPAD": "Y" }, "geometry": { "type": "Polygon", "coordinates": [ [ [ -92.2987733, 42.430628 ], [ -92.4142376, 42.44752 ], [ -92.4153656, 42.4481182 ], [ -92.4574609, 42.498794899999979 ], [ -92.4746826, 42.5277218 ], [ -92.4764519, 42.5415006 ], [ -92.4573249, 42.562153200000012 ], [ -92.4559721, 42.56352169999996 ], [ -92.3434923, 42.671370800000012 ], [ -92.337259, 42.668634 ], [ -92.2192076, 42.570340200000011 ], [ -92.2193443, 42.527126 ], [ -92.2194004, 42.524517100000025 ], [ -92.222679603860996, 42.463532119907043 ], [ -92.2870127, 42.431925199999959 ], [ -92.29706, 42.430627 ], [ -92.2987733, 42.430628 ] ] ] } },
{ "type": "Feature", "properties": { "OBJECTID": 1621, "ID": "0094152742", "NAME": "GENESIS MEDICAL CENTER-DEWITT", "ADDRESS": "1118 11TH STREET", "CITY": "DEWITT", "STATE": "IA", "ZIP": "52742", "ZIP4": "NOT AVAILABLE", "TELEPHONE": "(563) 659-4200", "TYPE": "CRITICAL ACCESS", "STATUS": "OPEN", "POPULATION": 90, "COUNTY": "CLINTON", "COUNTYFIPS": "19045", "COUNTRY": "USA", "LATITUDE": 41.826453331000003, "LONGITUDE": -90.547482289000001, "NAICS_CODE": "622110", "NAICS_DESC": "GENERAL MEDICAL AND SURGICAL HOSPITALS", "SOURCE": "https://dia-hfd.iowa.gov/DIA_HFD/CTLEntitySearch.do", "SOURCEDATE": "2018-08-09T00:00:00.000Z", "VAL_METHOD": "IMAGERY/OTHER", "VAL_DATE": "2016-04-15T00:00:00.000Z", "WEBSITE": "http://www.genesishealth.com/facilities/hospital/dewitt/", "STATE_ID": "NOT AVAILABLE", "ALT_NAME": "NOT AVAILABLE", "ST_FIPS": "19", "OWNER": "NOT AVAILABLE", "TTL_STAFF": -999, "BEDS": 90, "TRAUMA": "LEVEL IV", "HELIPAD": "Y" }, "geometry": { "type": "Polygon", "coordinates": [ [ [ -90.568333872996064, 41.770312061018622 ], [ -90.61202835904173, 41.779241504312374 ], [ -90.674924588737838, 41.814646698112163 ], [ -90.684629949157824, 41.829171729301486 ], [ -90.60802411386058, 41.930006606640362 ], [ -90.60781301282141, 41.930182708194707 ], [ -90.607281510462101, 41.930595311966336 ], [ -90.587129305930759, 41.923800353959749 ], [ -90.529143187339329, 41.902052974864134 ], [ -90.3840071, 41.8161984 ], [ -90.3840068, 41.815789200000019 ], [ -90.3840403, 41.815146299999945 ], [ -90.452092033563446, 41.786347348958159 ], [ -90.568333872996064, 41.770312061018622 ] ] ] } },
{ "type": "Feature", "properties": { "OBJECTID": 1879, "ID": "0007652732", "NAME": "MERCY MEDICAL CENTER-CLINTON", "ADDRESS": "1410 NORTH 4TH STREET", "CITY": "CLINTON", "STATE": "IA", "ZIP": "52732", "ZIP4": "NOT AVAILABLE", "TELEPHONE": "(563) 244-5555", "TYPE": "GENERAL ACUTE CARE", "STATUS": "OPEN", "POPULATION": 175, "COUNTY": "CLINTON", "COUNTYFIPS": "19045", "COUNTRY": "USA", "LATITUDE": 41.861501820999997, "LONGITUDE": -90.189015528, "NAICS_CODE": "622110", "NAICS_DESC": "GENERAL MEDICAL AND SURGICAL HOSPITALS", "SOURCE": "https://dia-hfd.iowa.gov/DIA_HFD/CTLEntitySearch.do", "SOURCEDATE": "2018-08-09T00:00:00.000Z", "VAL_METHOD": "IMAGERY", "VAL_DATE": "2016-04-14T00:00:00.000Z", "WEBSITE": "http://www.mercyclinton.com", "STATE_ID": "NOT AVAILABLE", "ALT_NAME": "NOT AVAILABLE", "ST_FIPS": "19", "OWNER": "NON-PROFIT", "TTL_STAFF": -999, "BEDS": 175, "TRAUMA": "LEVEL IV", "HELIPAD": "Y" }, "geometry": { "type": "Polygon", "coordinates": [ [ [ -90.2581591, 41.785798099999973 ], [ -90.2591003, 41.7858949 ], [ -90.296406200000021, 41.815281 ], [ -90.2964011, 41.815503200000016 ], [ -90.2767912, 41.903918200000035 ], [ -90.1984934, 41.958253299999981 ], [ -90.1835036, 41.939870099999979 ], [ -90.1823737, 41.935263 ], [ -90.1718951, 41.884866100000018 ], [ -90.171892600000021, 41.884448699999979 ], [ -90.173965, 41.8378811 ], [ -90.2500755, 41.785675 ], [ -90.2532308, 41.785653400000037 ], [ -90.2581591, 41.785798099999973 ] ] ] } },
{ "type": "Feature", "properties": { "OBJECTID": 1880, "ID": "0002652043", "NAME": "CENTRAL COMMUNITY HOSPITAL", "ADDRESS": "901 DAVIDSON STREET NORTHWEST", "CITY": "ELKADER", "STATE": "IA", "ZIP": "52043", "ZIP4": "NOT AVAILABLE", "TELEPHONE": "(563) 245-7000", "TYPE": "CRITICAL ACCESS", "STATUS": "OPEN", "POPULATION": 25, "COUNTY": "CLAYTON", "COUNTYFIPS": "19043", "COUNTRY": "USA", "LATITUDE": 42.856670088000001, "LONGITUDE": -91.407572872999907, "NAICS_CODE": "622110", "NAICS_DESC": "GENERAL MEDICAL AND SURGICAL HOSPITALS", "SOURCE": "https://dia-hfd.iowa.gov/DIA_HFD/CTLEntitySearch.do", "SOURCEDATE": "2018-08-09T00:00:00.000Z", "VAL_METHOD": "IMAGERY/OTHER", "VAL_DATE": "2016-04-15T00:00:00.000Z", "WEBSITE": "http://www.centralcommunityhospital.com", "STATE_ID": "NOT AVAILABLE", "ALT_NAME": "NOT AVAILABLE", "ST_FIPS": "19", "OWNER": "NON-PROFIT", "TTL_STAFF": -999, "BEDS": 25, "TRAUMA": "LEVEL IV", "HELIPAD": "N" }, "geometry": { "type": "Polygon", "coordinates": [ [ [ -91.4776963, 42.762202399999978 ], [ -91.527512, 42.86617 ], [ -91.5274572, 42.869853500000012 ], [ -91.512023, 42.881994 ], [ -91.4832293, 42.895821800000043 ], [ -91.4288295, 42.9207789 ], [ -91.3361064, 42.950160699999948 ], [ -91.2846521, 42.885745300000032 ], [ -91.284035, 42.8842945 ], [ -91.2845073, 42.880875099999962 ], [ -91.351074, 42.788348 ], [ -91.3646604, 42.776283600000056 ], [ -91.4169117, 42.76755740000003 ], [ -91.4776963, 42.762202399999978 ] ] ] } },
{ "type": "Feature", "properties": { "OBJECTID": 1881, "ID": "0008152301", "NAME": "MARENGO MEMORIAL HOSPITAL", "ADDRESS": "300 MAY STREET, BOX 228", "CITY": "MARENGO", "STATE": "IA", "ZIP": "52301", "ZIP4": "NOT AVAILABLE", "TELEPHONE": "(319) 642-5543", "TYPE": "CRITICAL ACCESS", "STATUS": "OPEN", "POPULATION": 25, "COUNTY": "IOWA", "COUNTYFIPS": "19095", "COUNTRY": "USA", "LATITUDE": 41.802126168000001, "LONGITUDE": -92.073517108000004, "NAICS_CODE": "622110", "NAICS_DESC": "GENERAL MEDICAL AND SURGICAL HOSPITALS", "SOURCE": "https://dia-hfd.iowa.gov/DIA_HFD/CTLEntitySearch.do", "SOURCEDATE": "2018-08-09T00:00:00.000Z", "VAL_METHOD": "IMAGERY/OTHER", "VAL_DATE": "2016-04-15T00:00:00.000Z", "WEBSITE": "http://www.marengohospital.org", "STATE_ID": "NOT AVAILABLE", "ALT_NAME": "NOT AVAILABLE", "ST_FIPS": "19", "OWNER": "GOVERNMENT - LOCAL", "TTL_STAFF": -999, "BEDS": 25, "TRAUMA": "LEVEL IV", "HELIPAD": "Y" }, "geometry": { "type": "Polygon", "coordinates": [ [ [ -92.065794, 41.716793 ], [ -92.190481, 41.753337 ], [ -92.201164, 41.815648 ], [ -92.201137, 41.816413 ], [ -92.0894478, 41.863562899999984 ], [ -92.054396, 41.850887 ], [ -92.044658, 41.846881 ], [ -92.025929, 41.830195 ], [ -91.9678948, 41.777533 ], [ -91.966285, 41.775276 ], [ -91.967166, 41.77423 ], [ -91.987368, 41.759874 ], [ -92.065794, 41.716793 ] ] ] } },
{ "type": "Feature", "properties": { "OBJECTID": 1883, "ID": "0012452641", "NAME": "MENTAL HEALTH INSTITUTE", "ADDRESS": "1200 EAST WASHINGTON STREET", "CITY": "MOUNT PLEASANT", "STATE": "IA", "ZIP": "52641", "ZIP4": "NOT AVAILABLE", "TELEPHONE": "(319) 385-7231", "TYPE": "PSYCHIATRIC", "STATUS": "OPEN", "POPULATION": 78, "COUNTY": "HENRY", "COUNTYFIPS": "19087", "COUNTRY": "USA", "LATITUDE": 40.95554287, "LONGITUDE": -91.535949375000001, "NAICS_CODE": "622110", "NAICS_DESC": "GENERAL MEDICAL AND SURGICAL HOSPITALS", "SOURCE": "https://dia-hfd.iowa.gov/DIA_HFD/CTLEntitySearch.do", "SOURCEDATE": "2018-08-09T00:00:00.000Z", "VAL_METHOD": "IMAGERY", "VAL_DATE": "2016-04-19T00:00:00.000Z", "WEBSITE": "http://www.dhs.state.ia.us", "STATE_ID": "NOT AVAILABLE", "ALT_NAME": "NOT AVAILABLE", "ST_FIPS": "19", "OWNER": "GOVERNMENT - STATE", "TTL_STAFF": -999, "BEDS": 78, "TRAUMA": "NOT AVAILABLE", "HELIPAD": "N" }, "geometry": { "type": "Polygon", "coordinates": [ [ [ -91.564624607942775, 40.821001828233491 ], [ -91.584047008845189, 40.848614030632099 ], [ -91.660069, 40.97207 ], [ -91.6599928, 40.9744709 ], [ -91.6599474, 40.974746400000022 ], [ -91.544561512937307, 41.075647911605436 ], [ -91.544070012945198, 41.075645011693766 ], [ -91.45782, 40.987737 ], [ -91.401691, 40.925751 ], [ -91.400505, 40.905906 ], [ -91.400504, 40.905673 ], [ -91.564214007903345, 40.820991028085892 ], [ -91.564624607942775, 40.821001828233491 ] ] ] } },
{ "type": "Feature", "properties": { "OBJECTID": 1981, "ID": "0004153813", "NAME": "GRANT REG HLTH CTR", "ADDRESS": "507 S MONROE ST", "CITY": "LANCASTER", "STATE": "WI", "ZIP": "53813", "ZIP4": "NOT AVAILABLE", "TELEPHONE": "(608) 723-2143", "TYPE": "GENERAL ACUTE CARE", "STATUS": "OPEN", "POPULATION": 25, "COUNTY": "GRANT", "COUNTYFIPS": "55043", "COUNTRY": "USA", "LATITUDE": 42.843907552000097, "LONGITUDE": -90.708863101999995, "NAICS_CODE": "622110", "NAICS_DESC": "GENERAL MEDICAL AND SURGICAL HOSPITALS", "SOURCE": "https://www.dhs.wisconsin.gov/guide/hospital.htm", "SOURCEDATE": "2018-08-13T00:00:00.000Z", "VAL_METHOD": "IMAGERY", "VAL_DATE": "2014-02-10T00:00:00.000Z", "WEBSITE": "http://www.grantregional.com", "STATE_ID": "1025", "ALT_NAME": "NOT AVAILABLE", "ST_FIPS": "55", "OWNER": "NON-PROFIT", "TTL_STAFF": -999, "BEDS": 25, "TRAUMA": "LEVEL IV", "HELIPAD": "Y" }, "geometry": { "type": "Polygon", "coordinates": [ [ [ -90.681710697792994, 42.727092737166444 ], [ -90.681877297822325, 42.727145437184852 ], [ -90.836890408738043, 42.814530030521006 ], [ -90.818303814910607, 42.870551229662816 ], [ -90.771819222570102, 42.910402046226245 ], [ -90.656218176255749, 42.932744349009084 ], [ -90.633011503278837, 42.922323960305931 ], [ -90.631967104055676, 42.921488061672733 ], [ -90.60111007671108, 42.859632691327953 ], [ -90.579690786620347, 42.77651698461748 ], [ -90.681710697792994, 42.727092737166444 ] ] ] } },
{ "type": "Feature", "properties": { "OBJECTID": 2022, "ID": "0093052040", "NAME": "MERCY MEDICAL CENTER-DYERSVILLE", "ADDRESS": "1111 3RD STREET SW", "CITY": "DYERSVILLE", "STATE": "IA", "ZIP": "52040", "ZIP4": "NOT AVAILABLE", "TELEPHONE": "(563) 875-7101", "TYPE": "CRITICAL ACCESS", "STATUS": "OPEN", "POPULATION": 25, "COUNTY": "DUBUQUE", "COUNTYFIPS": "19061", "COUNTRY": "USA", "LATITUDE": 42.4756271380001, "LONGITUDE": -91.130535680999998, "NAICS_CODE": "622110", "NAICS_DESC": "GENERAL MEDICAL AND SURGICAL HOSPITALS", "SOURCE": "https://dia-hfd.iowa.gov/DIA_HFD/CTLEntitySearch.do", "SOURCEDATE": "2018-08-09T00:00:00.000Z", "VAL_METHOD": "IMAGERY/OTHER", "VAL_DATE": "2016-04-15T00:00:00.000Z", "WEBSITE": "http://www.mercydubuque.com/mercy-dyersville", "STATE_ID": "NOT AVAILABLE", "ALT_NAME": "NOT AVAILABLE", "ST_FIPS": "19", "OWNER": "NOT AVAILABLE", "TTL_STAFF": -999, "BEDS": 25, "TRAUMA": "LEVEL IV", "HELIPAD": "Y" }, "geometry": { "type": "Polygon", "coordinates": [ [ [ -91.121085, 42.39519550000005 ], [ -91.301723543897324, 42.470429979705273 ], [ -91.301885330953766, 42.47091367005995 ], [ -91.301906525260762, 42.471104365646553 ], [ -91.276333, 42.4853353 ], [ -91.1344117, 42.550009399999986 ], [ -91.1029851, 42.563490399999949 ], [ -91.0402809, 42.508062500000058 ], [ -91.000312662059997, 42.438973084995801 ], [ -91.00547780823311, 42.435923951956937 ], [ -91.116914, 42.3952682 ], [ -91.1177903, 42.395134300000038 ], [ -91.121085, 42.39519550000005 ] ] ] } },
{ "type": "Feature", "properties": { "OBJECTID": 2031, "ID": "0013652627", "NAME": "FORT MADISON COMMUNITY HOSPITAL", "ADDRESS": "5445 AVENUE O", "CITY": "FORT MADISON", "STATE": "IA", "ZIP": "52627", "ZIP4": "NOT AVAILABLE", "TELEPHONE": "(319) 372-6530", "TYPE": "GENERAL ACUTE CARE", "STATUS": "OPEN", "POPULATION": 50, "COUNTY": "LEE", "COUNTYFIPS": "19111", "COUNTRY": "USA", "LATITUDE": 40.625806771000001, "LONGITUDE": -91.384313374000001, "NAICS_CODE": "622110", "NAICS_DESC": "GENERAL MEDICAL AND SURGICAL HOSPITALS", "SOURCE": "https://dia-hfd.iowa.gov/DIA_HFD/CTLEntitySearch.do", "SOURCEDATE": "2018-08-09T00:00:00.000Z", "VAL_METHOD": "IMAGERY/OTHER", "VAL_DATE": "2016-04-15T00:00:00.000Z", "WEBSITE": "http://www.fmchosp.com", "STATE_ID": "NOT AVAILABLE", "ALT_NAME": "NOT AVAILABLE", "ST_FIPS": "19", "OWNER": "NON-PROFIT", "TTL_STAFF": -999, "BEDS": 50, "TRAUMA": "LEVEL III", "HELIPAD": "Y" }, "geometry": { "type": "Polygon", "coordinates": [ [ [ -91.4415173, 40.5160338 ], [ -91.517215904251941, 40.635190584869918 ], [ -91.439403203989443, 40.675719200311761 ], [ -91.392204005062268, 40.698767607710664 ], [ -91.363306005813271, 40.703098910481586 ], [ -91.329874906686257, 40.704265513026343 ], [ -91.258622607982844, 40.676641113833199 ], [ -91.258249007984432, 40.676306813809944 ], [ -91.267624507311865, 40.651382009293663 ], [ -91.270161607167466, 40.64608460828368 ], [ -91.273830907031964, 40.642168907394293 ], [ -91.4095673, 40.529044100000021 ], [ -91.4415173, 40.5160338 ] ] ] } },
{ "type": "Feature", "properties": { "OBJECTID": 2036, "ID": "0095052205", "NAME": "JONES REGIONAL MEDICAL CENTER", "ADDRESS": "1795 HIGHWAY 64 EAST", "CITY": "ANAMOSA", "STATE": "IA", "ZIP": "52205", "ZIP4": "NOT AVAILABLE", "TELEPHONE": "(319) 462-6131", "TYPE": "CRITICAL ACCESS", "STATUS": "OPEN", "POPULATION": 22, "COUNTY": "JONES", "COUNTYFIPS": "19105", "COUNTRY": "USA", "LATITUDE": 42.1015127470001, "LONGITUDE": -91.262614849000002, "NAICS_CODE": "622110", "NAICS_DESC": "GENERAL MEDICAL AND SURGICAL HOSPITALS", "SOURCE": "https://dia-hfd.iowa.gov/DIA_HFD/CTLEntitySearch.do", "SOURCEDATE": "2018-08-09T00:00:00.000Z", "VAL_METHOD": "IMAGERY/OTHER", "VAL_DATE": "2016-04-15T00:00:00.000Z", "WEBSITE": "NOT AVAILABLE", "STATE_ID": "NOT AVAILABLE", "ALT_NAME": "NOT AVAILABLE", "ST_FIPS": "19", "OWNER": "NOT AVAILABLE", "TTL_STAFF": -999, "BEDS": 22, "TRAUMA": "LEVEL IV", "HELIPAD": "Y" }, "geometry": { "type": "Polygon", "coordinates": [ [ [ -91.2682201, 42.0129 ], [ -91.3621088, 42.0194056 ], [ -91.3650453, 42.020083199999981 ], [ -91.4232674, 42.0572752 ], [ -91.4235625, 42.058403299999988 ], [ -91.3665103, 42.138463599999973 ], [ -91.247626, 42.194194 ], [ -91.195802, 42.208814 ], [ -91.189491, 42.210288 ], [ -91.1832257, 42.2078394 ], [ -91.1358734, 42.0670934 ], [ -91.248411, 42.012558 ], [ -91.2682201, 42.0129 ] ] ] } },
{ "type": "Feature", "properties": { "OBJECTID": 2341, "ID": "0010152803", "NAME": "GENESIS MEDICAL CENTER-DAVENPORT", "ADDRESS": "1227 EAST RUSHOLME STREET", "CITY": "DAVENPORT", "STATE": "IA", "ZIP": "52803", "ZIP4": "NOT AVAILABLE", "TELEPHONE": "(563) 421-1000", "TYPE": "GENERAL ACUTE CARE", "STATUS": "OPEN", "POPULATION": 502, "COUNTY": "SCOTT", "COUNTYFIPS": "19163", "COUNTRY": "USA", "LATITUDE": 41.542167967000097, "LONGITUDE": -90.557257401000001, "NAICS_CODE": "622110", "NAICS_DESC": "GENERAL MEDICAL AND SURGICAL HOSPITALS", "SOURCE": "https://dia-hfd.iowa.gov/DIA_HFD/CTLEntitySearch.do", "SOURCEDATE": "2018-08-09T00:00:00.000Z", "VAL_METHOD": "IMAGERY/OTHER", "VAL_DATE": "2016-04-15T00:00:00.000Z", "WEBSITE": "http://www.genesishealth.com", "STATE_ID": "NOT AVAILABLE", "ALT_NAME": "NOT AVAILABLE", "ST_FIPS": "19", "OWNER": "NON-PROFIT", "TTL_STAFF": -999, "BEDS": 502, "TRAUMA": "LEVEL II", "HELIPAD": "Y" }, "geometry": { "type": "Polygon", "coordinates": [ [ [ -90.4953597, 41.457497800000027 ], [ -90.6248567, 41.493830300000013 ], [ -90.6412012, 41.4989048 ], [ -90.6455339, 41.502086 ], [ -90.668469, 41.5381607 ], [ -90.6684701, 41.5382781 ], [ -90.6487559, 41.5741 ], [ -90.623579, 41.603157 ], [ -90.5737678, 41.6291729 ], [ -90.5591107, 41.63147050000002 ], [ -90.487187700000021, 41.596418900000032 ], [ -90.4670685, 41.575906900000021 ], [ -90.466938200000016, 41.575482099999967 ], [ -90.457879, 41.543774 ], [ -90.4607722, 41.5122853 ], [ -90.4953597, 41.457497800000027 ] ] ] } },
{ "type": "Feature", "properties": { "OBJECTID": 2498, "ID": "0006961362", "NAME": "ST MARGARETS HOSPITAL", "ADDRESS": "600 E 1ST ST", "CITY": "SPRING VALLEY", "STATE": "IL", "ZIP": "61362", "ZIP4": "NOT AVAILABLE", "TELEPHONE": "(815) 664-1362", "TYPE": "GENERAL ACUTE CARE", "STATUS": "OPEN", "POPULATION": -999, "COUNTY": "BUREAU", "COUNTYFIPS": "17011", "COUNTRY": "USA", "LATITUDE": 41.328742828000003, "LONGITUDE": -89.193117204999993, "NAICS_CODE": "622110", "NAICS_DESC": "GENERAL MEDICAL AND SURGICAL HOSPITALS", "SOURCE": "https://data.illinois.gov/", "SOURCEDATE": "2018-08-09T00:00:00.000Z", "VAL_METHOD": "IMAGERY/OTHER", "VAL_DATE": "2014-02-10T00:00:00.000Z", "WEBSITE": "http://www.aboutsmh.org/", "STATE_ID": "140143", "ALT_NAME": "NOT AVAILABLE", "ST_FIPS": "17", "OWNER": "NON-PROFIT", "TTL_STAFF": -999, "BEDS": -999, "TRAUMA": "NOT AVAILABLE", "HELIPAD": "Y" }, "geometry": { "type": "Polygon", "coordinates": [ [ [ -89.098089500000015, 41.291608 ], [ -89.1042639, 41.292293700000016 ], [ -89.1998341, 41.309459800000013 ], [ -89.292462, 41.326487 ], [ -89.3167086, 41.332986199999958 ], [ -89.3167864, 41.334063700000016 ], [ -89.284725, 41.364914 ], [ -89.277757, 41.369876 ], [ -89.2194173, 41.407951800000028 ], [ -89.101806300000021, 41.371482200000031 ], [ -89.0669318, 41.342532 ], [ -89.0653322, 41.336498 ], [ -89.078116, 41.310205399999987 ], [ -89.0876022, 41.295225 ], [ -89.098089500000015, 41.291608 ] ] ] } },
{ "type": "Feature", "properties": { "OBJECTID": 2507, "ID": "0014361342", "NAME": "MENDOTA COMMUNITY HOSPITAL", "ADDRESS": "1315 MEMORIAL DR", "CITY": "MENDOTA", "STATE": "IL", "ZIP": "61342", "ZIP4": "NOT AVAILABLE", "TELEPHONE": "(815) 539-7461", "TYPE": "CRITICAL ACCESS", "STATUS": "CLOSED", "POPULATION": 25, "COUNTY": "LA SALLE", "COUNTYFIPS": "17099", "COUNTRY": "USA", "LATITUDE": 41.5529062640001, "LONGITUDE": -89.129578768000002, "NAICS_CODE": "622110", "NAICS_DESC": "GENERAL MEDICAL AND SURGICAL HOSPITALS", "SOURCE": "https://data.illinois.gov/", "SOURCEDATE": "2012-07-27T00:00:00.000Z", "VAL_METHOD": "IMAGERY", "VAL_DATE": "2014-02-10T00:00:00.000Z", "WEBSITE": "http://www.mendotahospital.org", "STATE_ID": "141310", "ALT_NAME": "NOT AVAILABLE", "ST_FIPS": "17", "OWNER": "NON-PROFIT", "TTL_STAFF": -999, "BEDS": 25, "TRAUMA": "NOT AVAILABLE", "HELIPAD": "N" }, "geometry": { "type": "Polygon", "coordinates": [ [ [ -89.1267456, 41.454818 ], [ -89.166431, 41.481649 ], [ -89.247827, 41.538894 ], [ -89.242715, 41.568711 ], [ -89.1629183, 41.628759300000041 ], [ -89.148678109195373, 41.628589269225763 ], [ -89.090327700000017, 41.6128962 ], [ -89.0340626, 41.5721226 ], [ -89.0143886, 41.554654599999971 ], [ -89.1075379, 41.467791100000035 ], [ -89.1267456, 41.454818 ] ] ] } },
{ "type": "Feature", "properties": { "OBJECTID": 2793, "ID": "0017853821", "NAME": "CROSSING RIVERS HEALTH MEDICAL CENTER", "ADDRESS": "37868 US HWY 18", "CITY": "PRAIRIE DU CHIEN", "STATE": "WI", "ZIP": "53821", "ZIP4": "NOT AVAILABLE", "TELEPHONE": "(608) 357-2000", "TYPE": "CRITICAL ACCESS", "STATUS": "OPEN", "POPULATION": 25, "COUNTY": "CRAWFORD", "COUNTYFIPS": "55023", "COUNTRY": "USA", "LATITUDE": 43.022206051000097, "LONGITUDE": -91.114399878, "NAICS_CODE": "622110", "NAICS_DESC": "GENERAL MEDICAL AND SURGICAL HOSPITALS", "SOURCE": "https://www.dhs.wisconsin.gov/guide/hospital.htm", "SOURCEDATE": "2018-08-13T00:00:00.000Z", "VAL_METHOD": "IMAGERY/OTHER", "VAL_DATE": "2016-02-02T00:00:00.000Z", "WEBSITE": "http://www.crossingrivers.org/clinics/crossing-rivers-health-clinic-prairie-du-chien.aspx", "STATE_ID": "1033", "ALT_NAME": "NOT AVAILABLE", "ST_FIPS": "55", "OWNER": "NON-PROFIT", "TTL_STAFF": -999, "BEDS": 25, "TRAUMA": "LEVEL IV", "HELIPAD": "Y" }, "geometry": { "type": "Polygon", "coordinates": [ [ [ -91.0509292, 42.999506099999934 ], [ -91.0654392, 43.001357 ], [ -91.1059916, 43.008267400000058 ], [ -91.130634, 43.012939 ], [ -91.176066600000013, 43.043984400000049 ], [ -91.1452139, 43.1065496 ], [ -91.14133870000002, 43.111593900000038 ], [ -91.059339, 43.077888 ], [ -90.9873346, 43.042621400000058 ], [ -90.989165, 43.0340773 ], [ -90.9913673, 43.032248399999979 ], [ -90.9960867, 43.02876089999998 ], [ -91.0509292, 42.999506099999934 ] ] ] } },
{ "type": "Feature", "properties": { "OBJECTID": 2812, "ID": "0013952722", "NAME": "UNITY POINT HEALTH TRINITY", "ADDRESS": "4500 UTICA RIDGE ROAD", "CITY": "BETTENDORF", "STATE": "IA", "ZIP": "52722", "ZIP4": "NOT AVAILABLE", "TELEPHONE": "(309) 779-5000", "TYPE": "GENERAL ACUTE CARE", "STATUS": "OPEN", "POPULATION": 139, "COUNTY": "SCOTT", "COUNTYFIPS": "19163", "COUNTRY": "USA", "LATITUDE": 41.566071805999997, "LONGITUDE": -90.519740060999894, "NAICS_CODE": "622110", "NAICS_DESC": "GENERAL MEDICAL AND SURGICAL HOSPITALS", "SOURCE": "https://dia-hfd.iowa.gov/DIA_HFD/CTLEntitySearch.do", "SOURCEDATE": "2018-08-09T00:00:00.000Z", "VAL_METHOD": "IMAGERY/OTHER", "VAL_DATE": "2016-04-15T00:00:00.000Z", "WEBSITE": "http://www.trinityqc.com", "STATE_ID": "NOT AVAILABLE", "ALT_NAME": "NOT AVAILABLE", "ST_FIPS": "19", "OWNER": "NON-PROFIT", "TTL_STAFF": -999, "BEDS": 139, "TRAUMA": "LEVEL IV", "HELIPAD": "Y" }, "geometry": { "type": "Polygon", "coordinates": [ [ [ -90.4893368, 41.4526005 ], [ -90.4967472, 41.452938300000028 ], [ -90.4988131, 41.453355699999989 ], [ -90.5859677, 41.5201567 ], [ -90.6257708, 41.560310300000054 ], [ -90.665224, 41.60376 ], [ -90.646619, 41.618607 ], [ -90.571922, 41.660265 ], [ -90.490686, 41.669864 ], [ -90.471271, 41.655422 ], [ -90.4422645, 41.626515299999966 ], [ -90.4125454, 41.5896376 ], [ -90.413601, 41.570884 ], [ -90.4759408, 41.470421 ], [ -90.4893368, 41.4526005 ] ] ] } },
{ "type": "Feature", "properties": { "OBJECTID": 2813, "ID": "0013852655", "NAME": "GREAT RIVER MEDICAL CENTER", "ADDRESS": "1221 SOUTH GEAR AVENUE", "CITY": "WEST BURLINGTON", "STATE": "IA", "ZIP": "52655", "ZIP4": "NOT AVAILABLE", "TELEPHONE": "(319) 768-1000", "TYPE": "GENERAL ACUTE CARE", "STATUS": "OPEN", "POPULATION": 213, "COUNTY": "DES MOINES", "COUNTYFIPS": "19057", "COUNTRY": "USA", "LATITUDE": 40.80934797, "LONGITUDE": -91.173080162000005, "NAICS_CODE": "622110", "NAICS_DESC": "GENERAL MEDICAL AND SURGICAL HOSPITALS", "SOURCE": "https://dia-hfd.iowa.gov/DIA_HFD/CTLEntitySearch.do", "SOURCEDATE": "2018-08-09T00:00:00.000Z", "VAL_METHOD": "IMAGERY/OTHER", "VAL_DATE": "2016-04-15T00:00:00.000Z", "WEBSITE": "http://www.greatrivermedical.org", "STATE_ID": "NOT AVAILABLE", "ALT_NAME": "NOT AVAILABLE", "ST_FIPS": "19", "OWNER": "NON-PROFIT", "TTL_STAFF": -999, "BEDS": 213, "TRAUMA": "LEVEL III", "HELIPAD": "Y" }, "geometry": { "type": "Polygon", "coordinates": [ [ [ -91.1812213, 40.731946599999986 ], [ -91.3281748, 40.8415844 ], [ -91.2472839, 40.878101799999989 ], [ -91.1700952, 40.891883199999953 ], [ -91.1002903, 40.862261700000047 ], [ -91.0934832, 40.851347 ], [ -91.095237, 40.786704 ], [ -91.0963794, 40.7827393 ], [ -91.09855, 40.778835800000039 ], [ -91.1184976, 40.758272900000044 ], [ -91.152672, 40.732799 ], [ -91.1812213, 40.731946599999986 ] ] ] } },
{ "type": "Feature", "properties": { "OBJECTID": 6069, "ID": "0005250702", "NAME": "COVENANT MEDICAL CENTER", "ADDRESS": "3421 WEST 9TH STREET", "CITY": "WATERLOO", "STATE": "IA", "ZIP": "50702", "ZIP4": "NOT AVAILABLE", "TELEPHONE": "(319) 272-8000", "TYPE": "GENERAL ACUTE CARE", "STATUS": "OPEN", "POPULATION": 346, "COUNTY": "BLACK HAWK", "COUNTYFIPS": "19013", "COUNTRY": "USA", "LATITUDE": 42.461182868999998, "LONGITUDE": -92.345873616999896, "NAICS_CODE": "622110", "NAICS_DESC": "GENERAL MEDICAL AND SURGICAL HOSPITALS", "SOURCE": "https://dia-hfd.iowa.gov/DIA_HFD/CTLEntitySearch.do", "SOURCEDATE": "2018-08-09T00:00:00.000Z", "VAL_METHOD": "IMAGERY/OTHER", "VAL_DATE": "2016-04-14T00:00:00.000Z", "WEBSITE": "http://www.wheatoniowa.org", "STATE_ID": "NOT AVAILABLE", "ALT_NAME": "NOT AVAILABLE", "ST_FIPS": "19", "OWNER": "NON-PROFIT", "TTL_STAFF": -999, "BEDS": 346, "TRAUMA": "LEVEL III", "HELIPAD": "Y" }, "geometry": { "type": "Polygon", "coordinates": [ [ [ -92.3472341, 42.369962 ], [ -92.450622800000019, 42.408869 ], [ -92.5270132, 42.4641204 ], [ -92.4167058, 42.5377994 ], [ -92.337445, 42.55595510000002 ], [ -92.183442, 42.449582100000022 ], [ -92.218359800000016, 42.4241067 ], [ -92.2569932, 42.399682900000023 ], [ -92.3472341, 42.369962 ] ] ] } },
{ "type": "Feature", "properties": { "OBJECTID": 6351, "ID": "0005450644", "NAME": "MENTAL HEALTH INSITUTE HOSPITAL", "ADDRESS": "2277 IOWA AVENUE", "CITY": "INDEPENDENCE", "STATE": "IA", "ZIP": "50644", "ZIP4": "NOT AVAILABLE", "TELEPHONE": "(319) 334-2583", "TYPE": "PSYCHIATRIC", "STATUS": "OPEN", "POPULATION": 95, "COUNTY": "BUCHANAN", "COUNTYFIPS": "19019", "COUNTRY": "USA", "LATITUDE": 42.456961191000097, "LONGITUDE": -91.926236697999997, "NAICS_CODE": "622110", "NAICS_DESC": "GENERAL MEDICAL AND SURGICAL HOSPITALS", "SOURCE": "https://dia-hfd.iowa.gov/DIA_HFD/CTLEntitySearch.do", "SOURCEDATE": "2018-08-09T00:00:00.000Z", "VAL_METHOD": "IMAGERY/OTHER", "VAL_DATE": "2016-04-14T00:00:00.000Z", "WEBSITE": "http://www.dhs.state.ia.us", "STATE_ID": "NOT AVAILABLE", "ALT_NAME": "INDEPENDENCE STATE HOSPITAL", "ST_FIPS": "19", "OWNER": "GOVERNMENT - STATE", "TTL_STAFF": -999, "BEDS": 95, "TRAUMA": "NOT AVAILABLE", "HELIPAD": "N" }, "geometry": { "type": "Polygon", "coordinates": [ [ [ -91.889814, 42.392777 ], [ -91.9387605, 42.39961 ], [ -92.0553031, 42.42805 ], [ -92.0642902, 42.442447299999969 ], [ -92.066478211999652, 42.468216390736956 ], [ -92.061184393445245, 42.472110676459685 ], [ -91.8898321, 42.519599899999974 ], [ -91.746909249156332, 42.461420336898712 ], [ -91.889814, 42.392777 ] ] ] } },
{ "type": "Feature", "properties": { "OBJECTID": 6352, "ID": "0092452001", "NAME": "UNITYPOINT HEALTHCARE-FINLEY HOSPITAL", "ADDRESS": "350 NORTH GRANDVIEW AVENUE", "CITY": "DUBUQUE", "STATE": "IA", "ZIP": "52001", "ZIP4": "NOT AVAILABLE", "TELEPHONE": "(563) 582-1881", "TYPE": "GENERAL ACUTE CARE", "STATUS": "OPEN", "POPULATION": 142, "COUNTY": "DUBUQUE", "COUNTYFIPS": "19061", "COUNTRY": "USA", "LATITUDE": 42.496256981999998, "LONGITUDE": -90.686159015000001, "NAICS_CODE": "622110", "NAICS_DESC": "GENERAL MEDICAL AND SURGICAL HOSPITALS", "SOURCE": "https://dia-hfd.iowa.gov/DIA_HFD/CTLEntitySearch.do", "SOURCEDATE": "2018-08-09T00:00:00.000Z", "VAL_METHOD": "IMAGERY/OTHER", "VAL_DATE": "2016-04-15T00:00:00.000Z", "WEBSITE": "http://www.finleyhospital.org", "STATE_ID": "NOT AVAILABLE", "ALT_NAME": "NOT AVAILABLE", "ST_FIPS": "19", "OWNER": "NOT AVAILABLE", "TTL_STAFF": -999, "BEDS": 142, "TRAUMA": "LEVEL III", "HELIPAD": "Y" }, "geometry": { "type": "Polygon", "coordinates": [ [ [ -90.694303436171211, 42.409731681704898 ], [ -90.694627933973123, 42.409749681550629 ], [ -90.794893760972542, 42.439813809561073 ], [ -90.798442687159408, 42.481628660038439 ], [ -90.789568310157605, 42.500018030263206 ], [ -90.744528280203809, 42.555346485162517 ], [ -90.715045891825781, 42.563464782901512 ], [ -90.693056788192592, 42.559323777931574 ], [ -90.659243273505965, 42.546024867251894 ], [ -90.644800162754052, 42.537039861089042 ], [ -90.621253265586773, 42.43365631030543 ], [ -90.628179944972871, 42.418630920685317 ], [ -90.694303436171211, 42.409731681704898 ] ] ] } },
{ "type": "Feature", "properties": { "OBJECTID": 6382, "ID": "0095152001", "NAME": "MERCY MEDICAL CENTER-DUBUQUE", "ADDRESS": "250 MERCY DRIVE", "CITY": "DUBUQUE", "STATE": "IA", "ZIP": "52001", "ZIP4": "NOT AVAILABLE", "TELEPHONE": "(563) 589-8000", "TYPE": "GENERAL ACUTE CARE", "STATUS": "OPEN", "POPULATION": 303, "COUNTY": "DUBUQUE", "COUNTYFIPS": "19061", "COUNTRY": "USA", "LATITUDE": 42.492505643000101, "LONGITUDE": -90.674778626999995, "NAICS_CODE": "622110", "NAICS_DESC": "GENERAL MEDICAL AND SURGICAL HOSPITALS", "SOURCE": "https://dia-hfd.iowa.gov/DIA_HFD/CTLEntitySearch.do", "SOURCEDATE": "2018-08-09T00:00:00.000Z", "VAL_METHOD": "IMAGERY/OTHER", "VAL_DATE": "2016-04-15T00:00:00.000Z", "WEBSITE": "http://www.mercydubuque.com", "STATE_ID": "NOT AVAILABLE", "ALT_NAME": "NOT AVAILABLE", "ST_FIPS": "19", "OWNER": "NOT AVAILABLE", "TTL_STAFF": -999, "BEDS": 303, "TRAUMA": "LEVEL III", "HELIPAD": "Y" }, "geometry": { "type": "Polygon", "coordinates": [ [ [ -90.694462998703798, 42.39801216754563 ], [ -90.694947995179731, 42.398134266613781 ], [ -90.733826161404238, 42.412305460185998 ], [ -90.794893760972542, 42.439813809561073 ], [ -90.798442687159408, 42.481628660038439 ], [ -90.789568310157605, 42.500018030263206 ], [ -90.763916543187449, 42.525552796368913 ], [ -90.740055568929563, 42.545658681452196 ], [ -90.712633585548872, 42.55817198075362 ], [ -90.710941086121281, 42.558555180602788 ], [ -90.693056788192592, 42.559323777931574 ], [ -90.659243273505965, 42.546024867251894 ], [ -90.650566868590374, 42.541816564051189 ], [ -90.644800162754052, 42.537039861089042 ], [ -90.612238168164382, 42.409130091821289 ], [ -90.693850702326557, 42.398009667611134 ], [ -90.694462998703798, 42.39801216754563 ] ] ] } },
{ "type": "Feature", "properties": { "OBJECTID": 6386, "ID": "0013752632", "NAME": "KEOKUK AREA HOSPITAL", "ADDRESS": "1600 MORGAN STREET", "CITY": "KEOKUK", "STATE": "IA", "ZIP": "52632", "ZIP4": "NOT AVAILABLE", "TELEPHONE": "(319) 524-7150", "TYPE": "GENERAL ACUTE CARE", "STATUS": "OPEN", "POPULATION": 71, "COUNTY": "LEE", "COUNTYFIPS": "19111", "COUNTRY": "USA", "LATITUDE": 40.406943245999997, "LONGITUDE": -91.387053597000005, "NAICS_CODE": "622110", "NAICS_DESC": "GENERAL MEDICAL AND SURGICAL HOSPITALS", "SOURCE": "https://dia-hfd.iowa.gov/DIA_HFD/CTLEntitySearch.do", "SOURCEDATE": "2018-08-09T00:00:00.000Z", "VAL_METHOD": "IMAGERY/OTHER", "VAL_DATE": "2016-04-15T00:00:00.000Z", "WEBSITE": "http://www.keokukhealthsystems.org", "STATE_ID": "NOT AVAILABLE", "ALT_NAME": "NOT AVAILABLE", "ST_FIPS": "19", "OWNER": "NON-PROFIT", "TTL_STAFF": -999, "BEDS": 71, "TRAUMA": "LEVEL IV", "HELIPAD": "Y" }, "geometry": { "type": "Polygon", "coordinates": [ [ [ -91.4379402, 40.384408899999947 ], [ -91.4525503, 40.39498659999996 ], [ -91.4891578, 40.422594199999978 ], [ -91.4836317, 40.44244 ], [ -91.4460205, 40.4943451 ], [ -91.443761, 40.4943325 ], [ -91.395844, 40.4937895 ], [ -91.377346200000019, 40.493529500000015 ], [ -91.3750541, 40.396207799999956 ], [ -91.379004200000011, 40.3914491 ], [ -91.3821279, 40.389663400000011 ], [ -91.3974505, 40.3867064 ], [ -91.4379402, 40.384408899999947 ] ] ] } },
{ "type": "Feature", "properties": { "OBJECTID": 6388, "ID": "0094952556", "NAME": "JEFFERSON COUNTY HEALTH CENTER", "ADDRESS": "2000 S MAIN", "CITY": "FAIRFIELD", "STATE": "IA", "ZIP": "52556", "ZIP4": "NOT AVAILABLE", "TELEPHONE": "(641) 472-4111", "TYPE": "CRITICAL ACCESS", "STATUS": "OPEN", "POPULATION": 25, "COUNTY": "JEFFERSON", "COUNTYFIPS": "19101", "COUNTRY": "USA", "LATITUDE": 40.986462433, "LONGITUDE": -91.965548697000003, "NAICS_CODE": "622110", "NAICS_DESC": "GENERAL MEDICAL AND SURGICAL HOSPITALS", "SOURCE": "https://dia-hfd.iowa.gov/DIA_HFD/CTLEntitySearch.do", "SOURCEDATE": "2018-08-09T00:00:00.000Z", "VAL_METHOD": "IMAGERY/OTHER", "VAL_DATE": "2016-04-15T00:00:00.000Z", "WEBSITE": "NOT AVAILABLE", "STATE_ID": "NOT AVAILABLE", "ALT_NAME": "NOT AVAILABLE", "ST_FIPS": "19", "OWNER": "GOVERNMENT - LOCAL", "TTL_STAFF": -999, "BEDS": 25, "TRAUMA": "LEVEL IV", "HELIPAD": "Y" }, "geometry": { "type": "Polygon", "coordinates": [ [ [ -91.9486054, 40.878034500000048 ], [ -92.063902, 40.947125 ], [ -92.128913, 41.006201 ], [ -92.091429, 41.030548 ], [ -91.96807, 41.067707 ], [ -91.959847, 41.06777 ], [ -91.919747, 41.062305 ], [ -91.918816, 41.06217 ], [ -91.833003, 41.024819 ], [ -91.794923, 40.994899 ], [ -91.79715, 40.987584 ], [ -91.9486054, 40.878034500000048 ] ] ] } },
{ "type": "Feature", "properties": { "OBJECTID": 6394, "ID": "0017152241", "NAME": "IOWA MEDICAL AND CLASSIFICATION CENTER", "ADDRESS": "2700 CORAL RIDGE AVENUE", "CITY": "CORALVILLE", "STATE": "IA", "ZIP": "52241", "ZIP4": "NOT AVAILABLE", "TELEPHONE": "(319) 626-2391", "TYPE": "GENERAL ACUTE CARE", "STATUS": "OPEN", "POPULATION": 46, "COUNTY": "JOHNSON", "COUNTYFIPS": "19103", "COUNTRY": "USA", "LATITUDE": 41.713638062000001, "LONGITUDE": -91.61097519, "NAICS_CODE": "622110", "NAICS_DESC": "GENERAL MEDICAL AND SURGICAL HOSPITALS", "SOURCE": "https://dia-hfd.iowa.gov/DIA_HFD/CTLEntitySearch.do", "SOURCEDATE": "2018-08-09T00:00:00.000Z", "VAL_METHOD": "IMAGERY/OTHER", "VAL_DATE": "2016-04-15T00:00:00.000Z", "WEBSITE": "http://oakdaleprison.com/", "STATE_ID": "NOT AVAILABLE", "ALT_NAME": "NOT AVAILABLE", "ST_FIPS": "19", "OWNER": "GOVERNMENT - STATE", "TTL_STAFF": -999, "BEDS": 46, "TRAUMA": "NOT AVAILABLE", "HELIPAD": "N" }, "geometry": { "type": "Polygon", "coordinates": [ [ [ -91.57404495821504, 41.651616366319701 ], [ -91.5843413, 41.652099299999975 ], [ -91.592798, 41.653273 ], [ -91.6087279, 41.65713140000004 ], [ -91.663421, 41.672154 ], [ -91.6906968, 41.687407 ], [ -91.700497, 41.712706 ], [ -91.6855787, 41.760199100000023 ], [ -91.666207, 41.81418 ], [ -91.546846606060498, 41.788608783631148 ], [ -91.544352633000571, 41.786041881197875 ], [ -91.4944836, 41.6939595 ], [ -91.4917923, 41.686510799999951 ], [ -91.525689943148436, 41.667932390638697 ], [ -91.527767234835451, 41.666860977100271 ], [ -91.530108925494829, 41.665766361518344 ], [ -91.551772142078534, 41.656897720280298 ], [ -91.57404495821504, 41.651616366319701 ] ] ] } },
{ "type": "Feature", "properties": { "OBJECTID": 6405, "ID": "0011352353", "NAME": "WASHINGTON COUNTY HOSPITAL", "ADDRESS": "400 EAST POLK, PO BOX 909", "CITY": "WASHINGTON", "STATE": "IA", "ZIP": "52353", "ZIP4": "NOT AVAILABLE", "TELEPHONE": "(319) 653-5481", "TYPE": "CRITICAL ACCESS", "STATUS": "OPEN", "POPULATION": 25, "COUNTY": "WASHINGTON", "COUNTYFIPS": "19183", "COUNTRY": "USA", "LATITUDE": 41.289248358000101, "LONGITUDE": -91.687642186999895, "NAICS_CODE": "622110", "NAICS_DESC": "GENERAL MEDICAL AND SURGICAL HOSPITALS", "SOURCE": "https://dia-hfd.iowa.gov/DIA_HFD/CTLEntitySearch.do", "SOURCEDATE": "2018-08-09T00:00:00.000Z", "VAL_METHOD": "IMAGERY", "VAL_DATE": "2016-04-19T00:00:00.000Z", "WEBSITE": "http://www.wchc.org", "STATE_ID": "NOT AVAILABLE", "ALT_NAME": "NOT AVAILABLE", "ST_FIPS": "19", "OWNER": "GOVERNMENT - LOCAL", "TTL_STAFF": -999, "BEDS": 25, "TRAUMA": "LEVEL IV", "HELIPAD": "Y" }, "geometry": { "type": "Polygon", "coordinates": [ [ [ -91.7133337, 41.21009860000003 ], [ -91.772209800000013, 41.234942599999982 ], [ -91.793046, 41.292764 ], [ -91.7736744, 41.336695900000045 ], [ -91.7688829, 41.345869 ], [ -91.7155492, 41.380799100000011 ], [ -91.676846800000021, 41.366670600000027 ], [ -91.6194069, 41.337814 ], [ -91.575892319034153, 41.290518016256044 ], [ -91.576266719216392, 41.289714715793835 ], [ -91.6643714, 41.214132799999959 ], [ -91.7133337, 41.21009860000003 ] ] ] } },
{ "type": "Feature", "properties": { "OBJECTID": 6550, "ID": "0002750674", "NAME": "COMMUNITY MEMORIAL HOSPITAL", "ADDRESS": "909 WEST 1ST STREET", "CITY": "SUMNER", "STATE": "IA", "ZIP": "50674", "ZIP4": "NOT AVAILABLE", "TELEPHONE": "(563) 578-3275", "TYPE": "CRITICAL ACCESS", "STATUS": "OPEN", "POPULATION": 25, "COUNTY": "BREMER", "COUNTYFIPS": "19017", "COUNTRY": "USA", "LATITUDE": 42.846981857000102, "LONGITUDE": -92.109229353000003, "NAICS_CODE": "622110", "NAICS_DESC": "GENERAL MEDICAL AND SURGICAL HOSPITALS", "SOURCE": "https://dia-hfd.iowa.gov/DIA_HFD/CTLEntitySearch.do", "SOURCEDATE": "2018-08-09T00:00:00.000Z", "VAL_METHOD": "IMAGERY/OTHER", "VAL_DATE": "2016-04-15T00:00:00.000Z", "WEBSITE": "http://www.cmhsumner.org", "STATE_ID": "NOT AVAILABLE", "ALT_NAME": "NOT AVAILABLE", "ST_FIPS": "19", "OWNER": "NON-PROFIT", "TTL_STAFF": -999, "BEDS": 25, "TRAUMA": "LEVEL IV", "HELIPAD": "Y" }, "geometry": { "type": "Polygon", "coordinates": [ [ [ -92.140596, 42.743975 ], [ -92.2531316, 42.847373900000015 ], [ -92.1444154, 42.906830499999984 ], [ -92.101287, 42.910322 ], [ -92.022931, 42.891162 ], [ -91.963691, 42.847423 ], [ -92.140596, 42.743975 ] ] ] } },
{ "type": "Feature", "properties": { "OBJECTID": 6553, "ID": "0007452403", "NAME": "MERCY MEDICAL CENTER", "ADDRESS": "701 TENTH STREET SE", "CITY": "CEDAR RAPIDS", "STATE": "IA", "ZIP": "52403", "ZIP4": "NOT AVAILABLE", "TELEPHONE": "(319) 398-6011", "TYPE": "GENERAL ACUTE CARE", "STATUS": "OPEN", "POPULATION": 454, "COUNTY": "LINN", "COUNTYFIPS": "19113", "COUNTRY": "USA", "LATITUDE": 41.978256465000101, "LONGITUDE": -91.655828564000004, "NAICS_CODE": "622110", "NAICS_DESC": "GENERAL MEDICAL AND SURGICAL HOSPITALS", "SOURCE": "https://dia-hfd.iowa.gov/DIA_HFD/CTLEntitySearch.do", "SOURCEDATE": "2018-08-09T00:00:00.000Z", "VAL_METHOD": "IMAGERY/OTHER", "VAL_DATE": "2016-04-15T00:00:00.000Z", "WEBSITE": "http://www.mercycare.org", "STATE_ID": "NOT AVAILABLE", "ALT_NAME": "NOT AVAILABLE", "ST_FIPS": "19", "OWNER": "NON-PROFIT", "TTL_STAFF": -999, "BEDS": 454, "TRAUMA": "LEVEL III", "HELIPAD": "Y" }, "geometry": { "type": "Polygon", "coordinates": [ [ [ -91.669506, 41.847882 ], [ -91.7744445, 41.931089600000021 ], [ -91.7877754, 41.963367 ], [ -91.770087600000011, 42.016382500000027 ], [ -91.710294, 42.091793 ], [ -91.701487300000011, 42.096727499999986 ], [ -91.692734, 42.094504 ], [ -91.550087910030228, 42.019924944771148 ], [ -91.545064856511857, 42.012430284300962 ], [ -91.526546891366692, 41.975900456975694 ], [ -91.525684908522464, 41.973571029955018 ], [ -91.529879010871014, 41.965757445628988 ], [ -91.542408716432206, 41.943551973263695 ], [ -91.544675915550755, 41.940065020847214 ], [ -91.669506, 41.847882 ] ] ] } },
{ "type": "Feature", "properties": { "OBJECTID": 6556, "ID": "0008752245", "NAME": "MERCY HOSPITAL", "ADDRESS": "500 EAST MARKET STREET", "CITY": "IOWA CITY", "STATE": "IA", "ZIP": "52245", "ZIP4": "NOT AVAILABLE", "TELEPHONE": "(319) 339-3540", "TYPE": "GENERAL ACUTE CARE", "STATUS": "OPEN", "POPULATION": 234, "COUNTY": "JOHNSON", "COUNTYFIPS": "19103", "COUNTRY": "USA", "LATITUDE": 41.663871483000001, "LONGITUDE": -91.527901363999902, "NAICS_CODE": "622110", "NAICS_DESC": "GENERAL MEDICAL AND SURGICAL HOSPITALS", "SOURCE": "https://dia-hfd.iowa.gov/DIA_HFD/CTLEntitySearch.do", "SOURCEDATE": "2018-08-09T00:00:00.000Z", "VAL_METHOD": "IMAGERY/OTHER", "VAL_DATE": "2016-04-15T00:00:00.000Z", "WEBSITE": "http://www.mercyiowacity.org/", "STATE_ID": "NOT AVAILABLE", "ALT_NAME": "NOT AVAILABLE", "ST_FIPS": "19", "OWNER": "NON-PROFIT", "TTL_STAFF": -999, "BEDS": 234, "TRAUMA": "LEVEL III", "HELIPAD": "N" }, "geometry": { "type": "Polygon", "coordinates": [ [ [ -91.509131, 41.576587 ], [ -91.575019828244038, 41.594459437669116 ], [ -91.638313, 41.616723 ], [ -91.646612, 41.69439 ], [ -91.6408342, 41.6993244 ], [ -91.608039, 41.71517 ], [ -91.561062726785266, 41.730271696824843 ], [ -91.4765906, 41.746757700000039 ], [ -91.4738124, 41.746885700000021 ], [ -91.424844, 41.670966 ], [ -91.424893, 41.663636 ], [ -91.443926, 41.605852 ], [ -91.509131, 41.576587 ] ] ] } },
{ "type": "Feature", "properties": { "OBJECTID": 6557, "ID": "0009052242", "NAME": "UNIVERSITY OF IOWA HOSPITAL & CLINICS", "ADDRESS": "200 HAWKINS DRIVE", "CITY": "IOWA CITY", "STATE": "IA", "ZIP": "52242", "ZIP4": "NOT AVAILABLE", "TELEPHONE": "(319) 356-1616", "TYPE": "GENERAL ACUTE CARE", "STATUS": "OPEN", "POPULATION": 1103, "COUNTY": "JOHNSON", "COUNTYFIPS": "19103", "COUNTRY": "USA", "LATITUDE": 41.660815689000103, "LONGITUDE": -91.547547419999901, "NAICS_CODE": "622110", "NAICS_DESC": "GENERAL MEDICAL AND SURGICAL HOSPITALS", "SOURCE": "https://dia-hfd.iowa.gov/DIA_HFD/CTLEntitySearch.do", "SOURCEDATE": "2018-08-09T00:00:00.000Z", "VAL_METHOD": "IMAGERY", "VAL_DATE": "2016-04-15T00:00:00.000Z", "WEBSITE": "http://www.uihealthcare.com", "STATE_ID": "NOT AVAILABLE", "ALT_NAME": "NOT AVAILABLE", "ST_FIPS": "19", "OWNER": "GOVERNMENT - STATE", "TTL_STAFF": -999, "BEDS": 1103, "TRAUMA": "LEVEL I, LEVEL I PEDIATRIC", "HELIPAD": "Y" }, "geometry": { "type": "Polygon", "coordinates": [ [ [ -91.546663945965548, 41.5545348230266 ], [ -91.647939, 41.619373 ], [ -91.64426, 41.661031 ], [ -91.6408342, 41.6993244 ], [ -91.6397658, 41.702127899999979 ], [ -91.6380578, 41.704207199999985 ], [ -91.563704325726661, 41.718486239133192 ], [ -91.480311, 41.717216 ], [ -91.447202, 41.671228 ], [ -91.443926, 41.605852 ], [ -91.541565356157378, 41.556868532402724 ], [ -91.546663945965548, 41.5545348230266 ] ] ] } },
{ "type": "Feature", "properties": { "OBJECTID": 6558, "ID": "0006352205", "NAME": "ANAMOSA COMMUNITY HOSPITAL", "ADDRESS": "104 BROADWAY PLACE", "CITY": "ANAMOSA", "STATE": "IA", "ZIP": "52205", "ZIP4": "NOT AVAILABLE", "TELEPHONE": "(319) 462-3588", "TYPE": "GENERAL ACUTE CARE", "STATUS": "CLOSED", "POPULATION": 38, "COUNTY": "JONES", "COUNTYFIPS": "19105", "COUNTRY": "USA", "LATITUDE": 42.112923842999997, "LONGITUDE": -91.288031406000002, "NAICS_CODE": "622110", "NAICS_DESC": "GENERAL MEDICAL AND SURGICAL HOSPITALS", "SOURCE": "ftp://ftp.igsb.uiowa.edu/gis_library/IA_State/Infrastructure/", "SOURCEDATE": "2012-06-05T00:00:00.000Z", "VAL_METHOD": "IMAGERY", "VAL_DATE": "2014-03-12T00:00:00.000Z", "WEBSITE": "http://www.jonesregional.org", "STATE_ID": "NOT AVAILABLE", "ALT_NAME": "NOT AVAILABLE", "ST_FIPS": "19", "OWNER": "NON-PROFIT", "TTL_STAFF": -999, "BEDS": 38, "TRAUMA": "NOT AVAILABLE", "HELIPAD": "N" }, "geometry": { "type": "Polygon", "coordinates": [ [ [ -91.2679405, 42.027308 ], [ -91.351524, 42.034468 ], [ -91.3846417, 42.066700599999969 ], [ -91.3846432, 42.0669672 ], [ -91.379410900000011, 42.0891951 ], [ -91.3665103, 42.138463599999973 ], [ -91.31598, 42.1979624 ], [ -91.1960303, 42.2066013 ], [ -91.174854, 42.120957 ], [ -91.171405, 42.082883 ], [ -91.248428, 42.028167800000041 ], [ -91.2679405, 42.027308 ] ] ] } },
{ "type": "Feature", "properties": { "OBJECTID": 6562, "ID": "0003850662", "NAME": "MERCY HOSPITAL OF FRANCISCAN SISTERS", "ADDRESS": "201 8TH AVENUE SOUTHEAST", "CITY": "OELWEIN", "STATE": "IA", "ZIP": "50662", "ZIP4": "NOT AVAILABLE", "TELEPHONE": "(319) 283-6000", "TYPE": "CRITICAL ACCESS", "STATUS": "OPEN", "POPULATION": 25, "COUNTY": "FAYETTE", "COUNTYFIPS": "19065", "COUNTRY": "USA", "LATITUDE": 42.675447646000102, "LONGITUDE": -91.9021483, "NAICS_CODE": "622110", "NAICS_DESC": "GENERAL MEDICAL AND SURGICAL HOSPITALS", "SOURCE": "https://dia-hfd.iowa.gov/DIA_HFD/CTLEntitySearch.do", "SOURCEDATE": "2018-08-09T00:00:00.000Z", "VAL_METHOD": "IMAGERY", "VAL_DATE": "2016-04-15T00:00:00.000Z", "WEBSITE": "http://www.wheatoniowa.org/", "STATE_ID": "NOT AVAILABLE", "ALT_NAME": "NOT AVAILABLE", "ST_FIPS": "19", "OWNER": "NON-PROFIT", "TTL_STAFF": -999, "BEDS": 25, "TRAUMA": "LEVEL IV", "HELIPAD": "Y" }, "geometry": { "type": "Polygon", "coordinates": [ [ [ -91.904749, 42.579170799999979 ], [ -91.982915, 42.656772 ], [ -92.01157, 42.68587 ], [ -92.020805, 42.71492 ], [ -91.941902, 42.754019 ], [ -91.902202, 42.773596 ], [ -91.885751, 42.773787 ], [ -91.745587, 42.68688 ], [ -91.904749, 42.579170799999979 ] ] ] } },
{ "type": "Feature", "properties": { "OBJECTID": 6566, "ID": "0006252349", "NAME": "VIRGINIA GAY HOSPITAL", "ADDRESS": "502 NORTH 9TH AVENUE", "CITY": "VINTON", "STATE": "IA", "ZIP": "52349", "ZIP4": "NOT AVAILABLE", "TELEPHONE": "(319) 472-6200", "TYPE": "CRITICAL ACCESS", "STATUS": "OPEN", "POPULATION": 25, "COUNTY": "BENTON", "COUNTYFIPS": "19011", "COUNTRY": "USA", "LATITUDE": 42.173420577000101, "LONGITUDE": -92.012540386999902, "NAICS_CODE": "622110", "NAICS_DESC": "GENERAL MEDICAL AND SURGICAL HOSPITALS", "SOURCE": "https://dia-hfd.iowa.gov/DIA_HFD/CTLEntitySearch.do", "SOURCEDATE": "2018-08-09T00:00:00.000Z", "VAL_METHOD": "IMAGERY", "VAL_DATE": "2016-04-15T00:00:00.000Z", "WEBSITE": "http://www.vghinc.com", "STATE_ID": "NOT AVAILABLE", "ALT_NAME": "NOT AVAILABLE", "ST_FIPS": "19", "OWNER": "NON-PROFIT", "TTL_STAFF": -999, "BEDS": 25, "TRAUMA": "LEVEL IV", "HELIPAD": "Y" }, "geometry": { "type": "Polygon", "coordinates": [ [ [ -92.0290592, 42.094199 ], [ -92.0953653, 42.137599 ], [ -92.1237265, 42.1810581 ], [ -92.0893505, 42.210552099999965 ], [ -92.065067, 42.225074 ], [ -92.0171167, 42.239302400000014 ], [ -92.0073629, 42.239284500000011 ], [ -91.9879711, 42.224769 ], [ -91.94935, 42.184418 ], [ -91.9314566, 42.1364127 ], [ -91.9330911, 42.134345899999985 ], [ -92.0290592, 42.094199 ] ] ] } },
{ "type": "Feature", "properties": { "OBJECTID": 6567, "ID": "0004350613", "NAME": "SARTORI MEMORIAL HOSPITAL", "ADDRESS": "515 COLLEGE STREET", "CITY": "CEDAR FALLS", "STATE": "IA", "ZIP": "50613", "ZIP4": "NOT AVAILABLE", "TELEPHONE": "(319) 268-3000", "TYPE": "GENERAL ACUTE CARE", "STATUS": "OPEN", "POPULATION": 101, "COUNTY": "BLACK HAWK", "COUNTYFIPS": "19013", "COUNTRY": "USA", "LATITUDE": 42.53353888, "LONGITUDE": -92.45793731000001, "NAICS_CODE": "622110", "NAICS_DESC": "GENERAL MEDICAL AND SURGICAL HOSPITALS", "SOURCE": "https://dia-hfd.iowa.gov/DIA_HFD/CTLEntitySearch.do", "SOURCEDATE": "2018-08-09T00:00:00.000Z", "VAL_METHOD": "IMAGERY/OTHER", "VAL_DATE": "2016-04-14T00:00:00.000Z", "WEBSITE": "http://www.wheatoniowa.org", "STATE_ID": "NOT AVAILABLE", "ALT_NAME": "NOT AVAILABLE", "ST_FIPS": "19", "OWNER": "NON-PROFIT", "TTL_STAFF": -999, "BEDS": 101, "TRAUMA": "LEVEL IV", "HELIPAD": "Y" }, "geometry": { "type": "Polygon", "coordinates": [ [ [ -92.4660578, 42.442878200000024 ], [ -92.534098, 42.456666 ], [ -92.5481946, 42.466979 ], [ -92.574033300000011, 42.5423452 ], [ -92.5093611, 42.5992867 ], [ -92.4555915, 42.6209304 ], [ -92.4361027, 42.613838500000021 ], [ -92.3375137, 42.5486024 ], [ -92.317855, 42.527445899999982 ], [ -92.3200895, 42.512903199999961 ], [ -92.3265803, 42.4963997 ], [ -92.332225, 42.4887453 ], [ -92.3828903, 42.45361960000001 ], [ -92.438517, 42.442919099999976 ], [ -92.4660578, 42.442878200000024 ] ] ] } },
{ "type": "Feature", "properties": { "OBJECTID": 4180, "ID": "0017452402", "NAME": "CONTINUING CARE HOSPITAL", "ADDRESS": "1026 A AVENUE NE, 6TH FLOOR", "CITY": "CEDAR RAPIDS", "STATE": "IA", "ZIP": "52402", "ZIP4": "5036", "TELEPHONE": "(319) 369-8142", "TYPE": "LONG TERM CARE", "STATUS": "OPEN", "POPULATION": 24, "COUNTY": "LINN", "COUNTYFIPS": "19111", "COUNTRY": "USA", "LATITUDE": 41.985737405000101, "LONGITUDE": -91.65971818, "NAICS_CODE": "622310", "NAICS_DESC": "SPECIALTY (EXCEPT PSYCHIATRIC AND SUBSTANCE ABUSE) HOSPITALS", "SOURCE": "https://dia-hfd.iowa.gov/DIA_HFD/CTLEntitySearch.do", "SOURCEDATE": "2018-08-09T00:00:00.000Z", "VAL_METHOD": "IMAGERY", "VAL_DATE": "2016-04-19T00:00:00.000Z", "WEBSITE": "https://www.unitypoint.org/cedarrapids/services-continuing-care-hospital.aspx", "STATE_ID": "NOT AVAILABLE", "ALT_NAME": "NOT AVAILABLE", "ST_FIPS": "19", "OWNER": "NON-PROFIT", "TTL_STAFF": -999, "BEDS": 24, "TRAUMA": "NOT AVAILABLE", "HELIPAD": "Y" }, "geometry": { "type": "Polygon", "coordinates": [ [ [ -91.668276, 41.853124 ], [ -91.7743842, 41.9289473 ], [ -91.7877754, 41.963367 ], [ -91.769616, 42.018795 ], [ -91.718271, 42.097743600000015 ], [ -91.7171775, 42.098171 ], [ -91.6776689, 42.09501 ], [ -91.550087910030228, 42.019924944771148 ], [ -91.526546891366692, 41.975900456975694 ], [ -91.546056275279838, 41.946486835785059 ], [ -91.668276, 41.853124 ] ] ] } },
{ "type": "Feature", "properties": { "OBJECTID": 4300, "ID": "0016961356", "NAME": "PERRY MEMORIAL HOSPITAL", "ADDRESS": "530 PARK AVENUE EAST", "CITY": "PRINCETON", "STATE": "IL", "ZIP": "61356", "ZIP4": "NOT AVAILABLE", "TELEPHONE": "(815) 875-2811", "TYPE": "CRITICAL ACCESS", "STATUS": "OPEN", "POPULATION": 25, "COUNTY": "BUREAU", "COUNTYFIPS": "17011", "COUNTRY": "USA", "LATITUDE": 41.3669130420001, "LONGITUDE": -89.455857363000007, "NAICS_CODE": "622110", "NAICS_DESC": "GENERAL MEDICAL AND SURGICAL HOSPITALS", "SOURCE": "https://data.illinois.gov/", "SOURCEDATE": "2018-08-09T00:00:00.000Z", "VAL_METHOD": "IMAGERY", "VAL_DATE": "2014-03-12T00:00:00.000Z", "WEBSITE": "http://www.perry-memorial.org", "STATE_ID": "141337", "ALT_NAME": "NOT AVAILABLE", "ST_FIPS": "17", "OWNER": "GOVERNMENT - LOCAL", "TTL_STAFF": -999, "BEDS": 25, "TRAUMA": "NOT AVAILABLE", "HELIPAD": "Y" }, "geometry": { "type": "Polygon", "coordinates": [ [ [ -89.4608518, 41.296706399999962 ], [ -89.511003, 41.317164 ], [ -89.58754780000001, 41.365371 ], [ -89.5670694, 41.394762799999981 ], [ -89.480906, 41.443999 ], [ -89.466177, 41.44758 ], [ -89.395225, 41.437675 ], [ -89.392058, 41.436901199999973 ], [ -89.3257412, 41.3635132 ], [ -89.380265, 41.312051 ], [ -89.4608518, 41.296706399999962 ] ] ] } },
{ "type": "Feature", "properties": { "OBJECTID": 4537, "ID": "0015761443", "NAME": "OSF SAINT LUKE MEDICAL CENTER", "ADDRESS": "1051 WEST SOUTH STREET", "CITY": "KEWANEE", "STATE": "IL", "ZIP": "61443", "ZIP4": "NOT AVAILABLE", "TELEPHONE": "(309) 853-3361", "TYPE": "CRITICAL ACCESS", "STATUS": "OPEN", "POPULATION": 25, "COUNTY": "HENRY", "COUNTYFIPS": "17073", "COUNTRY": "USA", "LATITUDE": 41.220836818000102, "LONGITUDE": -89.94699282000001, "NAICS_CODE": "622110", "NAICS_DESC": "GENERAL MEDICAL AND SURGICAL HOSPITALS", "SOURCE": "https://data.illinois.gov/", "SOURCEDATE": "2018-08-09T00:00:00.000Z", "VAL_METHOD": "IMAGERY", "VAL_DATE": "2016-04-25T00:00:00.000Z", "WEBSITE": "https://www.osfhealthcare.org/saint-luke/", "STATE_ID": "141325", "ALT_NAME": "NOT AVAILABLE", "ST_FIPS": "17", "OWNER": "NON-PROFIT", "TTL_STAFF": -999, "BEDS": 25, "TRAUMA": "NOT AVAILABLE", "HELIPAD": "Y" }, "geometry": { "type": "Polygon", "coordinates": [ [ [ -89.931085, 41.149314 ], [ -90.0152472, 41.17876259999997 ], [ -90.022661, 41.193375 ], [ -90.040322, 41.229001 ], [ -89.997337, 41.2735334 ], [ -89.9345335, 41.289451500000041 ], [ -89.9338211, 41.289453500000022 ], [ -89.8565059, 41.2733833 ], [ -89.867478, 41.214873 ], [ -89.8874602, 41.1712902 ], [ -89.9017702, 41.164046700000021 ], [ -89.931085, 41.149314 ] ] ] } },
{ "type": "Feature", "properties": { "OBJECTID": 4954, "ID": "0094852246", "NAME": "IOWA CITY VA MEDICAL CENTER", "ADDRESS": "601 HIGHWAY 6 WEST", "CITY": "IOWA CITY", "STATE": "IA", "ZIP": "52246", "ZIP4": "NOT AVAILABLE", "TELEPHONE": "(319) 338-0581", "TYPE": "MILITARY", "STATUS": "OPEN", "POPULATION": -999, "COUNTY": "JOHNSON", "COUNTYFIPS": "19103", "COUNTRY": "USA", "LATITUDE": 41.6637023010001, "LONGITUDE": -91.548488514, "NAICS_CODE": "622110", "NAICS_DESC": "GENERAL MEDICAL AND SURGICAL HOSPITALS", "SOURCE": "https://dia-hfd.iowa.gov/DIA_HFD/CTLEntitySearch.do", "SOURCEDATE": "2018-08-09T00:00:00.000Z", "VAL_METHOD": "IMAGERY/OTHER", "VAL_DATE": "2015-03-21T00:00:00.000Z", "WEBSITE": "http://www.iowacity.va.gov/", "STATE_ID": "NOT AVAILABLE", "ALT_NAME": "NOT AVAILABLE", "ST_FIPS": "19", "OWNER": "GOVERNMENT - FEDERAL", "TTL_STAFF": -999, "BEDS": -999, "TRAUMA": "NOT AVAILABLE", "HELIPAD": "N" }, "geometry": { "type": "Polygon", "coordinates": [ [ [ -91.575019828244038, 41.594459437669116 ], [ -91.638313, 41.616723 ], [ -91.675868, 41.694284 ], [ -91.664497, 41.707075 ], [ -91.6494073, 41.716985700000038 ], [ -91.6482065, 41.717359600000044 ], [ -91.6076689, 41.728886600000038 ], [ -91.5757168, 41.7344612 ], [ -91.566619693719502, 41.733349613496621 ], [ -91.480311, 41.717216 ], [ -91.441707, 41.670117 ], [ -91.463091, 41.612382 ], [ -91.5058922, 41.598571899999968 ], [ -91.539658935078663, 41.593805649504603 ], [ -91.575019828244038, 41.594459437669116 ] ] ] } },
{ "type": "Feature", "properties": { "OBJECTID": 118, "ID": "0003053821", "NAME": "PRAIRIE DU CHIEN MEMORIAL HOSPITAL", "ADDRESS": "705 E TAYLOR ST", "CITY": "PRAIRIE DU CHIEN", "STATE": "WI", "ZIP": "53821", "ZIP4": "NOT AVAILABLE", "TELEPHONE": "(608) 357-2000", "TYPE": "GENERAL ACUTE CARE", "STATUS": "CLOSED", "POPULATION": 25, "COUNTY": "CRAWFORD", "COUNTYFIPS": "55023", "COUNTRY": "USA", "LATITUDE": 43.044603705, "LONGITUDE": -91.137687506000006, "NAICS_CODE": "622110", "NAICS_DESC": "GENERAL MEDICAL AND SURGICAL HOSPITALS", "SOURCE": "http://www.dhs.wisconsin.gov/bqaconsumer/healthcare/HospitalCty.pdf", "SOURCEDATE": "2013-07-10T00:00:00.000Z", "VAL_METHOD": "IMAGERY/OTHER", "VAL_DATE": "2014-02-10T00:00:00.000Z", "WEBSITE": "http://www.pdcmemorialhospital.org", "STATE_ID": "1033", "ALT_NAME": "NOT AVAILABLE", "ST_FIPS": "55", "OWNER": "NON-PROFIT", "TTL_STAFF": -999, "BEDS": 25, "TRAUMA": "NOT AVAILABLE", "HELIPAD": "N" }, "geometry": { "type": "Polygon", "coordinates": [ [ [ -91.0509292, 42.999506099999934 ], [ -91.0654392, 43.001357 ], [ -91.1059916, 43.008267400000058 ], [ -91.130634, 43.012939 ], [ -91.176066600000013, 43.043984400000049 ], [ -91.1408118, 43.152395 ], [ -91.0539674, 43.1214313 ], [ -91.05102, 43.115113 ], [ -91.0274593, 43.024659600000064 ], [ -91.0509292, 42.999506099999934 ] ] ] } },
{ "type": "Feature", "properties": { "OBJECTID": 140, "ID": "0151753805", "NAME": "GUNDERSEN BOSCOBEL AREA HOSPITAL AND CLINICS", "ADDRESS": "205 PARKER ST", "CITY": "BOSCOBEL", "STATE": "WI", "ZIP": "53805", "ZIP4": "NOT AVAILABLE", "TELEPHONE": "(608) 375-4112", "TYPE": "CRITICAL ACCESS", "STATUS": "OPEN", "POPULATION": 25, "COUNTY": "GRANT", "COUNTYFIPS": "55043", "COUNTRY": "USA", "LATITUDE": 43.133184129, "LONGITUDE": -90.708635156999904, "NAICS_CODE": "622110", "NAICS_DESC": "GENERAL MEDICAL AND SURGICAL HOSPITALS", "SOURCE": "https://www.dhs.wisconsin.gov/guide/hospital.htm", "SOURCEDATE": "2018-08-13T00:00:00.000Z", "VAL_METHOD": "IMAGERY/OTHER", "VAL_DATE": "2015-03-27T00:00:00.000Z", "WEBSITE": "http://www.gundersenhealth.org/boscobel", "STATE_ID": "1048", "ALT_NAME": "NOT AVAILABLE", "ST_FIPS": "55", "OWNER": "NON-PROFIT", "TTL_STAFF": -999, "BEDS": 25, "TRAUMA": "LEVEL IV", "HELIPAD": "Y" }, "geometry": { "type": "Polygon", "coordinates": [ [ [ -90.665985054246448, 43.024714000578435 ], [ -90.789918077128604, 43.066714882849666 ], [ -90.812612922707928, 43.086614596769529 ], [ -90.800580990127983, 43.102853887645431 ], [ -90.716278373322965, 43.152760405449285 ], [ -90.637454490029754, 43.16970511486889 ], [ -90.624400012149792, 43.171164899934439 ], [ -90.618357136315424, 43.165637695970759 ], [ -90.606408716740873, 43.140325395840428 ], [ -90.599115309081213, 43.10588670631855 ], [ -90.661459863616983, 43.024717997065153 ], [ -90.665985054246448, 43.024714000578435 ] ] ] } },
{ "type": "Feature", "properties": { "OBJECTID": 361, "ID": "0001961401", "NAME": "GALESBURG COTTAGE HOSPITAL", "ADDRESS": "695 N KELLOGG ST", "CITY": "GALESBURG", "STATE": "IL", "ZIP": "61401", "ZIP4": "NOT AVAILABLE", "TELEPHONE": "(309) 345-4555", "TYPE": "GENERAL ACUTE CARE", "STATUS": "OPEN", "POPULATION": 119, "COUNTY": "KNOX", "COUNTYFIPS": "17095", "COUNTRY": "USA", "LATITUDE": 40.95579903, "LONGITUDE": -90.365760264000002, "NAICS_CODE": "622110", "NAICS_DESC": "GENERAL MEDICAL AND SURGICAL HOSPITALS", "SOURCE": "https://data.illinois.gov/", "SOURCEDATE": "2018-08-09T00:00:00.000Z", "VAL_METHOD": "IMAGERY", "VAL_DATE": "2014-02-10T00:00:00.000Z", "WEBSITE": "http://www.cottagehospital.com", "STATE_ID": "140040", "ALT_NAME": "NOT AVAILABLE", "ST_FIPS": "17", "OWNER": "NON-PROFIT", "TTL_STAFF": -999, "BEDS": 119, "TRAUMA": "LEVEL II", "HELIPAD": "Y" }, "geometry": { "type": "Polygon", "coordinates": [ [ [ -90.3656365, 40.8894342 ], [ -90.3658982, 40.88946559999998 ], [ -90.4226038, 40.903611400000024 ], [ -90.469344, 40.932733 ], [ -90.488341, 40.947163 ], [ -90.381996, 41.042324 ], [ -90.2849704, 41.0267675 ], [ -90.2826244, 41.0258635 ], [ -90.2825097, 41.0257889 ], [ -90.2683944, 41.005019300000022 ], [ -90.245789700000017, 40.9259089 ], [ -90.2450263, 40.910846199999988 ], [ -90.2449721, 40.909156599999989 ], [ -90.2509375, 40.901286 ], [ -90.2821238, 40.894110699999963 ], [ -90.3467344, 40.888935800000034 ], [ -90.3656365, 40.8894342 ] ] ] } },
{ "type": "Feature", "properties": { "OBJECTID": 362, "ID": "0003361401", "NAME": "ST MARY MEDICAL CENTER", "ADDRESS": "3333 NORTH SEMINARY", "CITY": "GALESBURG", "STATE": "IL", "ZIP": "61401", "ZIP4": "NOT AVAILABLE", "TELEPHONE": "(309) 344-3161", "TYPE": "GENERAL ACUTE CARE", "STATUS": "OPEN", "POPULATION": 90, "COUNTY": "KNOX", "COUNTYFIPS": "17095", "COUNTRY": "USA", "LATITUDE": 40.986710283000001, "LONGITUDE": -90.360244917000003, "NAICS_CODE": "622110", "NAICS_DESC": "GENERAL MEDICAL AND SURGICAL HOSPITALS", "SOURCE": "https://data.illinois.gov/", "SOURCEDATE": "2018-08-09T00:00:00.000Z", "VAL_METHOD": "IMAGERY", "VAL_DATE": "2014-03-12T00:00:00.000Z", "WEBSITE": "http://www.osfstmary.org", "STATE_ID": "140064", "ALT_NAME": "NOT AVAILABLE", "ST_FIPS": "17", "OWNER": "NON-PROFIT", "TTL_STAFF": -999, "BEDS": 90, "TRAUMA": "LEVEL II", "HELIPAD": "Y" }, "geometry": { "type": "Polygon", "coordinates": [ [ [ -90.2892857, 40.897366800000022 ], [ -90.4034673, 40.9037779 ], [ -90.4789, 40.93264 ], [ -90.488421, 40.939945 ], [ -90.488341, 40.947163 ], [ -90.459519, 40.99965 ], [ -90.407904, 41.05681 ], [ -90.381665, 41.063502 ], [ -90.379012, 41.06345 ], [ -90.3528085, 41.060085799999982 ], [ -90.2676444, 41.0395403 ], [ -90.249072, 41.009619399999963 ], [ -90.2450263, 40.910846199999988 ], [ -90.2449721, 40.909156599999989 ], [ -90.2509375, 40.901286 ], [ -90.2892857, 40.897366800000022 ] ] ] } },
{ "type": "Feature", "properties": { "OBJECTID": 544, "ID": "0012061282", "NAME": "GENESIS MEDICAL CENTER ILLINI CAMPUS", "ADDRESS": "801 ILLINI DRIVE", "CITY": "SILVIS", "STATE": "IL", "ZIP": "61282", "ZIP4": "NOT AVAILABLE", "TELEPHONE": "(309) 792-9363", "TYPE": "GENERAL ACUTE CARE", "STATUS": "OPEN", "POPULATION": 101, "COUNTY": "ROCK ISLAND", "COUNTYFIPS": "17161", "COUNTRY": "USA", "LATITUDE": 41.4943257400001, "LONGITUDE": -90.418416113999996, "NAICS_CODE": "622110", "NAICS_DESC": "GENERAL MEDICAL AND SURGICAL HOSPITALS", "SOURCE": "https://data.illinois.gov/", "SOURCEDATE": "2018-08-09T00:00:00.000Z", "VAL_METHOD": "IMAGERY", "VAL_DATE": "2014-03-12T00:00:00.000Z", "WEBSITE": "http://www.genesishealth.com", "STATE_ID": "140275", "ALT_NAME": "NOT AVAILABLE", "ST_FIPS": "17", "OWNER": "NON-PROFIT", "TTL_STAFF": -999, "BEDS": 101, "TRAUMA": "LEVEL II", "HELIPAD": "Y" }, "geometry": { "type": "Polygon", "coordinates": [ [ [ -90.4893368, 41.4526005 ], [ -90.4967472, 41.452938300000028 ], [ -90.4988131, 41.453355699999989 ], [ -90.526397900000021, 41.471285300000012 ], [ -90.5278644, 41.492316900000027 ], [ -90.5278493, 41.4932368 ], [ -90.5278281, 41.494141 ], [ -90.5263782, 41.5053992 ], [ -90.5146935, 41.530821299999985 ], [ -90.3967927, 41.567634900000044 ], [ -90.3773953, 41.5719959 ], [ -90.357141, 41.569274 ], [ -90.3490719, 41.564761299999965 ], [ -90.319824, 41.54776619999997 ], [ -90.3217405, 41.534926400000032 ], [ -90.3342102, 41.513946 ], [ -90.3767297, 41.483402799999986 ], [ -90.4159065, 41.4604979 ], [ -90.484991, 41.452828700000012 ], [ -90.4893368, 41.4526005 ] ] ] } },
{ "type": "Feature", "properties": { "OBJECTID": 545, "ID": "0012261201", "NAME": "TRINITY ROCK ISLAND", "ADDRESS": "2701 17TH ST", "CITY": "ROCK ISLAND", "STATE": "IL", "ZIP": "61201", "ZIP4": "NOT AVAILABLE", "TELEPHONE": "(309) 779-5000", "TYPE": "GENERAL ACUTE CARE", "STATUS": "OPEN", "POPULATION": 343, "COUNTY": "ROCK ISLAND", "COUNTYFIPS": "17161", "COUNTRY": "USA", "LATITUDE": 41.482615267, "LONGITUDE": -90.570418129000004, "NAICS_CODE": "622110", "NAICS_DESC": "GENERAL MEDICAL AND SURGICAL HOSPITALS", "SOURCE": "https://data.illinois.gov/", "SOURCEDATE": "2018-08-09T00:00:00.000Z", "VAL_METHOD": "IMAGERY", "VAL_DATE": "2014-03-12T00:00:00.000Z", "WEBSITE": "http://www.trinityqc.com", "STATE_ID": "140280", "ALT_NAME": "NOT AVAILABLE", "ST_FIPS": "17", "OWNER": "NON-PROFIT", "TTL_STAFF": -999, "BEDS": 343, "TRAUMA": "LEVEL II", "HELIPAD": "Y" }, "geometry": { "type": "Polygon", "coordinates": [ [ [ -90.5775786, 41.3996894 ], [ -90.5777973, 41.399717700000053 ], [ -90.6157698, 41.410247600000019 ], [ -90.6444668, 41.435006399999978 ], [ -90.6436497, 41.444061500000039 ], [ -90.5953359, 41.50553 ], [ -90.588287, 41.50925440000001 ], [ -90.5662266, 41.518093500000013 ], [ -90.5146935, 41.530821299999985 ], [ -90.4839535, 41.512036499999972 ], [ -90.4707406, 41.471464 ], [ -90.4818346, 41.452837100000025 ], [ -90.5055524, 41.43796339999998 ], [ -90.5592877, 41.404952700000038 ], [ -90.5728129, 41.399740300000062 ], [ -90.5775786, 41.3996894 ] ] ] } },
{ "type": "Feature", "properties": { "OBJECTID": 628, "ID": "0015061462", "NAME": "OSF HOLY FAMILY MEDICAL CENTER", "ADDRESS": "1000 W HARLEM AVENUE", "CITY": "MONMOUTH", "STATE": "IL", "ZIP": "61462", "ZIP4": "NOT AVAILABLE", "TELEPHONE": "(309) 734-3141", "TYPE": "CRITICAL ACCESS", "STATUS": "OPEN", "POPULATION": 23, "COUNTY": "WARREN", "COUNTYFIPS": "17187", "COUNTRY": "USA", "LATITUDE": 40.922252932, "LONGITUDE": -90.658301335000004, "NAICS_CODE": "622110", "NAICS_DESC": "GENERAL MEDICAL AND SURGICAL HOSPITALS", "SOURCE": "https://data.illinois.gov/", "SOURCEDATE": "2018-08-09T00:00:00.000Z", "VAL_METHOD": "IMAGERY", "VAL_DATE": "2014-03-13T00:00:00.000Z", "WEBSITE": "http://www.osfholyfamily.org", "STATE_ID": "141318", "ALT_NAME": "NOT AVAILABLE", "ST_FIPS": "17", "OWNER": "NON-PROFIT", "TTL_STAFF": -999, "BEDS": 23, "TRAUMA": "NOT AVAILABLE", "HELIPAD": "Y" }, "geometry": { "type": "Polygon", "coordinates": [ [ [ -90.6580689, 40.804681 ], [ -90.759021, 40.849998 ], [ -90.7874756, 40.915967399999964 ], [ -90.787048, 40.916473 ], [ -90.766634, 40.930195 ], [ -90.649177, 41.008857 ], [ -90.629343, 41.00799 ], [ -90.576744, 40.977407 ], [ -90.553473, 40.962275 ], [ -90.517449, 40.936113 ], [ -90.5175011, 40.919062199999956 ], [ -90.5177953, 40.903689600000014 ], [ -90.633386, 40.819249 ], [ -90.6574353, 40.804980600000029 ], [ -90.6580689, 40.804681 ] ] ] } },
{ "type": "Feature", "properties": { "OBJECTID": 629, "ID": "0016161270", "NAME": "MORRISON COMMUNITY HOSPITAL", "ADDRESS": "303 N JACKSON STREET", "CITY": "MORRISON", "STATE": "IL", "ZIP": "61270", "ZIP4": "NOT AVAILABLE", "TELEPHONE": "(815) 772-4003", "TYPE": "CRITICAL ACCESS", "STATUS": "OPEN", "POPULATION": 36, "COUNTY": "WHITESIDE", "COUNTYFIPS": "17195", "COUNTRY": "USA", "LATITUDE": 41.80893488, "LONGITUDE": -89.957878081999993, "NAICS_CODE": "622110", "NAICS_DESC": "GENERAL MEDICAL AND SURGICAL HOSPITALS", "SOURCE": "https://data.illinois.gov/", "SOURCEDATE": "2018-08-09T00:00:00.000Z", "VAL_METHOD": "IMAGERY", "VAL_DATE": "2014-03-12T00:00:00.000Z", "WEBSITE": "http://www.morrisonhospital.com", "STATE_ID": "141329", "ALT_NAME": "NOT AVAILABLE", "ST_FIPS": "17", "OWNER": "GOVERNMENT - DISTRICT/AUTHORITY", "TTL_STAFF": -999, "BEDS": 36, "TRAUMA": "NOT AVAILABLE", "HELIPAD": "Y" }, "geometry": { "type": "Polygon", "coordinates": [ [ [ -89.9665392, 41.71824730000003 ], [ -89.9733545, 41.72099760000004 ], [ -90.0664018, 41.806322800000061 ], [ -90.0650737, 41.849910500000036 ], [ -89.9877821, 41.9020633 ], [ -89.9203244, 41.869712099999951 ], [ -89.8118764, 41.791018300000019 ], [ -89.862649800000014, 41.7580038 ], [ -89.9665392, 41.71824730000003 ] ] ] } },
{ "type": "Feature", "properties": { "OBJECTID": 774, "ID": "0101561342", "NAME": "MENDOTA COMMUNITY HOSPITAL", "ADDRESS": "1401 EAST 12TH STREET", "CITY": "MENDOTA", "STATE": "IL", "ZIP": "61342", "ZIP4": "NOT AVAILABLE", "TELEPHONE": "(815) 539-7461", "TYPE": "CRITICAL ACCESS", "STATUS": "OPEN", "POPULATION": -999, "COUNTY": "LA SALLE", "COUNTYFIPS": "17099", "COUNTRY": "USA", "LATITUDE": 41.553052905000101, "LONGITUDE": -89.087807752999893, "NAICS_CODE": "622110", "NAICS_DESC": "GENERAL MEDICAL AND SURGICAL HOSPITALS", "SOURCE": "https://data.illinois.gov/", "SOURCEDATE": "2018-08-09T00:00:00.000Z", "VAL_METHOD": "IMAGERY/OTHER", "VAL_DATE": "2015-01-17T00:00:00.000Z", "WEBSITE": "https://www.osfhealthcare.org/saint-paul/", "STATE_ID": "NOT AVAILABLE", "ALT_NAME": "OSF ST PAUL", "ST_FIPS": "17", "OWNER": "NOT AVAILABLE", "TTL_STAFF": -999, "BEDS": -999, "TRAUMA": "NOT AVAILABLE", "HELIPAD": "Y" }, "geometry": { "type": "Polygon", "coordinates": [ [ [ -89.083193, 41.46403150000004 ], [ -89.1270599, 41.483787 ], [ -89.190751, 41.524723 ], [ -89.215698, 41.542724 ], [ -89.217699, 41.544754 ], [ -89.166729, 41.599411 ], [ -89.1289679, 41.620564199999954 ], [ -89.090791937523747, 41.641767881955644 ], [ -88.9763516, 41.577009199999978 ], [ -88.9615743, 41.562713 ], [ -89.0117881, 41.46957740000002 ], [ -89.0504847, 41.465579699999964 ], [ -89.083193, 41.46403150000004 ] ] ] } },
{ "type": "Feature", "properties": { "OBJECTID": 928, "ID": "0098261231", "NAME": "GENESIS MEDICAL CENTER ALEDO", "ADDRESS": "409 NORTHWEST 9TH AVENUE", "CITY": "ALEDO", "STATE": "IL", "ZIP": "61231", "ZIP4": "NOT AVAILABLE", "TELEPHONE": "(309) 582-9100", "TYPE": "CRITICAL ACCESS", "STATUS": "OPEN", "POPULATION": 22, "COUNTY": "MERCER", "COUNTYFIPS": "17131", "COUNTRY": "USA", "LATITUDE": 41.205523198000002, "LONGITUDE": -90.759473440999997, "NAICS_CODE": "622110", "NAICS_DESC": "GENERAL MEDICAL AND SURGICAL HOSPITALS", "SOURCE": "https://data.illinois.gov/", "SOURCEDATE": "2018-08-09T00:00:00.000Z", "VAL_METHOD": "IMAGERY/OTHER", "VAL_DATE": "2015-02-21T00:00:00.000Z", "WEBSITE": "http://www.genesishealth.com/facilities/hospital/aledo/genesis-medical-center-aledo/", "STATE_ID": "NOT AVAILABLE", "ALT_NAME": "NOT AVAILABLE", "ST_FIPS": "17", "OWNER": "NOT AVAILABLE", "TTL_STAFF": -999, "BEDS": 22, "TRAUMA": "NOT AVAILABLE", "HELIPAD": "Y" }, "geometry": { "type": "Polygon", "coordinates": [ [ [ -90.7445696, 41.112325200000022 ], [ -90.802817, 41.143656400000019 ], [ -90.8404912, 41.164437399999983 ], [ -90.883430500000017, 41.194835900000029 ], [ -90.883941, 41.196640699999975 ], [ -90.8839193, 41.1985468 ], [ -90.8784942, 41.204481 ], [ -90.8186101, 41.241385200000018 ], [ -90.7359549, 41.2691903 ], [ -90.6254965, 41.203314900000017 ], [ -90.7445696, 41.112325200000022 ] ] ] } },
{ "type": "Feature", "properties": { "OBJECTID": 7236, "ID": "0015161254", "NAME": "HAMMOND HENRY HOSPITAL", "ADDRESS": "600 N COLLEGE AVENUE", "CITY": "GENESEO", "STATE": "IL", "ZIP": "61254", "ZIP4": "NOT AVAILABLE", "TELEPHONE": "(309) 944-6431", "TYPE": "CRITICAL ACCESS", "STATUS": "OPEN", "POPULATION": 61, "COUNTY": "HENRY", "COUNTYFIPS": "17073", "COUNTRY": "USA", "LATITUDE": 41.460314785000001, "LONGITUDE": -90.157676844999997, "NAICS_CODE": "622110", "NAICS_DESC": "GENERAL MEDICAL AND SURGICAL HOSPITALS", "SOURCE": "https://data.illinois.gov/", "SOURCEDATE": "2018-08-09T00:00:00.000Z", "VAL_METHOD": "IMAGERY", "VAL_DATE": "2014-03-12T00:00:00.000Z", "WEBSITE": "http://www.hammondhenry.com", "STATE_ID": "141319", "ALT_NAME": "NOT AVAILABLE", "ST_FIPS": "17", "OWNER": "GOVERNMENT - DISTRICT/AUTHORITY", "TTL_STAFF": -999, "BEDS": 61, "TRAUMA": "NOT AVAILABLE", "HELIPAD": "Y" }, "geometry": { "type": "Polygon", "coordinates": [ [ [ -90.1649865, 41.3756844 ], [ -90.1917736, 41.382852399999976 ], [ -90.2599565, 41.425863200000038 ], [ -90.2938705, 41.454690900000031 ], [ -90.2516097, 41.498783899999964 ], [ -90.164737, 41.540233 ], [ -90.138839, 41.542167 ], [ -90.0487798, 41.457167099999957 ], [ -90.0584795, 41.4175978 ], [ -90.068152, 41.410462500000015 ], [ -90.1649865, 41.3756844 ] ] ] } },
{ "type": "Feature", "properties": { "OBJECTID": 7522, "ID": "0007852732", "NAME": "MERCY REHABILITATION SERVICES", "ADDRESS": "638 SOUTH BLUFF ROAD", "CITY": "CLINTON", "STATE": "IA", "ZIP": "52732", "ZIP4": "NOT AVAILABLE", "TELEPHONE": "(319) 244-5555", "TYPE": "GENERAL ACUTE CARE", "STATUS": "OPEN", "POPULATION": -999, "COUNTY": "CLINTON", "COUNTYFIPS": "19045", "COUNTRY": "USA", "LATITUDE": 41.840024289, "LONGITUDE": -90.213743565999906, "NAICS_CODE": "622110", "NAICS_DESC": "GENERAL MEDICAL AND SURGICAL HOSPITALS", "SOURCE": "https://dia-hfd.iowa.gov/DIA_HFD/CTLEntitySearch.do", "SOURCEDATE": "2018-08-09T00:00:00.000Z", "VAL_METHOD": "IMAGERY", "VAL_DATE": "2016-04-19T00:00:00.000Z", "WEBSITE": "http://www.mercyclinton.com", "STATE_ID": "NOT AVAILABLE", "ALT_NAME": "NOT AVAILABLE", "ST_FIPS": "19", "OWNER": "NON-PROFIT", "TTL_STAFF": -999, "BEDS": -999, "TRAUMA": "NOT AVAILABLE", "HELIPAD": "N" }, "geometry": { "type": "Polygon", "coordinates": [ [ [ -90.274298500000015, 41.7766687 ], [ -90.2976984, 41.7786219 ], [ -90.35997, 41.815791700000013 ], [ -90.2250606, 41.9174396 ], [ -90.1956976, 41.91781229999998 ], [ -90.1734881, 41.889779099999984 ], [ -90.1729159, 41.8886458 ], [ -90.1720317, 41.8854485 ], [ -90.1718951, 41.884866100000018 ], [ -90.171892600000021, 41.884448699999979 ], [ -90.173965, 41.8378811 ], [ -90.2513384, 41.781593500000021 ], [ -90.253595, 41.780514700000026 ], [ -90.2547393, 41.779991099999954 ], [ -90.257129, 41.778955 ], [ -90.274298500000015, 41.7766687 ] ] ] } },
{ "type": "Feature", "properties": { "OBJECTID": 5291, "ID": "0000761021", "NAME": "KATHERINE SHAW BETHEA HOSPITAL", "ADDRESS": "403 E 1ST ST", "CITY": "DIXON", "STATE": "IL", "ZIP": "61021", "ZIP4": "NOT AVAILABLE", "TELEPHONE": "(815) 288-5531", "TYPE": "GENERAL ACUTE CARE", "STATUS": "OPEN", "POPULATION": 80, "COUNTY": "LEE", "COUNTYFIPS": "17103", "COUNTRY": "USA", "LATITUDE": 41.844778433999998, "LONGITUDE": -89.478895119999905, "NAICS_CODE": "622110", "NAICS_DESC": "GENERAL MEDICAL AND SURGICAL HOSPITALS", "SOURCE": "https://data.illinois.gov/", "SOURCEDATE": "2018-08-09T00:00:00.000Z", "VAL_METHOD": "IMAGERY", "VAL_DATE": "2014-03-12T00:00:00.000Z", "WEBSITE": "http://www.ksbhospital.com", "STATE_ID": "140012", "ALT_NAME": "NOT AVAILABLE", "ST_FIPS": "17", "OWNER": "NON-PROFIT", "TTL_STAFF": -999, "BEDS": 80, "TRAUMA": "NOT AVAILABLE", "HELIPAD": "Y" }, "geometry": { "type": "Polygon", "coordinates": [ [ [ -89.4771356, 41.7582561 ], [ -89.6120828, 41.8101243 ], [ -89.6118501, 41.8229424 ], [ -89.6118456, 41.823167599999977 ], [ -89.5616882, 41.916651799999975 ], [ -89.5473853, 41.9168288 ], [ -89.5229903, 41.916644 ], [ -89.46307, 41.9111122 ], [ -89.3928931, 41.896207900000014 ], [ -89.3467999, 41.837586 ], [ -89.366646, 41.786290499999957 ], [ -89.438086, 41.7582156 ], [ -89.4572997, 41.758222300000035 ], [ -89.476588, 41.7582403 ], [ -89.4771356, 41.7582561 ] ] ] } },
{ "type": "Feature", "properties": { "OBJECTID": 5347, "ID": "0100361265", "NAME": "TRINITY MEDICAL CENTER - 7TH STREET CAMPUS - DBA TRINITY MOLINE", "ADDRESS": "500 JOHN DEERE ROAD, 7TH STREET CAMPUS", "CITY": "MOLINE", "STATE": "IL", "ZIP": "61265", "ZIP4": "NOT AVAILABLE", "TELEPHONE": "(309) 779-5000", "TYPE": "GENERAL ACUTE CARE", "STATUS": "OPEN", "POPULATION": -999, "COUNTY": "ROCK ISLAND", "COUNTYFIPS": "17161", "COUNTRY": "USA", "LATITUDE": 41.468307402999997, "LONGITUDE": -90.530979691, "NAICS_CODE": "622110", "NAICS_DESC": "GENERAL MEDICAL AND SURGICAL HOSPITALS", "SOURCE": "https://data.illinois.gov/", "SOURCEDATE": "2018-08-09T00:00:00.000Z", "VAL_METHOD": "IMAGERY/OTHER", "VAL_DATE": "2015-01-17T00:00:00.000Z", "WEBSITE": "NOT AVAILABLE", "STATE_ID": "NOT AVAILABLE", "ALT_NAME": "NOT AVAILABLE", "ST_FIPS": "17", "OWNER": "NOT AVAILABLE", "TTL_STAFF": -999, "BEDS": -999, "TRAUMA": "NOT AVAILABLE", "HELIPAD": "Y" }, "geometry": { "type": "Polygon", "coordinates": [ [ [ -90.5778938, 41.388923200000043 ], [ -90.587356, 41.392649200000015 ], [ -90.6062703, 41.400965199999945 ], [ -90.6077307, 41.402379100000019 ], [ -90.6387197, 41.443412 ], [ -90.6387049, 41.443965300000052 ], [ -90.5963375, 41.504244 ], [ -90.5953359, 41.50553 ], [ -90.5221509, 41.569864899999985 ], [ -90.4055095, 41.4946635 ], [ -90.404933, 41.4942082 ], [ -90.3986326, 41.4869005 ], [ -90.3975803, 41.484366199999954 ], [ -90.3977178, 41.483301699999956 ], [ -90.40002650000001, 41.47201459999998 ], [ -90.4145899, 41.4503906 ], [ -90.4569908, 41.416508500000013 ], [ -90.5225938, 41.391547099999968 ], [ -90.5778938, 41.388923200000043 ] ] ] } },
{ "type": "Feature", "properties": { "OBJECTID": 5387, "ID": "0000000066", "NAME": "GENESIS MEDICAL CENTER WEST-DAVENPORT", "ADDRESS": "1401 W CENTRAL PARK AVE", "CITY": "DAVENPORT", "STATE": "IA", "ZIP": "52804", "ZIP4": "NOT AVAILABLE", "TELEPHONE": "(563) 421-1000", "TYPE": "GENERAL ACUTE CARE", "STATUS": "OPEN", "POPULATION": 502, "COUNTY": "SCOTT", "COUNTYFIPS": "19163", "COUNTRY": "USA", "LATITUDE": 41.543674130000099, "LONGITUDE": -90.593765135999902, "NAICS_CODE": "622110", "NAICS_DESC": "GENERAL MEDICAL AND SURGICAL HOSPITALS", "SOURCE": "https://dia-hfd.iowa.gov/DIA_HFD/CTLEntitySearch.do", "SOURCEDATE": "2018-08-09T00:00:00.000Z", "VAL_METHOD": "IMAGERY/OTHER", "VAL_DATE": "2016-04-19T00:00:00.000Z", "WEBSITE": "http://www.genesishealth.com/", "STATE_ID": "NOT AVAILABLE", "ALT_NAME": "NOT AVAILABLE", "ST_FIPS": "19", "OWNER": "NOT AVAILABLE", "TTL_STAFF": -999, "BEDS": 502, "TRAUMA": "NOT AVAILABLE", "HELIPAD": "Y" }, "geometry": { "type": "Polygon", "coordinates": [ [ [ -90.6318452, 41.4848704 ], [ -90.6511263, 41.486685499999965 ], [ -90.688323, 41.508426 ], [ -90.7050082, 41.538097 ], [ -90.686396, 41.603833 ], [ -90.646619, 41.618607 ], [ -90.5679704, 41.628966 ], [ -90.5593973, 41.629312900000023 ], [ -90.51927, 41.596136 ], [ -90.499065, 41.575184 ], [ -90.496158, 41.560578 ], [ -90.493569, 41.526176 ], [ -90.4936322, 41.52553929999997 ], [ -90.5065373, 41.50863469999998 ], [ -90.5079501, 41.506906 ], [ -90.508207, 41.506802100000016 ], [ -90.6318452, 41.4848704 ] ] ] } },
{ "type": "Feature", "properties": { "OBJECTID": 5427, "ID": "0007352402", "NAME": "ST. LUKE'S METHODIST HOSPITAL", "ADDRESS": "1026 A AVENUE NE", "CITY": "CEDAR RAPIDS", "STATE": "IA", "ZIP": "52402", "ZIP4": "NOT AVAILABLE", "TELEPHONE": "(319) 369-7211", "TYPE": "GENERAL ACUTE CARE", "STATUS": "OPEN", "POPULATION": 540, "COUNTY": "LINN", "COUNTYFIPS": "19113", "COUNTRY": "USA", "LATITUDE": 41.9852377180001, "LONGITUDE": -91.660586683000005, "NAICS_CODE": "622110", "NAICS_DESC": "GENERAL MEDICAL AND SURGICAL HOSPITALS", "SOURCE": "https://dia-hfd.iowa.gov/DIA_HFD/CTLEntitySearch.do", "SOURCEDATE": "2018-08-09T00:00:00.000Z", "VAL_METHOD": "IMAGERY", "VAL_DATE": "2016-04-15T00:00:00.000Z", "WEBSITE": "http://www.stlukescr.org/", "STATE_ID": "NOT AVAILABLE", "ALT_NAME": "NOT AVAILABLE", "ST_FIPS": "19", "OWNER": "NON-PROFIT", "TTL_STAFF": -999, "BEDS": 540, "TRAUMA": "LEVEL III", "HELIPAD": "Y" }, "geometry": { "type": "Polygon", "coordinates": [ [ [ -91.668276, 41.853124 ], [ -91.7743391, 41.9274972 ], [ -91.7877754, 41.963367 ], [ -91.769616, 42.018795 ], [ -91.7198281, 42.097239399999957 ], [ -91.7180276, 42.0988166 ], [ -91.716934, 42.09916960000001 ], [ -91.6776689, 42.09501 ], [ -91.5561351, 42.020283500000012 ], [ -91.526546891366692, 41.975900456975694 ], [ -91.545184882766421, 41.946293955949237 ], [ -91.668276, 41.853124 ] ] ] } },
{ "type": "Feature", "properties": { "OBJECTID": 5429, "ID": "0005150644", "NAME": "BUCHANAN COUNTY HEALTH CENTER", "ADDRESS": "1600 FIRST STREET EAST", "CITY": "INDEPENDENCE", "STATE": "IA", "ZIP": "50644", "ZIP4": "NOT AVAILABLE", "TELEPHONE": "(319) 332-0999", "TYPE": "CRITICAL ACCESS", "STATUS": "OPEN", "POPULATION": 25, "COUNTY": "BUCHANAN", "COUNTYFIPS": "19019", "COUNTRY": "USA", "LATITUDE": 42.470341357000102, "LONGITUDE": -91.874423733999905, "NAICS_CODE": "622110", "NAICS_DESC": "GENERAL MEDICAL AND SURGICAL HOSPITALS", "SOURCE": "https://dia-hfd.iowa.gov/DIA_HFD/CTLEntitySearch.do", "SOURCEDATE": "2018-08-09T00:00:00.000Z", "VAL_METHOD": "IMAGERY/OTHER", "VAL_DATE": "2016-04-15T00:00:00.000Z", "WEBSITE": "http://www.bchealth.info", "STATE_ID": "NOT AVAILABLE", "ALT_NAME": "NOT AVAILABLE", "ST_FIPS": "19", "OWNER": "GOVERNMENT - LOCAL", "TTL_STAFF": -999, "BEDS": 25, "TRAUMA": "LEVEL IV", "HELIPAD": "Y" }, "geometry": { "type": "Polygon", "coordinates": [ [ [ -91.889814, 42.392777 ], [ -91.920483, 42.407062 ], [ -91.982941146312498, 42.467753377445092 ], [ -91.983005821592727, 42.47138557385793 ], [ -91.9634287, 42.514171100000013 ], [ -91.904829, 42.541298 ], [ -91.89008, 42.541411 ], [ -91.8802434, 42.541443 ], [ -91.8258507, 42.5266949 ], [ -91.753255060186035, 42.468371869922258 ], [ -91.7827784, 42.417217099999981 ], [ -91.889814, 42.392777 ] ] ] } },
{ "type": "Feature", "properties": { "OBJECTID": 5430, "ID": "0092552641", "NAME": "HENRY COUNTY HEALTH CENTER", "ADDRESS": "407 S WHITE ST", "CITY": "MOUNT PLEASANT", "STATE": "IA", "ZIP": "52641", "ZIP4": "NOT AVAILABLE", "TELEPHONE": "(319) 385-3141", "TYPE": "CRITICAL ACCESS", "STATUS": "OPEN", "POPULATION": 74, "COUNTY": "HENRY", "COUNTYFIPS": "19087", "COUNTRY": "USA", "LATITUDE": 40.962297639, "LONGITUDE": -91.559509565, "NAICS_CODE": "622110", "NAICS_DESC": "GENERAL MEDICAL AND SURGICAL HOSPITALS", "SOURCE": "https://dia-hfd.iowa.gov/DIA_HFD/CTLEntitySearch.do", "SOURCEDATE": "2018-08-09T00:00:00.000Z", "VAL_METHOD": "IMAGERY/OTHER", "VAL_DATE": "2016-04-15T00:00:00.000Z", "WEBSITE": "http://www.hchc.org", "STATE_ID": "NOT AVAILABLE", "ALT_NAME": "NOT AVAILABLE", "ST_FIPS": "19", "OWNER": "GOVERNMENT - LOCAL", "TTL_STAFF": -999, "BEDS": 74, "TRAUMA": "LEVEL IV", "HELIPAD": "Y" }, "geometry": { "type": "Polygon", "coordinates": [ [ [ -91.56527490683942, 40.871842222015459 ], [ -91.62202, 40.908636 ], [ -91.6988704, 40.9741385 ], [ -91.6989529, 40.984879799999952 ], [ -91.6966392, 40.987406699999973 ], [ -91.544603612167634, 41.068884111132178 ], [ -91.544082812176057, 41.068879811218807 ], [ -91.424716, 40.929786 ], [ -91.418363500000012, 40.917557500000051 ], [ -91.564850006812776, 40.871833021910135 ], [ -91.56527490683942, 40.871842222015459 ] ] ] } },
{ "type": "Feature", "properties": { "OBJECTID": 5436, "ID": "0094350638", "NAME": "GRUNDY COUNTY MEMORIAL HOSPITAL", "ADDRESS": "201 EAST J AVENUE", "CITY": "GRUNDY CENTER", "STATE": "IA", "ZIP": "50638", "ZIP4": "NOT AVAILABLE", "TELEPHONE": "(319) 824-5421", "TYPE": "CRITICAL ACCESS", "STATUS": "OPEN", "POPULATION": 80, "COUNTY": "GRUNDY", "COUNTYFIPS": "19075", "COUNTRY": "USA", "LATITUDE": 42.359393189000102, "LONGITUDE": -92.761963282999901, "NAICS_CODE": "622110", "NAICS_DESC": "GENERAL MEDICAL AND SURGICAL HOSPITALS", "SOURCE": "https://dia-hfd.iowa.gov/DIA_HFD/CTLEntitySearch.do", "SOURCEDATE": "2018-08-09T00:00:00.000Z", "VAL_METHOD": "IMAGERY/OTHER", "VAL_DATE": "2016-04-15T00:00:00.000Z", "WEBSITE": "http://www.grundycountyhospital.com", "STATE_ID": "NOT AVAILABLE", "ALT_NAME": "NOT AVAILABLE", "ST_FIPS": "19", "OWNER": "GOVERNMENT - LOCAL", "TTL_STAFF": -999, "BEDS": 80, "TRAUMA": "LEVEL IV", "HELIPAD": "Y" }, "geometry": { "type": "Polygon", "coordinates": [ [ [ -92.758011600000017, 42.2825105 ], [ -92.826199, 42.296515 ], [ -92.885975, 42.354034499999976 ], [ -92.846253, 42.405389 ], [ -92.7692498, 42.470339 ], [ -92.768565, 42.470004 ], [ -92.7599647, 42.4627576 ], [ -92.63119, 42.332652 ], [ -92.7092868, 42.294135 ], [ -92.758011600000017, 42.2825105 ] ] ] } },
{ "type": "Feature", "properties": { "OBJECTID": 5437, "ID": "0094452052", "NAME": "GUTTENBERG MUNICIPAL HOSPITAL", "ADDRESS": "200 MAIN STREET", "CITY": "GUTTENBERG", "STATE": "IA", "ZIP": "52052", "ZIP4": "NOT AVAILABLE", "TELEPHONE": "(563) 252-1121", "TYPE": "CRITICAL ACCESS", "STATUS": "OPEN", "POPULATION": 25, "COUNTY": "CLAYTON", "COUNTYFIPS": "19043", "COUNTRY": "USA", "LATITUDE": 42.786127537, "LONGITUDE": -91.099461157999897, "NAICS_CODE": "622110", "NAICS_DESC": "GENERAL MEDICAL AND SURGICAL HOSPITALS", "SOURCE": "https://dia-hfd.iowa.gov/DIA_HFD/CTLEntitySearch.do", "SOURCEDATE": "2018-08-09T00:00:00.000Z", "VAL_METHOD": "IMAGERY/OTHER", "VAL_DATE": "2016-04-15T00:00:00.000Z", "WEBSITE": "http://www.guttenberghospital.org", "STATE_ID": "NOT AVAILABLE", "ALT_NAME": "NOT AVAILABLE", "ST_FIPS": "19", "OWNER": "NOT AVAILABLE", "TTL_STAFF": -999, "BEDS": 25, "TRAUMA": "LEVEL IV", "HELIPAD": "Y" }, "geometry": { "type": "Polygon", "coordinates": [ [ [ -91.0775119, 42.6817001 ], [ -91.163537, 42.728463 ], [ -91.2058508, 42.779551300000016 ], [ -91.2168613, 42.8390031 ], [ -91.104846, 42.871853 ], [ -91.104576, 42.8719 ], [ -91.0521285, 42.720842 ], [ -91.05183030000002, 42.7166838 ], [ -91.055112, 42.707943699999973 ], [ -91.0682181, 42.690129700000035 ], [ -91.0775119, 42.6817001 ] ] ] } },
{ "type": "Feature", "properties": { "OBJECTID": 5502, "ID": "0093552761", "NAME": "TRINITY MUSCATINE", "ADDRESS": "1518 MULBERRY AVENUE", "CITY": "MUSCATINE", "STATE": "IA", "ZIP": "52761", "ZIP4": "NOT AVAILABLE", "TELEPHONE": "(563) 264-9100", "TYPE": "GENERAL ACUTE CARE", "STATUS": "OPEN", "POPULATION": 48, "COUNTY": "MUSCATINE", "COUNTYFIPS": "19139", "COUNTRY": "USA", "LATITUDE": 41.433407824, "LONGITUDE": -91.054457509000002, "NAICS_CODE": "622110", "NAICS_DESC": "GENERAL MEDICAL AND SURGICAL HOSPITALS", "SOURCE": "https://dia-hfd.iowa.gov/DIA_HFD/CTLEntitySearch.do", "SOURCEDATE": "2018-08-09T00:00:00.000Z", "VAL_METHOD": "IMAGERY/OTHER", "VAL_DATE": "2016-04-15T00:00:00.000Z", "WEBSITE": "http://www.trinitymuscatine.org", "STATE_ID": "NOT AVAILABLE", "ALT_NAME": "NOT AVAILABLE", "ST_FIPS": "19", "OWNER": "NON-PROFIT", "TTL_STAFF": -999, "BEDS": 48, "TRAUMA": "LEVEL IV", "HELIPAD": "Y" }, "geometry": { "type": "Polygon", "coordinates": [ [ [ -91.100309, 41.355834 ], [ -91.1505958, 41.3590778 ], [ -91.166258, 41.443808 ], [ -91.127882, 41.487163 ], [ -91.102012, 41.508667 ], [ -91.038956, 41.507985 ], [ -90.9533979, 41.5004854 ], [ -90.935232, 41.433244 ], [ -91.076279, 41.363005 ], [ -91.100309, 41.355834 ] ] ] } },
{ "type": "Feature", "properties": { "OBJECTID": 5532, "ID": "0003650677", "NAME": "WAVERLY MUNICIPAL HOSPITAL", "ADDRESS": "312 9TH STREET SW", "CITY": "WAVERLY", "STATE": "IA", "ZIP": "50677", "ZIP4": "NOT AVAILABLE", "TELEPHONE": "(319) 352-4944", "TYPE": "CRITICAL ACCESS", "STATUS": "OPEN", "POPULATION": 25, "COUNTY": "BREMER", "COUNTYFIPS": "19017", "COUNTRY": "USA", "LATITUDE": 42.722688787000003, "LONGITUDE": -92.482576441999996, "NAICS_CODE": "622110", "NAICS_DESC": "GENERAL MEDICAL AND SURGICAL HOSPITALS", "SOURCE": "https://dia-hfd.iowa.gov/DIA_HFD/CTLEntitySearch.do", "SOURCEDATE": "2018-08-09T00:00:00.000Z", "VAL_METHOD": "IMAGERY/OTHER", "VAL_DATE": "2016-04-15T00:00:00.000Z", "WEBSITE": "http://www.waverlyhealthcenter.org", "STATE_ID": "NOT AVAILABLE", "ALT_NAME": "NOT AVAILABLE", "ST_FIPS": "19", "OWNER": "GOVERNMENT - LOCAL", "TTL_STAFF": -999, "BEDS": 25, "TRAUMA": "LEVEL IV", "HELIPAD": "Y" }, "geometry": { "type": "Polygon", "coordinates": [ [ [ -92.4802709, 42.632689700000043 ], [ -92.539275, 42.68595 ], [ -92.5548097, 42.702675200000044 ], [ -92.5612561, 42.714928299999968 ], [ -92.554472, 42.759124 ], [ -92.5348974, 42.818303499999978 ], [ -92.5343446, 42.8183084 ], [ -92.4753762, 42.802826 ], [ -92.395456, 42.758975 ], [ -92.3429391, 42.7147498 ], [ -92.4361707, 42.6495211 ], [ -92.4533918, 42.6420876 ], [ -92.4802709, 42.632689700000043 ] ] ] } },
{ "type": "Feature", "properties": { "OBJECTID": 5533, "ID": "0005052057", "NAME": "REGIONAL MEDICAL CENTER", "ADDRESS": "709 WEST MAIN STREET", "CITY": "MANCHESTER", "STATE": "IA", "ZIP": "52057", "ZIP4": "NOT AVAILABLE", "TELEPHONE": "(563) 927-3232", "TYPE": "GENERAL ACUTE CARE", "STATUS": "OPEN", "POPULATION": 25, "COUNTY": "DELAWARE", "COUNTYFIPS": "19055", "COUNTRY": "USA", "LATITUDE": 42.484988670000099, "LONGITUDE": -91.466624517999904, "NAICS_CODE": "622110", "NAICS_DESC": "GENERAL MEDICAL AND SURGICAL HOSPITALS", "SOURCE": "https://dia-hfd.iowa.gov/DIA_HFD/CTLEntitySearch.do", "SOURCEDATE": "2018-08-09T00:00:00.000Z", "VAL_METHOD": "IMAGERY/OTHER", "VAL_DATE": "2016-04-15T00:00:00.000Z", "WEBSITE": "http://www.regmedctr.org", "STATE_ID": "NOT AVAILABLE", "ALT_NAME": "NOT AVAILABLE", "ST_FIPS": "19", "OWNER": "GOVERNMENT - LOCAL", "TTL_STAFF": -999, "BEDS": 25, "TRAUMA": "LEVEL IV", "HELIPAD": "Y" }, "geometry": { "type": "Polygon", "coordinates": [ [ [ -91.4808099, 42.3909264 ], [ -91.608493635476677, 42.469280468000662 ], [ -91.5202094, 42.549147 ], [ -91.469719400000017, 42.586036200000017 ], [ -91.301906525260762, 42.471104365646553 ], [ -91.301885330953766, 42.47091367005995 ], [ -91.4226727, 42.401661399999988 ], [ -91.442381, 42.390799 ], [ -91.4808099, 42.3909264 ] ] ] } },
{ "type": "Feature", "properties": { "OBJECTID": 5534, "ID": "0006452060", "NAME": "JACKSON COUNTY PUBLIC HOSPITAL", "ADDRESS": "700 WEST GROVE STREET", "CITY": "MAQUOKETA", "STATE": "IA", "ZIP": "52060", "ZIP4": "NOT AVAILABLE", "TELEPHONE": "(563) 652-2474", "TYPE": "CRITICAL ACCESS", "STATUS": "OPEN", "POPULATION": 25, "COUNTY": "JACKSON", "COUNTYFIPS": "19097", "COUNTRY": "USA", "LATITUDE": 42.072388871000001, "LONGITUDE": -90.673322827999996, "NAICS_CODE": "622110", "NAICS_DESC": "GENERAL MEDICAL AND SURGICAL HOSPITALS", "SOURCE": "https://dia-hfd.iowa.gov/DIA_HFD/CTLEntitySearch.do", "SOURCEDATE": "2018-08-09T00:00:00.000Z", "VAL_METHOD": "IMAGERY", "VAL_DATE": "2016-04-15T00:00:00.000Z", "WEBSITE": "http://www.jcrhc.org", "STATE_ID": "NOT AVAILABLE", "ALT_NAME": "NOT AVAILABLE", "ST_FIPS": "19", "OWNER": "GOVERNMENT - LOCAL", "TTL_STAFF": -999, "BEDS": 25, "TRAUMA": "LEVEL IV", "HELIPAD": "Y" }, "geometry": { "type": "Polygon", "coordinates": [ [ [ -90.636014251256611, 42.003666124504733 ], [ -90.733256084097619, 42.018339892785811 ], [ -90.753032337439763, 42.032825339428392 ], [ -90.802925701432912, 42.073048271649661 ], [ -90.762966349568131, 42.115308244084616 ], [ -90.671499408567016, 42.206933370921149 ], [ -90.591496870351619, 42.135171486513087 ], [ -90.553578152037915, 42.042693422473903 ], [ -90.636014251256611, 42.003666124504733 ] ] ] } },
{ "type": "Feature", "properties": { "OBJECTID": 3332, "ID": "0011261354", "NAME": "ILLINOIS VALLEY COMMUNITY HOSPITAL", "ADDRESS": "925 WEST ST", "CITY": "PERU", "STATE": "IL", "ZIP": "61354", "ZIP4": "NOT AVAILABLE", "TELEPHONE": "(815) 223-3300", "TYPE": "GENERAL ACUTE CARE", "STATUS": "OPEN", "POPULATION": 56, "COUNTY": "LA SALLE", "COUNTYFIPS": "17099", "COUNTRY": "USA", "LATITUDE": 41.328868574000097, "LONGITUDE": -89.124333749000002, "NAICS_CODE": "622110", "NAICS_DESC": "GENERAL MEDICAL AND SURGICAL HOSPITALS", "SOURCE": "https://data.illinois.gov/", "SOURCEDATE": "2018-08-09T00:00:00.000Z", "VAL_METHOD": "IMAGERY", "VAL_DATE": "2014-03-12T00:00:00.000Z", "WEBSITE": "http://www.ivch.org", "STATE_ID": "140234", "ALT_NAME": "NOT AVAILABLE", "ST_FIPS": "17", "OWNER": "NON-PROFIT", "TTL_STAFF": -999, "BEDS": 56, "TRAUMA": "NOT AVAILABLE", "HELIPAD": "Y" }, "geometry": { "type": "Polygon", "coordinates": [ [ [ -89.0780667, 41.217547100000019 ], [ -89.18246, 41.285359 ], [ -89.2480687, 41.3350235 ], [ -89.220623, 41.364319 ], [ -89.21880520000002, 41.366006900000038 ], [ -89.1264387, 41.425565100000014 ], [ -89.0101383, 41.371673700000031 ], [ -89.0029644, 41.367587 ], [ -89.0598383, 41.250583699999972 ], [ -89.0780667, 41.217547100000019 ] ] ] } },
{ "type": "Feature", "properties": { "OBJECTID": 3374, "ID": "0001662321", "NAME": "MEMORIAL HOSPITAL ASSOCIATION", "ADDRESS": "1454 NORTH COUNTY ROAD 2050", "CITY": "CARTHAGE", "STATE": "IL", "ZIP": "62321", "ZIP4": "NOT AVAILABLE", "TELEPHONE": "(217) 357-8500", "TYPE": "CRITICAL ACCESS", "STATUS": "OPEN", "POPULATION": 18, "COUNTY": "HANCOCK", "COUNTYFIPS": "17067", "COUNTRY": "USA", "LATITUDE": 40.407996805000003, "LONGITUDE": -91.113265025000004, "NAICS_CODE": "622110", "NAICS_DESC": "GENERAL MEDICAL AND SURGICAL HOSPITALS", "SOURCE": "https://data.illinois.gov/", "SOURCEDATE": "2018-08-09T00:00:00.000Z", "VAL_METHOD": "IMAGERY", "VAL_DATE": "2014-03-12T00:00:00.000Z", "WEBSITE": "http://www.mhtlc.org", "STATE_ID": "0005611", "ALT_NAME": "NOT AVAILABLE", "ST_FIPS": "17", "OWNER": "NON-PROFIT", "TTL_STAFF": -999, "BEDS": 18, "TRAUMA": "NOT AVAILABLE", "HELIPAD": "Y" }, "geometry": { "type": "Polygon", "coordinates": [ [ [ -91.122279, 40.290643 ], [ -91.227042, 40.395401 ], [ -91.168751, 40.461197 ], [ -91.139, 40.490582 ], [ -91.024036, 40.450905 ], [ -90.94981, 40.415769 ], [ -90.9468421, 40.411755800000037 ], [ -90.9470899, 40.411374800000019 ], [ -91.122031, 40.29064 ], [ -91.122279, 40.290643 ] ] ] } },
{ "type": "Feature", "properties": { "OBJECTID": 3385, "ID": "0002061081", "NAME": "CGH MEDICAL CENTER", "ADDRESS": "100 EAST LEFEVRE ROAD", "CITY": "STERLING", "STATE": "IL", "ZIP": "61081", "ZIP4": "NOT AVAILABLE", "TELEPHONE": "(815) 625-0400", "TYPE": "GENERAL ACUTE CARE", "STATUS": "OPEN", "POPULATION": 99, "COUNTY": "WHITESIDE", "COUNTYFIPS": "17195", "COUNTRY": "USA", "LATITUDE": 41.802205620000102, "LONGITUDE": -89.696655578000005, "NAICS_CODE": "622110", "NAICS_DESC": "GENERAL MEDICAL AND SURGICAL HOSPITALS", "SOURCE": "https://data.illinois.gov/", "SOURCEDATE": "2018-08-09T00:00:00.000Z", "VAL_METHOD": "IMAGERY", "VAL_DATE": "2014-03-12T00:00:00.000Z", "WEBSITE": "http://www.cghmc.com", "STATE_ID": "140043", "ALT_NAME": "NOT AVAILABLE", "ST_FIPS": "17", "OWNER": "GOVERNMENT - LOCAL", "TTL_STAFF": -999, "BEDS": 99, "TRAUMA": "NOT AVAILABLE", "HELIPAD": "Y" }, "geometry": { "type": "Polygon", "coordinates": [ [ [ -89.6898476, 41.7074695 ], [ -89.7089126, 41.714616099999972 ], [ -89.7885688, 41.76137 ], [ -89.804557, 41.844244300000057 ], [ -89.8044728, 41.847913799999958 ], [ -89.727712, 41.901055600000021 ], [ -89.725892900000019, 41.902033699999976 ], [ -89.5659533, 41.824981299999976 ], [ -89.563786, 41.8212068 ], [ -89.6017396, 41.758162700000014 ], [ -89.6318094, 41.736533099999974 ], [ -89.6898476, 41.7074695 ] ] ] } },
{ "type": "Feature", "properties": { "OBJECTID": 3408, "ID": "0013761036", "NAME": "MIDWEST MEDICAL CENTER", "ADDRESS": "ONE MEDICAL CENTER DRIVE", "CITY": "GALENA", "STATE": "IL", "ZIP": "61036", "ZIP4": "NOT AVAILABLE", "TELEPHONE": "(815) 777-1340", "TYPE": "CRITICAL ACCESS", "STATUS": "OPEN", "POPULATION": 25, "COUNTY": "JO DAVIESS", "COUNTYFIPS": "17085", "COUNTRY": "USA", "LATITUDE": 42.449177567, "LONGITUDE": -90.4577401, "NAICS_CODE": "622110", "NAICS_DESC": "GENERAL MEDICAL AND SURGICAL HOSPITALS", "SOURCE": "https://data.illinois.gov/", "SOURCEDATE": "2018-08-09T00:00:00.000Z", "VAL_METHOD": "IMAGERY", "VAL_DATE": "2014-03-12T00:00:00.000Z", "WEBSITE": "http://www.midwestmedicalcenter.org", "STATE_ID": "141302", "ALT_NAME": "NOT AVAILABLE", "ST_FIPS": "17", "OWNER": "PROPRIETARY", "TTL_STAFF": -999, "BEDS": 25, "TRAUMA": "NOT AVAILABLE", "HELIPAD": "Y" }, "geometry": { "type": "Polygon", "coordinates": [ [ [ -90.41767, 42.379477 ], [ -90.466222847178003, 42.388432613284188 ], [ -90.607577935549784, 42.464083086338562 ], [ -90.623408764902806, 42.477494986931355 ], [ -90.623339765480267, 42.477546986549569 ], [ -90.623042367997058, 42.477758584995996 ], [ -90.621683780465759, 42.478238981484203 ], [ -90.510147334231149, 42.512584322906505 ], [ -90.436938275351736, 42.507573865746878 ], [ -90.395506, 42.499186 ], [ -90.382307, 42.48338 ], [ -90.352764, 42.424194 ], [ -90.351776, 42.421925 ], [ -90.372073, 42.383121 ], [ -90.41767, 42.379477 ] ] ] } }
]
}
