{
"type": "FeatureCollection",
"crs": { "type": "name", "properties": { "name": "urn:ogc:def:crs:OGC:1.3:CRS84" } },
"features": [
{ "type": "Feature", "properties": { "OBJECTID": 1097, "ID": "0000449058", "NAME": "SPECTRUM HEALTH PENNOCK HOSPITAL", "ADDRESS": "1009 W GREEN ST", "CITY": "HASTINGS", "STATE": "MI", "ZIP": "49058", "ZIP4": "NOT AVAILABLE", "TELEPHONE": "NOT AVAILABLE", "TYPE": "GENERAL ACUTE CARE", "STATUS": "OPEN", "POPULATION": 49, "COUNTY": "BARRY", "COUNTYFIPS": "26015", "COUNTRY": "USA", "LATITUDE": 42.6447739010001, "LONGITUDE": -85.302825240999894, "NAICS_CODE": "622110", "NAICS_DESC": "GENERAL MEDICAL AND SURGICAL HOSPITALS", "SOURCE": "https://w2.lara.state.mi.us/VAL/License/Search", "SOURCEDATE": "2018-08-09T00:00:00.000Z", "VAL_METHOD": "IMAGERY", "VAL_DATE": "2014-02-10T00:00:00.000Z", "WEBSITE": "http://www.spectrumhealth.org/pennock", "STATE_ID": "NOT AVAILABLE", "ALT_NAME": "NOT AVAILABLE", "ST_FIPS": "26", "OWNER": "NON-PROFIT", "TTL_STAFF": -999, "BEDS": 49, "TRAUMA": "NOT AVAILABLE", "HELIPAD": "Y" }, "geometry": { "type": "Polygon", "coordinates": [ [ [ -85.3275186, 42.563569899999969 ], [ -85.356746, 42.580707 ], [ -85.4110115, 42.619870100000036 ], [ -85.43434, 42.674882 ], [ -85.4174492, 42.6852855 ], [ -85.2905146, 42.740860899999973 ], [ -85.270958599999986, 42.726602 ], [ -85.1734513, 42.654059899999957 ], [ -85.1733217, 42.639598299999953 ], [ -85.196869, 42.610657 ], [ -85.259769, 42.558757 ], [ -85.3275186, 42.563569899999969 ] ] ] } },
{ "type": "Feature", "properties": { "OBJECTID": 1100, "ID": "0006849503", "NAME": "MARY FREE BED HOSPITAL & REHABILITATION CENTER", "ADDRESS": "235 WEALTHY SE", "CITY": "GRAND RAPIDS", "STATE": "MI", "ZIP": "49503", "ZIP4": "NOT AVAILABLE", "TELEPHONE": "NOT AVAILABLE", "TYPE": "GENERAL ACUTE CARE", "STATUS": "OPEN", "POPULATION": 119, "COUNTY": "KENT", "COUNTYFIPS": "26081", "COUNTRY": "USA", "LATITUDE": 42.956973878, "LONGITUDE": -85.662746247000001, "NAICS_CODE": "622110", "NAICS_DESC": "GENERAL MEDICAL AND SURGICAL HOSPITALS", "SOURCE": "https://w2.lara.state.mi.us/VAL/License/Search", "SOURCEDATE": "2018-08-09T00:00:00.000Z", "VAL_METHOD": "IMAGERY", "VAL_DATE": "2014-03-13T00:00:00.000Z", "WEBSITE": "http://www.maryfreebed.com", "STATE_ID": "NOT AVAILABLE", "ALT_NAME": "NOT AVAILABLE", "ST_FIPS": "26", "OWNER": "NON-PROFIT", "TTL_STAFF": -999, "BEDS": 119, "TRAUMA": "NOT AVAILABLE", "HELIPAD": "Y" }, "geometry": { "type": "Polygon", "coordinates": [ [ [ -85.668943, 42.809977 ], [ -85.6721651, 42.811811700000014 ], [ -85.7860657, 42.884091599999962 ], [ -85.789278, 42.955475 ], [ -85.784756, 42.972367 ], [ -85.772975, 43.015968 ], [ -85.763421, 43.0305265 ], [ -85.6899752, 43.078483 ], [ -85.629823, 43.087571 ], [ -85.6285805, 43.086910700000011 ], [ -85.50972, 42.962075 ], [ -85.531312, 42.909359 ], [ -85.668943, 42.809977 ] ] ] } },
{ "type": "Feature", "properties": { "OBJECTID": 1104, "ID": "0011649735", "NAME": "OTSEGO MEMORIAL HOSPITAL", "ADDRESS": "825 N CENTER AVE", "CITY": "GAYLORD", "STATE": "MI", "ZIP": "49735", "ZIP4": "NOT AVAILABLE", "TELEPHONE": "NOT AVAILABLE", "TYPE": "GENERAL ACUTE CARE", "STATUS": "OPEN", "POPULATION": 46, "COUNTY": "OTSEGO", "COUNTYFIPS": "26137", "COUNTRY": "USA", "LATITUDE": 45.035327075000097, "LONGITUDE": -84.674917601999894, "NAICS_CODE": "622110", "NAICS_DESC": "GENERAL MEDICAL AND SURGICAL HOSPITALS", "SOURCE": "https://w2.lara.state.mi.us/VAL/License/Search", "SOURCEDATE": "2018-08-09T00:00:00.000Z", "VAL_METHOD": "IMAGERY", "VAL_DATE": "2014-02-10T00:00:00.000Z", "WEBSITE": "http://www.myomh.org", "STATE_ID": "NOT AVAILABLE", "ALT_NAME": "NOT AVAILABLE", "ST_FIPS": "26", "OWNER": "NON-PROFIT", "TTL_STAFF": -999, "BEDS": 46, "TRAUMA": "NOT AVAILABLE", "HELIPAD": "Y" }, "geometry": { "type": "Polygon", "coordinates": [ [ [ -84.689815, 44.925826 ], [ -84.767619, 44.977965 ], [ -84.8366379, 45.029498400000016 ], [ -84.6735061, 45.157254 ], [ -84.6580655, 45.146268 ], [ -84.5475524, 45.0275155 ], [ -84.5479296, 45.001123 ], [ -84.689815, 44.925826 ] ] ] } },
{ "type": "Feature", "properties": { "OBJECTID": 2090, "ID": "0007749037", "NAME": "VA MEDICAL CENTER - BATTLE CREEK", "ADDRESS": "5500 ARMSRTONG RD", "CITY": "BATTLE CREEK", "STATE": "MI", "ZIP": "49037", "ZIP4": "NOT AVAILABLE", "TELEPHONE": "(269) 966-5600", "TYPE": "MILITARY", "STATUS": "OPEN", "POPULATION": -999, "COUNTY": "CALHOUN", "COUNTYFIPS": "26025", "COUNTRY": "USA", "LATITUDE": 42.3434272000001, "LONGITUDE": -85.291331742999901, "NAICS_CODE": "622110", "NAICS_DESC": "GENERAL MEDICAL AND SURGICAL HOSPITALS", "SOURCE": "https://www.va.gov/directory/guide/allstate.asp", "SOURCEDATE": "2018-09-26T00:00:00.000Z", "VAL_METHOD": "IMAGERY/OTHER", "VAL_DATE": "2015-05-22T00:00:00.000Z", "WEBSITE": "http://www.battlecreek.va.gov/", "STATE_ID": "NOT AVAILABLE", "ALT_NAME": "NOT AVAILABLE", "ST_FIPS": "26", "OWNER": "GOVERNMENT - FEDERAL", "TTL_STAFF": -999, "BEDS": -999, "TRAUMA": "NOT AVAILABLE", "HELIPAD": "N" }, "geometry": { "type": "Polygon", "coordinates": [ [ [ -85.3636961, 42.311891800000019 ], [ -85.373067, 42.321888 ], [ -85.377778, 42.332867 ], [ -85.356878, 42.354232 ], [ -85.279661, 42.386488 ], [ -85.276279, 42.386118 ], [ -85.2349795, 42.366681200000066 ], [ -85.2158257, 42.355154100000036 ], [ -85.210109, 42.342602 ], [ -85.2068792, 42.32958510000001 ], [ -85.2156435, 42.3195711 ], [ -85.224086, 42.311983 ], [ -85.238506, 42.301664 ], [ -85.3636961, 42.311891800000019 ] ] ] } },
{ "type": "Feature", "properties": { "OBJECTID": 2091, "ID": "0008448884", "NAME": "SHERIDAN COMMUNITY HOSPITAL", "ADDRESS": "301 N MAIN ST", "CITY": "SHERIDAN", "STATE": "MI", "ZIP": "48884", "ZIP4": "NOT AVAILABLE", "TELEPHONE": "NOT AVAILABLE", "TYPE": "CRITICAL ACCESS", "STATUS": "OPEN", "POPULATION": 22, "COUNTY": "MONTCALM", "COUNTYFIPS": "26117", "COUNTRY": "USA", "LATITUDE": 43.215948527000101, "LONGITUDE": -85.074161841000006, "NAICS_CODE": "622110", "NAICS_DESC": "GENERAL MEDICAL AND SURGICAL HOSPITALS", "SOURCE": "https://w2.lara.state.mi.us/VAL/License/Search", "SOURCEDATE": "2018-08-09T00:00:00.000Z", "VAL_METHOD": "IMAGERY", "VAL_DATE": "2014-02-10T00:00:00.000Z", "WEBSITE": "http://www.sheridanhospital.com", "STATE_ID": "NOT AVAILABLE", "ALT_NAME": "NOT AVAILABLE", "ST_FIPS": "26", "OWNER": "NON-PROFIT", "TTL_STAFF": -999, "BEDS": 22, "TRAUMA": "NOT AVAILABLE", "HELIPAD": "Y" }, "geometry": { "type": "Polygon", "coordinates": [ [ [ -85.0746137, 43.120210700000044 ], [ -85.143043, 43.163144 ], [ -85.152834, 43.170527 ], [ -85.1728383, 43.192008800000025 ], [ -85.182871600000013, 43.206634 ], [ -85.1927517, 43.22122419999998 ], [ -85.163535, 43.249653 ], [ -85.084746, 43.30706 ], [ -85.064378, 43.307 ], [ -84.984257, 43.249789 ], [ -84.955233, 43.206483 ], [ -85.034683, 43.148615 ], [ -85.0746137, 43.120210700000044 ] ] ] } },
{ "type": "Feature", "properties": { "OBJECTID": 2092, "ID": "0001748658", "NAME": "SAINT MARY'S STANDISH COMMUNITY HOSPITAL", "ADDRESS": "805 W CEDAR ST", "CITY": "STANDISH", "STATE": "MI", "ZIP": "48658", "ZIP4": "NOT AVAILABLE", "TELEPHONE": "NOT AVAILABLE", "TYPE": "CRITICAL ACCESS", "STATUS": "OPEN", "POPULATION": 25, "COUNTY": "ARENAC", "COUNTYFIPS": "26011", "COUNTRY": "USA", "LATITUDE": 43.981865680000098, "LONGITUDE": -83.969216704000004, "NAICS_CODE": "622110", "NAICS_DESC": "GENERAL MEDICAL AND SURGICAL HOSPITALS", "SOURCE": "https://w2.lara.state.mi.us/VAL/License/Search", "SOURCEDATE": "2018-08-09T00:00:00.000Z", "VAL_METHOD": "IMAGERY", "VAL_DATE": "2014-02-10T00:00:00.000Z", "WEBSITE": "http://www.stmarysofmichigan.org/standish", "STATE_ID": "NOT AVAILABLE", "ALT_NAME": "NOT AVAILABLE", "ST_FIPS": "26", "OWNER": "NON-PROFIT", "TTL_STAFF": -999, "BEDS": 25, "TRAUMA": "NOT AVAILABLE", "HELIPAD": "Y" }, "geometry": { "type": "Polygon", "coordinates": [ [ [ -83.966255, 43.867763 ], [ -84.094486, 43.984063 ], [ -84.1060469, 44.033232599999984 ], [ -84.062004, 44.055952200000029 ], [ -83.961297, 44.054858 ], [ -83.8559726, 44.051526299999949 ], [ -83.8468673, 44.0476486 ], [ -83.8713658, 43.982145800000012 ], [ -83.904506, 43.925054 ], [ -83.966255, 43.867763 ] ] ] } },
{ "type": "Feature", "properties": { "OBJECTID": 2093, "ID": "0007549781", "NAME": "MACKINAC STRAITS HOSPITAL AND HEALTH CENTER", "ADDRESS": "1140 N STATE STREET", "CITY": "SAINT IGNACE", "STATE": "MI", "ZIP": "49781", "ZIP4": "NOT AVAILABLE", "TELEPHONE": "NOT AVAILABLE", "TYPE": "CRITICAL ACCESS", "STATUS": "OPEN", "POPULATION": 15, "COUNTY": "MACKINAC", "COUNTYFIPS": "26097", "COUNTRY": "USA", "LATITUDE": 45.890631464000101, "LONGITUDE": -84.729450921999998, "NAICS_CODE": "622110", "NAICS_DESC": "GENERAL MEDICAL AND SURGICAL HOSPITALS", "SOURCE": "https://w2.lara.state.mi.us/VAL/License/Search", "SOURCEDATE": "2018-08-09T00:00:00.000Z", "VAL_METHOD": "IMAGERY", "VAL_DATE": "2014-02-10T00:00:00.000Z", "WEBSITE": "http://www.mshosp.org", "STATE_ID": "NOT AVAILABLE", "ALT_NAME": "NOT AVAILABLE", "ST_FIPS": "26", "OWNER": "NON-PROFIT", "TTL_STAFF": -999, "BEDS": 15, "TRAUMA": "NOT AVAILABLE", "HELIPAD": "N" }, "geometry": { "type": "Polygon", "coordinates": [ [ [ -84.7677023, 45.847729500000028 ], [ -84.8260267, 45.873091800000019 ], [ -84.8370749, 45.89227 ], [ -84.836843, 45.898305 ], [ -84.8319771, 45.995285200000019 ], [ -84.728013, 45.998723500000033 ], [ -84.7166031, 45.998736 ], [ -84.702590300000011, 45.851591599999971 ], [ -84.7053197, 45.8494517 ], [ -84.739376599999986, 45.8478698 ], [ -84.7677023, 45.847729500000028 ] ] ] } },
{ "type": "Feature", "properties": { "OBJECTID": 2095, "ID": "0005348764", "NAME": "TAWAS ST JOSEPH HOSPITAL", "ADDRESS": "200 HEMLOCK", "CITY": "TAWAS CITY", "STATE": "MI", "ZIP": "48764", "ZIP4": "NOT AVAILABLE", "TELEPHONE": "NOT AVAILABLE", "TYPE": "GENERAL ACUTE CARE", "STATUS": "OPEN", "POPULATION": 49, "COUNTY": "IOSCO", "COUNTYFIPS": "26069", "COUNTRY": "USA", "LATITUDE": 44.2752181110001, "LONGITUDE": -83.509720489000003, "NAICS_CODE": "622110", "NAICS_DESC": "GENERAL MEDICAL AND SURGICAL HOSPITALS", "SOURCE": "https://w2.lara.state.mi.us/VAL/License/Search", "SOURCEDATE": "2018-08-09T00:00:00.000Z", "VAL_METHOD": "IMAGERY", "VAL_DATE": "2014-02-10T00:00:00.000Z", "WEBSITE": "http://www.sjhsys.org/", "STATE_ID": "NOT AVAILABLE", "ALT_NAME": "NOT AVAILABLE", "ST_FIPS": "26", "OWNER": "NON-PROFIT", "TTL_STAFF": -999, "BEDS": 49, "TRAUMA": "NOT AVAILABLE", "HELIPAD": "Y" }, "geometry": { "type": "Polygon", "coordinates": [ [ [ -83.563904, 44.17503349999992 ], [ -83.664061, 44.278752600000026 ], [ -83.603341400000019, 44.3376169 ], [ -83.5131783, 44.3602341 ], [ -83.379906599999984, 44.326001899999973 ], [ -83.3815695, 44.3229945 ], [ -83.3827613, 44.321180399999989 ], [ -83.4338668, 44.264603200000053 ], [ -83.4399247, 44.2581792 ], [ -83.5622046, 44.175013399999976 ], [ -83.563904, 44.17503349999992 ] ] ] } },
{ "type": "Feature", "properties": { "OBJECTID": 2098, "ID": "0011749417", "NAME": "NORTH OTTAWA COMMUNITY HOSPITAL", "ADDRESS": "1309 SHELDON RD", "CITY": "GRAND HAVEN", "STATE": "MI", "ZIP": "49417", "ZIP4": "NOT AVAILABLE", "TELEPHONE": "NOT AVAILABLE", "TYPE": "GENERAL ACUTE CARE", "STATUS": "OPEN", "POPULATION": 81, "COUNTY": "OTTAWA", "COUNTYFIPS": "26139", "COUNTRY": "USA", "LATITUDE": 43.0507726210001, "LONGITUDE": -86.228829176000005, "NAICS_CODE": "622110", "NAICS_DESC": "GENERAL MEDICAL AND SURGICAL HOSPITALS", "SOURCE": "https://w2.lara.state.mi.us/VAL/License/Search", "SOURCEDATE": "2018-08-09T00:00:00.000Z", "VAL_METHOD": "IMAGERY", "VAL_DATE": "2014-02-10T00:00:00.000Z", "WEBSITE": "http://www.noch.org", "STATE_ID": "NOT AVAILABLE", "ALT_NAME": "NOT AVAILABLE", "ST_FIPS": "26", "OWNER": "NON-PROFIT", "TTL_STAFF": -999, "BEDS": 81, "TRAUMA": "NOT AVAILABLE", "HELIPAD": "Y" }, "geometry": { "type": "Polygon", "coordinates": [ [ [ -86.1580749, 42.9372933 ], [ -86.209987, 42.947141 ], [ -86.2155764, 42.9486875 ], [ -86.2179196, 42.949658900000045 ], [ -86.249456, 43.067476 ], [ -86.251977, 43.078424 ], [ -86.255195, 43.104679499999968 ], [ -86.2544343, 43.108230299999967 ], [ -86.251255, 43.118365 ], [ -86.2375866, 43.132670099999984 ], [ -86.2206455, 43.1470306 ], [ -86.2059898, 43.1396106 ], [ -86.19584, 43.132293 ], [ -86.137566, 43.088462 ], [ -86.1204229, 43.0754899 ], [ -86.1188621, 43.0726228 ], [ -86.115978, 43.030193 ], [ -86.122636, 42.972615 ], [ -86.1580749, 42.9372933 ] ] ] } },
{ "type": "Feature", "properties": { "OBJECTID": 2105, "ID": "0000549017", "NAME": "BRONSON BATTLE CREEK HOSPITAL", "ADDRESS": "300 NORTH AVENUE", "CITY": "BATTLE CREEK", "STATE": "MI", "ZIP": "49017", "ZIP4": "NOT AVAILABLE", "TELEPHONE": "NOT AVAILABLE", "TYPE": "GENERAL ACUTE CARE", "STATUS": "OPEN", "POPULATION": 189, "COUNTY": "CALHOUN", "COUNTYFIPS": "26025", "COUNTRY": "USA", "LATITUDE": 42.3310857540001, "LONGITUDE": -85.177947492000001, "NAICS_CODE": "622110", "NAICS_DESC": "GENERAL MEDICAL AND SURGICAL HOSPITALS", "SOURCE": "https://w2.lara.state.mi.us/VAL/License/Search", "SOURCEDATE": "2018-08-09T00:00:00.000Z", "VAL_METHOD": "IMAGERY/OTHER", "VAL_DATE": "2014-02-10T00:00:00.000Z", "WEBSITE": "http://www.bchealth.com", "STATE_ID": "NOT AVAILABLE", "ALT_NAME": "NOT AVAILABLE", "ST_FIPS": "26", "OWNER": "NON-PROFIT", "TTL_STAFF": -999, "BEDS": 189, "TRAUMA": "NOT AVAILABLE", "HELIPAD": "N" }, "geometry": { "type": "Polygon", "coordinates": [ [ [ -85.203102, 42.211506 ], [ -85.29083, 42.271774700000037 ], [ -85.304483, 42.334167 ], [ -85.298302, 42.366843 ], [ -85.235778, 42.398775 ], [ -85.180138, 42.42068 ], [ -85.123801, 42.412122 ], [ -85.077483, 42.372382 ], [ -85.062911, 42.348113 ], [ -85.058189, 42.311155 ], [ -85.0638293, 42.2886921 ], [ -85.095606, 42.261222 ], [ -85.139226, 42.239489 ], [ -85.203102, 42.211506 ] ] ] } },
{ "type": "Feature", "properties": { "OBJECTID": 2115, "ID": "0006249519", "NAME": "METRO HEALTH HOSPITAL", "ADDRESS": "5900 BYRON CENTER AVENUE, SW", "CITY": "WYOMING", "STATE": "MI", "ZIP": "49519", "ZIP4": "NOT AVAILABLE", "TELEPHONE": "NOT AVAILABLE", "TYPE": "GENERAL ACUTE CARE", "STATUS": "OPEN", "POPULATION": 208, "COUNTY": "KENT", "COUNTYFIPS": "26081", "COUNTRY": "USA", "LATITUDE": 42.857817585000099, "LONGITUDE": -85.71770279, "NAICS_CODE": "622110", "NAICS_DESC": "GENERAL MEDICAL AND SURGICAL HOSPITALS", "SOURCE": "https://w2.lara.state.mi.us/VAL/License/Search", "SOURCEDATE": "2018-08-09T00:00:00.000Z", "VAL_METHOD": "IMAGERY", "VAL_DATE": "2014-02-10T00:00:00.000Z", "WEBSITE": "http://www.metrohealth.net", "STATE_ID": "NOT AVAILABLE", "ALT_NAME": "NOT AVAILABLE", "ST_FIPS": "26", "OWNER": "NON-PROFIT", "TTL_STAFF": -999, "BEDS": 208, "TRAUMA": "NOT AVAILABLE", "HELIPAD": "N" }, "geometry": { "type": "Polygon", "coordinates": [ [ [ -85.722458, 42.754091 ], [ -85.8025766, 42.8115235 ], [ -85.8535288, 42.850842799999988 ], [ -85.8343447, 42.88582790000001 ], [ -85.77444, 42.935587 ], [ -85.6784314, 42.9679806 ], [ -85.6689437, 42.965463 ], [ -85.6654196, 42.9631931 ], [ -85.531298, 42.852349 ], [ -85.534652200000011, 42.8451331 ], [ -85.6320471, 42.782755799999975 ], [ -85.663296, 42.768099 ], [ -85.722458, 42.754091 ] ] ] } },
{ "type": "Feature", "properties": { "OBJECTID": 2116, "ID": "0004549770", "NAME": "MCLAREN - NORTHERN MICHIGAN", "ADDRESS": "416 CONNABLE AVE", "CITY": "PETOSKEY", "STATE": "MI", "ZIP": "49770", "ZIP4": "NOT AVAILABLE", "TELEPHONE": "NOT AVAILABLE", "TYPE": "GENERAL ACUTE CARE", "STATUS": "OPEN", "POPULATION": 178, "COUNTY": "EMMET", "COUNTYFIPS": "26047", "COUNTRY": "USA", "LATITUDE": 45.372753543000002, "LONGITUDE": -84.970119933000007, "NAICS_CODE": "622110", "NAICS_DESC": "GENERAL MEDICAL AND SURGICAL HOSPITALS", "SOURCE": "https://w2.lara.state.mi.us/VAL/License/Search", "SOURCEDATE": "2018-08-09T00:00:00.000Z", "VAL_METHOD": "IMAGERY", "VAL_DATE": "2014-02-10T00:00:00.000Z", "WEBSITE": "http://www.northernhealth.org", "STATE_ID": "NOT AVAILABLE", "ALT_NAME": "NOT AVAILABLE", "ST_FIPS": "26", "OWNER": "NON-PROFIT", "TTL_STAFF": -999, "BEDS": 178, "TRAUMA": "NOT AVAILABLE", "HELIPAD": "N" }, "geometry": { "type": "Polygon", "coordinates": [ [ [ -84.935781600000013, 45.272745600000036 ], [ -84.995586, 45.286639 ], [ -85.0098501, 45.29291020000003 ], [ -85.0585266, 45.3203066 ], [ -85.1066086, 45.350289100000012 ], [ -85.116834, 45.35943 ], [ -85.116557, 45.361914 ], [ -85.116197, 45.36217 ], [ -84.914813, 45.443027 ], [ -84.8632713, 45.435276799999968 ], [ -84.8421045, 45.424053700000044 ], [ -84.8325405, 45.3915934 ], [ -84.893947, 45.30475 ], [ -84.92755, 45.273751 ], [ -84.935781600000013, 45.272745600000036 ] ] ] } },
{ "type": "Feature", "properties": { "OBJECTID": 2121, "ID": "0000249080", "NAME": "BORGESS PIPP HOSPITAL", "ADDRESS": "411 NAOMI STREET", "CITY": "PLAINWELL", "STATE": "MI", "ZIP": "49080", "ZIP4": "NOT AVAILABLE", "TELEPHONE": "NOT AVAILABLE", "TYPE": "LONG TERM CARE", "STATUS": "OPEN", "POPULATION": 43, "COUNTY": "ALLEGAN", "COUNTYFIPS": "26005", "COUNTRY": "USA", "LATITUDE": 42.446995342000001, "LONGITUDE": -85.653896602000003, "NAICS_CODE": "622310", "NAICS_DESC": "SPECIALTY (EXCEPT PSYCHIATRIC AND SUBSTANCE ABUSE) HOSPITALS", "SOURCE": "https://w2.lara.state.mi.us/VAL/License/Search", "SOURCEDATE": "2018-08-09T00:00:00.000Z", "VAL_METHOD": "IMAGERY", "VAL_DATE": "2014-02-10T00:00:00.000Z", "WEBSITE": "http://www.borgess.com", "STATE_ID": "NOT AVAILABLE", "ALT_NAME": "NOT AVAILABLE", "ST_FIPS": "26", "OWNER": "NON-PROFIT", "TTL_STAFF": -999, "BEDS": 43, "TRAUMA": "NOT AVAILABLE", "HELIPAD": "Y" }, "geometry": { "type": "Polygon", "coordinates": [ [ [ -85.740525, 42.421018 ], [ -85.7538643, 42.424425300000046 ], [ -85.756539, 42.43153 ], [ -85.779189, 42.49711 ], [ -85.663129, 42.595994 ], [ -85.660662, 42.594302 ], [ -85.555041, 42.500087 ], [ -85.51495, 42.412666 ], [ -85.740525, 42.421018 ] ] ] } },
{ "type": "Feature", "properties": { "OBJECTID": 2123, "ID": "0006749503", "NAME": "SPECTRUM HEALTH - FULLER CAMPUS", "ADDRESS": "750 FULLER AVE NE", "CITY": "GRAND RAPIDS", "STATE": "MI", "ZIP": "49503", "ZIP4": "NOT AVAILABLE", "TELEPHONE": "NOT AVAILABLE", "TYPE": "LONG TERM CARE", "STATUS": "OPEN", "POPULATION": 51, "COUNTY": "KENT", "COUNTYFIPS": "26081", "COUNTRY": "USA", "LATITUDE": 42.976324204000001, "LONGITUDE": -85.637957228999895, "NAICS_CODE": "622310", "NAICS_DESC": "SPECIALTY (EXCEPT PSYCHIATRIC AND SUBSTANCE ABUSE) HOSPITALS", "SOURCE": "https://w2.lara.state.mi.us/VAL/License/Search", "SOURCEDATE": "2018-08-09T00:00:00.000Z", "VAL_METHOD": "IMAGERY", "VAL_DATE": "2014-02-10T00:00:00.000Z", "WEBSITE": "http://www.spectrum-health.org", "STATE_ID": "NOT AVAILABLE", "ALT_NAME": "NOT AVAILABLE", "ST_FIPS": "26", "OWNER": "NON-PROFIT", "TTL_STAFF": -999, "BEDS": 51, "TRAUMA": "NOT AVAILABLE", "HELIPAD": "N" }, "geometry": { "type": "Polygon", "coordinates": [ [ [ -85.6786687, 42.8480426 ], [ -85.7811332, 42.899942799999977 ], [ -85.784756, 42.972367 ], [ -85.7780653, 43.016004800000019 ], [ -85.763406, 43.034302 ], [ -85.6899752, 43.078483 ], [ -85.627949, 43.0937143 ], [ -85.579095, 43.07143 ], [ -85.520876, 43.007203 ], [ -85.474416, 42.9552919 ], [ -85.482239, 42.887791399999983 ], [ -85.491820500000017, 42.883276 ], [ -85.6786687, 42.8480426 ] ] ] } },
{ "type": "Feature", "properties": { "OBJECTID": 2884, "ID": "0004448813", "NAME": "HAYES GREEN BEACH MEMORIAL HOSPITAL", "ADDRESS": "321 E HARRIS STREET", "CITY": "CHARLOTTE", "STATE": "MI", "ZIP": "48813", "ZIP4": "NOT AVAILABLE", "TELEPHONE": "NOT AVAILABLE", "TYPE": "CRITICAL ACCESS", "STATUS": "OPEN", "POPULATION": 25, "COUNTY": "EATON", "COUNTYFIPS": "26045", "COUNTRY": "USA", "LATITUDE": 42.565325497000103, "LONGITUDE": -84.831951958000005, "NAICS_CODE": "622110", "NAICS_DESC": "GENERAL MEDICAL AND SURGICAL HOSPITALS", "SOURCE": "https://w2.lara.state.mi.us/VAL/License/Search", "SOURCEDATE": "2018-08-09T00:00:00.000Z", "VAL_METHOD": "IMAGERY", "VAL_DATE": "2014-02-10T00:00:00.000Z", "WEBSITE": "http://www.hgbhealth.com", "STATE_ID": "NOT AVAILABLE", "ALT_NAME": "NOT AVAILABLE", "ST_FIPS": "26", "OWNER": "NON-PROFIT", "TTL_STAFF": -999, "BEDS": 25, "TRAUMA": "NOT AVAILABLE", "HELIPAD": "N" }, "geometry": { "type": "Polygon", "coordinates": [ [ [ -84.9281985, 42.461272299999962 ], [ -84.974884, 42.567458 ], [ -84.895549, 42.647993 ], [ -84.73939, 42.669065 ], [ -84.672235, 42.663973 ], [ -84.672086, 42.663833 ], [ -84.700032, 42.567363 ], [ -84.718963, 42.53241 ], [ -84.836067, 42.465296 ], [ -84.9201602, 42.460877800000027 ], [ -84.9281985, 42.461272299999962 ] ] ] } },
{ "type": "Feature", "properties": { "OBJECTID": 2887, "ID": "0005949646", "NAME": "KALKASKA MEMORIAL HEALTH CENTER", "ADDRESS": "419 S CORAL", "CITY": "KALKASKA", "STATE": "MI", "ZIP": "49646", "ZIP4": "NOT AVAILABLE", "TELEPHONE": "NOT AVAILABLE", "TYPE": "CRITICAL ACCESS", "STATUS": "OPEN", "POPULATION": 8, "COUNTY": "KALKASKA", "COUNTYFIPS": "26079", "COUNTRY": "USA", "LATITUDE": 44.731290862000002, "LONGITUDE": -85.18429685, "NAICS_CODE": "622110", "NAICS_DESC": "GENERAL MEDICAL AND SURGICAL HOSPITALS", "SOURCE": "https://w2.lara.state.mi.us/VAL/License/Search", "SOURCEDATE": "2018-08-09T00:00:00.000Z", "VAL_METHOD": "IMAGERY", "VAL_DATE": "2014-01-27T00:00:00.000Z", "WEBSITE": "http://www.munsonhealthcare.org", "STATE_ID": "NOT AVAILABLE", "ALT_NAME": "NOT AVAILABLE", "ST_FIPS": "26", "OWNER": "GOVERNMENT - DISTRICT/AUTHORITY", "TTL_STAFF": -999, "BEDS": 8, "TRAUMA": "NOT AVAILABLE", "HELIPAD": "N" }, "geometry": { "type": "Polygon", "coordinates": [ [ [ -85.1752613, 44.632104 ], [ -85.2320119, 44.640797900000038 ], [ -85.2607073, 44.670280800000022 ], [ -85.2984156, 44.7286084 ], [ -85.323388, 44.77977 ], [ -85.27459, 44.802239 ], [ -85.132179, 44.830574 ], [ -85.062572, 44.742674 ], [ -85.052957, 44.713488 ], [ -85.1752613, 44.632104 ] ] ] } },
{ "type": "Feature", "properties": { "OBJECTID": 2889, "ID": "0018048846", "NAME": "SPARROW IONIA HOSPITAL", "ADDRESS": "3565 S STATE ROAD", "CITY": "IONIA", "STATE": "MI", "ZIP": "48846", "ZIP4": "NOT AVAILABLE", "TELEPHONE": "NOT AVAILABLE", "TYPE": "CRITICAL ACCESS", "STATUS": "OPEN", "POPULATION": 22, "COUNTY": "IONIA", "COUNTYFIPS": "26067", "COUNTRY": "USA", "LATITUDE": 42.9359308740001, "LONGITUDE": -85.067967419999903, "NAICS_CODE": "622110", "NAICS_DESC": "GENERAL MEDICAL AND SURGICAL HOSPITALS", "SOURCE": "https://w2.lara.state.mi.us/VAL/License/Search", "SOURCEDATE": "2018-08-09T00:00:00.000Z", "VAL_METHOD": "IMAGERY", "VAL_DATE": "2016-08-08T00:00:00.000Z", "WEBSITE": "http://www.sparrow.org/sparrowionia", "STATE_ID": "NOT AVAILABLE", "ALT_NAME": "NOT AVAILABLE", "ST_FIPS": "26", "OWNER": "NON-PROFIT", "TTL_STAFF": -999, "BEDS": 22, "TRAUMA": "NOT AVAILABLE", "HELIPAD": "Y" }, "geometry": { "type": "Polygon", "coordinates": [ [ [ -85.074862, 42.843149 ], [ -85.134182, 42.871628 ], [ -85.1881317, 42.9296354 ], [ -85.075119, 43.016526 ], [ -85.023289, 42.992658 ], [ -84.943867, 42.929186 ], [ -85.074862, 42.843149 ] ] ] } },
{ "type": "Feature", "properties": { "OBJECTID": 2891, "ID": "0008148838", "NAME": "SPECTRUM HEALTH UNITED MEMORIAL - UNITED CAMPUS", "ADDRESS": "615 S BOWER STREET", "CITY": "GREENVILLE", "STATE": "MI", "ZIP": "48838", "ZIP4": "NOT AVAILABLE", "TELEPHONE": "NOT AVAILABLE", "TYPE": "GENERAL ACUTE CARE", "STATUS": "OPEN", "POPULATION": 49, "COUNTY": "MONTCALM", "COUNTYFIPS": "26117", "COUNTRY": "USA", "LATITUDE": 43.174691851, "LONGITUDE": -85.269349473999995, "NAICS_CODE": "622110", "NAICS_DESC": "GENERAL MEDICAL AND SURGICAL HOSPITALS", "SOURCE": "https://w2.lara.state.mi.us/VAL/License/Search", "SOURCEDATE": "2018-08-09T00:00:00.000Z", "VAL_METHOD": "IMAGERY", "VAL_DATE": "2014-02-10T00:00:00.000Z", "WEBSITE": "http://www.spectrum-health.org/", "STATE_ID": "NOT AVAILABLE", "ALT_NAME": "NOT AVAILABLE", "ST_FIPS": "26", "OWNER": "NON-PROFIT", "TTL_STAFF": -999, "BEDS": 49, "TRAUMA": "NOT AVAILABLE", "HELIPAD": "Y" }, "geometry": { "type": "Polygon", "coordinates": [ [ [ -85.2628897, 43.07745160000006 ], [ -85.2664241, 43.078674700000015 ], [ -85.282727, 43.087963 ], [ -85.302706, 43.109838 ], [ -85.3213542, 43.14416 ], [ -85.329241, 43.221519 ], [ -85.29801, 43.244313 ], [ -85.2522205, 43.250242799999953 ], [ -85.143016, 43.170536 ], [ -85.2390708, 43.08884 ], [ -85.2628897, 43.07745160000006 ] ] ] } },
{ "type": "Feature", "properties": { "OBJECTID": 2895, "ID": "0001148827", "NAME": "EATON RAPIDS MEDICAL CENTER", "ADDRESS": "1500 S MAIN STREET", "CITY": "EATON RAPIDS", "STATE": "MI", "ZIP": "48827", "ZIP4": "NOT AVAILABLE", "TELEPHONE": "NOT AVAILABLE", "TYPE": "GENERAL ACUTE CARE", "STATUS": "OPEN", "POPULATION": 20, "COUNTY": "EATON", "COUNTYFIPS": "26045", "COUNTRY": "USA", "LATITUDE": 42.495252289000099, "LONGITUDE": -84.658651275999901, "NAICS_CODE": "622110", "NAICS_DESC": "GENERAL MEDICAL AND SURGICAL HOSPITALS", "SOURCE": "https://w2.lara.state.mi.us/VAL/License/Search", "SOURCEDATE": "2018-08-09T00:00:00.000Z", "VAL_METHOD": "IMAGERY", "VAL_DATE": "2014-03-12T00:00:00.000Z", "WEBSITE": "http://www.eatonrapidsmedicalcenter.org", "STATE_ID": "NOT AVAILABLE", "ALT_NAME": "NOT AVAILABLE", "ST_FIPS": "26", "OWNER": "NON-PROFIT", "TTL_STAFF": -999, "BEDS": 20, "TRAUMA": "NOT AVAILABLE", "HELIPAD": "Y" }, "geometry": { "type": "Polygon", "coordinates": [ [ [ -84.679327, 42.4002277 ], [ -84.777396, 42.494229 ], [ -84.758439, 42.553063 ], [ -84.62268, 42.614107 ], [ -84.622334, 42.614115 ], [ -84.582202, 42.58212 ], [ -84.550898, 42.465567 ], [ -84.5605327, 42.451183200000038 ], [ -84.5670075, 42.4460004 ], [ -84.610243, 42.415012 ], [ -84.669352, 42.400234 ], [ -84.679327, 42.4002277 ] ] ] } },
{ "type": "Feature", "properties": { "OBJECTID": 2897, "ID": "0009049444", "NAME": "MERCY HEALTH MUSKEGON SHERMAN BLVD", "ADDRESS": "1500 E SHERMAN BOULEVARD", "CITY": "MUSKEGON", "STATE": "MI", "ZIP": "49444", "ZIP4": "NOT AVAILABLE", "TELEPHONE": "NOT AVAILABLE", "TYPE": "GENERAL ACUTE CARE", "STATUS": "OPEN", "POPULATION": 196, "COUNTY": "MUSKEGON", "COUNTYFIPS": "26121", "COUNTRY": "USA", "LATITUDE": 43.205793735, "LONGITUDE": -86.208605042000002, "NAICS_CODE": "622110", "NAICS_DESC": "GENERAL MEDICAL AND SURGICAL HOSPITALS", "SOURCE": "https://w2.lara.state.mi.us/VAL/License/Search", "SOURCEDATE": "2018-08-09T00:00:00.000Z", "VAL_METHOD": "IMAGERY", "VAL_DATE": "2014-02-10T00:00:00.000Z", "WEBSITE": "http://www.mercyhealthmuskegon.com/welcome-mhmuskegon", "STATE_ID": "NOT AVAILABLE", "ALT_NAME": "MERCY HEALTH PARTNERS, MERCY CAMPUS", "ST_FIPS": "26", "OWNER": "NON-PROFIT", "TTL_STAFF": -999, "BEDS": 196, "TRAUMA": "NOT AVAILABLE", "HELIPAD": "Y" }, "geometry": { "type": "Polygon", "coordinates": [ [ [ -86.220772, 43.084389 ], [ -86.237801, 43.097911399999987 ], [ -86.2467202, 43.106517600000025 ], [ -86.2881554, 43.155787400000037 ], [ -86.3045152, 43.1800102 ], [ -86.3068194, 43.183477099999976 ], [ -86.3175682, 43.1999497 ], [ -86.3222112, 43.212111400000069 ], [ -86.2864832, 43.271067100000018 ], [ -86.281894, 43.278207 ], [ -86.2364044, 43.339177099999979 ], [ -86.1676079, 43.323775599999983 ], [ -86.0838233, 43.235021200000013 ], [ -86.089781499999987, 43.1908929 ], [ -86.116574, 43.132436 ], [ -86.1461666, 43.107879 ], [ -86.220772, 43.084389 ] ] ] } },
{ "type": "Feature", "properties": { "OBJECTID": 2904, "ID": "0016949601", "NAME": "MUNSON HEALTHCARE CADILLAC", "ADDRESS": "400 HOBART ST", "CITY": "CADILLAC", "STATE": "MI", "ZIP": "49601", "ZIP4": "NOT AVAILABLE", "TELEPHONE": "NOT AVAILABLE", "TYPE": "GENERAL ACUTE CARE", "STATUS": "OPEN", "POPULATION": 49, "COUNTY": "WEXFORD", "COUNTYFIPS": "26165", "COUNTRY": "USA", "LATITUDE": 44.245448363000001, "LONGITUDE": -85.389295218000001, "NAICS_CODE": "622110", "NAICS_DESC": "GENERAL MEDICAL AND SURGICAL HOSPITALS", "SOURCE": "https://w2.lara.state.mi.us/VAL/License/Search", "SOURCEDATE": "2018-08-09T00:00:00.000Z", "VAL_METHOD": "IMAGERY", "VAL_DATE": "2014-02-10T00:00:00.000Z", "WEBSITE": "http://www.munsonhealthcare.org/cadillachospital", "STATE_ID": "NOT AVAILABLE", "ALT_NAME": "MERCY HOSPITAL - CADILLAC", "ST_FIPS": "26", "OWNER": "NON-PROFIT", "TTL_STAFF": -999, "BEDS": 49, "TRAUMA": "NOT AVAILABLE", "HELIPAD": "Y" }, "geometry": { "type": "Polygon", "coordinates": [ [ [ -85.4055905, 44.154665700000045 ], [ -85.5172712, 44.217363 ], [ -85.4883771, 44.281032700000011 ], [ -85.4380443, 44.310467799999969 ], [ -85.4059499, 44.3134581 ], [ -85.295716, 44.285494 ], [ -85.255312, 44.271681 ], [ -85.246058, 44.266115 ], [ -85.350303, 44.163789099999974 ], [ -85.4055905, 44.154665700000045 ] ] ] } },
{ "type": "Feature", "properties": { "OBJECTID": 2905, "ID": "0006149506", "NAME": "SPECTRUM HEALTH - BLODGETT CAMPUS", "ADDRESS": "1840 WEALTHY ST SE", "CITY": "GRAND RAPIDS", "STATE": "MI", "ZIP": "49506", "ZIP4": "NOT AVAILABLE", "TELEPHONE": "NOT AVAILABLE", "TYPE": "GENERAL ACUTE CARE", "STATUS": "OPEN", "POPULATION": 319, "COUNTY": "KENT", "COUNTYFIPS": "26081", "COUNTRY": "USA", "LATITUDE": 42.953650632000098, "LONGITUDE": -85.623317333000003, "NAICS_CODE": "622110", "NAICS_DESC": "GENERAL MEDICAL AND SURGICAL HOSPITALS", "SOURCE": "https://w2.lara.state.mi.us/VAL/License/Search", "SOURCEDATE": "2018-08-09T00:00:00.000Z", "VAL_METHOD": "IMAGERY", "VAL_DATE": "2014-03-12T00:00:00.000Z", "WEBSITE": "http://www.spectrumhealth.org/body_locations.cfm?id=638&action=detail&ref=1808", "STATE_ID": "NOT AVAILABLE", "ALT_NAME": "SPECTRUM HEALTH - KENT COMMUNITY CAMPUS", "ST_FIPS": "26", "OWNER": "NON-PROFIT", "TTL_STAFF": -999, "BEDS": 319, "TRAUMA": "NOT AVAILABLE", "HELIPAD": "Y" }, "geometry": { "type": "Polygon", "coordinates": [ [ [ -85.6792484, 42.859499800000016 ], [ -85.6838355, 42.8640465 ], [ -85.7389512, 42.921216 ], [ -85.749623400000019, 42.9719877 ], [ -85.7494845, 42.973031399999989 ], [ -85.726239, 43.022584 ], [ -85.6896302, 43.039017700000016 ], [ -85.6626476, 43.049080600000032 ], [ -85.5798653, 43.056845600000017 ], [ -85.474416, 42.9552919 ], [ -85.5001476, 42.8893675 ], [ -85.6248997, 42.8556866 ], [ -85.6792484, 42.859499800000016 ] ] ] } },
{ "type": "Feature", "properties": { "OBJECTID": 2907, "ID": "0000949720", "NAME": "MUNSON HEALTHCARE CHARLEVOIX HOSPITAL", "ADDRESS": "14700 LAKESHORE DRIVE", "CITY": "CHARLEVOIX", "STATE": "MI", "ZIP": "49720", "ZIP4": "NOT AVAILABLE", "TELEPHONE": "NOT AVAILABLE", "TYPE": "GENERAL ACUTE CARE", "STATUS": "OPEN", "POPULATION": 25, "COUNTY": "CHARLEVOIX", "COUNTYFIPS": "26029", "COUNTRY": "USA", "LATITUDE": 45.314820091999998, "LONGITUDE": -85.274862556999906, "NAICS_CODE": "622110", "NAICS_DESC": "GENERAL MEDICAL AND SURGICAL HOSPITALS", "SOURCE": "https://w2.lara.state.mi.us/VAL/License/Search", "SOURCEDATE": "2018-08-09T00:00:00.000Z", "VAL_METHOD": "IMAGERY", "VAL_DATE": "2014-03-12T00:00:00.000Z", "WEBSITE": "http://www.munsonhealthcare.org/charlevoixhospital", "STATE_ID": "NOT AVAILABLE", "ALT_NAME": "CHARLEVOIX AREA HOSPITAL", "ST_FIPS": "26", "OWNER": "NON-PROFIT", "TTL_STAFF": -999, "BEDS": 25, "TRAUMA": "NOT AVAILABLE", "HELIPAD": "Y" }, "geometry": { "type": "Polygon", "coordinates": [ [ [ -85.322993, 45.232195 ], [ -85.3534866, 45.268667 ], [ -85.3460705, 45.2787202 ], [ -85.303549, 45.316917 ], [ -85.2456091, 45.339932499999982 ], [ -85.1692882, 45.364319100000031 ], [ -85.160164, 45.350431299999975 ], [ -85.158728, 45.314086 ], [ -85.18071, 45.246496 ], [ -85.2258976, 45.2373865 ], [ -85.322993, 45.232195 ] ] ] } },
{ "type": "Feature", "properties": { "OBJECTID": 2909, "ID": "0000349707", "NAME": "MIDMICHIGAN MEDICAL CENTER - ALPENA", "ADDRESS": "1501 W CHISHOLM ST", "CITY": "ALPENA", "STATE": "MI", "ZIP": "49707", "ZIP4": "NOT AVAILABLE", "TELEPHONE": "NOT AVAILABLE", "TYPE": "GENERAL ACUTE CARE", "STATUS": "OPEN", "POPULATION": 124, "COUNTY": "ALPENA", "COUNTYFIPS": "26007", "COUNTRY": "USA", "LATITUDE": 45.0776729520001, "LONGITUDE": -83.449374293999895, "NAICS_CODE": "622110", "NAICS_DESC": "GENERAL MEDICAL AND SURGICAL HOSPITALS", "SOURCE": "https://w2.lara.state.mi.us/VAL/License/Search", "SOURCEDATE": "2018-08-09T00:00:00.000Z", "VAL_METHOD": "IMAGERY", "VAL_DATE": "2014-01-24T00:00:00.000Z", "WEBSITE": "https://www.midmichigan.org/about/our-affiliates/Hospitals/midmichigan-medical-center-alpena/", "STATE_ID": "NOT AVAILABLE", "ALT_NAME": "ALPENA REGIONAL MEDICAL CENTER", "ST_FIPS": "26", "OWNER": "GOVERNMENT - LOCAL", "TTL_STAFF": -999, "BEDS": 124, "TRAUMA": "NOT AVAILABLE", "HELIPAD": "Y" }, "geometry": { "type": "Polygon", "coordinates": [ [ [ -83.4644837, 45.009478 ], [ -83.515328, 45.020883 ], [ -83.603694, 45.06081 ], [ -83.532827, 45.123185 ], [ -83.475019, 45.173084 ], [ -83.457413, 45.177091 ], [ -83.418613, 45.177899 ], [ -83.4038352, 45.162205699999973 ], [ -83.380103, 45.107714 ], [ -83.459132, 45.015063 ], [ -83.4644837, 45.009478 ] ] ] } },
{ "type": "Feature", "properties": { "OBJECTID": 2915, "ID": "0011949779", "NAME": "ROGERS CITY REHABILITATION HOSPITAL", "ADDRESS": "555 N BRADLEY HIGHWAY", "CITY": "ROGERS CITY", "STATE": "MI", "ZIP": "49779", "ZIP4": "NOT AVAILABLE", "TELEPHONE": "NOT AVAILABLE", "TYPE": "REHABILITATION", "STATUS": "CLOSED", "POPULATION": 28, "COUNTY": "PRESQUE ISLE", "COUNTYFIPS": "26141", "COUNTRY": "USA", "LATITUDE": 45.422114162000099, "LONGITUDE": -83.835275573999994, "NAICS_CODE": "622310", "NAICS_DESC": "REHABILITATION HOSPITALS (EXCEPT ALCOHOLISM, DRUG ADDICTION)", "SOURCE": "http://www.michigan.gov/lara/0,4601,7-154-35299_63294_63302---,00.html", "SOURCEDATE": "2013-05-01T00:00:00.000Z", "VAL_METHOD": "IMAGERY", "VAL_DATE": "2014-01-30T00:00:00.000Z", "WEBSITE": "http://www.rogerscityrehab.com", "STATE_ID": "NOT AVAILABLE", "ALT_NAME": "NOT AVAILABLE", "ST_FIPS": "26", "OWNER": "PROPRIETARY", "TTL_STAFF": -999, "BEDS": 28, "TRAUMA": "NOT AVAILABLE", "HELIPAD": "N" }, "geometry": { "type": "Polygon", "coordinates": [ [ [ -83.781552, 45.318984 ], [ -83.843001, 45.332006 ], [ -83.926182, 45.358918 ], [ -84.005108, 45.395136 ], [ -84.005109, 45.396522 ], [ -83.998088, 45.490686 ], [ -83.945769, 45.492306 ], [ -83.934312, 45.491463 ], [ -83.927943, 45.489946 ], [ -83.909798, 45.485071 ], [ -83.90756, 45.483871 ], [ -83.783463, 45.410379 ], [ -83.673769, 45.335008 ], [ -83.699693, 45.320098 ], [ -83.781552, 45.318984 ] ] ] } },
{ "type": "Feature", "properties": { "OBJECTID": 6411, "ID": "0007749660", "NAME": "MUNSON HEALTHCARE MANISTEE HOSPITAL", "ADDRESS": "1465 E PARKDALE AVENUE", "CITY": "MANISTEE", "STATE": "MI", "ZIP": "49660", "ZIP4": "NOT AVAILABLE", "TELEPHONE": "NOT AVAILABLE", "TYPE": "CRITICAL ACCESS", "STATUS": "OPEN", "POPULATION": 45, "COUNTY": "MANISTEE", "COUNTYFIPS": "26101", "COUNTRY": "USA", "LATITUDE": 44.271078659000104, "LONGITUDE": -86.27421836000001, "NAICS_CODE": "622110", "NAICS_DESC": "GENERAL MEDICAL AND SURGICAL HOSPITALS", "SOURCE": "https://w2.lara.state.mi.us/VAL/License/Search", "SOURCEDATE": "2018-08-09T00:00:00.000Z", "VAL_METHOD": "IMAGERY", "VAL_DATE": "2014-01-27T00:00:00.000Z", "WEBSITE": "http://www.munsonhealthcare.org/manistee", "STATE_ID": "NOT AVAILABLE", "ALT_NAME": "WEST SHORE MEDICAL CENTER", "ST_FIPS": "26", "OWNER": "NON-PROFIT", "TTL_STAFF": -999, "BEDS": 45, "TRAUMA": "NOT AVAILABLE", "HELIPAD": "Y" }, "geometry": { "type": "Polygon", "coordinates": [ [ [ -86.3053481, 44.190685100000053 ], [ -86.325303, 44.198465 ], [ -86.3449535, 44.21665639999997 ], [ -86.349942, 44.221313 ], [ -86.350865, 44.228494300000015 ], [ -86.3417083, 44.250778699999948 ], [ -86.305814, 44.299917 ], [ -86.2540072, 44.353624799999963 ], [ -86.195062, 44.3632676 ], [ -86.193943, 44.363250799999982 ], [ -86.162164, 44.359599 ], [ -86.140077, 44.329642 ], [ -86.132878, 44.229445 ], [ -86.183957, 44.21432 ], [ -86.3053481, 44.190685100000053 ] ] ] } },
{ "type": "Feature", "properties": { "OBJECTID": 6414, "ID": "0009149442", "NAME": "MERCY HEALTH MUSKEGON", "ADDRESS": "1700 CLINTON STREET", "CITY": "MUSKEGON", "STATE": "MI", "ZIP": "49442", "ZIP4": "NOT AVAILABLE", "TELEPHONE": "NOT AVAILABLE", "TYPE": "GENERAL ACUTE CARE", "STATUS": "OPEN", "POPULATION": 186, "COUNTY": "MUSKEGON", "COUNTYFIPS": "26121", "COUNTRY": "USA", "LATITUDE": 43.222564431000102, "LONGITUDE": -86.241732333999906, "NAICS_CODE": "622110", "NAICS_DESC": "GENERAL MEDICAL AND SURGICAL HOSPITALS", "SOURCE": "https://w2.lara.state.mi.us/VAL/License/Search", "SOURCEDATE": "2018-08-09T00:00:00.000Z", "VAL_METHOD": "IMAGERY", "VAL_DATE": "2014-03-12T00:00:00.000Z", "WEBSITE": "http://www.mercyhealthmuskegon.com/abouthackley-mhm", "STATE_ID": "NOT AVAILABLE", "ALT_NAME": "MERCY HEALTH PARTNERS, HACKLEY CAMPUS", "ST_FIPS": "26", "OWNER": "NON-PROFIT", "TTL_STAFF": -999, "BEDS": 186, "TRAUMA": "LEVEL II", "HELIPAD": "Y" }, "geometry": { "type": "Polygon", "coordinates": [ [ [ -86.2201323, 43.1224699 ], [ -86.267109, 43.142815 ], [ -86.2963656, 43.165091 ], [ -86.3310108, 43.2195258 ], [ -86.3311314, 43.2197807 ], [ -86.302071, 43.279148 ], [ -86.281504, 43.296478 ], [ -86.264032, 43.310749 ], [ -86.242051, 43.32752 ], [ -86.1773625, 43.31548649999997 ], [ -86.115246, 43.234817 ], [ -86.152298, 43.135123 ], [ -86.155182, 43.132048 ], [ -86.2201323, 43.1224699 ] ] ] } },
{ "type": "Feature", "properties": { "OBJECTID": 6420, "ID": "0000849017", "NAME": "SOUTHWEST REGIONAL REHABILITATION CENTER", "ADDRESS": "393 E ROOSEVELT AVENUE", "CITY": "BATTLE CREEK", "STATE": "MI", "ZIP": "49017", "ZIP4": "NOT AVAILABLE", "TELEPHONE": "NOT AVAILABLE", "TYPE": "REHABILITATION", "STATUS": "CLOSED", "POPULATION": 26, "COUNTY": "CALHOUN", "COUNTYFIPS": "26025", "COUNTRY": "USA", "LATITUDE": 42.339999564000003, "LONGITUDE": -85.175193953000004, "NAICS_CODE": "622310", "NAICS_DESC": "REHABILITATION HOSPITALS (EXCEPT ALCOHOLISM, DRUG ADDICTION)", "SOURCE": "https://w2.lara.state.mi.us/VAL/License/Search", "SOURCEDATE": "2016-08-06T00:00:00.000Z", "VAL_METHOD": "IMAGERY", "VAL_DATE": "2014-02-10T00:00:00.000Z", "WEBSITE": "http://www.sw-rehab.org", "STATE_ID": "NOT AVAILABLE", "ALT_NAME": "NOT AVAILABLE", "ST_FIPS": "26", "OWNER": "NON-PROFIT", "TTL_STAFF": -999, "BEDS": 26, "TRAUMA": "NOT AVAILABLE", "HELIPAD": "N" }, "geometry": { "type": "Polygon", "coordinates": [ [ [ -85.2013985, 42.220853800000015 ], [ -85.247861, 42.260995 ], [ -85.2975776, 42.3367698 ], [ -85.298302, 42.366843 ], [ -85.236363, 42.410923 ], [ -85.180078, 42.430242 ], [ -85.123801, 42.412122 ], [ -85.108997, 42.406466 ], [ -85.088018, 42.365126 ], [ -85.072488, 42.33355 ], [ -85.0722, 42.316798 ], [ -85.0769657, 42.299623100000019 ], [ -85.081463, 42.290664 ], [ -85.117788, 42.260482 ], [ -85.139399, 42.24666 ], [ -85.1993149, 42.2207 ], [ -85.2013985, 42.220853800000015 ] ] ] } },
{ "type": "Feature", "properties": { "OBJECTID": 4232, "ID": "0008949503", "NAME": "SELECT SPECIALTY HOSPITAL - GRAND RAPIDS", "ADDRESS": "200 SE JEFFERSON, 5TH FLOOR", "CITY": "GRAND RAPIDS", "STATE": "MI", "ZIP": "49503", "ZIP4": "NOT AVAILABLE", "TELEPHONE": "NOT AVAILABLE", "TYPE": "LONG TERM CARE", "STATUS": "CLOSED", "POPULATION": 20, "COUNTY": "KENT", "COUNTYFIPS": "26081", "COUNTRY": "USA", "LATITUDE": 42.958141311000098, "LONGITUDE": -85.662583018000007, "NAICS_CODE": "622310", "NAICS_DESC": "EXTENDED CARE HOSPITALS (EXCEPT MENTAL, SUBSTANCE ABUSE)", "SOURCE": "https://w2.lara.state.mi.us/VAL/License/Search", "SOURCEDATE": "2016-08-06T00:00:00.000Z", "VAL_METHOD": "IMAGERY", "VAL_DATE": "2014-02-10T00:00:00.000Z", "WEBSITE": "http://www.selectmedicalcorp.com", "STATE_ID": "NOT AVAILABLE", "ALT_NAME": "GREAT LAKES SPECIALTY HOSPITAL - GRAND RAPIDS", "ST_FIPS": "26", "OWNER": "PROPRIETARY", "TTL_STAFF": -999, "BEDS": 20, "TRAUMA": "NOT AVAILABLE", "HELIPAD": "Y" }, "geometry": { "type": "Polygon", "coordinates": [ [ [ -85.668943, 42.809977 ], [ -85.6721651, 42.811811700000014 ], [ -85.78724990000002, 42.883081799999978 ], [ -85.789278, 42.955475 ], [ -85.783567, 42.986895 ], [ -85.7780676, 43.016815 ], [ -85.763406, 43.034302 ], [ -85.6899758, 43.080474499999973 ], [ -85.627949, 43.0937143 ], [ -85.5093088, 42.9622355 ], [ -85.531312, 42.909359 ], [ -85.668943, 42.809977 ] ] ] } },
{ "type": "Feature", "properties": { "OBJECTID": 4278, "ID": "0009249442", "NAME": "SELECT SPECIALTY HOSPITAL - MUSKEGON", "ADDRESS": "1700 CLINTON STREET, 2 AND 3 S FLOORS", "CITY": "MUSKEGON", "STATE": "MI", "ZIP": "49442", "ZIP4": "NOT AVAILABLE", "TELEPHONE": "NOT AVAILABLE", "TYPE": "LONG TERM CARE", "STATUS": "OPEN", "POPULATION": 31, "COUNTY": "MUSKEGON", "COUNTYFIPS": "26121", "COUNTRY": "USA", "LATITUDE": 43.223421750000099, "LONGITUDE": -86.242255228999994, "NAICS_CODE": "622310", "NAICS_DESC": "SPECIALTY (EXCEPT PSYCHIATRIC AND SUBSTANCE ABUSE) HOSPITALS", "SOURCE": "https://w2.lara.state.mi.us/VAL/License/Search", "SOURCEDATE": "2018-08-09T00:00:00.000Z", "VAL_METHOD": "IMAGERY", "VAL_DATE": "2014-02-10T00:00:00.000Z", "WEBSITE": "http://www.selectmedical.com", "STATE_ID": "NOT AVAILABLE", "ALT_NAME": "GREAT LAKES SPECIALTY HOSPITAL - MUSKEGON", "ST_FIPS": "26", "OWNER": "PROPRIETARY", "TTL_STAFF": -999, "BEDS": 31, "TRAUMA": "NOT AVAILABLE", "HELIPAD": "Y" }, "geometry": { "type": "Polygon", "coordinates": [ [ [ -86.2201323, 43.1224699 ], [ -86.2647645, 43.136028499999988 ], [ -86.2881554, 43.155787400000037 ], [ -86.293643, 43.160608 ], [ -86.3338872, 43.222870200000024 ], [ -86.3019964, 43.280496 ], [ -86.28694, 43.296587099999989 ], [ -86.261479, 43.317956 ], [ -86.242051, 43.32752 ], [ -86.1773625, 43.31548649999997 ], [ -86.114006, 43.234823 ], [ -86.152708, 43.130225 ], [ -86.155237, 43.126626 ], [ -86.2201323, 43.1224699 ] ] ] } },
{ "type": "Feature", "properties": { "OBJECTID": 4279, "ID": "0000749016", "NAME": "SELECT SPECIALTY HOSPITAL - BATTLE CREEK", "ADDRESS": "300 NORTH AVENUE, 6TH FLOOR", "CITY": "BATTLE CREEK", "STATE": "MI", "ZIP": "49016", "ZIP4": "NOT AVAILABLE", "TELEPHONE": "NOT AVAILABLE", "TYPE": "LONG TERM CARE", "STATUS": "OPEN", "POPULATION": 25, "COUNTY": "CALHOUN", "COUNTYFIPS": "26025", "COUNTRY": "USA", "LATITUDE": 42.3306359380001, "LONGITUDE": -85.179345048999906, "NAICS_CODE": "622310", "NAICS_DESC": "SPECIALTY (EXCEPT PSYCHIATRIC AND SUBSTANCE ABUSE) HOSPITALS", "SOURCE": "https://w2.lara.state.mi.us/VAL/License/Search", "SOURCEDATE": "2018-08-09T00:00:00.000Z", "VAL_METHOD": "IMAGERY", "VAL_DATE": "2014-02-10T00:00:00.000Z", "WEBSITE": "http://www.selectspecialtyhospitals.com/company/locations/battlecre ek.aspx", "STATE_ID": "NOT AVAILABLE", "ALT_NAME": "NOT AVAILABLE", "ST_FIPS": "26", "OWNER": "PROPRIETARY", "TTL_STAFF": -999, "BEDS": 25, "TRAUMA": "NOT AVAILABLE", "HELIPAD": "N" }, "geometry": { "type": "Polygon", "coordinates": [ [ [ -85.203102, 42.211506 ], [ -85.2947414, 42.273135400000051 ], [ -85.3076826, 42.33445709999998 ], [ -85.298302, 42.366843 ], [ -85.235778, 42.398775 ], [ -85.180138, 42.42068 ], [ -85.123801, 42.412122 ], [ -85.077483, 42.372382 ], [ -85.062911, 42.348113 ], [ -85.058189, 42.311155 ], [ -85.0638293, 42.2886921 ], [ -85.095606, 42.261222 ], [ -85.139226, 42.239489 ], [ -85.203102, 42.211506 ] ] ] } },
{ "type": "Feature", "properties": { "OBJECTID": 240, "ID": "0004648624", "NAME": "MIDMICHIGAN MEDICAL CENTER-GLADWIN", "ADDRESS": "515 QUARTER STREET", "CITY": "GLADWIN", "STATE": "MI", "ZIP": "48624", "ZIP4": "NOT AVAILABLE", "TELEPHONE": "NOT AVAILABLE", "TYPE": "CRITICAL ACCESS", "STATUS": "OPEN", "POPULATION": 25, "COUNTY": "GLADWIN", "COUNTYFIPS": "26051", "COUNTRY": "USA", "LATITUDE": 43.975943671000003, "LONGITUDE": -84.493887563000001, "NAICS_CODE": "622110", "NAICS_DESC": "GENERAL MEDICAL AND SURGICAL HOSPITALS", "SOURCE": "https://w2.lara.state.mi.us/VAL/License/Search", "SOURCEDATE": "2018-08-09T00:00:00.000Z", "VAL_METHOD": "IMAGERY", "VAL_DATE": "2014-02-10T00:00:00.000Z", "WEBSITE": "http://www.midmichigan.org", "STATE_ID": "NOT AVAILABLE", "ALT_NAME": "NOT AVAILABLE", "ST_FIPS": "26", "OWNER": "NON-PROFIT", "TTL_STAFF": -999, "BEDS": 25, "TRAUMA": "NOT AVAILABLE", "HELIPAD": "Y" }, "geometry": { "type": "Polygon", "coordinates": [ [ [ -84.4853317, 43.874306 ], [ -84.5251063, 43.90178889999995 ], [ -84.585334, 43.948599 ], [ -84.606271, 43.966993 ], [ -84.6062697, 43.9684754 ], [ -84.6062606, 43.974215799999946 ], [ -84.5951, 44.002764 ], [ -84.585273, 44.009569 ], [ -84.496407, 44.059835 ], [ -84.486741, 44.059844 ], [ -84.366568, 44.00207 ], [ -84.343095, 43.980299 ], [ -84.36623, 43.957889300000048 ], [ -84.47731, 43.879653 ], [ -84.4853317, 43.874306 ] ] ] } },
{ "type": "Feature", "properties": { "OBJECTID": 241, "ID": "0011249455", "NAME": "MERCY HEALTH PARTNERS, LAKESHORE CAMPUS", "ADDRESS": "72 SOUTH STATE STREET", "CITY": "SHELBY", "STATE": "MI", "ZIP": "49455", "ZIP4": "NOT AVAILABLE", "TELEPHONE": "NOT AVAILABLE", "TYPE": "CRITICAL ACCESS", "STATUS": "OPEN", "POPULATION": 24, "COUNTY": "OCEANA", "COUNTYFIPS": "26127", "COUNTRY": "USA", "LATITUDE": 43.6066040380001, "LONGITUDE": -86.364686191000004, "NAICS_CODE": "622110", "NAICS_DESC": "GENERAL MEDICAL AND SURGICAL HOSPITALS", "SOURCE": "https://w2.lara.state.mi.us/VAL/License/Search", "SOURCEDATE": "2018-08-09T00:00:00.000Z", "VAL_METHOD": "IMAGERY", "VAL_DATE": "2014-02-10T00:00:00.000Z", "WEBSITE": "http://www.mercyhealthmuskegon.com", "STATE_ID": "NOT AVAILABLE", "ALT_NAME": "NOT AVAILABLE", "ST_FIPS": "26", "OWNER": "NON-PROFIT", "TTL_STAFF": -999, "BEDS": 24, "TRAUMA": "NOT AVAILABLE", "HELIPAD": "Y" }, "geometry": { "type": "Polygon", "coordinates": [ [ [ -86.3771184, 43.500874699999983 ], [ -86.4179693, 43.53379089999995 ], [ -86.4474333, 43.559002600000035 ], [ -86.4884653, 43.610026399999967 ], [ -86.4182773, 43.696535900000029 ], [ -86.3985682, 43.703825700000046 ], [ -86.3786091, 43.704983299999981 ], [ -86.371196, 43.705049 ], [ -86.353464599999981, 43.702825400000037 ], [ -86.2778838, 43.643525500000031 ], [ -86.2480499, 43.614106500000041 ], [ -86.2481286, 43.593612400000033 ], [ -86.34768990000002, 43.514674499999948 ], [ -86.3580544, 43.507537 ], [ -86.3771184, 43.500874699999983 ] ] ] } },
{ "type": "Feature", "properties": { "OBJECTID": 249, "ID": "0007949431", "NAME": "SPECTRUM HEALTH LUDINGTON HOSPITAL", "ADDRESS": "1 N ATKINSON DRIVE", "CITY": "LUDINGTON", "STATE": "MI", "ZIP": "49431", "ZIP4": "NOT AVAILABLE", "TELEPHONE": "NOT AVAILABLE", "TYPE": "GENERAL ACUTE CARE", "STATUS": "OPEN", "POPULATION": 49, "COUNTY": "MASON", "COUNTYFIPS": "26105", "COUNTRY": "USA", "LATITUDE": 43.958147941000099, "LONGITUDE": -86.430409384000001, "NAICS_CODE": "622110", "NAICS_DESC": "GENERAL MEDICAL AND SURGICAL HOSPITALS", "SOURCE": "https://w2.lara.state.mi.us/VAL/License/Search", "SOURCEDATE": "2018-08-09T00:00:00.000Z", "VAL_METHOD": "IMAGERY", "VAL_DATE": "2014-02-10T00:00:00.000Z", "WEBSITE": "http://www.spectrumhealth.org/landing_custom.cfm?id=5419&fr=true", "STATE_ID": "NOT AVAILABLE", "ALT_NAME": "MEMORIAL MEDICAL CENTER OF WEST MICHIGAN", "ST_FIPS": "26", "OWNER": "NON-PROFIT", "TTL_STAFF": -999, "BEDS": 49, "TRAUMA": "NOT AVAILABLE", "HELIPAD": "Y" }, "geometry": { "type": "Polygon", "coordinates": [ [ [ -86.3988796, 43.870077 ], [ -86.4436385, 43.906122399999916 ], [ -86.5055176, 44.031195100000012 ], [ -86.5059217, 44.032776 ], [ -86.4042009, 44.035647199999985 ], [ -86.2836542, 43.954929900000018 ], [ -86.3885615, 43.877110400000035 ], [ -86.3988796, 43.870077 ] ] ] } },
{ "type": "Feature", "properties": { "OBJECTID": 250, "ID": "0014049079", "NAME": "BRONSON LAKEVIEW HOSPITAL", "ADDRESS": "408 HAZEN STREET", "CITY": "PAW PAW", "STATE": "MI", "ZIP": "49079", "ZIP4": "NOT AVAILABLE", "TELEPHONE": "NOT AVAILABLE", "TYPE": "GENERAL ACUTE CARE", "STATUS": "OPEN", "POPULATION": 35, "COUNTY": "VAN BUREN", "COUNTYFIPS": "26159", "COUNTRY": "USA", "LATITUDE": 42.221294360999998, "LONGITUDE": -85.897070060999994, "NAICS_CODE": "622110", "NAICS_DESC": "GENERAL MEDICAL AND SURGICAL HOSPITALS", "SOURCE": "https://w2.lara.state.mi.us/VAL/License/Search", "SOURCEDATE": "2018-08-09T00:00:00.000Z", "VAL_METHOD": "IMAGERY", "VAL_DATE": "2014-02-10T00:00:00.000Z", "WEBSITE": "http://www.bronsonhealth.com/lakeview", "STATE_ID": "NOT AVAILABLE", "ALT_NAME": "NOT AVAILABLE", "ST_FIPS": "26", "OWNER": "NON-PROFIT", "TTL_STAFF": -999, "BEDS": 35, "TRAUMA": "NOT AVAILABLE", "HELIPAD": "Y" }, "geometry": { "type": "Polygon", "coordinates": [ [ [ -85.851413, 42.127349 ], [ -85.965382, 42.142398 ], [ -86.0570038, 42.196830699999985 ], [ -86.05824, 42.219247 ], [ -86.0513005, 42.224581 ], [ -85.9376517, 42.2894887 ], [ -85.9146195, 42.295476199999953 ], [ -85.878778, 42.302869 ], [ -85.868737, 42.302902 ], [ -85.862938, 42.302893 ], [ -85.766054, 42.243951 ], [ -85.7654224, 42.242172 ], [ -85.765147, 42.215516 ], [ -85.774205, 42.200632 ], [ -85.851413, 42.127349 ] ] ] } },
{ "type": "Feature", "properties": { "OBJECTID": 7151, "ID": "0011348661", "NAME": "WEST BRANCH REGIONAL MEDICAL CENTER", "ADDRESS": "2463 SOUTH M-30", "CITY": "WEST BRANCH", "STATE": "MI", "ZIP": "48661", "ZIP4": "NOT AVAILABLE", "TELEPHONE": "NOT AVAILABLE", "TYPE": "GENERAL ACUTE CARE", "STATUS": "OPEN", "POPULATION": 88, "COUNTY": "OGEMAW", "COUNTYFIPS": "26129", "COUNTRY": "USA", "LATITUDE": 44.263802310000102, "LONGITUDE": -84.244300761000005, "NAICS_CODE": "622110", "NAICS_DESC": "GENERAL MEDICAL AND SURGICAL HOSPITALS", "SOURCE": "https://w2.lara.state.mi.us/VAL/License/Search", "SOURCEDATE": "2018-08-09T00:00:00.000Z", "VAL_METHOD": "IMAGERY", "VAL_DATE": "2014-01-30T00:00:00.000Z", "WEBSITE": "http://www.wbrmc.com", "STATE_ID": "NOT AVAILABLE", "ALT_NAME": "NOT AVAILABLE", "ST_FIPS": "26", "OWNER": "GOVERNMENT - LOCAL", "TTL_STAFF": -999, "BEDS": 88, "TRAUMA": "NOT AVAILABLE", "HELIPAD": "Y" }, "geometry": { "type": "Polygon", "coordinates": [ [ [ -84.266697, 44.167093 ], [ -84.337913, 44.216147 ], [ -84.410683, 44.303799 ], [ -84.415856, 44.311893 ], [ -84.267375, 44.355087 ], [ -84.226606600000011, 44.349105 ], [ -84.125687, 44.291373 ], [ -84.104709, 44.276914 ], [ -84.125672, 44.257178 ], [ -84.225827, 44.190622 ], [ -84.266697, 44.167093 ] ] ] } },
{ "type": "Feature", "properties": { "OBJECTID": 5010, "ID": "0008548850", "NAME": "SPECTRUM HEALTH  KELSEY HOSPITAL", "ADDRESS": "418 WASHINGTON", "CITY": "LAKEVIEW", "STATE": "MI", "ZIP": "48850", "ZIP4": "NOT AVAILABLE", "TELEPHONE": "NOT AVAILABLE", "TYPE": "CRITICAL ACCESS", "STATUS": "OPEN", "POPULATION": 16, "COUNTY": "MONTCALM", "COUNTYFIPS": "26117", "COUNTRY": "USA", "LATITUDE": 43.441218265000003, "LONGITUDE": -85.2779234, "NAICS_CODE": "622110", "NAICS_DESC": "GENERAL MEDICAL AND SURGICAL HOSPITALS", "SOURCE": "https://w2.lara.state.mi.us/VAL/License/Search", "SOURCEDATE": "2018-08-09T00:00:00.000Z", "VAL_METHOD": "IMAGERY", "VAL_DATE": "2014-01-30T00:00:00.000Z", "WEBSITE": "http://www.spectrumhealth.org/", "STATE_ID": "NOT AVAILABLE", "ALT_NAME": "SPECTRUM HEALTH UNITED MEMORIAL - KELSEY CAMPUS", "ST_FIPS": "26", "OWNER": "NOT AVAILABLE", "TTL_STAFF": -999, "BEDS": 16, "TRAUMA": "NOT AVAILABLE", "HELIPAD": "N" }, "geometry": { "type": "Polygon", "coordinates": [ [ [ -85.263434, 43.351499 ], [ -85.293711, 43.365618 ], [ -85.425217, 43.431658 ], [ -85.4025388, 43.4528095 ], [ -85.362776, 43.468185 ], [ -85.2541469, 43.496473 ], [ -85.182034, 43.464825 ], [ -85.124488, 43.429697 ], [ -85.124481, 43.413267 ], [ -85.243936, 43.350021 ], [ -85.263434, 43.351499 ] ] ] } },
{ "type": "Feature", "properties": { "OBJECTID": 5013, "ID": "0012049677", "NAME": "SPECTRUM HEALTH - REED CITY CAMPUS", "ADDRESS": "300 N PATTERSON, PO BOX 75", "CITY": "REED CITY", "STATE": "MI", "ZIP": "49677", "ZIP4": "NOT AVAILABLE", "TELEPHONE": "NOT AVAILABLE", "TYPE": "CRITICAL ACCESS", "STATUS": "OPEN", "POPULATION": 25, "COUNTY": "OSCEOLA", "COUNTYFIPS": "26133", "COUNTRY": "USA", "LATITUDE": 43.878461731000101, "LONGITUDE": -85.521292063999994, "NAICS_CODE": "622110", "NAICS_DESC": "GENERAL MEDICAL AND SURGICAL HOSPITALS", "SOURCE": "https://w2.lara.state.mi.us/VAL/License/Search", "SOURCEDATE": "2018-08-09T00:00:00.000Z", "VAL_METHOD": "IMAGERY/OTHER", "VAL_DATE": "2014-02-10T00:00:00.000Z", "WEBSITE": "http://www.reedcity.spectrum-health.org", "STATE_ID": "NOT AVAILABLE", "ALT_NAME": "NOT AVAILABLE", "ST_FIPS": "26", "OWNER": "NON-PROFIT", "TTL_STAFF": -999, "BEDS": 25, "TRAUMA": "NOT AVAILABLE", "HELIPAD": "Y" }, "geometry": { "type": "Polygon", "coordinates": [ [ [ -85.54295, 43.813299 ], [ -85.5624878, 43.829924300000023 ], [ -85.572263, 43.84434 ], [ -85.6022943, 43.91624620000001 ], [ -85.6022314, 43.918073799999981 ], [ -85.5052183, 44.01687509999995 ], [ -85.498005, 44.022659499999946 ], [ -85.4837577, 44.020559100000028 ], [ -85.3887512, 43.873747 ], [ -85.4348761, 43.8437212 ], [ -85.4631969, 43.8293792 ], [ -85.5228258, 43.815312300000024 ], [ -85.54295, 43.813299 ] ] ] } },
{ "type": "Feature", "properties": { "OBJECTID": 5015, "ID": "0002649635", "NAME": "PAUL OLIVER MEMORIAL HOSPITAL", "ADDRESS": "224 PARK AVENUE", "CITY": "FRANKFORT", "STATE": "MI", "ZIP": "49635", "ZIP4": "NOT AVAILABLE", "TELEPHONE": "NOT AVAILABLE", "TYPE": "CRITICAL ACCESS", "STATUS": "OPEN", "POPULATION": 8, "COUNTY": "BENZIE", "COUNTYFIPS": "26019", "COUNTRY": "USA", "LATITUDE": 44.636781665999997, "LONGITUDE": -86.243001073000002, "NAICS_CODE": "622110", "NAICS_DESC": "GENERAL MEDICAL AND SURGICAL HOSPITALS", "SOURCE": "https://w2.lara.state.mi.us/VAL/License/Search", "SOURCEDATE": "2018-08-09T00:00:00.000Z", "VAL_METHOD": "IMAGERY", "VAL_DATE": "2014-02-10T00:00:00.000Z", "WEBSITE": "http://www.munsonhealthcare.org", "STATE_ID": "NOT AVAILABLE", "ALT_NAME": "NOT AVAILABLE", "ST_FIPS": "26", "OWNER": "NON-PROFIT", "TTL_STAFF": -999, "BEDS": 8, "TRAUMA": "NOT AVAILABLE", "HELIPAD": "N" }, "geometry": { "type": "Polygon", "coordinates": [ [ [ -86.2049516, 44.564991 ], [ -86.21565, 44.57461 ], [ -86.2440134, 44.629833899999987 ], [ -86.2577984, 44.662319899999979 ], [ -86.257753, 44.666033 ], [ -86.2576956, 44.669054100000025 ], [ -86.257663100000016, 44.670557900000013 ], [ -86.2549376, 44.690596800000051 ], [ -86.2455266, 44.699842300000014 ], [ -86.2386179, 44.702186199999986 ], [ -86.21086, 44.710094099999971 ], [ -86.2097508, 44.710371500000015 ], [ -86.1113752, 44.6289155 ], [ -86.20088, 44.564973 ], [ -86.2041804, 44.5649844 ], [ -86.2049516, 44.564991 ] ] ] } },
{ "type": "Feature", "properties": { "OBJECTID": 5016, "ID": "0008348811", "NAME": "SPARROW CARSON HOSPITAL", "ADDRESS": "406 EAST ELM ST", "CITY": "CARSON CITY", "STATE": "MI", "ZIP": "48811", "ZIP4": "NOT AVAILABLE", "TELEPHONE": "NOT AVAILABLE", "TYPE": "GENERAL ACUTE CARE", "STATUS": "OPEN", "POPULATION": 61, "COUNTY": "MONTCALM", "COUNTYFIPS": "26117", "COUNTRY": "USA", "LATITUDE": 43.1755853780001, "LONGITUDE": -84.842418183999897, "NAICS_CODE": "622110", "NAICS_DESC": "GENERAL MEDICAL AND SURGICAL HOSPITALS", "SOURCE": "https://w2.lara.state.mi.us/VAL/License/Search", "SOURCEDATE": "2018-08-09T00:00:00.000Z", "VAL_METHOD": "IMAGERY/OTHER", "VAL_DATE": "2014-02-10T00:00:00.000Z", "WEBSITE": "http://www.sparrow.org/?sid=19&id=2044", "STATE_ID": "NOT AVAILABLE", "ALT_NAME": "CARSON CITY HOSPITAL", "ST_FIPS": "26", "OWNER": "NON-PROFIT", "TTL_STAFF": -999, "BEDS": 61, "TRAUMA": "NOT AVAILABLE", "HELIPAD": "Y" }, "geometry": { "type": "Polygon", "coordinates": [ [ [ -84.850362, 43.118849 ], [ -84.876387, 43.126422 ], [ -84.896173, 43.133765 ], [ -84.935698, 43.14854 ], [ -84.9825365, 43.176054200000038 ], [ -84.9825782, 43.1775429 ], [ -84.965324400000014, 43.1920847 ], [ -84.85539, 43.263729 ], [ -84.835609, 43.256478 ], [ -84.797292, 43.241678 ], [ -84.708819, 43.184399 ], [ -84.707587, 43.183486 ], [ -84.7064177, 43.181662 ], [ -84.7089063, 43.176236100000011 ], [ -84.778603, 43.132976 ], [ -84.818362, 43.118723 ], [ -84.850362, 43.118849 ] ] ] } },
{ "type": "Feature", "properties": { "OBJECTID": 5017, "ID": "0005248846", "NAME": "IONIA COUNTY MEMORIAL HOSPITAL", "ADDRESS": "479 LAFAYETTE STREET", "CITY": "IONIA", "STATE": "MI", "ZIP": "48846", "ZIP4": "NOT AVAILABLE", "TELEPHONE": "NOT AVAILABLE", "TYPE": "GENERAL ACUTE CARE", "STATUS": "CLOSED", "POPULATION": 25, "COUNTY": "IONIA", "COUNTYFIPS": "26067", "COUNTRY": "USA", "LATITUDE": 42.985180165000003, "LONGITUDE": -85.050459345999997, "NAICS_CODE": "622110", "NAICS_DESC": "GENERAL MEDICAL AND SURGICAL HOSPITALS", "SOURCE": "http://www.michigan.gov/lara/0,4601,7-154-35299_63294_63302---,00.html", "SOURCEDATE": "2013-05-01T00:00:00.000Z", "VAL_METHOD": "IMAGERY", "VAL_DATE": "2014-02-10T00:00:00.000Z", "WEBSITE": "http://www.sparrow.org/sparrowionia", "STATE_ID": "NOT AVAILABLE", "ALT_NAME": "NOT AVAILABLE", "ST_FIPS": "26", "OWNER": "NON-PROFIT", "TTL_STAFF": -999, "BEDS": 25, "TRAUMA": "NOT AVAILABLE", "HELIPAD": "Y" }, "geometry": { "type": "Polygon", "coordinates": [ [ [ -85.074946, 42.900506 ], [ -85.173857, 42.95589 ], [ -85.17379, 42.980213 ], [ -85.0751132, 43.075959900000036 ], [ -84.981460900000016, 43.0357846 ], [ -84.94621, 43.016067 ], [ -84.925509, 43.001677 ], [ -84.938302, 42.980991 ], [ -85.0443, 42.9004107 ], [ -85.074946, 42.900506 ] ] ] } },
{ "type": "Feature", "properties": { "OBJECTID": 5019, "ID": "0009349412", "NAME": "SPECTRUM HEALTH GERBER MEMORIAL", "ADDRESS": "212 S SULLIVAN ST", "CITY": "FREMONT", "STATE": "MI", "ZIP": "49412", "ZIP4": "NOT AVAILABLE", "TELEPHONE": "NOT AVAILABLE", "TYPE": "GENERAL ACUTE CARE", "STATUS": "OPEN", "POPULATION": 25, "COUNTY": "NEWAYGO", "COUNTYFIPS": "26123", "COUNTRY": "USA", "LATITUDE": 43.464809859000098, "LONGITUDE": -85.950363124999996, "NAICS_CODE": "622110", "NAICS_DESC": "GENERAL MEDICAL AND SURGICAL HOSPITALS", "SOURCE": "https://w2.lara.state.mi.us/VAL/License/Search", "SOURCEDATE": "2018-08-09T00:00:00.000Z", "VAL_METHOD": "IMAGERY", "VAL_DATE": "2014-02-10T00:00:00.000Z", "WEBSITE": "http://www.spectrumhealth.org", "STATE_ID": "NOT AVAILABLE", "ALT_NAME": "NOT AVAILABLE", "ST_FIPS": "26", "OWNER": "NON-PROFIT", "TTL_STAFF": -999, "BEDS": 25, "TRAUMA": "NOT AVAILABLE", "HELIPAD": "N" }, "geometry": { "type": "Polygon", "coordinates": [ [ [ -85.939445, 43.373437 ], [ -85.979593, 43.39037 ], [ -85.989306, 43.394915 ], [ -86.0189975, 43.4096405 ], [ -86.0525074, 43.438545499999947 ], [ -86.0791328, 43.4678346 ], [ -86.0791336, 43.4680182 ], [ -86.059214, 43.496250900000021 ], [ -86.0395865, 43.510711 ], [ -85.9598986, 43.553949299999935 ], [ -85.9200777, 43.539340700000011 ], [ -85.8205688, 43.4668128 ], [ -85.8603776, 43.423670600000044 ], [ -85.900168, 43.394771 ], [ -85.939445, 43.373437 ] ] ] } },
{ "type": "Feature", "properties": { "OBJECTID": 5020, "ID": "0008049307", "NAME": "SPECTRUM HEALTH BIG RAPIDS HOSPITAL", "ADDRESS": "605 OAK STREET", "CITY": "BIG RAPIDS", "STATE": "MI", "ZIP": "49307", "ZIP4": "NOT AVAILABLE", "TELEPHONE": "NOT AVAILABLE", "TYPE": "GENERAL ACUTE CARE", "STATUS": "OPEN", "POPULATION": 69, "COUNTY": "MECOSTA", "COUNTYFIPS": "26107", "COUNTRY": "USA", "LATITUDE": 43.693884706000098, "LONGITUDE": -85.474927527000006, "NAICS_CODE": "622110", "NAICS_DESC": "GENERAL MEDICAL AND SURGICAL HOSPITALS", "SOURCE": "https://w2.lara.state.mi.us/VAL/License/Search", "SOURCEDATE": "2018-08-09T00:00:00.000Z", "VAL_METHOD": "IMAGERY", "VAL_DATE": "2014-03-12T00:00:00.000Z", "WEBSITE": "http://www.mcmcbr.com", "STATE_ID": "NOT AVAILABLE", "ALT_NAME": "NOT AVAILABLE", "ST_FIPS": "26", "OWNER": "NON-PROFIT", "TTL_STAFF": -999, "BEDS": 69, "TRAUMA": "NOT AVAILABLE", "HELIPAD": "Y" }, "geometry": { "type": "Polygon", "coordinates": [ [ [ -85.4885796, 43.589838300000018 ], [ -85.553107, 43.642265 ], [ -85.5821219, 43.695759600000024 ], [ -85.5627887, 43.742827700000014 ], [ -85.5229755, 43.77157689999995 ], [ -85.5028443, 43.785791099999955 ], [ -85.355641, 43.699436 ], [ -85.3706174, 43.674149599999986 ], [ -85.384543, 43.663265 ], [ -85.4631288, 43.605799500000039 ], [ -85.4885796, 43.589838300000018 ] ] ] } },
{ "type": "Feature", "properties": { "OBJECTID": 5021, "ID": "0003848617", "NAME": "MIDMICHIGAN MEDICAL CENTER-CLARE", "ADDRESS": "703 N MCEWAN ST", "CITY": "CLARE", "STATE": "MI", "ZIP": "48617", "ZIP4": "NOT AVAILABLE", "TELEPHONE": "NOT AVAILABLE", "TYPE": "GENERAL ACUTE CARE", "STATUS": "OPEN", "POPULATION": 49, "COUNTY": "CLARE", "COUNTYFIPS": "26035", "COUNTRY": "USA", "LATITUDE": 43.820964982000099, "LONGITUDE": -84.769047458000003, "NAICS_CODE": "622110", "NAICS_DESC": "GENERAL MEDICAL AND SURGICAL HOSPITALS", "SOURCE": "https://w2.lara.state.mi.us/VAL/License/Search", "SOURCEDATE": "2018-08-09T00:00:00.000Z", "VAL_METHOD": "IMAGERY", "VAL_DATE": "2014-02-10T00:00:00.000Z", "WEBSITE": "http://www.midmichigan.org", "STATE_ID": "NOT AVAILABLE", "ALT_NAME": "NOT AVAILABLE", "ST_FIPS": "26", "OWNER": "NON-PROFIT", "TTL_STAFF": -999, "BEDS": 49, "TRAUMA": "NOT AVAILABLE", "HELIPAD": "N" }, "geometry": { "type": "Polygon", "coordinates": [ [ [ -84.7676687, 43.683636 ], [ -84.7876699, 43.698567800000014 ], [ -84.912639, 43.866246 ], [ -84.787857, 43.955519 ], [ -84.775754, 43.962074 ], [ -84.77367, 43.963007 ], [ -84.7678664, 43.959413100000035 ], [ -84.660316, 43.844162100000013 ], [ -84.606509, 43.765661 ], [ -84.747956, 43.683789 ], [ -84.7676687, 43.683636 ] ] ] } },
{ "type": "Feature", "properties": { "OBJECTID": 5027, "ID": "0003649783", "NAME": "CHIPPEWA COUNTY WAR MEMORIAL HOSPITAL", "ADDRESS": "500 OSBORN BLVD", "CITY": "SAULT SAINTE MARIE", "STATE": "MI", "ZIP": "49783", "ZIP4": "NOT AVAILABLE", "TELEPHONE": "NOT AVAILABLE", "TYPE": "GENERAL ACUTE CARE", "STATUS": "OPEN", "POPULATION": 82, "COUNTY": "CHIPPEWA", "COUNTYFIPS": "26033", "COUNTRY": "USA", "LATITUDE": 46.498080874000003, "LONGITUDE": -84.350551183999997, "NAICS_CODE": "622110", "NAICS_DESC": "GENERAL MEDICAL AND SURGICAL HOSPITALS", "SOURCE": "https://w2.lara.state.mi.us/VAL/License/Search", "SOURCEDATE": "2018-08-09T00:00:00.000Z", "VAL_METHOD": "IMAGERY", "VAL_DATE": "2014-02-10T00:00:00.000Z", "WEBSITE": "http://www.warmemorialhospital.org", "STATE_ID": "NOT AVAILABLE", "ALT_NAME": "NOT AVAILABLE", "ST_FIPS": "26", "OWNER": "NON-PROFIT", "TTL_STAFF": -999, "BEDS": 82, "TRAUMA": "NOT AVAILABLE", "HELIPAD": "N" }, "geometry": { "type": "Polygon", "coordinates": [ [ [ -84.4157489, 46.369662599999955 ], [ -84.4270018, 46.374449500000026 ], [ -84.453403, 46.469385099999968 ], [ -84.4446751, 46.4744961 ], [ -84.4238491, 46.483675199999979 ], [ -84.3607231, 46.508473399999971 ], [ -84.3019044, 46.4861244 ], [ -84.2732312, 46.445217 ], [ -84.2796087, 46.434096899999965 ], [ -84.4157489, 46.369662599999955 ] ] ] } },
{ "type": "Feature", "properties": { "OBJECTID": 5605, "ID": "0011549423", "NAME": "HOLLAND COMMUNITY HOSPITAL", "ADDRESS": "602 MICHIGAN AVE", "CITY": "HOLLAND", "STATE": "MI", "ZIP": "49423", "ZIP4": "NOT AVAILABLE", "TELEPHONE": "NOT AVAILABLE", "TYPE": "GENERAL ACUTE CARE", "STATUS": "OPEN", "POPULATION": 173, "COUNTY": "OTTAWA", "COUNTYFIPS": "26139", "COUNTRY": "USA", "LATITUDE": 42.774900435000099, "LONGITUDE": -86.11403928, "NAICS_CODE": "622110", "NAICS_DESC": "GENERAL MEDICAL AND SURGICAL HOSPITALS", "SOURCE": "https://w2.lara.state.mi.us/VAL/License/Search", "SOURCEDATE": "2018-08-09T00:00:00.000Z", "VAL_METHOD": "IMAGERY", "VAL_DATE": "2014-02-10T00:00:00.000Z", "WEBSITE": "http://www.hollandhospital.org", "STATE_ID": "NOT AVAILABLE", "ALT_NAME": "NOT AVAILABLE", "ST_FIPS": "26", "OWNER": "NON-PROFIT", "TTL_STAFF": -999, "BEDS": 173, "TRAUMA": "NOT AVAILABLE", "HELIPAD": "N" }, "geometry": { "type": "Polygon", "coordinates": [ [ [ -86.1979626, 42.6652663 ], [ -86.1981133, 42.666503 ], [ -86.2075233, 42.7510146 ], [ -86.2060349, 42.7604056 ], [ -86.202836, 42.767584 ], [ -86.18426, 42.804925 ], [ -86.158083, 42.848726 ], [ -86.1043917, 42.858850699999969 ], [ -86.0952074, 42.856214700000031 ], [ -85.9787288, 42.8121249 ], [ -85.9727748, 42.7832998 ], [ -86.034985, 42.70685 ], [ -86.103567, 42.68194 ], [ -86.1908005, 42.6653651 ], [ -86.19560460000001, 42.665292599999987 ], [ -86.1979626, 42.6652663 ] ] ] } },
{ "type": "Feature", "properties": { "OBJECTID": 5606, "ID": "0011849464", "NAME": "SPECTRUM HEALTH ZEELAND COMMUNITY HOSPITAL", "ADDRESS": "8333 FELCH ST", "CITY": "ZEELAND", "STATE": "MI", "ZIP": "49464", "ZIP4": "NOT AVAILABLE", "TELEPHONE": "NOT AVAILABLE", "TYPE": "GENERAL ACUTE CARE", "STATUS": "OPEN", "POPULATION": 57, "COUNTY": "OTTAWA", "COUNTYFIPS": "26139", "COUNTRY": "USA", "LATITUDE": 42.821296512000103, "LONGITUDE": -85.987713799999895, "NAICS_CODE": "622110", "NAICS_DESC": "GENERAL MEDICAL AND SURGICAL HOSPITALS", "SOURCE": "https://w2.lara.state.mi.us/VAL/License/Search", "SOURCEDATE": "2018-08-09T00:00:00.000Z", "VAL_METHOD": "IMAGERY", "VAL_DATE": "2014-02-10T00:00:00.000Z", "WEBSITE": "http://www.spectrumhealth.org/zeeland", "STATE_ID": "NOT AVAILABLE", "ALT_NAME": "NOT AVAILABLE", "ST_FIPS": "26", "OWNER": "NON-PROFIT", "TTL_STAFF": -999, "BEDS": 57, "TRAUMA": "NOT AVAILABLE", "HELIPAD": "Y" }, "geometry": { "type": "Polygon", "coordinates": [ [ [ -86.015513, 42.710975 ], [ -86.096773, 42.754619 ], [ -86.104363800000016, 42.758715900000027 ], [ -86.1270824, 42.79755590000002 ], [ -86.127176, 42.804828 ], [ -86.12725, 42.812113 ], [ -86.1253793, 42.816589500000035 ], [ -86.1176004, 42.826651599999984 ], [ -86.1010556, 42.846510800000033 ], [ -86.0230071, 42.894082299999987 ], [ -86.0214921, 42.894065500000018 ], [ -85.961082, 42.892579 ], [ -85.8297637, 42.860069300000013 ], [ -85.8553319, 42.8324309 ], [ -85.861992, 42.825797600000023 ], [ -85.929102, 42.773475 ], [ -86.015513, 42.710975 ] ] ] } },
{ "type": "Feature", "properties": { "OBJECTID": 5614, "ID": "0004149048", "NAME": "BORGESS MEDICAL CENTER", "ADDRESS": "1521 GULL ROAD", "CITY": "KALAMAZOO", "STATE": "MI", "ZIP": "49048", "ZIP4": "NOT AVAILABLE", "TELEPHONE": "NOT AVAILABLE", "TYPE": "GENERAL ACUTE CARE", "STATUS": "OPEN", "POPULATION": 387, "COUNTY": "KALAMAZOO", "COUNTYFIPS": "26077", "COUNTRY": "USA", "LATITUDE": 42.306887242000101, "LONGITUDE": -85.561354926000007, "NAICS_CODE": "622110", "NAICS_DESC": "GENERAL MEDICAL AND SURGICAL HOSPITALS", "SOURCE": "https://w2.lara.state.mi.us/VAL/License/Search", "SOURCEDATE": "2018-08-09T00:00:00.000Z", "VAL_METHOD": "IMAGERY", "VAL_DATE": "2014-03-12T00:00:00.000Z", "WEBSITE": "http://www.borgess.com", "STATE_ID": "NOT AVAILABLE", "ALT_NAME": "NOT AVAILABLE", "ST_FIPS": "26", "OWNER": "NON-PROFIT", "TTL_STAFF": -999, "BEDS": 387, "TRAUMA": "LEVEL II", "HELIPAD": "Y" }, "geometry": { "type": "Polygon", "coordinates": [ [ [ -85.5895112, 42.222370200000022 ], [ -85.6283731, 42.238030799999976 ], [ -85.6775666, 42.259087299999983 ], [ -85.687154, 42.29574 ], [ -85.653772, 42.376329 ], [ -85.555238, 42.390822 ], [ -85.532102, 42.390928 ], [ -85.454108, 42.377988 ], [ -85.415004, 42.332874 ], [ -85.4345409, 42.272276599999969 ], [ -85.540509, 42.224322 ], [ -85.560062, 42.22297769999998 ], [ -85.5895112, 42.222370200000022 ] ] ] } },
{ "type": "Feature", "properties": { "OBJECTID": 5615, "ID": "0005749007", "NAME": "BRONSON METHODIST HOSPITAL", "ADDRESS": "601 JOHN STREET", "CITY": "KALAMAZOO", "STATE": "MI", "ZIP": "49007", "ZIP4": "NOT AVAILABLE", "TELEPHONE": "NOT AVAILABLE", "TYPE": "GENERAL ACUTE CARE", "STATUS": "OPEN", "POPULATION": 434, "COUNTY": "KALAMAZOO", "COUNTYFIPS": "26077", "COUNTRY": "USA", "LATITUDE": 42.285257588999997, "LONGITUDE": -85.580291355, "NAICS_CODE": "622110", "NAICS_DESC": "GENERAL MEDICAL AND SURGICAL HOSPITALS", "SOURCE": "https://w2.lara.state.mi.us/VAL/License/Search", "SOURCEDATE": "2018-08-09T00:00:00.000Z", "VAL_METHOD": "IMAGERY", "VAL_DATE": "2014-03-12T00:00:00.000Z", "WEBSITE": "http://www.bronsonhealth.com", "STATE_ID": "NOT AVAILABLE", "ALT_NAME": "NOT AVAILABLE", "ST_FIPS": "26", "OWNER": "NON-PROFIT", "TTL_STAFF": -999, "BEDS": 434, "TRAUMA": "LEVEL I", "HELIPAD": "Y" }, "geometry": { "type": "Polygon", "coordinates": [ [ [ -85.5938558, 42.1990961 ], [ -85.6449094, 42.203664799999956 ], [ -85.706746, 42.253342 ], [ -85.7066105, 42.295726700000024 ], [ -85.660396300000016, 42.376108699999961 ], [ -85.649135, 42.376489 ], [ -85.6456597, 42.3765528 ], [ -85.643802, 42.376565 ], [ -85.590545, 42.376541 ], [ -85.5869233, 42.37649279999998 ], [ -85.4937497, 42.354913900000014 ], [ -85.463887, 42.33269 ], [ -85.428855, 42.282824 ], [ -85.4243002, 42.2745842 ], [ -85.4254029, 42.271026900000024 ], [ -85.428638, 42.266994 ], [ -85.560422, 42.197795 ], [ -85.5938558, 42.1990961 ] ] ] } },
{ "type": "Feature", "properties": { "OBJECTID": 5617, "ID": "0000649068", "NAME": "OAKLAWN HOSPITAL", "ADDRESS": "200 N MADISON", "CITY": "MARSHALL", "STATE": "MI", "ZIP": "49068", "ZIP4": "NOT AVAILABLE", "TELEPHONE": "NOT AVAILABLE", "TYPE": "GENERAL ACUTE CARE", "STATUS": "OPEN", "POPULATION": 77, "COUNTY": "CALHOUN", "COUNTYFIPS": "26025", "COUNTRY": "USA", "LATITUDE": 42.273732516000102, "LONGITUDE": -84.956772782000002, "NAICS_CODE": "622110", "NAICS_DESC": "GENERAL MEDICAL AND SURGICAL HOSPITALS", "SOURCE": "https://w2.lara.state.mi.us/VAL/License/Search", "SOURCEDATE": "2018-08-09T00:00:00.000Z", "VAL_METHOD": "IMAGERY", "VAL_DATE": "2014-02-10T00:00:00.000Z", "WEBSITE": "http://www.oaklawnhospital.org", "STATE_ID": "NOT AVAILABLE", "ALT_NAME": "NOT AVAILABLE", "ST_FIPS": "26", "OWNER": "NON-PROFIT", "TTL_STAFF": -999, "BEDS": 77, "TRAUMA": "LEVEL III", "HELIPAD": "N" }, "geometry": { "type": "Polygon", "coordinates": [ [ [ -84.962365, 42.178011 ], [ -84.987113, 42.188583 ], [ -85.0613201, 42.2542313 ], [ -85.101398, 42.306448 ], [ -84.982441, 42.366119 ], [ -84.94265, 42.355882 ], [ -84.801041, 42.290588 ], [ -84.78626, 42.283122 ], [ -84.8007849, 42.271194200000011 ], [ -84.8054183, 42.267741299999962 ], [ -84.901087, 42.20306 ], [ -84.962365, 42.178011 ] ] ] } },
{ "type": "Feature", "properties": { "OBJECTID": 5618, "ID": "0013949090", "NAME": "BRONSON SOUTH HAVEN HOSPITAL", "ADDRESS": "955 S BAILEY AVE", "CITY": "SOUTH HAVEN", "STATE": "MI", "ZIP": "49090", "ZIP4": "NOT AVAILABLE", "TELEPHONE": "NOT AVAILABLE", "TYPE": "GENERAL ACUTE CARE", "STATUS": "OPEN", "POPULATION": 49, "COUNTY": "VAN BUREN", "COUNTYFIPS": "26159", "COUNTRY": "USA", "LATITUDE": 42.391315264000099, "LONGITUDE": -86.262866967999997, "NAICS_CODE": "622110", "NAICS_DESC": "GENERAL MEDICAL AND SURGICAL HOSPITALS", "SOURCE": "https://w2.lara.state.mi.us/VAL/License/Search", "SOURCEDATE": "2018-08-09T00:00:00.000Z", "VAL_METHOD": "IMAGERY", "VAL_DATE": "2014-01-30T00:00:00.000Z", "WEBSITE": "https://www.bronsonhealth.com/locations/bronson-south-haven-hospital/", "STATE_ID": "NOT AVAILABLE", "ALT_NAME": "SOUTH HAVEN HEALTH SYSTEM", "ST_FIPS": "26", "OWNER": "NON-PROFIT", "TTL_STAFF": -999, "BEDS": 49, "TRAUMA": "NOT AVAILABLE", "HELIPAD": "Y" }, "geometry": { "type": "Polygon", "coordinates": [ [ [ -86.332411, 42.279491 ], [ -86.331012, 42.293563 ], [ -86.2836494, 42.401466399999975 ], [ -86.246527, 42.484078 ], [ -86.244364799999985, 42.48748269999998 ], [ -86.217981, 42.507697 ], [ -86.148849, 42.404257 ], [ -86.148641, 42.375408 ], [ -86.157848, 42.331821 ], [ -86.262506, 42.286811 ], [ -86.3298068, 42.279521400000029 ], [ -86.332411, 42.279491 ] ] ] } },
{ "type": "Feature", "properties": { "OBJECTID": 5619, "ID": "0000149010", "NAME": "ALLEGAN GENERAL HOSPITAL", "ADDRESS": "555 LINN STREET", "CITY": "ALLEGAN", "STATE": "MI", "ZIP": "49010", "ZIP4": "NOT AVAILABLE", "TELEPHONE": "NOT AVAILABLE", "TYPE": "GENERAL ACUTE CARE", "STATUS": "OPEN", "POPULATION": 25, "COUNTY": "ALLEGAN", "COUNTYFIPS": "26005", "COUNTRY": "USA", "LATITUDE": 42.519966197000002, "LONGITUDE": -85.856370311999996, "NAICS_CODE": "622110", "NAICS_DESC": "GENERAL MEDICAL AND SURGICAL HOSPITALS", "SOURCE": "https://w2.lara.state.mi.us/VAL/License/Search", "SOURCEDATE": "2018-08-09T00:00:00.000Z", "VAL_METHOD": "IMAGERY/OTHER", "VAL_DATE": "2014-02-10T00:00:00.000Z", "WEBSITE": "http://www.aghosp.org", "STATE_ID": "NOT AVAILABLE", "ALT_NAME": "NOT AVAILABLE", "ST_FIPS": "26", "OWNER": "NON-PROFIT", "TTL_STAFF": -999, "BEDS": 25, "TRAUMA": "NOT AVAILABLE", "HELIPAD": "Y" }, "geometry": { "type": "Polygon", "coordinates": [ [ [ -85.862777, 42.420043 ], [ -85.934877, 42.476991 ], [ -85.965288, 42.549752 ], [ -85.9489135, 42.593535900000077 ], [ -85.9424761, 42.6010063 ], [ -85.841499, 42.612889 ], [ -85.765995, 42.566277 ], [ -85.731014, 42.537077 ], [ -85.740331, 42.479131 ], [ -85.862777, 42.420043 ] ] ] } },
{ "type": "Feature", "properties": { "OBJECTID": 5628, "ID": "0004349503", "NAME": "SAINT MARY'S HEALTH CARE", "ADDRESS": "200 JEFFERSON AVENUE SE", "CITY": "GRAND RAPIDS", "STATE": "MI", "ZIP": "49503", "ZIP4": "NOT AVAILABLE", "TELEPHONE": "NOT AVAILABLE", "TYPE": "GENERAL ACUTE CARE", "STATUS": "OPEN", "POPULATION": 255, "COUNTY": "KENT", "COUNTYFIPS": "26081", "COUNTRY": "USA", "LATITUDE": 42.958735851, "LONGITUDE": -85.663137940999903, "NAICS_CODE": "622110", "NAICS_DESC": "GENERAL MEDICAL AND SURGICAL HOSPITALS", "SOURCE": "https://w2.lara.state.mi.us/VAL/License/Search", "SOURCEDATE": "2018-08-09T00:00:00.000Z", "VAL_METHOD": "IMAGERY", "VAL_DATE": "2014-03-12T00:00:00.000Z", "WEBSITE": "http://www.mercyhealthsaintmarys.com/welcometosaintmarys", "STATE_ID": "NOT AVAILABLE", "ALT_NAME": "NOT AVAILABLE", "ST_FIPS": "26", "OWNER": "NON-PROFIT", "TTL_STAFF": -999, "BEDS": 255, "TRAUMA": "LEVEL II", "HELIPAD": "Y" }, "geometry": { "type": "Polygon", "coordinates": [ [ [ -85.668943, 42.809977 ], [ -85.6721651, 42.811811700000014 ], [ -85.78724990000002, 42.883081799999978 ], [ -85.789278, 42.955475 ], [ -85.783567, 42.986895 ], [ -85.7780676, 43.016815 ], [ -85.763406, 43.034302 ], [ -85.6899758, 43.080474499999973 ], [ -85.627949, 43.0937143 ], [ -85.5093088, 42.9622355 ], [ -85.531312, 42.909359 ], [ -85.668943, 42.809977 ] ] ] } },
{ "type": "Feature", "properties": { "OBJECTID": 5629, "ID": "0006449503", "NAME": "SPECTRUM HEALTH - BUTTERWORTH CAMPUS", "ADDRESS": "100 MICHIGAN ST NE", "CITY": "GRAND RAPIDS", "STATE": "MI", "ZIP": "49503", "ZIP4": "NOT AVAILABLE", "TELEPHONE": "NOT AVAILABLE", "TYPE": "GENERAL ACUTE CARE", "STATUS": "OPEN", "POPULATION": 852, "COUNTY": "KENT", "COUNTYFIPS": "26081", "COUNTRY": "USA", "LATITUDE": 42.969669194000097, "LONGITUDE": -85.665746666000004, "NAICS_CODE": "622110", "NAICS_DESC": "GENERAL MEDICAL AND SURGICAL HOSPITALS", "SOURCE": "https://w2.lara.state.mi.us/VAL/License/Search", "SOURCEDATE": "2018-08-09T00:00:00.000Z", "VAL_METHOD": "IMAGERY", "VAL_DATE": "2014-03-12T00:00:00.000Z", "WEBSITE": "http://www.spectrumhealth.org/butterworth", "STATE_ID": "NOT AVAILABLE", "ALT_NAME": "NOT AVAILABLE", "ST_FIPS": "26", "OWNER": "NON-PROFIT", "TTL_STAFF": -999, "BEDS": 852, "TRAUMA": "LEVEL I", "HELIPAD": "Y" }, "geometry": { "type": "Polygon", "coordinates": [ [ [ -85.6783185, 42.8235545 ], [ -85.7892546, 42.881613499999958 ], [ -85.789278, 42.955475 ], [ -85.783156, 43.016022 ], [ -85.78208, 43.020778 ], [ -85.767811, 43.045105 ], [ -85.6915526, 43.093502 ], [ -85.637392, 43.097124 ], [ -85.636448, 43.097123 ], [ -85.631863, 43.095825 ], [ -85.627949, 43.0937143 ], [ -85.62400030000002, 43.0911525 ], [ -85.610383, 43.080734599999978 ], [ -85.57846069999998, 43.053343299999973 ], [ -85.496224, 42.959485 ], [ -85.515574, 42.898341 ], [ -85.663567, 42.826148 ], [ -85.673572100000015, 42.823493600000035 ], [ -85.675912, 42.823521 ], [ -85.6783185, 42.8235545 ] ] ] } },
{ "type": "Feature", "properties": { "OBJECTID": 5633, "ID": "0001449684", "NAME": "MUNSON MEDICAL CENTER", "ADDRESS": "1105 SIXTH STREET", "CITY": "TRAVERSE CITY", "STATE": "MI", "ZIP": "49684", "ZIP4": "NOT AVAILABLE", "TELEPHONE": "NOT AVAILABLE", "TYPE": "GENERAL ACUTE CARE", "STATUS": "OPEN", "POPULATION": 377, "COUNTY": "GRAND TRAVERSE", "COUNTYFIPS": "26055", "COUNTRY": "USA", "LATITUDE": 44.7609781620001, "LONGITUDE": -85.641635924999903, "NAICS_CODE": "622110", "NAICS_DESC": "GENERAL MEDICAL AND SURGICAL HOSPITALS", "SOURCE": "https://w2.lara.state.mi.us/VAL/License/Search", "SOURCEDATE": "2018-08-09T00:00:00.000Z", "VAL_METHOD": "IMAGERY", "VAL_DATE": "2014-03-12T00:00:00.000Z", "WEBSITE": "http://www.munsonhealthcare.org", "STATE_ID": "NOT AVAILABLE", "ALT_NAME": "NOT AVAILABLE", "ST_FIPS": "26", "OWNER": "NON-PROFIT", "TTL_STAFF": -999, "BEDS": 377, "TRAUMA": "LEVEL II", "HELIPAD": "Y" }, "geometry": { "type": "Polygon", "coordinates": [ [ [ -85.656139, 44.650223 ], [ -85.7469825, 44.6865897 ], [ -85.801643, 44.761316700000016 ], [ -85.785942, 44.778509399999969 ], [ -85.653242, 44.862665 ], [ -85.651478, 44.862676 ], [ -85.5627896, 44.811725800000012 ], [ -85.5133868, 44.7486369 ], [ -85.5133384, 44.7477477 ], [ -85.5144279, 44.744877300000013 ], [ -85.520603, 44.740088 ], [ -85.5358068, 44.728360900000055 ], [ -85.656139, 44.650223 ] ] ] } },
{ "type": "Feature", "properties": { "OBJECTID": 5634, "ID": "0003949738", "NAME": "MUNSON HEALTHCARE GRAYLING", "ADDRESS": "1100 E MICHIGAN AVE", "CITY": "GRAYLING", "STATE": "MI", "ZIP": "49738", "ZIP4": "NOT AVAILABLE", "TELEPHONE": "NOT AVAILABLE", "TYPE": "GENERAL ACUTE CARE", "STATUS": "OPEN", "POPULATION": 71, "COUNTY": "CRAWFORD", "COUNTYFIPS": "26039", "COUNTRY": "USA", "LATITUDE": 44.668097048000099, "LONGITUDE": -84.707014731999905, "NAICS_CODE": "622110", "NAICS_DESC": "GENERAL MEDICAL AND SURGICAL HOSPITALS", "SOURCE": "https://w2.lara.state.mi.us/VAL/License/Search", "SOURCEDATE": "2018-08-09T00:00:00.000Z", "VAL_METHOD": "IMAGERY", "VAL_DATE": "2014-02-10T00:00:00.000Z", "WEBSITE": "http://www.munsonhealthcare.org/graylinghospital", "STATE_ID": "NOT AVAILABLE", "ALT_NAME": "MERCY HOSPITAL - GRAYLING", "ST_FIPS": "26", "OWNER": "NON-PROFIT", "TTL_STAFF": -999, "BEDS": 71, "TRAUMA": "NOT AVAILABLE", "HELIPAD": "Y" }, "geometry": { "type": "Polygon", "coordinates": [ [ [ -84.710852, 44.551969 ], [ -84.725893, 44.554643 ], [ -84.8016968, 44.623302699999982 ], [ -84.817680200000012, 44.657488699999973 ], [ -84.8269591, 44.6849947 ], [ -84.757099, 44.757186 ], [ -84.714283100000017, 44.790600699999956 ], [ -84.693209, 44.787004000000103 ], [ -84.6862585, 44.785416399999981 ], [ -84.5405414, 44.648685599999979 ], [ -84.5412828, 44.645091099999988 ], [ -84.710852, 44.551969 ] ] ] } },
{ "type": "Feature", "properties": { "OBJECTID": 3937, "ID": "0179749506", "NAME": "SELECT SPECIALTY HOSPITAL - SPECTRUM HEALTH", "ADDRESS": "1840 WEALTHY STREET SE, 5TH FLOOR", "CITY": "GRAND RAPIDS", "STATE": "MI", "ZIP": "49506", "ZIP4": "NOT AVAILABLE", "TELEPHONE": "NOT AVAILABLE", "TYPE": "LONG TERM CARE", "STATUS": "OPEN", "POPULATION": 36, "COUNTY": "KENT", "COUNTYFIPS": "26081", "COUNTRY": "USA", "LATITUDE": 42.953486935999997, "LONGITUDE": -85.622567473999894, "NAICS_CODE": "622310", "NAICS_DESC": "SPECIALTY (EXCEPT PSYCHIATRIC AND SUBSTANCE ABUSE) HOSPITALS", "SOURCE": "https://w2.lara.state.mi.us/VAL/License/Search", "SOURCEDATE": "2018-08-09T00:00:00.000Z", "VAL_METHOD": "IMAGERY/OTHER", "VAL_DATE": "2019-05-09T00:00:00.000Z", "WEBSITE": "https://grandrapids.selectspecialtyhospitals.com/", "STATE_ID": "1060000130", "ALT_NAME": "NOT AVAILABLE", "ST_FIPS": "26", "OWNER": "PROPRIETARY", "TTL_STAFF": -999, "BEDS": 36, "TRAUMA": "NOT AVAILABLE", "HELIPAD": "Y" }, "geometry": { "type": "Polygon", "coordinates": [ [ [ -85.6792484, 42.859499800000016 ], [ -85.6838355, 42.8640465 ], [ -85.7389512, 42.921216 ], [ -85.749623400000019, 42.9719877 ], [ -85.7494845, 42.973031399999989 ], [ -85.726239, 43.022584 ], [ -85.6896302, 43.039017700000016 ], [ -85.6626476, 43.049080600000032 ], [ -85.5798653, 43.056845600000017 ], [ -85.474416, 42.9552919 ], [ -85.5001476, 42.8893675 ], [ -85.6248997, 42.8556866 ], [ -85.6792484, 42.859499800000016 ] ] ] } }
]
}
