{
"type": "FeatureCollection",
"crs": { "type": "name", "properties": { "name": "urn:ogc:def:crs:OGC:1.3:CRS84" } },
"features": [
{ "type": "Feature", "properties": { "OBJECTID": 1324, "ID": "0016917701", "NAME": "WILLIAMSPORT REGIONAL MEDICAL CENTER", "ADDRESS": "700 HIGH STREET", "CITY": "WILLIAMSPORT", "STATE": "PA", "ZIP": "17701", "ZIP4": "NOT AVAILABLE", "TELEPHONE": "(570) 321-2389", "TYPE": "GENERAL ACUTE CARE", "STATUS": "OPEN", "POPULATION": 228, "COUNTY": "LYCOMING", "COUNTYFIPS": "42081", "COUNTRY": "USA", "LATITUDE": 41.247010628000098, "LONGITUDE": -77.015966970999997, "NAICS_CODE": "622110", "NAICS_DESC": "GENERAL MEDICAL AND SURGICAL HOSPITALS", "SOURCE": "http://sais.health.pa.gov/commonpoc/content/publiccommonpoc/normalSearch.asp", "SOURCEDATE": "2018-08-09T00:00:00.000Z", "VAL_METHOD": "IMAGERY", "VAL_DATE": "2014-02-10T00:00:00.000Z", "WEBSITE": "http://www.susquehannahealth.org/", "STATE_ID": "234600", "ALT_NAME": "NOT AVAILABLE", "ST_FIPS": "42", "OWNER": "NON-PROFIT", "TTL_STAFF": -999, "BEDS": 228, "TRAUMA": "NOT AVAILABLE", "HELIPAD": "Y" }, "geometry": { "type": "Polygon", "coordinates": [ [ [ -77.0720474, 41.2020069 ], [ -77.136465, 41.231277 ], [ -77.084281, 41.297215 ], [ -77.066976, 41.307001 ], [ -77.02382, 41.329016 ], [ -77.01071, 41.325875 ], [ -76.90884, 41.278312 ], [ -76.892777, 41.255845 ], [ -76.894013, 41.245503 ], [ -76.9191318, 41.1998752 ], [ -77.042954, 41.198162 ], [ -77.0720474, 41.2020069 ] ] ] } },
{ "type": "Feature", "properties": { "OBJECTID": 1683, "ID": "0120812742", "NAME": "CATSKILL REGIONAL MEDICAL CENTER", "ADDRESS": "68 HARRIS-BUSHVILLE RD", "CITY": "HARRIS", "STATE": "NY", "ZIP": "12742", "ZIP4": "NOT AVAILABLE", "TELEPHONE": "(845) 794-3300", "TYPE": "GENERAL ACUTE CARE", "STATUS": "OPEN", "POPULATION": 154, "COUNTY": "SULLIVAN", "COUNTYFIPS": "36105", "COUNTRY": "USA", "LATITUDE": 41.709060786000101, "LONGITUDE": -74.737524398999895, "NAICS_CODE": "622110", "NAICS_DESC": "GENERAL MEDICAL AND SURGICAL HOSPITALS", "SOURCE": "https://profiles.health.ny.gov/hospital/county_or_region/", "SOURCEDATE": "2018-08-20T00:00:00.000Z", "VAL_METHOD": "IMAGERY/OTHER", "VAL_DATE": "2015-02-24T00:00:00.000Z", "WEBSITE": "http://www.crmcny.org/", "STATE_ID": "5263000H", "ALT_NAME": "NOT AVAILABLE", "ST_FIPS": "36", "OWNER": "NON-PROFIT", "TTL_STAFF": -999, "BEDS": 154, "TRAUMA": "NOT AVAILABLE", "HELIPAD": "Y" }, "geometry": { "type": "Polygon", "coordinates": [ [ [ -74.7057451, 41.641872 ], [ -74.774166099999988, 41.667361 ], [ -74.787147, 41.718356 ], [ -74.781856, 41.750793 ], [ -74.778449, 41.766783 ], [ -74.7586331, 41.8515946 ], [ -74.711908, 41.820451 ], [ -74.668903, 41.777764 ], [ -74.647086, 41.6459401 ], [ -74.646897, 41.643301 ], [ -74.683406, 41.642245 ], [ -74.7057451, 41.641872 ] ] ] } },
{ "type": "Feature", "properties": { "OBJECTID": 2366, "ID": "0023717901", "NAME": "SCHUYLKILL MEDICAL CENTER EAST NORWEGIAN STREET", "ADDRESS": "700 EAST NORWEGIAN STREET", "CITY": "POTTSVILLE", "STATE": "PA", "ZIP": "17901", "ZIP4": "NOT AVAILABLE", "TELEPHONE": "(570) 621-4000", "TYPE": "GENERAL ACUTE CARE", "STATUS": "OPEN", "POPULATION": 136, "COUNTY": "SCHUYLKILL", "COUNTYFIPS": "42107", "COUNTRY": "USA", "LATITUDE": 40.690876002000003, "LONGITUDE": -76.188240000999897, "NAICS_CODE": "622110", "NAICS_DESC": "GENERAL MEDICAL AND SURGICAL HOSPITALS", "SOURCE": "http://sais.health.pa.gov/commonpoc/content/publiccommonpoc/normalSearch.asp", "SOURCEDATE": "2018-08-09T00:00:00.000Z", "VAL_METHOD": "IMAGERY", "VAL_DATE": "2014-02-10T00:00:00.000Z", "WEBSITE": "http://www.schuylkillhealth.com/index.php?id=192&fId=1", "STATE_ID": "590200", "ALT_NAME": "NOT AVAILABLE", "ST_FIPS": "42", "OWNER": "NON-PROFIT", "TTL_STAFF": -999, "BEDS": 136, "TRAUMA": "NOT AVAILABLE", "HELIPAD": "N" }, "geometry": { "type": "Polygon", "coordinates": [ [ [ -76.2106998, 40.6213141 ], [ -76.293866, 40.668800700000027 ], [ -76.281248, 40.690909 ], [ -76.2199396, 40.770874900000045 ], [ -76.218490700000018, 40.770981599999985 ], [ -76.1082857, 40.7246667 ], [ -76.131371, 40.645119300000019 ], [ -76.1674413, 40.617513300000013 ], [ -76.2106998, 40.6213141 ] ] ] } },
{ "type": "Feature", "properties": { "OBJECTID": 2375, "ID": "0012216901", "NAME": "SOLDIERS & SAILORS MEMORIAL HOSPITAL", "ADDRESS": "32-36 CENTRAL AVENUE", "CITY": "WELLSBORO", "STATE": "PA", "ZIP": "16901", "ZIP4": "NOT AVAILABLE", "TELEPHONE": "(570) 724-1631", "TYPE": "GENERAL ACUTE CARE", "STATUS": "OPEN", "POPULATION": 83, "COUNTY": "TIOGA", "COUNTYFIPS": "42117", "COUNTRY": "USA", "LATITUDE": 41.745113, "LONGITUDE": -77.300430999, "NAICS_CODE": "622110", "NAICS_DESC": "GENERAL MEDICAL AND SURGICAL HOSPITALS", "SOURCE": "http://sais.health.pa.gov/commonpoc/content/publiccommonpoc/normalSearch.asp", "SOURCEDATE": "2018-08-09T00:00:00.000Z", "VAL_METHOD": "IMAGERY", "VAL_DATE": "2014-02-10T00:00:00.000Z", "WEBSITE": "http://www.susquehannahealth.org", "STATE_ID": "195300", "ALT_NAME": "NOT AVAILABLE", "ST_FIPS": "42", "OWNER": "NON-PROFIT", "TTL_STAFF": -999, "BEDS": 83, "TRAUMA": "NOT AVAILABLE", "HELIPAD": "N" }, "geometry": { "type": "Polygon", "coordinates": [ [ [ -77.3117933, 41.6687883 ], [ -77.3912852, 41.7027527 ], [ -77.3914869, 41.726361900000015 ], [ -77.3903277, 41.741039199999989 ], [ -77.3799162, 41.770431 ], [ -77.28803, 41.825230400000031 ], [ -77.2162812, 41.797511900000032 ], [ -77.1719892, 41.77629220000005 ], [ -77.1735291, 41.770253700000019 ], [ -77.1983566, 41.7340598 ], [ -77.2377948, 41.7029261 ], [ -77.2629838, 41.690772699999961 ], [ -77.2960711, 41.675468199999969 ], [ -77.3117933, 41.6687883 ] ] ] } },
{ "type": "Feature", "properties": { "OBJECTID": 2376, "ID": "0023317837", "NAME": "EVANGELICAL COMMUNITY HOSPITAL", "ADDRESS": "ONE HOSPITAL DRIVE", "CITY": "LEWISBURG", "STATE": "PA", "ZIP": "17837", "ZIP4": "NOT AVAILABLE", "TELEPHONE": "(570) 522-2000", "TYPE": "GENERAL ACUTE CARE", "STATUS": "OPEN", "POPULATION": 127, "COUNTY": "UNION", "COUNTYFIPS": "42119", "COUNTRY": "USA", "LATITUDE": 40.979735001000101, "LONGITUDE": -76.886620000999997, "NAICS_CODE": "622110", "NAICS_DESC": "GENERAL MEDICAL AND SURGICAL HOSPITALS", "SOURCE": "http://sais.health.pa.gov/commonpoc/content/publiccommonpoc/normalSearch.asp", "SOURCEDATE": "2018-08-09T00:00:00.000Z", "VAL_METHOD": "IMAGERY", "VAL_DATE": "2014-02-10T00:00:00.000Z", "WEBSITE": "http://www.evanhospital.com", "STATE_ID": "570200", "ALT_NAME": "NOT AVAILABLE", "ST_FIPS": "42", "OWNER": "NON-PROFIT", "TTL_STAFF": -999, "BEDS": 127, "TRAUMA": "NOT AVAILABLE", "HELIPAD": "Y" }, "geometry": { "type": "Polygon", "coordinates": [ [ [ -76.8547237, 40.893619499999957 ], [ -76.978427, 40.940839 ], [ -77.014573, 40.985464 ], [ -76.88689, 41.091716 ], [ -76.8849896, 41.092679500000031 ], [ -76.865106400000016, 41.080614599999976 ], [ -76.857759, 41.065815 ], [ -76.8420307, 40.900542400000027 ], [ -76.8458971, 40.893084 ], [ -76.8547237, 40.893619499999957 ] ] ] } },
{ "type": "Feature", "properties": { "OBJECTID": 2377, "ID": "0016818764", "NAME": "WILKES-BARRE GENERAL HOSPITAL", "ADDRESS": "575 NORTH RIVER STREET", "CITY": "WILKES-BARRE", "STATE": "PA", "ZIP": "18764", "ZIP4": "NOT AVAILABLE", "TELEPHONE": "(570) 829-8111", "TYPE": "GENERAL ACUTE CARE", "STATUS": "OPEN", "POPULATION": 412, "COUNTY": "LUZERNE", "COUNTYFIPS": "42079", "COUNTRY": "USA", "LATITUDE": 41.258691431000003, "LONGITUDE": -75.867063673999994, "NAICS_CODE": "622110", "NAICS_DESC": "GENERAL MEDICAL AND SURGICAL HOSPITALS", "SOURCE": "http://sais.health.pa.gov/commonpoc/content/publiccommonpoc/normalSearch.asp", "SOURCEDATE": "2018-08-09T00:00:00.000Z", "VAL_METHOD": "IMAGERY", "VAL_DATE": "2014-01-10T00:00:00.000Z", "WEBSITE": "http://www.wvhc.org", "STATE_ID": "234500", "ALT_NAME": "NOT AVAILABLE", "ST_FIPS": "42", "OWNER": "PROPRIETARY", "TTL_STAFF": -999, "BEDS": 412, "TRAUMA": "NOT AVAILABLE", "HELIPAD": "Y" }, "geometry": { "type": "Polygon", "coordinates": [ [ [ -75.921608, 41.19873 ], [ -75.957338, 41.21097909999996 ], [ -75.954513, 41.297317099999972 ], [ -75.9420787, 41.319793299999986 ], [ -75.9386278, 41.319905799999979 ], [ -75.8483532, 41.322070299999979 ], [ -75.8424128, 41.3217101 ], [ -75.8215738, 41.319207500000012 ], [ -75.800984, 41.315404 ], [ -75.798768, 41.314522699999962 ], [ -75.7692168, 41.301828499999964 ], [ -75.771892, 41.253848 ], [ -75.7925568, 41.2052415 ], [ -75.7927177, 41.2048986 ], [ -75.889143, 41.195830600000029 ], [ -75.921608, 41.19873 ] ] ] } },
{ "type": "Feature", "properties": { "OBJECTID": 2378, "ID": "0013918104", "NAME": "WESTFIELD HOSPITAL", "ADDRESS": "4815 TILGHMAN STREET", "CITY": "ALLENTOWN", "STATE": "PA", "ZIP": "18104", "ZIP4": "NOT AVAILABLE", "TELEPHONE": "(610) 973-8400", "TYPE": "GENERAL ACUTE CARE", "STATUS": "CLOSED", "POPULATION": 25, "COUNTY": "LEHIGH", "COUNTYFIPS": "42077", "COUNTRY": "USA", "LATITUDE": 40.590491176999997, "LONGITUDE": -75.563347947999901, "NAICS_CODE": "622110", "NAICS_DESC": "GENERAL MEDICAL AND SURGICAL HOSPITALS", "SOURCE": "http://www.pasda.psu.edu/uci/DataSummary.aspx?dataset=909", "SOURCEDATE": "2016-09-26T00:00:00.000Z", "VAL_METHOD": "IMAGERY", "VAL_DATE": "2014-01-13T00:00:00.000Z", "WEBSITE": "http://www.westfieldhospital.com", "STATE_ID": "206300", "ALT_NAME": "NOT AVAILABLE", "ST_FIPS": "42", "OWNER": "PROPRIETARY", "TTL_STAFF": -999, "BEDS": 25, "TRAUMA": "NOT AVAILABLE", "HELIPAD": "N" }, "geometry": { "type": "Polygon", "coordinates": [ [ [ -75.54952, 40.512702 ], [ -75.616292, 40.528863 ], [ -75.6465901, 40.5380354 ], [ -75.64818, 40.538780799999977 ], [ -75.709155, 40.57368 ], [ -75.709347, 40.573879 ], [ -75.709768, 40.57871410000002 ], [ -75.708872, 40.586412 ], [ -75.6072689, 40.668674 ], [ -75.541405, 40.660274 ], [ -75.480779200000015, 40.652476799999967 ], [ -75.4313137, 40.644056900000052 ], [ -75.4207468, 40.55049589999998 ], [ -75.420822300000012, 40.550444600000034 ], [ -75.4241334, 40.548418800000022 ], [ -75.4252577, 40.548045700000081 ], [ -75.5014778, 40.5232367 ], [ -75.508708100000021, 40.5214383 ], [ -75.54952, 40.512702 ] ] ] } },
{ "type": "Feature", "properties": { "OBJECTID": 2379, "ID": "0025718103", "NAME": "GOOD SHEPHERD REHABILITATION HOSPITAL", "ADDRESS": "850 SOUTH 5TH STREET", "CITY": "ALLENTOWN", "STATE": "PA", "ZIP": "18103", "ZIP4": "NOT AVAILABLE", "TELEPHONE": "(610) 776-3100", "TYPE": "REHABILITATION", "STATUS": "OPEN", "POPULATION": 102, "COUNTY": "LEHIGH", "COUNTYFIPS": "42077", "COUNTRY": "USA", "LATITUDE": 40.592608482000102, "LONGITUDE": -75.463855354000003, "NAICS_CODE": "622310", "NAICS_DESC": "REHABILITATION HOSPITALS (EXCEPT ALCOHOLISM, DRUG ADDICTION)", "SOURCE": "http://sais.health.pa.gov/commonpoc/content/publiccommonpoc/normalSearch.asp", "SOURCEDATE": "2018-08-09T00:00:00.000Z", "VAL_METHOD": "IMAGERY", "VAL_DATE": "2014-02-10T00:00:00.000Z", "WEBSITE": "http://www.goodshepherdrehab.org", "STATE_ID": "850100", "ALT_NAME": "NOT AVAILABLE", "ST_FIPS": "42", "OWNER": "NON-PROFIT", "TTL_STAFF": -999, "BEDS": 102, "TRAUMA": "NOT AVAILABLE", "HELIPAD": "N" }, "geometry": { "type": "Polygon", "coordinates": [ [ [ -75.5065659, 40.523282800000011 ], [ -75.5123324, 40.527084699999989 ], [ -75.5638861, 40.564568 ], [ -75.5652778, 40.565849099999987 ], [ -75.5655641, 40.567716200000035 ], [ -75.5603396, 40.5997705 ], [ -75.555205, 40.612941 ], [ -75.516847, 40.673282 ], [ -75.4193945, 40.672327899999971 ], [ -75.398373, 40.652358299999989 ], [ -75.362858499999987, 40.6115038 ], [ -75.3628863, 40.610972800000035 ], [ -75.387194, 40.521622300000047 ], [ -75.412369, 40.51895 ], [ -75.449351, 40.520216 ], [ -75.480729, 40.521764 ], [ -75.5065659, 40.523282800000011 ] ] ] } },
{ "type": "Feature", "properties": { "OBJECTID": 2380, "ID": "0012917866", "NAME": "GEISINGER SHAMOKIN AREA COMMUNITY HOSPITAL", "ADDRESS": "4200 HOSPITAL ROAD", "CITY": "COAL TOWNSHIP", "STATE": "PA", "ZIP": "17866", "ZIP4": "NOT AVAILABLE", "TELEPHONE": "(570) 644-4200", "TYPE": "GENERAL ACUTE CARE", "STATUS": "OPEN", "POPULATION": 55, "COUNTY": "NORTHUMBERLAND", "COUNTYFIPS": "42097", "COUNTRY": "USA", "LATITUDE": 40.805866681000097, "LONGITUDE": -76.570504970999906, "NAICS_CODE": "622110", "NAICS_DESC": "GENERAL MEDICAL AND SURGICAL HOSPITALS", "SOURCE": "http://sais.health.pa.gov/commonpoc/content/publiccommonpoc/normalSearch.asp", "SOURCEDATE": "2018-08-09T00:00:00.000Z", "VAL_METHOD": "IMAGERY", "VAL_DATE": "2014-02-10T00:00:00.000Z", "WEBSITE": "http://www.geisinger.org/locations/gsach/", "STATE_ID": "196500", "ALT_NAME": "NOT AVAILABLE", "ST_FIPS": "42", "OWNER": "NON-PROFIT", "TTL_STAFF": -999, "BEDS": 55, "TRAUMA": "NOT AVAILABLE", "HELIPAD": "Y" }, "geometry": { "type": "Polygon", "coordinates": [ [ [ -76.570569, 40.756033 ], [ -76.641003, 40.785767 ], [ -76.630087, 40.850317 ], [ -76.585702700000013, 40.872794300000074 ], [ -76.5491901, 40.861571499999989 ], [ -76.5048706, 40.837333799999975 ], [ -76.474494, 40.794067 ], [ -76.4744, 40.793547 ], [ -76.474312, 40.79303 ], [ -76.495556, 40.768684 ], [ -76.496317, 40.768144 ], [ -76.509169, 40.761942 ], [ -76.534959, 40.753788 ], [ -76.570569, 40.756033 ] ] ] } },
{ "type": "Feature", "properties": { "OBJECTID": 2385, "ID": "0001618501", "NAME": "ALLIED SERVICES REHABILITATION HOSPITAL", "ADDRESS": "475 MORGAN HIGHWAY, PO BOX 1103", "CITY": "SCRANTON", "STATE": "PA", "ZIP": "18501", "ZIP4": "NOT AVAILABLE", "TELEPHONE": "(570) 348-1300", "TYPE": "REHABILITATION", "STATUS": "OPEN", "POPULATION": 135, "COUNTY": "LACKAWANNA", "COUNTYFIPS": "42069", "COUNTRY": "USA", "LATITUDE": 41.454511201000102, "LONGITUDE": -75.677720023999896, "NAICS_CODE": "622310", "NAICS_DESC": "REHABILITATION HOSPITALS (EXCEPT ALCOHOLISM, DRUG ADDICTION)", "SOURCE": "http://sais.health.pa.gov/commonpoc/content/publiccommonpoc/normalSearch.asp", "SOURCEDATE": "2018-08-09T00:00:00.000Z", "VAL_METHOD": "IMAGERY/OTHER", "VAL_DATE": "2014-02-10T00:00:00.000Z", "WEBSITE": "http://www.allied-services.org", "STATE_ID": "011900", "ALT_NAME": "NOT AVAILABLE", "ST_FIPS": "42", "OWNER": "NON-PROFIT", "TTL_STAFF": -999, "BEDS": 135, "TRAUMA": "NOT AVAILABLE", "HELIPAD": "N" }, "geometry": { "type": "Polygon", "coordinates": [ [ [ -75.6902314, 41.369319299999951 ], [ -75.744372100000021, 41.379683399999969 ], [ -75.7452303, 41.381208100000023 ], [ -75.7688696, 41.472187400000038 ], [ -75.7714317, 41.484739100000013 ], [ -75.7261364, 41.5168557 ], [ -75.6515811, 41.551089100000013 ], [ -75.5813829, 41.5001994 ], [ -75.5846749, 41.439992899999986 ], [ -75.5885408, 41.401975 ], [ -75.6821336, 41.3696823 ], [ -75.6902314, 41.369319299999951 ] ] ] } },
{ "type": "Feature", "properties": { "OBJECTID": 2386, "ID": "0004617701", "NAME": "DIVINE PROVIDENCE HOSPITAL", "ADDRESS": "1100 GRAMPIAN BOULEVARD", "CITY": "WILLIAMSPORT", "STATE": "PA", "ZIP": "17701", "ZIP4": "NOT AVAILABLE", "TELEPHONE": "(570) 326-8000", "TYPE": "PSYCHIATRIC", "STATUS": "OPEN", "POPULATION": 31, "COUNTY": "LYCOMING", "COUNTYFIPS": "42081", "COUNTRY": "USA", "LATITUDE": 41.260041000999998, "LONGITUDE": -76.984769, "NAICS_CODE": "622210", "NAICS_DESC": "PSYCHIATRIC AND SUBSTANCE ABUSE HOSPITALS", "SOURCE": "http://sais.health.pa.gov/commonpoc/content/publiccommonpoc/normalSearch.asp", "SOURCEDATE": "2018-08-09T00:00:00.000Z", "VAL_METHOD": "IMAGERY", "VAL_DATE": "2014-02-10T00:00:00.000Z", "WEBSITE": "http://susquehannahealth.org", "STATE_ID": "041000", "ALT_NAME": "NOT AVAILABLE", "ST_FIPS": "42", "OWNER": "NON-PROFIT", "TTL_STAFF": -999, "BEDS": 31, "TRAUMA": "NOT AVAILABLE", "HELIPAD": "N" }, "geometry": { "type": "Polygon", "coordinates": [ [ [ -77.029439, 41.206811 ], [ -77.077185, 41.227192 ], [ -77.070887, 41.251919 ], [ -77.028328, 41.319346 ], [ -77.022984, 41.321801 ], [ -76.908569, 41.287031 ], [ -76.897052, 41.279778 ], [ -76.896163, 41.278505 ], [ -76.884775, 41.258817 ], [ -76.882146, 41.244991 ], [ -76.883493, 41.243887 ], [ -76.886901, 41.242204 ], [ -77.029439, 41.206811 ] ] ] } },
{ "type": "Feature", "properties": { "OBJECTID": 2407, "ID": "0028516947", "NAME": "TROY COMMUNITY HOSPITAL", "ADDRESS": "275 GUTHRIE DRIVE", "CITY": "TROY", "STATE": "PA", "ZIP": "16947", "ZIP4": "NOT AVAILABLE", "TELEPHONE": "(570) 297-9210", "TYPE": "GENERAL ACUTE CARE", "STATUS": "OPEN", "POPULATION": 25, "COUNTY": "BRADFORD", "COUNTYFIPS": "42015", "COUNTRY": "USA", "LATITUDE": 41.793611048000102, "LONGITUDE": -76.794290253, "NAICS_CODE": "622110", "NAICS_DESC": "GENERAL MEDICAL AND SURGICAL HOSPITALS", "SOURCE": "http://sais.health.pa.gov/commonpoc/content/publiccommonpoc/normalSearch.asp", "SOURCEDATE": "2018-08-09T00:00:00.000Z", "VAL_METHOD": "IMAGERY", "VAL_DATE": "2016-09-26T00:00:00.000Z", "WEBSITE": "https://www.guthrie.org/location/guthrie-troy-community-hospital", "STATE_ID": "NOT AVAILABLE", "ALT_NAME": "NOT AVAILABLE", "ST_FIPS": "42", "OWNER": "NON-PROFIT", "TTL_STAFF": -999, "BEDS": 25, "TRAUMA": "NOT AVAILABLE", "HELIPAD": "Y" }, "geometry": { "type": "Polygon", "coordinates": [ [ [ -76.8323905, 41.70459109999998 ], [ -76.8986431, 41.794452900000088 ], [ -76.902638, 41.814073 ], [ -76.87502, 41.839407 ], [ -76.85429, 41.849861 ], [ -76.809819, 41.854986900000029 ], [ -76.774948, 41.845139 ], [ -76.6879879, 41.762306799999983 ], [ -76.748423, 41.712771 ], [ -76.771195, 41.708018 ], [ -76.8323905, 41.70459109999998 ] ] ] } },
{ "type": "Feature", "properties": { "OBJECTID": 2454, "ID": "0001314905", "NAME": "ARNOT OGDEN MEDICAL CENTER", "ADDRESS": "600 ROE AVE", "CITY": "ELMIRA", "STATE": "NY", "ZIP": "14905", "ZIP4": "NOT AVAILABLE", "TELEPHONE": "(607) 737-4230", "TYPE": "GENERAL ACUTE CARE", "STATUS": "OPEN", "POPULATION": 266, "COUNTY": "CHEMUNG", "COUNTYFIPS": "36015", "COUNTRY": "USA", "LATITUDE": 42.100149418999997, "LONGITUDE": -76.827759865000004, "NAICS_CODE": "622110", "NAICS_DESC": "GENERAL MEDICAL AND SURGICAL HOSPITALS", "SOURCE": "https://profiles.health.ny.gov/hospital/county_or_region/", "SOURCEDATE": "2018-08-20T00:00:00.000Z", "VAL_METHOD": "IMAGERY/OTHER", "VAL_DATE": "2014-03-12T00:00:00.000Z", "WEBSITE": "http://www.arnothealth.org/arnot-ogden-medical-center", "STATE_ID": "0701000H", "ALT_NAME": "NOT AVAILABLE", "ST_FIPS": "36", "OWNER": "NON-PROFIT", "TTL_STAFF": -999, "BEDS": 266, "TRAUMA": "NOT AVAILABLE", "HELIPAD": "Y" }, "geometry": { "type": "Polygon", "coordinates": [ [ [ -76.797476, 42.024221 ], [ -76.8574813, 42.042256 ], [ -76.901279, 42.075949 ], [ -76.9066352, 42.0962697 ], [ -76.889807, 42.129217 ], [ -76.867356, 42.161787 ], [ -76.843632, 42.177622 ], [ -76.837206, 42.180763 ], [ -76.832196, 42.182454 ], [ -76.8054102, 42.16762930000003 ], [ -76.757091, 42.108419 ], [ -76.7416504, 42.072824500000038 ], [ -76.7253643, 42.030677600000026 ], [ -76.797476, 42.024221 ] ] ] } },
{ "type": "Feature", "properties": { "OBJECTID": 6133, "ID": "0007318201", "NAME": "LEHIGH VALLEY HOSPITAL HAZLETON", "ADDRESS": "700 EAST BROAD STREET", "CITY": "HAZLETON", "STATE": "PA", "ZIP": "18201", "ZIP4": "NOT AVAILABLE", "TELEPHONE": "(570) 501-4000", "TYPE": "GENERAL ACUTE CARE", "STATUS": "OPEN", "POPULATION": 150, "COUNTY": "LUZERNE", "COUNTYFIPS": "42079", "COUNTRY": "USA", "LATITUDE": 40.949176001000097, "LONGITUDE": -75.964829, "NAICS_CODE": "622110", "NAICS_DESC": "GENERAL MEDICAL AND SURGICAL HOSPITALS", "SOURCE": "http://sais.health.pa.gov/commonpoc/content/publiccommonpoc/normalSearch.asp", "SOURCEDATE": "2018-08-09T00:00:00.000Z", "VAL_METHOD": "IMAGERY", "VAL_DATE": "2014-02-10T00:00:00.000Z", "WEBSITE": "http://www.lvhn.org/hazleton/facilities-and-directions/lehigh-valley-hospital-hazleton/", "STATE_ID": "083700", "ALT_NAME": "NOT AVAILABLE", "ST_FIPS": "42", "OWNER": "NON-PROFIT", "TTL_STAFF": -999, "BEDS": 150, "TRAUMA": "LEVEL I", "HELIPAD": "Y" }, "geometry": { "type": "Polygon", "coordinates": [ [ [ -76.0281875, 40.915448099999978 ], [ -76.0671615, 40.928986399999985 ], [ -76.0575444, 40.982673399999982 ], [ -76.045642, 40.98899980000003 ], [ -75.9992101, 41.0088836 ], [ -75.963483100000019, 41.023001 ], [ -75.9038997, 40.993732400000034 ], [ -75.8954954, 40.964870300000058 ], [ -75.905281, 40.95150229999998 ], [ -75.9301392, 40.9372208 ], [ -75.9928006, 40.914514 ], [ -76.0281875, 40.915448099999978 ] ] ] } },
{ "type": "Feature", "properties": { "OBJECTID": 6134, "ID": "0004418510", "NAME": "GEISINGER COMMUNITY MEDICAL CENTER", "ADDRESS": "1800 MULBERRY STREET", "CITY": "SCRANTON", "STATE": "PA", "ZIP": "18510", "ZIP4": "NOT AVAILABLE", "TELEPHONE": "(570) 703-8000", "TYPE": "GENERAL ACUTE CARE", "STATUS": "OPEN", "POPULATION": 297, "COUNTY": "LACKAWANNA", "COUNTYFIPS": "42069", "COUNTRY": "USA", "LATITUDE": 41.4002060010001, "LONGITUDE": -75.646223000999996, "NAICS_CODE": "622110", "NAICS_DESC": "GENERAL MEDICAL AND SURGICAL HOSPITALS", "SOURCE": "http://sais.health.pa.gov/commonpoc/content/publiccommonpoc/normalSearch.asp", "SOURCEDATE": "2018-08-09T00:00:00.000Z", "VAL_METHOD": "IMAGERY", "VAL_DATE": "2014-02-10T00:00:00.000Z", "WEBSITE": "http://www.geisinger.org/", "STATE_ID": "037100", "ALT_NAME": "NOT AVAILABLE", "ST_FIPS": "42", "OWNER": "NON-PROFIT", "TTL_STAFF": -999, "BEDS": 297, "TRAUMA": "LEVEL II", "HELIPAD": "Y" }, "geometry": { "type": "Polygon", "coordinates": [ [ [ -75.7388963, 41.3419856 ], [ -75.7469812, 41.355101099999978 ], [ -75.7465102, 41.3592183 ], [ -75.7080182, 41.473210400000028 ], [ -75.678557600000019, 41.484827 ], [ -75.6020639, 41.4698273 ], [ -75.5995138, 41.469242700000024 ], [ -75.5677013, 41.458821199999981 ], [ -75.5683495, 41.3739514 ], [ -75.5902929, 41.348782800000023 ], [ -75.6903739, 41.3429836 ], [ -75.7388963, 41.3419856 ] ] ] } },
{ "type": "Feature", "properties": { "OBJECTID": 6600, "ID": "0021118840", "NAME": "ROBERT PACKER HOSPITAL", "ADDRESS": "ONE GUTHRIE SQUARE", "CITY": "SAYRE", "STATE": "PA", "ZIP": "18840", "ZIP4": "NOT AVAILABLE", "TELEPHONE": "(570) 888-6666", "TYPE": "GENERAL ACUTE CARE", "STATUS": "OPEN", "POPULATION": 238, "COUNTY": "BRADFORD", "COUNTYFIPS": "42015", "COUNTRY": "USA", "LATITUDE": 41.980230001000102, "LONGITUDE": -76.520727000999997, "NAICS_CODE": "622110", "NAICS_DESC": "GENERAL MEDICAL AND SURGICAL HOSPITALS", "SOURCE": "http://sais.health.pa.gov/commonpoc/content/publiccommonpoc/normalSearch.asp", "SOURCEDATE": "2018-08-09T00:00:00.000Z", "VAL_METHOD": "IMAGERY", "VAL_DATE": "2014-02-10T00:00:00.000Z", "WEBSITE": "http://www.guthrie.org", "STATE_ID": "440600", "ALT_NAME": "NOT AVAILABLE", "ST_FIPS": "42", "OWNER": "NON-PROFIT", "TTL_STAFF": -999, "BEDS": 238, "TRAUMA": "LEVEL II", "HELIPAD": "Y" }, "geometry": { "type": "Polygon", "coordinates": [ [ [ -76.532537, 41.906272 ], [ -76.557289, 41.917466 ], [ -76.587013, 41.969025300000013 ], [ -76.5902678, 41.996191800000027 ], [ -76.5875906, 42.000471 ], [ -76.4595509, 42.008223099999967 ], [ -76.4451182, 41.998714700000022 ], [ -76.451634, 41.971086 ], [ -76.490729, 41.929115 ], [ -76.49373, 41.9269 ], [ -76.5210718, 41.907330400000014 ], [ -76.523428, 41.905957 ], [ -76.525523799999988, 41.905933299999987 ], [ -76.532537, 41.906272 ] ] ] } },
{ "type": "Feature", "properties": { "OBJECTID": 6640, "ID": "0008917745", "NAME": "LOCK HAVEN HOSPITAL", "ADDRESS": "24 CREE DRIVE", "CITY": "LOCK HAVEN", "STATE": "PA", "ZIP": "17745", "ZIP4": "NOT AVAILABLE", "TELEPHONE": "(570) 893-5000", "TYPE": "GENERAL ACUTE CARE", "STATUS": "OPEN", "POPULATION": 47, "COUNTY": "CLINTON", "COUNTYFIPS": "42035", "COUNTRY": "USA", "LATITUDE": 41.131598732999997, "LONGITUDE": -77.470211587999998, "NAICS_CODE": "622110", "NAICS_DESC": "GENERAL MEDICAL AND SURGICAL HOSPITALS", "SOURCE": "http://sais.health.pa.gov/commonpoc/content/publiccommonpoc/normalSearch.asp", "SOURCEDATE": "2018-08-09T00:00:00.000Z", "VAL_METHOD": "IMAGERY", "VAL_DATE": "2014-01-07T00:00:00.000Z", "WEBSITE": "http://www.lockhavenhospital.com", "STATE_ID": "122200", "ALT_NAME": "NOT AVAILABLE", "ST_FIPS": "42", "OWNER": "PROPRIETARY", "TTL_STAFF": -999, "BEDS": 47, "TRAUMA": "NOT AVAILABLE", "HELIPAD": "Y" }, "geometry": { "type": "Polygon", "coordinates": [ [ [ -77.506637, 41.044861 ], [ -77.5439994, 41.08717909999995 ], [ -77.524109, 41.139006 ], [ -77.512628, 41.1682 ], [ -77.480765, 41.177614 ], [ -77.479823, 41.177881 ], [ -77.435614, 41.179108 ], [ -77.434251, 41.178783 ], [ -77.3588187, 41.157334900000038 ], [ -77.350337, 41.154007 ], [ -77.346841, 41.151049 ], [ -77.349435, 41.146775 ], [ -77.431374, 41.04954 ], [ -77.506637, 41.044861 ] ] ] } },
{ "type": "Feature", "properties": { "OBJECTID": 6642, "ID": "0004218218", "NAME": "ST LUKE'S MINERS MEMORIAL HOSPITAL", "ADDRESS": "360 WEST RUDDLE STREET", "CITY": "COALDALE", "STATE": "PA", "ZIP": "18218", "ZIP4": "NOT AVAILABLE", "TELEPHONE": "(484) 526-2674", "TYPE": "GENERAL ACUTE CARE", "STATUS": "OPEN", "POPULATION": 45, "COUNTY": "SCHUYLKILL", "COUNTYFIPS": "42107", "COUNTRY": "USA", "LATITUDE": 40.8213881450001, "LONGITUDE": -75.914030213999993, "NAICS_CODE": "622110", "NAICS_DESC": "GENERAL MEDICAL AND SURGICAL HOSPITALS", "SOURCE": "http://sais.health.pa.gov/commonpoc/content/publiccommonpoc/normalSearch.asp", "SOURCEDATE": "2018-08-09T00:00:00.000Z", "VAL_METHOD": "IMAGERY", "VAL_DATE": "2014-02-10T00:00:00.000Z", "WEBSITE": "http://miner.slhn.org/about", "STATE_ID": "036800", "ALT_NAME": "NOT AVAILABLE", "ST_FIPS": "42", "OWNER": "NON-PROFIT", "TTL_STAFF": -999, "BEDS": 45, "TRAUMA": "NOT AVAILABLE", "HELIPAD": "Y" }, "geometry": { "type": "Polygon", "coordinates": [ [ [ -75.9578174, 40.771806699999971 ], [ -76.0114078, 40.78113170000001 ], [ -76.0119449, 40.781775200000013 ], [ -75.9853732, 40.824230199999988 ], [ -75.9835293, 40.8268489 ], [ -75.9834427, 40.826895399999984 ], [ -75.8992486, 40.828381499999971 ], [ -75.8973057, 40.826147599999963 ], [ -75.9578174, 40.771806699999971 ] ] ] } },
{ "type": "Feature", "properties": { "OBJECTID": 6643, "ID": "0020717901", "NAME": "SCHUYLKILL MEDICAL CENTER SOUTH JACKSON STREET", "ADDRESS": "420 SOUTH JACKSON STREET", "CITY": "POTTSVILLE", "STATE": "PA", "ZIP": "17901", "ZIP4": "NOT AVAILABLE", "TELEPHONE": "(570) 621-5102", "TYPE": "GENERAL ACUTE CARE", "STATUS": "OPEN", "POPULATION": 180, "COUNTY": "SCHUYLKILL", "COUNTYFIPS": "42107", "COUNTRY": "USA", "LATITUDE": 40.683794989, "LONGITUDE": -76.188270044999996, "NAICS_CODE": "622110", "NAICS_DESC": "GENERAL MEDICAL AND SURGICAL HOSPITALS", "SOURCE": "http://sais.health.pa.gov/commonpoc/content/publiccommonpoc/normalSearch.asp", "SOURCEDATE": "2018-08-09T00:00:00.000Z", "VAL_METHOD": "IMAGERY", "VAL_DATE": "2014-02-10T00:00:00.000Z", "WEBSITE": "http://www.schuylkillhealth.com/index.php?id=192&fId=2", "STATE_ID": "421000", "ALT_NAME": "NOT AVAILABLE", "ST_FIPS": "42", "OWNER": "NON-PROFIT", "TTL_STAFF": -999, "BEDS": 180, "TRAUMA": "NOT AVAILABLE", "HELIPAD": "N" }, "geometry": { "type": "Polygon", "coordinates": [ [ [ -76.215847, 40.608059699999984 ], [ -76.293866, 40.668800700000027 ], [ -76.281248, 40.690909 ], [ -76.2199396, 40.770874900000045 ], [ -76.218490700000018, 40.770981599999985 ], [ -76.1082857, 40.7246667 ], [ -76.106697, 40.723336 ], [ -76.1059056, 40.641675900000031 ], [ -76.1248589, 40.6327801 ], [ -76.1570228, 40.619500599999967 ], [ -76.1640295, 40.6166817 ], [ -76.215847, 40.608059699999984 ] ] ] } },
{ "type": "Feature", "properties": { "OBJECTID": 6664, "ID": "0006118704", "NAME": "FIRST HOSPITAL WYOMING VALLEY", "ADDRESS": "562 WYOMING AVENUE", "CITY": "KINGSTON", "STATE": "PA", "ZIP": "18704", "ZIP4": "NOT AVAILABLE", "TELEPHONE": "(570) 552-3977", "TYPE": "PSYCHIATRIC", "STATUS": "OPEN", "POPULATION": 107, "COUNTY": "LUZERNE", "COUNTYFIPS": "42079", "COUNTRY": "USA", "LATITUDE": 41.269708002000101, "LONGITUDE": -75.889228000999907, "NAICS_CODE": "622210", "NAICS_DESC": "PSYCHIATRIC AND SUBSTANCE ABUSE HOSPITALS", "SOURCE": "http://sais.health.pa.gov/commonpoc/content/publiccommonpoc/normalSearch.asp", "SOURCEDATE": "2018-08-09T00:00:00.000Z", "VAL_METHOD": "IMAGERY", "VAL_DATE": "2014-02-10T00:00:00.000Z", "WEBSITE": "http://www.bhswv.org/first_hosp.html", "STATE_ID": "002000", "ALT_NAME": "NOT AVAILABLE", "ST_FIPS": "42", "OWNER": "PROPRIETARY", "TTL_STAFF": -999, "BEDS": 107, "TRAUMA": "NOT AVAILABLE", "HELIPAD": "N" }, "geometry": { "type": "Polygon", "coordinates": [ [ [ -75.9092027, 41.199489300000018 ], [ -75.9495797, 41.2151492 ], [ -75.9512186, 41.215856 ], [ -75.9667993, 41.233630099999964 ], [ -75.9723088, 41.2796525 ], [ -75.971725800000016, 41.3034889 ], [ -75.958471, 41.336576100000038 ], [ -75.9393272, 41.338880299999971 ], [ -75.8342567, 41.328607500000011 ], [ -75.8258515, 41.3270604 ], [ -75.821044700000016, 41.325976200000014 ], [ -75.8149667, 41.3243618 ], [ -75.8125599, 41.3220736 ], [ -75.78394990000001, 41.28908069999995 ], [ -75.783209, 41.265501 ], [ -75.791156, 41.234751 ], [ -75.798748, 41.22003 ], [ -75.8011297, 41.216528400000016 ], [ -75.9092027, 41.199489300000018 ] ] ] } },
{ "type": "Feature", "properties": { "OBJECTID": 6665, "ID": "0010718711", "NAME": "GEISINGER WYOMING VALLEY MEDICAL CENTER", "ADDRESS": "1000 EAST MOUNTAIN DRIVE", "CITY": "WILKES-BARRE", "STATE": "PA", "ZIP": "18711", "ZIP4": "NOT AVAILABLE", "TELEPHONE": "(570) 808-7300", "TYPE": "GENERAL ACUTE CARE", "STATUS": "OPEN", "POPULATION": 243, "COUNTY": "LUZERNE", "COUNTYFIPS": "42079", "COUNTRY": "USA", "LATITUDE": 41.257365, "LONGITUDE": -75.808989998999905, "NAICS_CODE": "622110", "NAICS_DESC": "GENERAL MEDICAL AND SURGICAL HOSPITALS", "SOURCE": "http://sais.health.pa.gov/commonpoc/content/publiccommonpoc/normalSearch.asp", "SOURCEDATE": "2018-08-09T00:00:00.000Z", "VAL_METHOD": "IMAGERY", "VAL_DATE": "2014-02-10T00:00:00.000Z", "WEBSITE": "http://www.geisinger.org", "STATE_ID": "148900", "ALT_NAME": "NOT AVAILABLE", "ST_FIPS": "42", "OWNER": "NON-PROFIT", "TTL_STAFF": -999, "BEDS": 243, "TRAUMA": "LEVEL II", "HELIPAD": "Y" }, "geometry": { "type": "Polygon", "coordinates": [ [ [ -75.9021833, 41.204659900000038 ], [ -75.9249147, 41.296699900000014 ], [ -75.737926, 41.3359588 ], [ -75.732986, 41.336868 ], [ -75.7319387, 41.3351766 ], [ -75.718392, 41.244226 ], [ -75.7803185, 41.1908576 ], [ -75.785191, 41.189913 ], [ -75.9021833, 41.204659900000038 ] ] ] } },
{ "type": "Feature", "properties": { "OBJECTID": 6666, "ID": "0025118711", "NAME": "WILKES-BARRE VETERANS AFFAIRS MEDICAL CENTER", "ADDRESS": "1111 EAST END BOULEVARD", "CITY": "WILKES-BARRE", "STATE": "PA", "ZIP": "18711", "ZIP4": "NOT AVAILABLE", "TELEPHONE": "(570) 824-3521", "TYPE": "MILITARY", "STATUS": "OPEN", "POPULATION": 161, "COUNTY": "LUZERNE", "COUNTYFIPS": "42079", "COUNTRY": "USA", "LATITUDE": 41.248104282, "LONGITUDE": -75.835969313000007, "NAICS_CODE": "622110", "NAICS_DESC": "GENERAL MEDICAL AND SURGICAL HOSPITALS", "SOURCE": "https://www.va.gov/directory/guide/allstate.asp", "SOURCEDATE": "2018-09-26T00:00:00.000Z", "VAL_METHOD": "IMAGERY", "VAL_DATE": "2014-02-10T00:00:00.000Z", "WEBSITE": "http://www.va.gov/vamcwb", "STATE_ID": "740200", "ALT_NAME": "NOT AVAILABLE", "ST_FIPS": "42", "OWNER": "GOVERNMENT - FEDERAL", "TTL_STAFF": -999, "BEDS": 161, "TRAUMA": "NOT AVAILABLE", "HELIPAD": "N" }, "geometry": { "type": "Polygon", "coordinates": [ [ [ -75.923477, 41.196211 ], [ -75.928377, 41.197108 ], [ -75.9405676, 41.203311099999951 ], [ -75.9323179, 41.3039672 ], [ -75.9279349, 41.3049284 ], [ -75.7566312, 41.317365599999981 ], [ -75.7522024, 41.314825700000014 ], [ -75.763878, 41.255388 ], [ -75.781538, 41.191082 ], [ -75.785191, 41.189913 ], [ -75.923477, 41.196211 ] ] ] } },
{ "type": "Feature", "properties": { "OBJECTID": 6667, "ID": "0000118017", "NAME": "GOOD SHEPHERD SPECIALTY HOSPITAL", "ADDRESS": "2545 SCHOENERSVILLE ROAD", "CITY": "BETHLEHEM", "STATE": "PA", "ZIP": "18017", "ZIP4": "NOT AVAILABLE", "TELEPHONE": "(484) 884-5051", "TYPE": "LONG TERM CARE", "STATUS": "OPEN", "POPULATION": 32, "COUNTY": "LEHIGH", "COUNTYFIPS": "42077", "COUNTRY": "USA", "LATITUDE": 40.644615592999997, "LONGITUDE": -75.408062561999898, "NAICS_CODE": "622310", "NAICS_DESC": "SPECIALTY (EXCEPT PSYCHIATRIC AND SUBSTANCE ABUSE) HOSPITALS", "SOURCE": "http://sais.health.pa.gov/commonpoc/content/publiccommonpoc/normalSearch.asp", "SOURCEDATE": "2018-08-09T00:00:00.000Z", "VAL_METHOD": "IMAGERY", "VAL_DATE": "2014-02-10T00:00:00.000Z", "WEBSITE": "http://www.goodshepherdrehab.org/long-term-acute-care", "STATE_ID": "003100", "ALT_NAME": "NOT AVAILABLE", "ST_FIPS": "42", "OWNER": "NON-PROFIT", "TTL_STAFF": -999, "BEDS": 32, "TRAUMA": "NOT AVAILABLE", "HELIPAD": "N" }, "geometry": { "type": "Polygon", "coordinates": [ [ [ -75.4573029, 40.582432200000049 ], [ -75.527881400000012, 40.5976063 ], [ -75.545066, 40.610678 ], [ -75.512055, 40.665402 ], [ -75.5119426, 40.665516799999949 ], [ -75.41727, 40.730805 ], [ -75.3931232, 40.728384 ], [ -75.3241739, 40.713135 ], [ -75.289241, 40.697155499999958 ], [ -75.281262500000011, 40.683022100000017 ], [ -75.290473, 40.657349400000051 ], [ -75.3409246, 40.603552399999955 ], [ -75.3864487, 40.588592199999987 ], [ -75.4573029, 40.582432200000049 ] ] ] } },
{ "type": "Feature", "properties": { "OBJECTID": 6668, "ID": "0021518015", "NAME": "ST LUKES UNIVERSITY HOSPITAL - BETHLEHEM", "ADDRESS": "801 OSTRUM STREET", "CITY": "BETHLEHEM", "STATE": "PA", "ZIP": "18015", "ZIP4": "NOT AVAILABLE", "TELEPHONE": "(610) 954-4000", "TYPE": "GENERAL ACUTE CARE", "STATUS": "OPEN", "POPULATION": 480, "COUNTY": "LEHIGH", "COUNTYFIPS": "42077", "COUNTRY": "USA", "LATITUDE": 40.609357002000003, "LONGITUDE": -75.393363, "NAICS_CODE": "622110", "NAICS_DESC": "GENERAL MEDICAL AND SURGICAL HOSPITALS", "SOURCE": "http://sais.health.pa.gov/commonpoc/content/publiccommonpoc/normalSearch.asp", "SOURCEDATE": "2018-08-09T00:00:00.000Z", "VAL_METHOD": "IMAGERY", "VAL_DATE": "2014-02-10T00:00:00.000Z", "WEBSITE": "http://www.slhn-lehighvalley.org", "STATE_ID": "451200", "ALT_NAME": "NOT AVAILABLE", "ST_FIPS": "42", "OWNER": "NON-PROFIT", "TTL_STAFF": -999, "BEDS": 480, "TRAUMA": "LEVEL I", "HELIPAD": "Y" }, "geometry": { "type": "Polygon", "coordinates": [ [ [ -75.395687, 40.536246 ], [ -75.476963, 40.561976 ], [ -75.488343, 40.590027 ], [ -75.486598, 40.59973 ], [ -75.475857, 40.615573 ], [ -75.3898704, 40.6826067 ], [ -75.3877274, 40.682994199999975 ], [ -75.3876119, 40.6830025 ], [ -75.3441012, 40.67599369999995 ], [ -75.3126221, 40.665952600000011 ], [ -75.3038469, 40.622036499999972 ], [ -75.3104578, 40.604365399999956 ], [ -75.319219, 40.5810523 ], [ -75.331716, 40.559777 ], [ -75.336007, 40.553306 ], [ -75.395687, 40.536246 ] ] ] } },
{ "type": "Feature", "properties": { "OBJECTID": 6669, "ID": "0022618105", "NAME": "LEHIGH VALLEY HOSPITAL", "ADDRESS": "CEDAR CREST BLVD & I-78, PO BOX 689", "CITY": "ALLENTOWN", "STATE": "PA", "ZIP": "18105", "ZIP4": "NOT AVAILABLE", "TELEPHONE": "(610) 402-8000", "TYPE": "GENERAL ACUTE CARE", "STATUS": "OPEN", "POPULATION": 797, "COUNTY": "LEHIGH", "COUNTYFIPS": "42077", "COUNTRY": "USA", "LATITUDE": 40.566440002, "LONGITUDE": -75.522880998999895, "NAICS_CODE": "622110", "NAICS_DESC": "GENERAL MEDICAL AND SURGICAL HOSPITALS", "SOURCE": "http://sais.health.pa.gov/commonpoc/content/publiccommonpoc/normalSearch.asp", "SOURCEDATE": "2018-08-09T00:00:00.000Z", "VAL_METHOD": "IMAGERY", "VAL_DATE": "2014-02-10T00:00:00.000Z", "WEBSITE": "http://www.lvhn.org/facilities_directions/hospital_locations/lehigh_valley_hospital_cedar_crest", "STATE_ID": "530200", "ALT_NAME": "NOT AVAILABLE", "ST_FIPS": "42", "OWNER": "NON-PROFIT", "TTL_STAFF": -999, "BEDS": 797, "TRAUMA": "LEVEL I", "HELIPAD": "Y" }, "geometry": { "type": "Polygon", "coordinates": [ [ [ -75.5239084, 40.489427399999968 ], [ -75.642928, 40.541172200000027 ], [ -75.647281, 40.587295 ], [ -75.633184, 40.601174700000037 ], [ -75.591392, 40.639735 ], [ -75.586905, 40.642427 ], [ -75.5485431, 40.6467797 ], [ -75.4898012, 40.642022300000036 ], [ -75.470943, 40.637153 ], [ -75.469611, 40.636552 ], [ -75.46718, 40.635415 ], [ -75.441782, 40.616946 ], [ -75.3894436, 40.5722186 ], [ -75.389355, 40.567343199999968 ], [ -75.390543, 40.523064 ], [ -75.5239084, 40.489427399999968 ] ] ] } },
{ "type": "Feature", "properties": { "OBJECTID": 6679, "ID": "0003518411", "NAME": "CLARKS SUMMIT STATE HOSPITAL", "ADDRESS": "1451 HILLSIDE DRIVE", "CITY": "CLARKS SUMMIT", "STATE": "PA", "ZIP": "18411", "ZIP4": "NOT AVAILABLE", "TELEPHONE": "(570) 586-2011", "TYPE": "PSYCHIATRIC", "STATUS": "OPEN", "POPULATION": 232, "COUNTY": "LACKAWANNA", "COUNTYFIPS": "42069", "COUNTRY": "USA", "LATITUDE": 41.480499001000098, "LONGITUDE": -75.737402001000007, "NAICS_CODE": "622210", "NAICS_DESC": "PSYCHIATRIC AND SUBSTANCE ABUSE HOSPITALS", "SOURCE": "http://sais.health.pa.gov/commonpoc/content/publiccommonpoc/normalSearch.asp", "SOURCEDATE": "2018-08-09T00:00:00.000Z", "VAL_METHOD": "IMAGERY", "VAL_DATE": "2014-02-10T00:00:00.000Z", "WEBSITE": "http://www.dpw.state.pa.us/", "STATE_ID": "035500", "ALT_NAME": "NOT AVAILABLE", "ST_FIPS": "42", "OWNER": "GOVERNMENT - STATE", "TTL_STAFF": -999, "BEDS": 232, "TRAUMA": "NOT AVAILABLE", "HELIPAD": "N" }, "geometry": { "type": "Polygon", "coordinates": [ [ [ -75.7907785, 41.4239349 ], [ -75.813831, 41.445965 ], [ -75.8306665, 41.463533700000013 ], [ -75.7525404, 41.549078199999961 ], [ -75.7496078, 41.549874100000025 ], [ -75.7433054, 41.54925410000002 ], [ -75.6938772, 41.539542 ], [ -75.6846683, 41.536219400000014 ], [ -75.6532046, 41.515875600000015 ], [ -75.6536958, 41.436578 ], [ -75.6710858, 41.421888599999981 ], [ -75.7829748, 41.423192299999968 ], [ -75.7907785, 41.4239349 ] ] ] } },
{ "type": "Feature", "properties": { "OBJECTID": 6680, "ID": "0019518452", "NAME": "MID-VALLEY HOSPITAL", "ADDRESS": "1400 MAIN STREET", "CITY": "PECKVILLE", "STATE": "PA", "ZIP": "18452", "ZIP4": "NOT AVAILABLE", "TELEPHONE": "(717) 383-5500", "TYPE": "GENERAL ACUTE CARE", "STATUS": "CLOSED", "POPULATION": 25, "COUNTY": "LACKAWANNA", "COUNTYFIPS": "42069", "COUNTRY": "USA", "LATITUDE": 41.480823000999997, "LONGITUDE": -75.596063, "NAICS_CODE": "622110", "NAICS_DESC": "GENERAL MEDICAL AND SURGICAL HOSPITALS", "SOURCE": "http://www.pasda.psu.edu/uci/DataSummary.aspx?dataset=909", "SOURCEDATE": "2016-09-26T00:00:00.000Z", "VAL_METHOD": "IMAGERY", "VAL_DATE": "2014-01-13T00:00:00.000Z", "WEBSITE": "http://www.mosestaylorhospital.net/Mid-ValleyHospital/Pages/Mid-Valley%20Hospital.aspx", "STATE_ID": "390500", "ALT_NAME": "NOT AVAILABLE", "ST_FIPS": "42", "OWNER": "PROPRIETARY", "TTL_STAFF": -999, "BEDS": 25, "TRAUMA": "NOT AVAILABLE", "HELIPAD": "N" }, "geometry": { "type": "Polygon", "coordinates": [ [ [ -75.6381745, 41.4095792 ], [ -75.6392688, 41.410127 ], [ -75.6566912, 41.4215928 ], [ -75.6808542, 41.438428 ], [ -75.6821148, 41.440080100000031 ], [ -75.6796696, 41.482651099999977 ], [ -75.678557600000019, 41.484827 ], [ -75.6590601, 41.514103099999986 ], [ -75.6466544, 41.531585199999988 ], [ -75.62248, 41.552687 ], [ -75.6067196, 41.5540359 ], [ -75.571156, 41.555520600000058 ], [ -75.5277462, 41.554667900000027 ], [ -75.5272496, 41.554391399999979 ], [ -75.524584800000014, 41.551579400000037 ], [ -75.4968498, 41.484408 ], [ -75.5227109, 41.4289461 ], [ -75.5885408, 41.401975 ], [ -75.6381745, 41.4095792 ] ] ] } },
{ "type": "Feature", "properties": { "OBJECTID": 6690, "ID": "0006618301", "NAME": "POCONO MEDICAL CENTER", "ADDRESS": "206 EAST BROWN STREET", "CITY": "EAST STROUDSBURG", "STATE": "PA", "ZIP": "18301", "ZIP4": "NOT AVAILABLE", "TELEPHONE": "(570) 421-4000", "TYPE": "GENERAL ACUTE CARE", "STATUS": "OPEN", "POPULATION": 235, "COUNTY": "MONROE", "COUNTYFIPS": "42089", "COUNTRY": "USA", "LATITUDE": 40.992799001000002, "LONGITUDE": -75.174535, "NAICS_CODE": "622110", "NAICS_DESC": "GENERAL MEDICAL AND SURGICAL HOSPITALS", "SOURCE": "http://sais.health.pa.gov/commonpoc/content/publiccommonpoc/normalSearch.asp", "SOURCEDATE": "2018-08-09T00:00:00.000Z", "VAL_METHOD": "IMAGERY", "VAL_DATE": "2014-02-10T00:00:00.000Z", "WEBSITE": "http://www.pmchealthsystem.org", "STATE_ID": "072000", "ALT_NAME": "NOT AVAILABLE", "ST_FIPS": "42", "OWNER": "NON-PROFIT", "TTL_STAFF": -999, "BEDS": 235, "TRAUMA": "LEVEL III", "HELIPAD": "Y" }, "geometry": { "type": "Polygon", "coordinates": [ [ [ -75.2433058, 40.9321491 ], [ -75.3010672, 40.944845599999965 ], [ -75.3005367, 41.006607299999985 ], [ -75.2964873, 41.019305 ], [ -75.216599, 41.05298369999997 ], [ -75.2132568, 41.053897800000016 ], [ -75.1221479, 41.057617499999964 ], [ -75.1021116, 41.055319099999956 ], [ -75.0959923, 41.0545436 ], [ -75.0956255, 41.054378500000055 ], [ -75.0937314, 41.026063900000011 ], [ -75.0957979, 41.01996010000002 ], [ -75.1213912, 40.967120799999989 ], [ -75.196466500000014, 40.935709 ], [ -75.2433058, 40.9321491 ] ] ] } },
{ "type": "Feature", "properties": { "OBJECTID": 6715, "ID": "0000000117", "NAME": "LEHIGH VALLEY HOSPITAL-17TH ST", "ADDRESS": "1637 W CHEW ST", "CITY": "ALLENTOWN", "STATE": "PA", "ZIP": "18102", "ZIP4": "NOT AVAILABLE", "TELEPHONE": "(610) 402-8000", "TYPE": "GENERAL ACUTE CARE", "STATUS": "OPEN", "POPULATION": -999, "COUNTY": "LEHIGH", "COUNTYFIPS": "42077", "COUNTRY": "USA", "LATITUDE": 40.602138848000003, "LONGITUDE": -75.494464708999899, "NAICS_CODE": "622110", "NAICS_DESC": "GENERAL MEDICAL AND SURGICAL HOSPITALS", "SOURCE": "http://sais.health.pa.gov/commonpoc/content/publiccommonpoc/normalSearch.asp", "SOURCEDATE": "2018-08-09T00:00:00.000Z", "VAL_METHOD": "IMAGERY/OTHER", "VAL_DATE": "2015-05-22T00:00:00.000Z", "WEBSITE": "http://www.lvhn.org/facilities_directions/hospital_locations/lehigh_valley_hospital_17th_street", "STATE_ID": "NOT AVAILABLE", "ALT_NAME": "NOT AVAILABLE", "ST_FIPS": "42", "OWNER": "NOT AVAILABLE", "TTL_STAFF": -999, "BEDS": -999, "TRAUMA": "NOT AVAILABLE", "HELIPAD": "N" }, "geometry": { "type": "Polygon", "coordinates": [ [ [ -75.5020621, 40.5301062 ], [ -75.508855, 40.531244 ], [ -75.553131, 40.540008 ], [ -75.5704236, 40.545276100000017 ], [ -75.592156100000011, 40.552353599999989 ], [ -75.6093755, 40.5592938 ], [ -75.6110193, 40.5876558 ], [ -75.589612, 40.61996 ], [ -75.5824432, 40.62917750000004 ], [ -75.5529663, 40.656326199999988 ], [ -75.5183971, 40.680216600000037 ], [ -75.4217463, 40.6669921 ], [ -75.4205685, 40.66675750000001 ], [ -75.400828500000017, 40.654649399999968 ], [ -75.393629, 40.62527 ], [ -75.400202, 40.591505 ], [ -75.4207468, 40.55049589999998 ], [ -75.420822300000012, 40.550444600000034 ], [ -75.4241334, 40.548418800000022 ], [ -75.4252577, 40.548045700000081 ], [ -75.489238, 40.529016 ], [ -75.5020621, 40.5301062 ] ] ] } },
{ "type": "Feature", "properties": { "OBJECTID": 6717, "ID": "0027818801", "NAME": "ENDLESS MOUNTAINS HEALTH SYSTEMS", "ADDRESS": "100 HOSPITAL DRIVE", "CITY": "MONTROSE", "STATE": "PA", "ZIP": "18801", "ZIP4": "NOT AVAILABLE", "TELEPHONE": "(570) 278-3801", "TYPE": "GENERAL ACUTE CARE", "STATUS": "OPEN", "POPULATION": 25, "COUNTY": "SUSQUEHANNA", "COUNTYFIPS": "42115", "COUNTRY": "USA", "LATITUDE": 41.837542904000003, "LONGITUDE": -75.836769031000003, "NAICS_CODE": "622110", "NAICS_DESC": "GENERAL MEDICAL AND SURGICAL HOSPITALS", "SOURCE": "http://sais.health.pa.gov/commonpoc/content/publiccommonpoc/normalSearch.asp", "SOURCEDATE": "2018-08-09T00:00:00.000Z", "VAL_METHOD": "IMAGERY", "VAL_DATE": "2016-09-26T00:00:00.000Z", "WEBSITE": "http://endlesscare.org/", "STATE_ID": "NOT AVAILABLE", "ALT_NAME": "NOT AVAILABLE", "ST_FIPS": "42", "OWNER": "NON-PROFIT", "TTL_STAFF": -999, "BEDS": 25, "TRAUMA": "NOT AVAILABLE", "HELIPAD": "N" }, "geometry": { "type": "Polygon", "coordinates": [ [ [ -75.8945503, 41.787440100000033 ], [ -75.9022939, 41.795282499999978 ], [ -75.921371, 41.8196078 ], [ -75.9014636, 41.871262599999959 ], [ -75.8463635, 41.907343099999942 ], [ -75.7274295, 41.871663100000035 ], [ -75.7274751, 41.8706598 ], [ -75.788202, 41.785254 ], [ -75.8405, 41.785 ], [ -75.8945503, 41.787440100000033 ] ] ] } },
{ "type": "Feature", "properties": { "OBJECTID": 6718, "ID": "0028418045", "NAME": "ST LUKE'S HOSPITAL ANDERSON CAMPUS", "ADDRESS": "1872 ST. LUKE'S BLVD", "CITY": "EASTON", "STATE": "PA", "ZIP": "18045", "ZIP4": "NOT AVAILABLE", "TELEPHONE": "(610) 954-3850", "TYPE": "GENERAL ACUTE CARE", "STATUS": "OPEN", "POPULATION": 108, "COUNTY": "NORTHAMPTON", "COUNTYFIPS": "42095", "COUNTRY": "USA", "LATITUDE": 40.649147764000098, "LONGITUDE": -75.287820910999997, "NAICS_CODE": "622110", "NAICS_DESC": "GENERAL MEDICAL AND SURGICAL HOSPITALS", "SOURCE": "http://sais.health.pa.gov/commonpoc/content/publiccommonpoc/normalSearch.asp", "SOURCEDATE": "2018-08-09T00:00:00.000Z", "VAL_METHOD": "IMAGERY", "VAL_DATE": "2016-09-26T00:00:00.000Z", "WEBSITE": "http://anderson.slhn.org/", "STATE_ID": "NOT AVAILABLE", "ALT_NAME": "NOT AVAILABLE", "ST_FIPS": "42", "OWNER": "NON-PROFIT", "TTL_STAFF": -999, "BEDS": 108, "TRAUMA": "NOT AVAILABLE", "HELIPAD": "N" }, "geometry": { "type": "Polygon", "coordinates": [ [ [ -75.3405673, 40.575607200000022 ], [ -75.3460948, 40.578885600000028 ], [ -75.356897700000019, 40.591514900000021 ], [ -75.3819547, 40.622377 ], [ -75.3835139, 40.625173500000031 ], [ -75.3867624, 40.6615728 ], [ -75.385844, 40.664982 ], [ -75.3370539, 40.734384800000036 ], [ -75.2816411, 40.778819800000065 ], [ -75.2351127, 40.749776700000041 ], [ -75.202218, 40.694570400000025 ], [ -75.190358900000021, 40.672813600000055 ], [ -75.1939311, 40.663893 ], [ -75.211734, 40.647397 ], [ -75.3405673, 40.575607200000022 ] ] ] } },
{ "type": "Feature", "properties": { "OBJECTID": 6849, "ID": "0000413790", "NAME": "UHS BINGHAMTON GENERAL HOSPITAL", "ADDRESS": "10 42 MITCHELL AVENUE", "CITY": "BINGHAMTON", "STATE": "NY", "ZIP": "13790", "ZIP4": "NOT AVAILABLE", "TELEPHONE": "(607) 762-2200", "TYPE": "GENERAL ACUTE CARE", "STATUS": "OPEN", "POPULATION": 220, "COUNTY": "BROOME", "COUNTYFIPS": "36007", "COUNTRY": "USA", "LATITUDE": 42.086315553000098, "LONGITUDE": -75.914443797999994, "NAICS_CODE": "622110", "NAICS_DESC": "GENERAL MEDICAL AND SURGICAL HOSPITALS", "SOURCE": "https://profiles.health.ny.gov/hospital/county_or_region/", "SOURCEDATE": "2018-08-20T00:00:00.000Z", "VAL_METHOD": "IMAGERY", "VAL_DATE": "2014-02-10T00:00:00.000Z", "WEBSITE": "http://www.uhs.net/?id=212&sid=1", "STATE_ID": "0303001H", "ALT_NAME": "UNITED HEALTH SERVICES HOSPITALS INC-WILSON MEDICAL CENTER AND BINGHAMTON GENERAL HOSPITAL", "ST_FIPS": "36", "OWNER": "NON-PROFIT", "TTL_STAFF": -999, "BEDS": 220, "TRAUMA": "NOT AVAILABLE", "HELIPAD": "N" }, "geometry": { "type": "Polygon", "coordinates": [ [ [ -75.918079, 42.015515 ], [ -76.044676, 42.088253 ], [ -76.04488, 42.088608 ], [ -76.035095, 42.096728 ], [ -75.967589, 42.141193 ], [ -75.944905, 42.152232 ], [ -75.895746, 42.168251 ], [ -75.886581, 42.169707 ], [ -75.872939, 42.169772 ], [ -75.7900241, 42.099354200000029 ], [ -75.847029, 42.048604 ], [ -75.918079, 42.015515 ] ] ] } },
{ "type": "Feature", "properties": { "OBJECTID": 6851, "ID": "0000613790", "NAME": "UHS WILSON MEMORIAL HOSPITAL", "ADDRESS": "33 57 HARRISON STREET", "CITY": "JOHNSON CITY", "STATE": "NY", "ZIP": "13790", "ZIP4": "NOT AVAILABLE", "TELEPHONE": "(607) 763-6000", "TYPE": "GENERAL ACUTE CARE", "STATUS": "OPEN", "POPULATION": 280, "COUNTY": "BROOME", "COUNTYFIPS": "36007", "COUNTRY": "USA", "LATITUDE": 42.114199392000003, "LONGITUDE": -75.95852351000001, "NAICS_CODE": "622110", "NAICS_DESC": "GENERAL MEDICAL AND SURGICAL HOSPITALS", "SOURCE": "https://profiles.health.ny.gov/hospital/county_or_region/", "SOURCEDATE": "2018-08-20T00:00:00.000Z", "VAL_METHOD": "IMAGERY/OTHER", "VAL_DATE": "2014-02-12T00:00:00.000Z", "WEBSITE": "http://www.uhs.net/locations/uhs-wilson-medical-center/", "STATE_ID": "0058", "ALT_NAME": "NOT AVAILABLE", "ST_FIPS": "36", "OWNER": "NON-PROFIT", "TTL_STAFF": -999, "BEDS": 280, "TRAUMA": "LEVEL II", "HELIPAD": "Y" }, "geometry": { "type": "Polygon", "coordinates": [ [ [ -76.004852, 42.055256 ], [ -76.046022, 42.070825 ], [ -76.06674, 42.081442 ], [ -76.071866, 42.093775 ], [ -76.058007, 42.114597 ], [ -76.040013, 42.133505 ], [ -76.030638, 42.141396 ], [ -75.983408, 42.174919 ], [ -75.9609538, 42.1885556 ], [ -75.96015, 42.188681 ], [ -75.87291, 42.164706 ], [ -75.8192994, 42.098261199999989 ], [ -75.911834, 42.06866 ], [ -76.004852, 42.055256 ] ] ] } },
{ "type": "Feature", "properties": { "OBJECTID": 4071, "ID": "0001117822", "NAME": "SELECT SPECIALTY HOSPITAL DANVILLE", "ADDRESS": "100 ACADEMY AVENUE, MC42-10", "CITY": "DANVILLE", "STATE": "PA", "ZIP": "17822", "ZIP4": "NOT AVAILABLE", "TELEPHONE": "(570) 214-9648", "TYPE": "LONG TERM CARE", "STATUS": "OPEN", "POPULATION": 30, "COUNTY": "MONTOUR", "COUNTYFIPS": "42093", "COUNTRY": "USA", "LATITUDE": 40.968027329000101, "LONGITUDE": -76.604083126000006, "NAICS_CODE": "622310", "NAICS_DESC": "SPECIALTY (EXCEPT PSYCHIATRIC AND SUBSTANCE ABUSE) HOSPITALS", "SOURCE": "http://sais.health.pa.gov/commonpoc/content/publiccommonpoc/normalSearch.asp", "SOURCEDATE": "2018-08-09T00:00:00.000Z", "VAL_METHOD": "IMAGERY/OTHER", "VAL_DATE": "2019-04-16T00:00:00.000Z", "WEBSITE": "http://danville.selectspecialtyhospitals.com/", "STATE_ID": "004300", "ALT_NAME": "NOT AVAILABLE", "ST_FIPS": "42", "OWNER": "PROPRIETARY", "TTL_STAFF": -999, "BEDS": 30, "TRAUMA": "NOT AVAILABLE", "HELIPAD": "Y" }, "geometry": { "type": "Polygon", "coordinates": [ [ [ -76.586842, 40.941999 ], [ -76.597258, 40.944417 ], [ -76.6558259, 40.962071 ], [ -76.672229, 40.96871 ], [ -76.676236, 40.970788 ], [ -76.696328, 40.985356 ], [ -76.676719, 41.02086 ], [ -76.6037357, 41.02818 ], [ -76.4748495, 40.9908111 ], [ -76.4761354, 40.984842800000052 ], [ -76.516273, 40.952521 ], [ -76.552357, 40.942177 ], [ -76.586842, 40.941999 ] ] ] } },
{ "type": "Feature", "properties": { "OBJECTID": 4263, "ID": "0000718764", "NAME": "PAM SPECIALTY HOSPITAL OF WILKES-BARRE", "ADDRESS": "575 NORTH RIVER STREET, 7TH FLOOR", "CITY": "WILKES-BARRE", "STATE": "PA", "ZIP": "18764", "ZIP4": "NOT AVAILABLE", "TELEPHONE": "(570) 208-3310", "TYPE": "LONG TERM CARE", "STATUS": "OPEN", "POPULATION": 36, "COUNTY": "LUZERNE", "COUNTYFIPS": "42079", "COUNTRY": "USA", "LATITUDE": 41.258485001000103, "LONGITUDE": -75.867261998999894, "NAICS_CODE": "622310", "NAICS_DESC": "SPECIALTY (EXCEPT PSYCHIATRIC AND SUBSTANCE ABUSE) HOSPITALS", "SOURCE": "http://sais.health.pa.gov/commonpoc/content/publiccommonpoc/normalSearch.asp", "SOURCEDATE": "2018-08-09T00:00:00.000Z", "VAL_METHOD": "IMAGERY", "VAL_DATE": "2014-02-12T00:00:00.000Z", "WEBSITE": "http://www.warmsprings.org/our-facilities/hospitals/post-acute-medical-specialty-hospital-wilkes-barre/", "STATE_ID": "003900", "ALT_NAME": "KINDRED HOSPITAL - WYOMING VALLEY", "ST_FIPS": "42", "OWNER": "PROPRIETARY", "TTL_STAFF": -999, "BEDS": 36, "TRAUMA": "NOT AVAILABLE", "HELIPAD": "Y" }, "geometry": { "type": "Polygon", "coordinates": [ [ [ -75.921608, 41.19873 ], [ -75.957338, 41.21097909999996 ], [ -75.954513, 41.297317099999972 ], [ -75.9420787, 41.319793299999986 ], [ -75.9386278, 41.319905799999979 ], [ -75.8483532, 41.322070299999979 ], [ -75.8424128, 41.3217101 ], [ -75.8215738, 41.319207500000012 ], [ -75.800984, 41.315404 ], [ -75.798768, 41.314522699999962 ], [ -75.7692168, 41.301828499999964 ], [ -75.771892, 41.253848 ], [ -75.7925568, 41.2052415 ], [ -75.7927177, 41.2048986 ], [ -75.889143, 41.195830600000029 ], [ -75.921608, 41.19873 ] ] ] } },
{ "type": "Feature", "properties": { "OBJECTID": 275, "ID": "0006017822", "NAME": "GEISINGER MEDICAL CENTER", "ADDRESS": "100 NORTH ACADEMY AVENUE", "CITY": "DANVILLE", "STATE": "PA", "ZIP": "17822", "ZIP4": "NOT AVAILABLE", "TELEPHONE": "(570) 271-6211", "TYPE": "GENERAL ACUTE CARE", "STATUS": "OPEN", "POPULATION": 404, "COUNTY": "MONTOUR", "COUNTYFIPS": "42093", "COUNTRY": "USA", "LATITUDE": 40.968144963999997, "LONGITUDE": -76.605256107999907, "NAICS_CODE": "622110", "NAICS_DESC": "GENERAL MEDICAL AND SURGICAL HOSPITALS", "SOURCE": "http://sais.health.pa.gov/commonpoc/content/publiccommonpoc/normalSearch.asp", "SOURCEDATE": "2018-08-09T00:00:00.000Z", "VAL_METHOD": "IMAGERY", "VAL_DATE": "2014-02-10T00:00:00.000Z", "WEBSITE": "http://www.geisinger.org", "STATE_ID": "071800", "ALT_NAME": "NOT AVAILABLE", "ST_FIPS": "42", "OWNER": "NON-PROFIT", "TTL_STAFF": -999, "BEDS": 404, "TRAUMA": "LEVEL I", "HELIPAD": "N" }, "geometry": { "type": "Polygon", "coordinates": [ [ [ -76.586842, 40.941999 ], [ -76.597258, 40.944417 ], [ -76.6558259, 40.962071 ], [ -76.672229, 40.96871 ], [ -76.676236, 40.970788 ], [ -76.699654, 40.984941 ], [ -76.699464, 40.986393 ], [ -76.678919, 41.026661 ], [ -76.6039667, 41.035277 ], [ -76.4805582, 40.986163700000034 ], [ -76.516273, 40.952521 ], [ -76.552357, 40.942177 ], [ -76.586842, 40.941999 ] ] ] } },
{ "type": "Feature", "properties": { "OBJECTID": 435, "ID": "0117114810", "NAME": "IRA DAVENPORT MEMORIAL HOSPITAL INC", "ADDRESS": "7571 STATE ROUTE 54", "CITY": "BATH", "STATE": "NY", "ZIP": "14810", "ZIP4": "NOT AVAILABLE", "TELEPHONE": "(607) 776-8500", "TYPE": "GENERAL ACUTE CARE", "STATUS": "OPEN", "POPULATION": 35, "COUNTY": "STEUBEN", "COUNTYFIPS": "36101", "COUNTRY": "USA", "LATITUDE": 42.3743292, "LONGITUDE": -77.278906628000001, "NAICS_CODE": "622110", "NAICS_DESC": "GENERAL MEDICAL AND SURGICAL HOSPITALS", "SOURCE": "https://profiles.health.ny.gov/hospital/county_or_region/", "SOURCEDATE": "2018-08-20T00:00:00.000Z", "VAL_METHOD": "IMAGERY/OTHER", "VAL_DATE": "2015-02-11T00:00:00.000Z", "WEBSITE": "http://www.arnothealth.org/ira-davenport-memorial-hospital", "STATE_ID": "5022000H", "ALT_NAME": "NOT AVAILABLE", "ST_FIPS": "36", "OWNER": "NON-PROFIT", "TTL_STAFF": -999, "BEDS": 35, "TRAUMA": "NOT AVAILABLE", "HELIPAD": "Y" }, "geometry": { "type": "Polygon", "coordinates": [ [ [ -77.343082, 42.317258 ], [ -77.34337, 42.318964 ], [ -77.346686, 42.343588 ], [ -77.334492, 42.390427399999965 ], [ -77.308324, 42.437096 ], [ -77.295991, 42.436486 ], [ -77.188571, 42.417495 ], [ -77.188489, 42.417012 ], [ -77.194119, 42.406014 ], [ -77.291624, 42.325971 ], [ -77.343082, 42.317258 ] ] ] } },
{ "type": "Feature", "properties": { "OBJECTID": 457, "ID": "0010014810", "NAME": "VA MEDICAL CENTER - BATH", "ADDRESS": "76 VETERANS AVE", "CITY": "BATH", "STATE": "NY", "ZIP": "14810", "ZIP4": "NOT AVAILABLE", "TELEPHONE": "NOT AVAILABLE", "TYPE": "MILITARY", "STATUS": "OPEN", "POPULATION": -999, "COUNTY": "STEUBEN", "COUNTYFIPS": "36101", "COUNTRY": "USA", "LATITUDE": 42.344052413, "LONGITUDE": -77.347509188999894, "NAICS_CODE": "622110", "NAICS_DESC": "GENERAL MEDICAL AND SURGICAL HOSPITALS", "SOURCE": "https://profiles.health.ny.gov/hospital/county_or_region/", "SOURCEDATE": "2018-08-20T00:00:00.000Z", "VAL_METHOD": "IMAGERY/OTHER", "VAL_DATE": "2015-05-22T00:00:00.000Z", "WEBSITE": "http://www.bath.va.gov/", "STATE_ID": "NOT AVAILABLE", "ALT_NAME": "NOT AVAILABLE", "ST_FIPS": "36", "OWNER": "GOVERNMENT - FEDERAL", "TTL_STAFF": -999, "BEDS": -999, "TRAUMA": "NOT AVAILABLE", "HELIPAD": "N" }, "geometry": { "type": "Polygon", "coordinates": [ [ [ -77.364071, 42.268373 ], [ -77.400455, 42.313399 ], [ -77.424401, 42.406715 ], [ -77.343796, 42.415157 ], [ -77.339935, 42.414621 ], [ -77.278333, 42.377192 ], [ -77.20806, 42.291204 ], [ -77.217087, 42.277794 ], [ -77.364071, 42.268373 ] ] ] } },
{ "type": "Feature", "properties": { "OBJECTID": 7126, "ID": "0011414865", "NAME": "SCHUYLER HOSPITAL", "ADDRESS": "220 STEUBEN ST", "CITY": "MONTOUR FALLS", "STATE": "NY", "ZIP": "14865", "ZIP4": "NOT AVAILABLE", "TELEPHONE": "(607) 535-7121", "TYPE": "CRITICAL ACCESS", "STATUS": "OPEN", "POPULATION": 25, "COUNTY": "SCHUYLER", "COUNTYFIPS": "36097", "COUNTRY": "USA", "LATITUDE": 42.352458754000097, "LONGITUDE": -76.859970585, "NAICS_CODE": "622110", "NAICS_DESC": "GENERAL MEDICAL AND SURGICAL HOSPITALS", "SOURCE": "https://profiles.health.ny.gov/hospital/county_or_region/", "SOURCEDATE": "2018-08-20T00:00:00.000Z", "VAL_METHOD": "IMAGERY", "VAL_DATE": "2014-02-10T00:00:00.000Z", "WEBSITE": "http://www.schuylerhospital.org", "STATE_ID": "4823700C", "ALT_NAME": "NOT AVAILABLE", "ST_FIPS": "36", "OWNER": "NON-PROFIT", "TTL_STAFF": -999, "BEDS": 25, "TRAUMA": "NOT AVAILABLE", "HELIPAD": "Y" }, "geometry": { "type": "Polygon", "coordinates": [ [ [ -76.8928641, 42.290891 ], [ -76.9477576, 42.3064083 ], [ -76.966406, 42.348547199999977 ], [ -76.9072716, 42.434585800000015 ], [ -76.8494817, 42.417184199999987 ], [ -76.7580786, 42.332622300000018 ], [ -76.7582324, 42.3281353 ], [ -76.7888122, 42.3134472 ], [ -76.8278433, 42.299175799999965 ], [ -76.8446472, 42.293542199999983 ], [ -76.8928641, 42.290891 ] ] ] } },
{ "type": "Feature", "properties": { "OBJECTID": 7169, "ID": "0121114830", "NAME": "CORNING HOSPITAL", "ADDRESS": "1 GUTHRIE DRIVE", "CITY": "CORNING", "STATE": "NY", "ZIP": "14830", "ZIP4": "NOT AVAILABLE", "TELEPHONE": "(607) 937-7200", "TYPE": "GENERAL ACUTE CARE", "STATUS": "OPEN", "POPULATION": 65, "COUNTY": "STEUBEN", "COUNTYFIPS": "36101", "COUNTRY": "USA", "LATITUDE": 42.135350790000103, "LONGITUDE": -76.969517767999903, "NAICS_CODE": "622110", "NAICS_DESC": "GENERAL MEDICAL AND SURGICAL HOSPITALS", "SOURCE": "https://profiles.health.ny.gov/hospital/county_or_region/", "SOURCEDATE": "2018-08-20T00:00:00.000Z", "VAL_METHOD": "IMAGERY/OTHER", "VAL_DATE": "2015-02-24T00:00:00.000Z", "WEBSITE": "https://www.guthrie.org/location/guthrie-corning-hospital", "STATE_ID": "5001000H", "ALT_NAME": "NOT AVAILABLE", "ST_FIPS": "36", "OWNER": "NOT AVAILABLE", "TTL_STAFF": -999, "BEDS": 65, "TRAUMA": "NOT AVAILABLE", "HELIPAD": "Y" }, "geometry": { "type": "Polygon", "coordinates": [ [ [ -77.038872, 42.115825 ], [ -77.094616, 42.156884 ], [ -77.094702, 42.156953 ], [ -77.090783, 42.160685 ], [ -77.045995, 42.171855 ], [ -76.9903721, 42.169888900000039 ], [ -76.974797, 42.155789 ], [ -76.9669008, 42.1344754 ], [ -76.965834, 42.1271 ], [ -76.982986, 42.122445 ], [ -77.005346, 42.119737 ], [ -77.006726, 42.119575 ], [ -77.038872, 42.115825 ] ] ] } },
{ "type": "Feature", "properties": { "OBJECTID": 5135, "ID": "0005818235", "NAME": "BLUE MOUNTAIN HOSPITAL GNADEN HUETTEN", "ADDRESS": "211 NORTH 12TH STREET", "CITY": "LEHIGHTON", "STATE": "PA", "ZIP": "18235", "ZIP4": "NOT AVAILABLE", "TELEPHONE": "(610) 377-1300", "TYPE": "GENERAL ACUTE CARE", "STATUS": "OPEN", "POPULATION": 95, "COUNTY": "CARBON", "COUNTYFIPS": "42025", "COUNTRY": "USA", "LATITUDE": 40.833084001000003, "LONGITUDE": -75.725897001000007, "NAICS_CODE": "622110", "NAICS_DESC": "GENERAL MEDICAL AND SURGICAL HOSPITALS", "SOURCE": "http://sais.health.pa.gov/commonpoc/content/publiccommonpoc/normalSearch.asp", "SOURCEDATE": "2018-08-09T00:00:00.000Z", "VAL_METHOD": "IMAGERY", "VAL_DATE": "2014-02-10T00:00:00.000Z", "WEBSITE": "http://www.blmtn.org/", "STATE_ID": "070500", "ALT_NAME": "GNADEN HUETTEN MEMORIAL HOSPITAL", "ST_FIPS": "42", "OWNER": "NON-PROFIT", "TTL_STAFF": -999, "BEDS": 95, "TRAUMA": "NOT AVAILABLE", "HELIPAD": "Y" }, "geometry": { "type": "Polygon", "coordinates": [ [ [ -75.800858100000013, 40.775739600000044 ], [ -75.8121647, 40.783563199999975 ], [ -75.8144547, 40.785220300000013 ], [ -75.8207605, 40.793275399999949 ], [ -75.8219249, 40.804137799999985 ], [ -75.809797, 40.819723 ], [ -75.7373793, 40.877002800000028 ], [ -75.7326315, 40.8789184 ], [ -75.7272691, 40.880677200000044 ], [ -75.6440843, 40.8621584 ], [ -75.6199793, 40.8481142 ], [ -75.618616900000021, 40.798095 ], [ -75.653153, 40.7883951 ], [ -75.7110235, 40.778830700000015 ], [ -75.800858100000013, 40.775739600000044 ] ] ] } },
{ "type": "Feature", "properties": { "OBJECTID": 5137, "ID": "0016118431", "NAME": "WAYNE MEMORIAL HOSPITAL", "ADDRESS": "601 PARK STREET", "CITY": "HONESDALE", "STATE": "PA", "ZIP": "18431", "ZIP4": "NOT AVAILABLE", "TELEPHONE": "(570) 253-8100", "TYPE": "GENERAL ACUTE CARE", "STATUS": "OPEN", "POPULATION": 112, "COUNTY": "WAYNE", "COUNTYFIPS": "42127", "COUNTRY": "USA", "LATITUDE": 41.576561001000101, "LONGITUDE": -75.260329, "NAICS_CODE": "622110", "NAICS_DESC": "GENERAL MEDICAL AND SURGICAL HOSPITALS", "SOURCE": "http://sais.health.pa.gov/commonpoc/content/publiccommonpoc/normalSearch.asp", "SOURCEDATE": "2018-08-09T00:00:00.000Z", "VAL_METHOD": "IMAGERY", "VAL_DATE": "2014-02-10T00:00:00.000Z", "WEBSITE": "http://www.wmh.org", "STATE_ID": "230500", "ALT_NAME": "NOT AVAILABLE", "ST_FIPS": "42", "OWNER": "NON-PROFIT", "TTL_STAFF": -999, "BEDS": 112, "TRAUMA": "NOT AVAILABLE", "HELIPAD": "N" }, "geometry": { "type": "Polygon", "coordinates": [ [ [ -75.2754449, 41.505022499999953 ], [ -75.2854869, 41.5093203 ], [ -75.2860742, 41.509805300000011 ], [ -75.3763876, 41.59313159999995 ], [ -75.2985809, 41.632608 ], [ -75.2643018, 41.647474600000024 ], [ -75.252235, 41.649570300000022 ], [ -75.188344, 41.546301 ], [ -75.1898518, 41.543399 ], [ -75.19622360000001, 41.532885399999984 ], [ -75.251269, 41.509299800000043 ], [ -75.2754449, 41.505022499999953 ] ] ] } },
{ "type": "Feature", "properties": { "OBJECTID": 5143, "ID": "0021818657", "NAME": "TYLER MEMORIAL HOSPITAL", "ADDRESS": "880 SR 6", "CITY": "TUNKHANNOCK", "STATE": "PA", "ZIP": "18657", "ZIP4": "NOT AVAILABLE", "TELEPHONE": "(570) 836-2161", "TYPE": "GENERAL ACUTE CARE", "STATUS": "OPEN", "POPULATION": 48, "COUNTY": "WYOMING", "COUNTYFIPS": "42131", "COUNTRY": "USA", "LATITUDE": 41.577597113000003, "LONGITUDE": -75.969414741999998, "NAICS_CODE": "622110", "NAICS_DESC": "GENERAL MEDICAL AND SURGICAL HOSPITALS", "SOURCE": "http://sais.health.pa.gov/commonpoc/content/publiccommonpoc/normalSearch.asp", "SOURCEDATE": "2018-08-09T00:00:00.000Z", "VAL_METHOD": "IMAGERY", "VAL_DATE": "2014-01-06T00:00:00.000Z", "WEBSITE": "http://www.tylermemorialhospital.net", "STATE_ID": "460200", "ALT_NAME": "NOT AVAILABLE", "ST_FIPS": "42", "OWNER": "PROPRIETARY", "TTL_STAFF": -999, "BEDS": 48, "TRAUMA": "NOT AVAILABLE", "HELIPAD": "Y" }, "geometry": { "type": "Polygon", "coordinates": [ [ [ -75.9836653, 41.5062876 ], [ -76.0673833, 41.555729799999973 ], [ -76.095001, 41.580763199999971 ], [ -76.0861732, 41.60594080000002 ], [ -76.059992, 41.628122 ], [ -76.0512254, 41.63161580000002 ], [ -75.986276, 41.644879 ], [ -75.9722845, 41.645117500000012 ], [ -75.9591508, 41.6443358 ], [ -75.9211566, 41.62294739999998 ], [ -75.9004213, 41.553773600000028 ], [ -75.9187167, 41.533132299999949 ], [ -75.9529592, 41.516665899999964 ], [ -75.965448, 41.512145 ], [ -75.9836653, 41.5062876 ] ] ] } },
{ "type": "Feature", "properties": { "OBJECTID": 5154, "ID": "0003018603", "NAME": "BERWICK HOSPITAL CENTER", "ADDRESS": "701 EAST 16TH STREET", "CITY": "BERWICK", "STATE": "PA", "ZIP": "18603", "ZIP4": "NOT AVAILABLE", "TELEPHONE": "(570) 759-5065", "TYPE": "GENERAL ACUTE CARE", "STATUS": "OPEN", "POPULATION": 101, "COUNTY": "COLUMBIA", "COUNTYFIPS": "42037", "COUNTRY": "USA", "LATITUDE": 41.070954, "LONGITUDE": -76.230930000999905, "NAICS_CODE": "622110", "NAICS_DESC": "GENERAL MEDICAL AND SURGICAL HOSPITALS", "SOURCE": "http://sais.health.pa.gov/commonpoc/content/publiccommonpoc/normalSearch.asp", "SOURCEDATE": "2018-08-09T00:00:00.000Z", "VAL_METHOD": "IMAGERY", "VAL_DATE": "2014-01-07T00:00:00.000Z", "WEBSITE": "http://www.berwick-hospital.com", "STATE_ID": "024900", "ALT_NAME": "NOT AVAILABLE", "ST_FIPS": "42", "OWNER": "PROPRIETARY", "TTL_STAFF": -999, "BEDS": 101, "TRAUMA": "NOT AVAILABLE", "HELIPAD": "Y" }, "geometry": { "type": "Polygon", "coordinates": [ [ [ -76.316552, 41.038578200000046 ], [ -76.317504, 41.039714800000041 ], [ -76.3177832, 41.040851099999983 ], [ -76.3177971, 41.063023100000024 ], [ -76.3005918, 41.0853974 ], [ -76.2999117, 41.086015299999971 ], [ -76.281187, 41.099642 ], [ -76.2493032, 41.115378100000036 ], [ -76.1365143, 41.098039499999985 ], [ -76.134329, 41.077200800000021 ], [ -76.155753, 41.066066 ], [ -76.2521707, 41.044994 ], [ -76.264239500000016, 41.0431739 ], [ -76.2668742, 41.042831 ], [ -76.3136359, 41.038216200000015 ], [ -76.316552, 41.038578200000046 ] ] ] } },
{ "type": "Feature", "properties": { "OBJECTID": 5182, "ID": "0002618702", "NAME": "JOHN HEINZ INSTITUTE OF REHABILITATION", "ADDRESS": "150 MUNDY STREET", "CITY": "WILKES-BARRE", "STATE": "PA", "ZIP": "18702", "ZIP4": "NOT AVAILABLE", "TELEPHONE": "(570) 826-3800", "TYPE": "REHABILITATION", "STATUS": "OPEN", "POPULATION": 71, "COUNTY": "LUZERNE", "COUNTYFIPS": "42079", "COUNTRY": "USA", "LATITUDE": 41.246152502000001, "LONGITUDE": -75.854379000999998, "NAICS_CODE": "622310", "NAICS_DESC": "REHABILITATION HOSPITALS (EXCEPT ALCOHOLISM, DRUG ADDICTION)", "SOURCE": "http://sais.health.pa.gov/commonpoc/content/publiccommonpoc/normalSearch.asp", "SOURCEDATE": "2018-08-09T00:00:00.000Z", "VAL_METHOD": "IMAGERY", "VAL_DATE": "2014-02-10T00:00:00.000Z", "WEBSITE": "http://www.allied-services.org", "STATE_ID": "013700", "ALT_NAME": "NOT AVAILABLE", "ST_FIPS": "42", "OWNER": "NON-PROFIT", "TTL_STAFF": -999, "BEDS": 71, "TRAUMA": "NOT AVAILABLE", "HELIPAD": "N" }, "geometry": { "type": "Polygon", "coordinates": [ [ [ -75.8893946, 41.183293 ], [ -75.930368, 41.192091 ], [ -75.9624996, 41.199532 ], [ -75.9365345, 41.297434800000019 ], [ -75.933807, 41.3047544 ], [ -75.930427, 41.305877 ], [ -75.926768400000014, 41.306277200000011 ], [ -75.8375193, 41.311501300000032 ], [ -75.7597406, 41.311645200000029 ], [ -75.7659169, 41.251513 ], [ -75.787642, 41.201012 ], [ -75.79218, 41.199462600000011 ], [ -75.8893946, 41.183293 ] ] ] } },
{ "type": "Feature", "properties": { "OBJECTID": 5184, "ID": "0019918017", "NAME": "LEHIGH VALLEY HOSPITAL-MUHLENBERG", "ADDRESS": "2545 SCHOENERSVILLE ROAD", "CITY": "BETHLEHEM", "STATE": "PA", "ZIP": "18017", "ZIP4": "NOT AVAILABLE", "TELEPHONE": "(484) 888-5845", "TYPE": "GENERAL ACUTE CARE", "STATUS": "OPEN", "POPULATION": 184, "COUNTY": "LEHIGH", "COUNTYFIPS": "42077", "COUNTRY": "USA", "LATITUDE": 40.6575910010001, "LONGITUDE": -75.420109, "NAICS_CODE": "622110", "NAICS_DESC": "GENERAL MEDICAL AND SURGICAL HOSPITALS", "SOURCE": "http://sais.health.pa.gov/commonpoc/content/publiccommonpoc/normalSearch.asp", "SOURCEDATE": "2018-08-09T00:00:00.000Z", "VAL_METHOD": "IMAGERY", "VAL_DATE": "2014-02-10T00:00:00.000Z", "WEBSITE": "http://www.lvhn.org/facilities_directions/hospital_locations/lehigh_valley_hospital_muhlenberg", "STATE_ID": "391700", "ALT_NAME": "NOT AVAILABLE", "ST_FIPS": "42", "OWNER": "NON-PROFIT", "TTL_STAFF": -999, "BEDS": 184, "TRAUMA": "NOT AVAILABLE", "HELIPAD": "N" }, "geometry": { "type": "Polygon", "coordinates": [ [ [ -75.4764626, 40.58377279999997 ], [ -75.5283514, 40.599093499999981 ], [ -75.53544, 40.604209 ], [ -75.541424, 40.609718 ], [ -75.542038, 40.61074 ], [ -75.5046774, 40.6900813 ], [ -75.487818, 40.717349 ], [ -75.4531613, 40.743515899999977 ], [ -75.418362, 40.749378 ], [ -75.3925623, 40.7512582 ], [ -75.3256894, 40.710650799999954 ], [ -75.281262500000011, 40.683022100000017 ], [ -75.3342752, 40.626272800000031 ], [ -75.3350408, 40.6254839 ], [ -75.3495857, 40.611931100000021 ], [ -75.3670511, 40.604115599999965 ], [ -75.456081, 40.580638 ], [ -75.456992, 40.580581 ], [ -75.4764626, 40.58377279999997 ] ] ] } },
{ "type": "Feature", "properties": { "OBJECTID": 5188, "ID": "0018718042", "NAME": "EASTON HOSPITAL", "ADDRESS": "250 SOUTH 21ST STREET", "CITY": "EASTON", "STATE": "PA", "ZIP": "18042", "ZIP4": "NOT AVAILABLE", "TELEPHONE": "(610) 250-4076", "TYPE": "GENERAL ACUTE CARE", "STATUS": "OPEN", "POPULATION": 254, "COUNTY": "NORTHAMPTON", "COUNTYFIPS": "42095", "COUNTRY": "USA", "LATITUDE": 40.687108256999998, "LONGITUDE": -75.242599255000002, "NAICS_CODE": "622110", "NAICS_DESC": "GENERAL MEDICAL AND SURGICAL HOSPITALS", "SOURCE": "http://sais.health.pa.gov/commonpoc/content/publiccommonpoc/normalSearch.asp", "SOURCEDATE": "2018-08-09T00:00:00.000Z", "VAL_METHOD": "IMAGERY", "VAL_DATE": "2014-01-13T00:00:00.000Z", "WEBSITE": "http://www.easton-hospital.com/Pages/Home.aspx", "STATE_ID": "310400", "ALT_NAME": "NOT AVAILABLE", "ST_FIPS": "42", "OWNER": "PROPRIETARY", "TTL_STAFF": -999, "BEDS": 254, "TRAUMA": "NOT AVAILABLE", "HELIPAD": "N" }, "geometry": { "type": "Polygon", "coordinates": [ [ [ -75.271765, 40.621677 ], [ -75.3457793, 40.643369100000022 ], [ -75.3472736, 40.643917599999988 ], [ -75.3844373, 40.663681 ], [ -75.384370600000011, 40.664034100000045 ], [ -75.3406863, 40.734291300000045 ], [ -75.2804141, 40.775460399999986 ], [ -75.1866096, 40.736257 ], [ -75.185204500000012, 40.73291960000001 ], [ -75.190358900000021, 40.672813600000055 ], [ -75.1954723, 40.6392278 ], [ -75.2319906, 40.62630570000001 ], [ -75.271765, 40.621677 ] ] ] } },
{ "type": "Feature", "properties": { "OBJECTID": 5189, "ID": "0016517801", "NAME": "SUNBURY COMMUNITY HOSPITAL", "ADDRESS": "350 NORTH 11TH STREET", "CITY": "SUNBURY", "STATE": "PA", "ZIP": "17801", "ZIP4": "NOT AVAILABLE", "TELEPHONE": "(570) 286-3450", "TYPE": "GENERAL ACUTE CARE", "STATUS": "OPEN", "POPULATION": 118, "COUNTY": "NORTHUMBERLAND", "COUNTYFIPS": "42097", "COUNTRY": "USA", "LATITUDE": 40.861931001000102, "LONGITUDE": -76.778025, "NAICS_CODE": "622110", "NAICS_DESC": "GENERAL MEDICAL AND SURGICAL HOSPITALS", "SOURCE": "http://sais.health.pa.gov/commonpoc/content/publiccommonpoc/normalSearch.asp", "SOURCEDATE": "2018-08-09T00:00:00.000Z", "VAL_METHOD": "IMAGERY", "VAL_DATE": "2014-01-13T00:00:00.000Z", "WEBSITE": "http://www.sunburyhospital.com", "STATE_ID": "450300", "ALT_NAME": "NOT AVAILABLE", "ST_FIPS": "42", "OWNER": "PROPRIETARY", "TTL_STAFF": -999, "BEDS": 118, "TRAUMA": "NOT AVAILABLE", "HELIPAD": "Y" }, "geometry": { "type": "Polygon", "coordinates": [ [ [ -76.8564844, 40.810399100000019 ], [ -76.859018, 40.811384700000012 ], [ -76.8686861, 40.827141099999963 ], [ -76.855965, 40.872431 ], [ -76.8536339, 40.879313699999983 ], [ -76.832305, 40.906568 ], [ -76.79955, 40.917892 ], [ -76.763538, 40.923518 ], [ -76.7461642, 40.9188723 ], [ -76.720901, 40.907913 ], [ -76.706924, 40.900832 ], [ -76.673847, 40.880007 ], [ -76.673846, 40.879573 ], [ -76.676471, 40.854598 ], [ -76.677141, 40.853262 ], [ -76.70268, 40.824359 ], [ -76.739107, 40.798145 ], [ -76.8564844, 40.810399100000019 ] ] ] } },
{ "type": "Feature", "properties": { "OBJECTID": 5192, "ID": "0004717821", "NAME": "DANVILLE STATE HOSPITAL", "ADDRESS": "200 STATE HOSPITAL DRIVE", "CITY": "DANVILLE", "STATE": "PA", "ZIP": "17821", "ZIP4": "NOT AVAILABLE", "TELEPHONE": "(570) 271-4500", "TYPE": "PSYCHIATRIC", "STATUS": "OPEN", "POPULATION": 180, "COUNTY": "MONTOUR", "COUNTYFIPS": "42093", "COUNTRY": "USA", "LATITUDE": 40.948909, "LONGITUDE": -76.595505, "NAICS_CODE": "622210", "NAICS_DESC": "PSYCHIATRIC AND SUBSTANCE ABUSE HOSPITALS", "SOURCE": "http://sais.health.pa.gov/commonpoc/content/publiccommonpoc/normalSearch.asp", "SOURCEDATE": "2018-08-09T00:00:00.000Z", "VAL_METHOD": "IMAGERY", "VAL_DATE": "2014-02-10T00:00:00.000Z", "WEBSITE": "http://www.dpw.state.pa.us/foradults/statehospitals/danvillestatehospital/index.htm", "STATE_ID": "041700", "ALT_NAME": "NOT AVAILABLE", "ST_FIPS": "42", "OWNER": "GOVERNMENT - STATE", "TTL_STAFF": -999, "BEDS": 180, "TRAUMA": "NOT AVAILABLE", "HELIPAD": "N" }, "geometry": { "type": "Polygon", "coordinates": [ [ [ -76.586842, 40.941999 ], [ -76.597258, 40.944417 ], [ -76.6558259, 40.962071 ], [ -76.663536, 40.972702 ], [ -76.669884700000011, 40.983984900000024 ], [ -76.670398, 40.985606 ], [ -76.664715, 41.010793 ], [ -76.611283, 41.014572 ], [ -76.4730087, 40.99481160000002 ], [ -76.476003899999981, 40.983506300000045 ], [ -76.516273, 40.952521 ], [ -76.552357, 40.942177 ], [ -76.586842, 40.941999 ] ] ] } },
{ "type": "Feature", "properties": { "OBJECTID": 5193, "ID": "0010018510", "NAME": "MOSES TAYLOR HOSPITAL", "ADDRESS": "700 QUINCY AVENUE", "CITY": "SCRANTON", "STATE": "PA", "ZIP": "18510", "ZIP4": "NOT AVAILABLE", "TELEPHONE": "(570) 770-5000", "TYPE": "GENERAL ACUTE CARE", "STATUS": "OPEN", "POPULATION": 217, "COUNTY": "LACKAWANNA", "COUNTYFIPS": "42069", "COUNTRY": "USA", "LATITUDE": 41.410694955000103, "LONGITUDE": -75.650568144000005, "NAICS_CODE": "622110", "NAICS_DESC": "GENERAL MEDICAL AND SURGICAL HOSPITALS", "SOURCE": "http://sais.health.pa.gov/commonpoc/content/publiccommonpoc/normalSearch.asp", "SOURCEDATE": "2018-08-09T00:00:00.000Z", "VAL_METHOD": "IMAGERY", "VAL_DATE": "2014-01-13T00:00:00.000Z", "WEBSITE": "http://www.mth.org", "STATE_ID": "136800", "ALT_NAME": "NOT AVAILABLE", "ST_FIPS": "42", "OWNER": "PROPRIETARY", "TTL_STAFF": -999, "BEDS": 217, "TRAUMA": "NOT AVAILABLE", "HELIPAD": "N" }, "geometry": { "type": "Polygon", "coordinates": [ [ [ -75.737384, 41.347384100000049 ], [ -75.7379547, 41.3486349 ], [ -75.7384164, 41.350570500000025 ], [ -75.7382604, 41.352878 ], [ -75.737832200000014, 41.355437399999971 ], [ -75.7159345, 41.477185899999988 ], [ -75.7146366, 41.481203800000031 ], [ -75.678557600000019, 41.484827 ], [ -75.6043208, 41.475111099999964 ], [ -75.5962013, 41.471936500000041 ], [ -75.5677013, 41.458821199999981 ], [ -75.5683495, 41.3739514 ], [ -75.5747344, 41.36798490000001 ], [ -75.5945045, 41.355322 ], [ -75.688737, 41.343345800000016 ], [ -75.736741, 41.347325 ], [ -75.737384, 41.347384100000049 ] ] ] } },
{ "type": "Feature", "properties": { "OBJECTID": 5194, "ID": "0024418510", "NAME": "REGIONAL HOSPITAL OF SCRANTON", "ADDRESS": "746 JEFFERSON AVENUE", "CITY": "SCRANTON", "STATE": "PA", "ZIP": "18510", "ZIP4": "NOT AVAILABLE", "TELEPHONE": "(570) 348-7100", "TYPE": "GENERAL ACUTE CARE", "STATUS": "OPEN", "POPULATION": 198, "COUNTY": "LACKAWANNA", "COUNTYFIPS": "42069", "COUNTRY": "USA", "LATITUDE": 41.412335264, "LONGITUDE": -75.653961514999907, "NAICS_CODE": "622110", "NAICS_DESC": "GENERAL MEDICAL AND SURGICAL HOSPITALS", "SOURCE": "http://sais.health.pa.gov/commonpoc/content/publiccommonpoc/normalSearch.asp", "SOURCEDATE": "2018-08-09T00:00:00.000Z", "VAL_METHOD": "IMAGERY", "VAL_DATE": "2014-01-13T00:00:00.000Z", "WEBSITE": "http://www.regionalhospitalofscranton.net", "STATE_ID": "650900", "ALT_NAME": "NOT AVAILABLE", "ST_FIPS": "42", "OWNER": "PROPRIETARY", "TTL_STAFF": -999, "BEDS": 198, "TRAUMA": "NOT AVAILABLE", "HELIPAD": "N" }, "geometry": { "type": "Polygon", "coordinates": [ [ [ -75.7355377, 41.3482732 ], [ -75.7367075, 41.3485635 ], [ -75.7375274, 41.3490631 ], [ -75.7377621, 41.352291299999976 ], [ -75.737832200000014, 41.355437399999971 ], [ -75.7219426, 41.4684431 ], [ -75.7174002, 41.4854863 ], [ -75.6705795, 41.484795900000023 ], [ -75.6171631, 41.480978800000024 ], [ -75.5725286, 41.456404099999965 ], [ -75.5683495, 41.3739514 ], [ -75.5747344, 41.36798490000001 ], [ -75.5963791, 41.358462100000075 ], [ -75.689438400000014, 41.344352700000051 ], [ -75.7355377, 41.3482732 ] ] ] } },
{ "type": "Feature", "properties": { "OBJECTID": 5244, "ID": "0011514830", "NAME": "GUTHRIE CORNING HOSPITAL", "ADDRESS": "176 DENISON PARKWAY EAST", "CITY": "CORNING", "STATE": "NY", "ZIP": "14830", "ZIP4": "NOT AVAILABLE", "TELEPHONE": "(607) 937-7200", "TYPE": "GENERAL ACUTE CARE", "STATUS": "CLOSED", "POPULATION": 99, "COUNTY": "STEUBEN", "COUNTYFIPS": "36101", "COUNTRY": "USA", "LATITUDE": 42.140600362999997, "LONGITUDE": -77.047410395, "NAICS_CODE": "622110", "NAICS_DESC": "GENERAL MEDICAL AND SURGICAL HOSPITALS", "SOURCE": "https://profiles.health.ny.gov/hospital/county_or_region/", "SOURCEDATE": "2018-08-20T00:00:00.000Z", "VAL_METHOD": "IMAGERY", "VAL_DATE": "2014-02-10T00:00:00.000Z", "WEBSITE": "http://www.corninghospital.com", "STATE_ID": "0866", "ALT_NAME": "NOT AVAILABLE", "ST_FIPS": "36", "OWNER": "NON-PROFIT", "TTL_STAFF": -999, "BEDS": 99, "TRAUMA": "NOT AVAILABLE", "HELIPAD": "N" }, "geometry": { "type": "Polygon", "coordinates": [ [ [ -77.051673, 42.070467 ], [ -77.154268200000018, 42.107985900000024 ], [ -77.1545086, 42.110565 ], [ -77.153006, 42.185826 ], [ -77.136117, 42.201159 ], [ -76.997097, 42.204102900000038 ], [ -76.9669008, 42.1344754 ], [ -76.965834, 42.1271 ], [ -76.965265, 42.121083 ], [ -76.965523, 42.118358 ], [ -76.9663395, 42.116138800000037 ], [ -77.011814, 42.072355 ], [ -77.051673, 42.070467 ] ] ] } },
{ "type": "Feature", "properties": { "OBJECTID": 5283, "ID": "0007608865", "NAME": "ST. LUKE'S HOSPITAL - WARREN CAMPUS", "ADDRESS": "185 ROSEBERRY STREET", "CITY": "PHILLIPSBURG", "STATE": "NJ", "ZIP": "08865", "ZIP4": "NOT AVAILABLE", "TELEPHONE": "(908) 859-6700", "TYPE": "GENERAL ACUTE CARE", "STATUS": "OPEN", "POPULATION": 198, "COUNTY": "WARREN", "COUNTYFIPS": "34041", "COUNTRY": "USA", "LATITUDE": 40.702205055, "LONGITUDE": -75.178120406999895, "NAICS_CODE": "622110", "NAICS_DESC": "GENERAL MEDICAL AND SURGICAL HOSPITALS", "SOURCE": "https://www.state.nj.us/health/healthfacilities/findhospital.shtml", "SOURCEDATE": "2018-08-09T00:00:00.000Z", "VAL_METHOD": "IMAGERY/OTHER", "VAL_DATE": "2014-03-12T00:00:00.000Z", "WEBSITE": "http://www.warrenhospital.org/", "STATE_ID": "NJ12102", "ALT_NAME": "NOT AVAILABLE", "ST_FIPS": "34", "OWNER": "NON-PROFIT", "TTL_STAFF": -999, "BEDS": 198, "TRAUMA": "NOT AVAILABLE", "HELIPAD": "Y" }, "geometry": { "type": "Polygon", "coordinates": [ [ [ -75.197857, 40.646523 ], [ -75.2050369, 40.691429200000016 ], [ -75.194921, 40.747851 ], [ -75.194269, 40.751462 ], [ -75.16656660000001, 40.770071299999955 ], [ -75.13165, 40.773374 ], [ -75.111319, 40.772797 ], [ -75.051779, 40.732131 ], [ -75.078552, 40.646988 ], [ -75.13825, 40.638775 ], [ -75.157325, 40.639766 ], [ -75.197857, 40.646523 ] ] ] } },
{ "type": "Feature", "properties": { "OBJECTID": 5932, "ID": "0021716947", "NAME": "TROY COMMUNITY HOSPITAL", "ADDRESS": "101 ELMIRA STREET", "CITY": "TROY", "STATE": "PA", "ZIP": "16947", "ZIP4": "NOT AVAILABLE", "TELEPHONE": "(717) 297-2121", "TYPE": "GENERAL ACUTE CARE", "STATUS": "CLOSED", "POPULATION": 25, "COUNTY": "BRADFORD", "COUNTYFIPS": "42015", "COUNTRY": "USA", "LATITUDE": 41.787138914000003, "LONGITUDE": -76.786428513999994, "NAICS_CODE": "622110", "NAICS_DESC": "GENERAL MEDICAL AND SURGICAL HOSPITALS", "SOURCE": "http://www.pasda.psu.edu/uci/DataSummary.aspx?dataset=909", "SOURCEDATE": "2016-09-26T00:00:00.000Z", "VAL_METHOD": "IMAGERY/OTHER", "VAL_DATE": "2014-02-10T00:00:00.000Z", "WEBSITE": "http://www.guthrie.org", "STATE_ID": "460100", "ALT_NAME": "NOT AVAILABLE", "ST_FIPS": "42", "OWNER": "NON-PROFIT", "TTL_STAFF": -999, "BEDS": 25, "TRAUMA": "NOT AVAILABLE", "HELIPAD": "N" }, "geometry": { "type": "Polygon", "coordinates": [ [ [ -76.8322024, 41.703906899999978 ], [ -76.8986431, 41.794452900000088 ], [ -76.899098, 41.804782 ], [ -76.8992019, 41.808071900000023 ], [ -76.873915, 41.839154 ], [ -76.8172669, 41.86639 ], [ -76.792559, 41.863868 ], [ -76.763855, 41.855427 ], [ -76.745979, 41.849121 ], [ -76.6506953, 41.766926599999969 ], [ -76.720558, 41.711677 ], [ -76.77537, 41.704633 ], [ -76.8322024, 41.703906899999978 ] ] ] } },
{ "type": "Feature", "properties": { "OBJECTID": 3086, "ID": "0025618472", "NAME": "SCI-WAYMART FORENSIC TREATMENT CENTER", "ADDRESS": "PO BOX 256", "CITY": "WAYMART", "STATE": "PA", "ZIP": "18472", "ZIP4": "NOT AVAILABLE", "TELEPHONE": "(570) 488-5811", "TYPE": "PSYCHIATRIC", "STATUS": "CLOSED", "POPULATION": 90, "COUNTY": "WAYNE", "COUNTYFIPS": "42127", "COUNTRY": "USA", "LATITUDE": 41.574341906000001, "LONGITUDE": -75.426857541999894, "NAICS_CODE": "622210", "NAICS_DESC": "HOSPITALS, PSYCHIATRIC (EXCEPT CONVALESCENT)", "SOURCE": "http://www.pasda.psu.edu/uci/DataSummary.aspx?dataset=909", "SOURCEDATE": "2016-09-26T00:00:00.000Z", "VAL_METHOD": "IMAGERY/OTHER", "VAL_DATE": "2014-02-10T00:00:00.000Z", "WEBSITE": "http://www.portal.state.pa.us/portal/server.pt/community/hide_waymart/11432", "STATE_ID": "840100", "ALT_NAME": "NOT AVAILABLE", "ST_FIPS": "42", "OWNER": "GOVERNMENT - STATE", "TTL_STAFF": -999, "BEDS": 90, "TRAUMA": "NOT AVAILABLE", "HELIPAD": "N" }, "geometry": { "type": "Polygon", "coordinates": [ [ [ -75.4181362, 41.503471899999987 ], [ -75.44025, 41.517987 ], [ -75.449033400000019, 41.5357873 ], [ -75.4592877, 41.573337899999963 ], [ -75.4235404, 41.618484400000057 ], [ -75.410731, 41.632270799999972 ], [ -75.3993311, 41.6427154 ], [ -75.341875, 41.591304900000033 ], [ -75.335434600000013, 41.5846956 ], [ -75.3316119, 41.547499400000042 ], [ -75.3321397, 41.546503 ], [ -75.4123427, 41.5053179 ], [ -75.4181362, 41.503471899999987 ] ] ] } },
{ "type": "Feature", "properties": { "OBJECTID": 3087, "ID": "0023918848", "NAME": "GUTHRIE TOWANDA MEMORIAL HOSPITAL", "ADDRESS": "91 HOSPITAL DRIVE", "CITY": "TOWANDA", "STATE": "PA", "ZIP": "18848", "ZIP4": "NOT AVAILABLE", "TELEPHONE": "(570) 297-9216", "TYPE": "GENERAL ACUTE CARE", "STATUS": "OPEN", "POPULATION": 77, "COUNTY": "BRADFORD", "COUNTYFIPS": "42015", "COUNTRY": "USA", "LATITUDE": 41.784052342000102, "LONGITUDE": -76.448148927999995, "NAICS_CODE": "622110", "NAICS_DESC": "GENERAL MEDICAL AND SURGICAL HOSPITALS", "SOURCE": "http://sais.health.pa.gov/commonpoc/content/publiccommonpoc/normalSearch.asp", "SOURCEDATE": "2018-08-09T00:00:00.000Z", "VAL_METHOD": "IMAGERY", "VAL_DATE": "2014-02-10T00:00:00.000Z", "WEBSITE": "https://www.guthrie.org/location/guthrie-towanda-memorial-hospital", "STATE_ID": "650200", "ALT_NAME": "NOT AVAILABLE", "ST_FIPS": "42", "OWNER": "NON-PROFIT", "TTL_STAFF": -999, "BEDS": 77, "TRAUMA": "NOT AVAILABLE", "HELIPAD": "Y" }, "geometry": { "type": "Polygon", "coordinates": [ [ [ -76.482492, 41.706886 ], [ -76.4852854, 41.7078766 ], [ -76.5658521, 41.780574200000011 ], [ -76.5670406, 41.781861600000035 ], [ -76.567382, 41.782734 ], [ -76.550905, 41.822139 ], [ -76.5013527, 41.848388400000061 ], [ -76.433132, 41.844345 ], [ -76.379776, 41.795779 ], [ -76.3699185, 41.771194600000022 ], [ -76.422456, 41.725946 ], [ -76.427596, 41.723246 ], [ -76.472486, 41.709067 ], [ -76.482492, 41.706886 ] ] ] } },
{ "type": "Feature", "properties": { "OBJECTID": 3102, "ID": "0003117815", "NAME": "GEISINGER-BLOOMSBURG HOSPITAL", "ADDRESS": "549 FAIR STREET", "CITY": "BLOOMSBURG", "STATE": "PA", "ZIP": "17815", "ZIP4": "NOT AVAILABLE", "TELEPHONE": "(570) 387-2100", "TYPE": "GENERAL ACUTE CARE", "STATUS": "OPEN", "POPULATION": 72, "COUNTY": "COLUMBIA", "COUNTYFIPS": "42037", "COUNTRY": "USA", "LATITUDE": 41.009512, "LONGITUDE": -76.452273000999995, "NAICS_CODE": "622110", "NAICS_DESC": "GENERAL MEDICAL AND SURGICAL HOSPITALS", "SOURCE": "http://sais.health.pa.gov/commonpoc/content/publiccommonpoc/normalSearch.asp", "SOURCEDATE": "2018-08-09T00:00:00.000Z", "VAL_METHOD": "IMAGERY", "VAL_DATE": "2014-02-10T00:00:00.000Z", "WEBSITE": "http://www.bloomhealth.net", "STATE_ID": "025000", "ALT_NAME": "NOT AVAILABLE", "ST_FIPS": "42", "OWNER": "NON-PROFIT", "TTL_STAFF": -999, "BEDS": 72, "TRAUMA": "NOT AVAILABLE", "HELIPAD": "Y" }, "geometry": { "type": "Polygon", "coordinates": [ [ [ -76.5756443, 40.9599506 ], [ -76.500088, 41.066962 ], [ -76.431783, 41.078237 ], [ -76.430878, 41.078236 ], [ -76.430116, 41.078141 ], [ -76.3066418, 41.041623 ], [ -76.3048461, 41.0332045 ], [ -76.3066141, 41.030490800000038 ], [ -76.3104205, 41.0258303 ], [ -76.3742442, 40.975822899999955 ], [ -76.4562403, 40.9472999 ], [ -76.4565319, 40.947207899999974 ], [ -76.5756443, 40.9599506 ] ] ] } },
{ "type": "Feature", "properties": { "OBJECTID": 3113, "ID": "0009918801", "NAME": "MONTROSE GENERAL HOSPITAL", "ADDRESS": "25 GROW AVENUE", "CITY": "MONTROSE", "STATE": "PA", "ZIP": "18801", "ZIP4": "NOT AVAILABLE", "TELEPHONE": "(717) 278-3801", "TYPE": "GENERAL ACUTE CARE", "STATUS": "CLOSED", "POPULATION": 21, "COUNTY": "SUSQUEHANNA", "COUNTYFIPS": "42115", "COUNTRY": "USA", "LATITUDE": 41.832527, "LONGITUDE": -75.872755998999907, "NAICS_CODE": "622110", "NAICS_DESC": "GENERAL MEDICAL AND SURGICAL HOSPITALS", "SOURCE": "http://www.pasda.psu.edu/uci/DataSummary.aspx?dataset=909", "SOURCEDATE": "2016-09-26T00:00:00.000Z", "VAL_METHOD": "IMAGERY/OTHER", "VAL_DATE": "2014-02-10T00:00:00.000Z", "WEBSITE": "endlesscare.org", "STATE_ID": "136700", "ALT_NAME": "NOT AVAILABLE", "ST_FIPS": "42", "OWNER": "NON-PROFIT", "TTL_STAFF": -999, "BEDS": 21, "TRAUMA": "NOT AVAILABLE", "HELIPAD": "N" }, "geometry": { "type": "Polygon", "coordinates": [ [ [ -75.8981469, 41.758779800000063 ], [ -75.9669781, 41.8085265 ], [ -75.9390253, 41.879227300000032 ], [ -75.8463635, 41.907343099999942 ], [ -75.7762499, 41.860664 ], [ -75.791341, 41.812707 ], [ -75.8405, 41.785 ], [ -75.8981469, 41.758779800000063 ] ] ] } },
{ "type": "Feature", "properties": { "OBJECTID": 3114, "ID": "0010518634", "NAME": "SPECIAL CARE HOSPITAL", "ADDRESS": "128 WEST WASHINGTON STREET", "CITY": "NANTICOKE", "STATE": "PA", "ZIP": "18634", "ZIP4": "NOT AVAILABLE", "TELEPHONE": "(570) 735-5000", "TYPE": "LONG TERM CARE", "STATUS": "CLOSED", "POPULATION": 67, "COUNTY": "LUZERNE", "COUNTYFIPS": "42079", "COUNTRY": "USA", "LATITUDE": 41.195040001000102, "LONGITUDE": -76.004123998999901, "NAICS_CODE": "622310", "NAICS_DESC": "EXTENDED CARE HOSPITALS (EXCEPT MENTAL, SUBSTANCE ABUSE)", "SOURCE": "http://www.pasda.psu.edu/uci/DataSummary.aspx?dataset=909", "SOURCEDATE": "2016-09-26T00:00:00.000Z", "VAL_METHOD": "IMAGERY", "VAL_DATE": "2014-02-10T00:00:00.000Z", "WEBSITE": "http://www.specialcarehospital.net", "STATE_ID": "141400", "ALT_NAME": "NOT AVAILABLE", "ST_FIPS": "42", "OWNER": "PROPRIETARY", "TTL_STAFF": -999, "BEDS": 67, "TRAUMA": "NOT AVAILABLE", "HELIPAD": "N" }, "geometry": { "type": "Polygon", "coordinates": [ [ [ -76.021742, 41.14493 ], [ -76.084012, 41.17122 ], [ -76.072454900000011, 41.2105139 ], [ -75.9674963, 41.2409214 ], [ -75.960647, 41.242570799999953 ], [ -75.9582837, 41.2427918 ], [ -75.9119579, 41.238431 ], [ -75.889458, 41.210553399999959 ], [ -75.9792486, 41.1556775 ], [ -76.021742, 41.14493 ] ] ] } },
{ "type": "Feature", "properties": { "OBJECTID": 3115, "ID": "0002718069", "NAME": "KIDSPEACE ORCHARD HILLS CAMPUS", "ADDRESS": "5300 KIDSPEACE DRIVE", "CITY": "OREFIELD", "STATE": "PA", "ZIP": "18069", "ZIP4": "NOT AVAILABLE", "TELEPHONE": "(610) 799-8800", "TYPE": "PSYCHIATRIC", "STATUS": "OPEN", "POPULATION": 80, "COUNTY": "LEHIGH", "COUNTYFIPS": "42077", "COUNTRY": "USA", "LATITUDE": 40.648775072, "LONGITUDE": -75.613465893999901, "NAICS_CODE": "622210", "NAICS_DESC": "PSYCHIATRIC AND SUBSTANCE ABUSE HOSPITALS", "SOURCE": "http://sais.health.pa.gov/commonpoc/content/publiccommonpoc/normalSearch.asp", "SOURCEDATE": "2018-08-09T00:00:00.000Z", "VAL_METHOD": "IMAGERY", "VAL_DATE": "2014-02-10T00:00:00.000Z", "WEBSITE": "http://www.kidspeace.org", "STATE_ID": "014700", "ALT_NAME": "NOT AVAILABLE", "ST_FIPS": "42", "OWNER": "NON-PROFIT", "TTL_STAFF": -999, "BEDS": 80, "TRAUMA": "NOT AVAILABLE", "HELIPAD": "N" }, "geometry": { "type": "Polygon", "coordinates": [ [ [ -75.5894411, 40.591402 ], [ -75.646476, 40.612666 ], [ -75.647303799999989, 40.613897199999982 ], [ -75.678876, 40.685847 ], [ -75.64331, 40.720698 ], [ -75.617152, 40.726206 ], [ -75.568678, 40.707962 ], [ -75.525268, 40.6828674 ], [ -75.524308, 40.651003 ], [ -75.524464, 40.650168 ], [ -75.541198, 40.613446 ], [ -75.5521175, 40.590944600000022 ], [ -75.5538465, 40.587937200000027 ], [ -75.557498, 40.588231 ], [ -75.5894411, 40.591402 ] ] ] } },
{ "type": "Feature", "properties": { "OBJECTID": 3120, "ID": "0009217756", "NAME": "MUNCY VALLEY HOSPITAL", "ADDRESS": "215 EAST WATER STREET", "CITY": "MUNCY", "STATE": "PA", "ZIP": "17756", "ZIP4": "NOT AVAILABLE", "TELEPHONE": "(570) 546-8282", "TYPE": "GENERAL ACUTE CARE", "STATUS": "OPEN", "POPULATION": 18, "COUNTY": "LYCOMING", "COUNTYFIPS": "42081", "COUNTRY": "USA", "LATITUDE": 41.2097580020001, "LONGITUDE": -76.775342001, "NAICS_CODE": "622110", "NAICS_DESC": "GENERAL MEDICAL AND SURGICAL HOSPITALS", "SOURCE": "http://sais.health.pa.gov/commonpoc/content/publiccommonpoc/normalSearch.asp", "SOURCEDATE": "2018-08-09T00:00:00.000Z", "VAL_METHOD": "IMAGERY", "VAL_DATE": "2014-02-10T00:00:00.000Z", "WEBSITE": "http://www.susquehannahealth.org", "STATE_ID": "134300", "ALT_NAME": "NOT AVAILABLE", "ST_FIPS": "42", "OWNER": "NON-PROFIT", "TTL_STAFF": -999, "BEDS": 18, "TRAUMA": "NOT AVAILABLE", "HELIPAD": "Y" }, "geometry": { "type": "Polygon", "coordinates": [ [ [ -76.7971739, 41.155548499999966 ], [ -76.8743445, 41.170135 ], [ -76.8746835, 41.170432 ], [ -76.921039, 41.264579 ], [ -76.913002, 41.267006 ], [ -76.828068, 41.281328 ], [ -76.7131918, 41.277935400000018 ], [ -76.696918, 41.262693 ], [ -76.695092, 41.260794 ], [ -76.679962, 41.230769 ], [ -76.680705, 41.218836 ], [ -76.684758, 41.175833 ], [ -76.769187, 41.155043 ], [ -76.7971739, 41.155548499999966 ] ] ] } },
{ "type": "Feature", "properties": { "OBJECTID": 3185, "ID": "0000513901", "NAME": "OUR LADY OF LOURDES MEMORIAL HOSPITAL", "ADDRESS": "169 RIVERSIDE DR", "CITY": "BINGHAMTON", "STATE": "NY", "ZIP": "13901", "ZIP4": "NOT AVAILABLE", "TELEPHONE": "(607) 798-5111", "TYPE": "GENERAL ACUTE CARE", "STATUS": "OPEN", "POPULATION": 242, "COUNTY": "BROOME", "COUNTYFIPS": "36007", "COUNTRY": "USA", "LATITUDE": 42.091386429000103, "LONGITUDE": -75.936934977000007, "NAICS_CODE": "622110", "NAICS_DESC": "GENERAL MEDICAL AND SURGICAL HOSPITALS", "SOURCE": "https://profiles.health.ny.gov/hospital/county_or_region/", "SOURCEDATE": "2018-08-20T00:00:00.000Z", "VAL_METHOD": "IMAGERY", "VAL_DATE": "2014-02-10T00:00:00.000Z", "WEBSITE": "http://www.lourdes.com", "STATE_ID": "0301001H", "ALT_NAME": "NOT AVAILABLE", "ST_FIPS": "36", "OWNER": "NON-PROFIT", "TTL_STAFF": -999, "BEDS": 242, "TRAUMA": "NOT AVAILABLE", "HELIPAD": "Y" }, "geometry": { "type": "Polygon", "coordinates": [ [ [ -75.929246, 42.050702 ], [ -75.990472, 42.066515 ], [ -76.041117, 42.089571 ], [ -76.0442132, 42.091896 ], [ -76.032658, 42.106835 ], [ -75.994234, 42.146979 ], [ -75.955174, 42.16892 ], [ -75.95235, 42.16906 ], [ -75.951794, 42.169083 ], [ -75.895746, 42.168251 ], [ -75.888203, 42.167697 ], [ -75.87291, 42.164706 ], [ -75.8106749, 42.100201800000029 ], [ -75.814862, 42.095848 ], [ -75.854809, 42.068401 ], [ -75.867547, 42.062654 ], [ -75.915196, 42.051344 ], [ -75.929246, 42.050702 ] ] ] } },
{ "type": "Feature", "properties": { "OBJECTID": 3343, "ID": "0012912723", "NAME": "GROVER M. HERMAN HOSPITAL", "ADDRESS": "8881 ROUTE 97", "CITY": "CALLICOON", "STATE": "NY", "ZIP": "12723", "ZIP4": "NOT AVAILABLE", "TELEPHONE": "(845) 887-5530", "TYPE": "CRITICAL ACCESS", "STATUS": "OPEN", "POPULATION": 15, "COUNTY": "SULLIVAN", "COUNTYFIPS": "36105", "COUNTRY": "USA", "LATITUDE": 41.740291931000101, "LONGITUDE": -75.047415509000004, "NAICS_CODE": "622110", "NAICS_DESC": "GENERAL MEDICAL AND SURGICAL HOSPITALS", "SOURCE": "https://profiles.health.ny.gov/hospital/county_or_region/", "SOURCEDATE": "2018-08-20T00:00:00.000Z", "VAL_METHOD": "IMAGERY/OTHER", "VAL_DATE": "2014-02-10T00:00:00.000Z", "WEBSITE": "http://www.crmcny.org", "STATE_ID": "5263700C", "ALT_NAME": "CATSKILL REGIONAL MEDICAL CENTER HERMANN", "ST_FIPS": "36", "OWNER": "NON-PROFIT", "TTL_STAFF": -999, "BEDS": 15, "TRAUMA": "NOT AVAILABLE", "HELIPAD": "Y" }, "geometry": { "type": "Polygon", "coordinates": [ [ [ -75.047422, 41.666101 ], [ -75.054087, 41.671668 ], [ -75.0674815, 41.704427200000019 ], [ -75.0833972, 41.815179399999927 ], [ -75.012429, 41.794081 ], [ -75.009214, 41.7925 ], [ -74.983202, 41.75793 ], [ -74.99266, 41.715659 ], [ -75.026448, 41.677925 ], [ -75.031189, 41.674365 ], [ -75.047422, 41.666101 ] ] ] } },
{ "type": "Feature", "properties": { "OBJECTID": 3395, "ID": "0121614901", "NAME": "ST JOSEPHS HOSPITAL", "ADDRESS": "555 ST. JOSEPH'S BOULEVARD", "CITY": "ELMIRA", "STATE": "NY", "ZIP": "14901", "ZIP4": "NOT AVAILABLE", "TELEPHONE": "(607) 733-6541", "TYPE": "GENERAL ACUTE CARE", "STATUS": "OPEN", "POPULATION": 125, "COUNTY": "CHEMUNG", "COUNTYFIPS": "36015", "COUNTRY": "USA", "LATITUDE": 42.091950345000001, "LONGITUDE": -76.798434496, "NAICS_CODE": "622110", "NAICS_DESC": "GENERAL MEDICAL AND SURGICAL HOSPITALS", "SOURCE": "https://profiles.health.ny.gov/hospital/county_or_region/", "SOURCEDATE": "2018-08-20T00:00:00.000Z", "VAL_METHOD": "IMAGERY/OTHER", "VAL_DATE": "2015-02-24T00:00:00.000Z", "WEBSITE": "https://www.arnothealth.org/st-josephs-hospital", "STATE_ID": "0701001H", "ALT_NAME": "NOT AVAILABLE", "ST_FIPS": "36", "OWNER": "NON-PROFIT", "TTL_STAFF": -999, "BEDS": 125, "TRAUMA": "NOT AVAILABLE", "HELIPAD": "Y" }, "geometry": { "type": "Polygon", "coordinates": [ [ [ -76.7777419, 42.001620900000049 ], [ -76.8701363, 42.0365812 ], [ -76.901279, 42.075949 ], [ -76.910411, 42.0975301 ], [ -76.8825699, 42.155819400000034 ], [ -76.878304900000018, 42.164707799999974 ], [ -76.860361, 42.176592 ], [ -76.834892, 42.189352 ], [ -76.793775, 42.193125 ], [ -76.78369, 42.193286 ], [ -76.6720444, 42.029576500000026 ], [ -76.7297829, 42.006161 ], [ -76.7777419, 42.001620900000049 ] ] ] } },
{ "type": "Feature", "properties": { "OBJECTID": 3780, "ID": "0012318102", "NAME": "SACRED HEART HOSPITAL", "ADDRESS": "421 CHEW STREET", "CITY": "ALLENTOWN", "STATE": "PA", "ZIP": "18102", "ZIP4": "NOT AVAILABLE", "TELEPHONE": "(610) 776-4500", "TYPE": "GENERAL ACUTE CARE", "STATUS": "OPEN", "POPULATION": 215, "COUNTY": "LEHIGH", "COUNTYFIPS": "42077", "COUNTRY": "USA", "LATITUDE": 40.608314804000003, "LONGITUDE": -75.468459857, "NAICS_CODE": "622110", "NAICS_DESC": "GENERAL MEDICAL AND SURGICAL HOSPITALS", "SOURCE": "http://sais.health.pa.gov/commonpoc/content/publiccommonpoc/normalSearch.asp", "SOURCEDATE": "2018-08-09T00:00:00.000Z", "VAL_METHOD": "IMAGERY", "VAL_DATE": "2014-02-10T00:00:00.000Z", "WEBSITE": "http://www.shh.org", "STATE_ID": "195500", "ALT_NAME": "NOT AVAILABLE", "ST_FIPS": "42", "OWNER": "NON-PROFIT", "TTL_STAFF": -999, "BEDS": 215, "TRAUMA": "NOT AVAILABLE", "HELIPAD": "N" }, "geometry": { "type": "Polygon", "coordinates": [ [ [ -75.498783, 40.532010399999976 ], [ -75.5672709, 40.55965 ], [ -75.5893538, 40.591928800000034 ], [ -75.5787226, 40.61573810000003 ], [ -75.522552, 40.697472 ], [ -75.4158485, 40.6958483 ], [ -75.3847783, 40.673936 ], [ -75.3794664, 40.669236100000028 ], [ -75.37498, 40.664861 ], [ -75.37445080000002, 40.6639871 ], [ -75.3719654, 40.658552700000016 ], [ -75.378497, 40.6207183 ], [ -75.4087913, 40.536203400000012 ], [ -75.489566, 40.531197 ], [ -75.491653, 40.531203 ], [ -75.498783, 40.532010399999976 ] ] ] } },
{ "type": "Feature", "properties": { "OBJECTID": 3806, "ID": "0015418104", "NAME": "SURGICAL SPECIALTY CENTER AT COORDINATED HEALTH", "ADDRESS": "1503 CEDAR CREST BOULEVARD", "CITY": "ALLENTOWN", "STATE": "PA", "ZIP": "18104", "ZIP4": "NOT AVAILABLE", "TELEPHONE": "(610) 871-9110", "TYPE": "GENERAL ACUTE CARE", "STATUS": "OPEN", "POPULATION": 22, "COUNTY": "LEHIGH", "COUNTYFIPS": "42077", "COUNTRY": "USA", "LATITUDE": 40.612754290000098, "LONGITUDE": -75.529232905000001, "NAICS_CODE": "622110", "NAICS_DESC": "GENERAL MEDICAL AND SURGICAL HOSPITALS", "SOURCE": "http://sais.health.pa.gov/commonpoc/content/publiccommonpoc/normalSearch.asp", "SOURCEDATE": "2018-08-09T00:00:00.000Z", "VAL_METHOD": "IMAGERY/OTHER", "VAL_DATE": "2019-04-16T00:00:00.000Z", "WEBSITE": "http://www.coordinatedhealth.com", "STATE_ID": "224300", "ALT_NAME": "NOT AVAILABLE", "ST_FIPS": "42", "OWNER": "PROPRIETARY", "TTL_STAFF": -999, "BEDS": 22, "TRAUMA": "NOT AVAILABLE", "HELIPAD": "N" }, "geometry": { "type": "Polygon", "coordinates": [ [ [ -75.5195327, 40.531320699999981 ], [ -75.552433, 40.536875 ], [ -75.596734, 40.550864799999964 ], [ -75.6078535, 40.5546091 ], [ -75.6320347, 40.563805 ], [ -75.655276, 40.586623 ], [ -75.584074, 40.684397 ], [ -75.527379, 40.682543 ], [ -75.4205685, 40.66675750000001 ], [ -75.400828500000017, 40.654649399999968 ], [ -75.4029733, 40.64309650000002 ], [ -75.4043258, 40.639790100000013 ], [ -75.450504, 40.559509 ], [ -75.508084, 40.529785 ], [ -75.508349, 40.529661 ], [ -75.5195327, 40.531320699999981 ] ] ] } },
{ "type": "Feature", "properties": { "OBJECTID": 3808, "ID": "0002217822", "NAME": "GEISINGER HEALTHSOUTH REHABILITATION HOSPITAL", "ADDRESS": "16 WOODBINE LN", "CITY": "DANVILLE", "STATE": "PA", "ZIP": "17822", "ZIP4": "NOT AVAILABLE", "TELEPHONE": "(570) 271-6110", "TYPE": "REHABILITATION", "STATUS": "OPEN", "POPULATION": 42, "COUNTY": "MONTOUR", "COUNTYFIPS": "42093", "COUNTRY": "USA", "LATITUDE": 40.961596873000097, "LONGITUDE": -76.572781608, "NAICS_CODE": "622310", "NAICS_DESC": "REHABILITATION HOSPITALS (EXCEPT ALCOHOLISM, DRUG ADDICTION)", "SOURCE": "http://sais.health.pa.gov/commonpoc/content/publiccommonpoc/normalSearch.asp", "SOURCEDATE": "2018-08-09T00:00:00.000Z", "VAL_METHOD": "IMAGERY/OTHER", "VAL_DATE": "2019-04-16T00:00:00.000Z", "WEBSITE": "http://www.geisingerhealthsouth.com/", "STATE_ID": "002800", "ALT_NAME": "NOT AVAILABLE", "ST_FIPS": "42", "OWNER": "PROPRIETARY", "TTL_STAFF": -999, "BEDS": 42, "TRAUMA": "NOT AVAILABLE", "HELIPAD": "N" }, "geometry": { "type": "Polygon", "coordinates": [ [ [ -76.586842, 40.941999 ], [ -76.597258, 40.944417 ], [ -76.6558259, 40.962071 ], [ -76.6719149, 40.983989500000028 ], [ -76.671553, 40.987804 ], [ -76.664715, 41.010793 ], [ -76.611283, 41.014572 ], [ -76.4902882, 41.01306410000003 ], [ -76.4532614, 41.005450300000035 ], [ -76.4528809, 41.004808500000031 ], [ -76.4526071, 41.003779099999988 ], [ -76.4532397, 41.001434900000028 ], [ -76.4544274, 40.998043299999971 ], [ -76.4708081, 40.956108499999964 ], [ -76.4709564, 40.955762799999981 ], [ -76.552357, 40.942177 ], [ -76.586842, 40.941999 ] ] ] } },
{ "type": "Feature", "properties": { "OBJECTID": 3821, "ID": "0008217740", "NAME": "GEISINGER JERSEY SHORE HOSPITAL", "ADDRESS": "1020 THOMPSON STREET", "CITY": "JERSEY SHORE", "STATE": "PA", "ZIP": "17740", "ZIP4": "NOT AVAILABLE", "TELEPHONE": "(570) 398-3101", "TYPE": "GENERAL ACUTE CARE", "STATUS": "OPEN", "POPULATION": 25, "COUNTY": "LYCOMING", "COUNTYFIPS": "42081", "COUNTRY": "USA", "LATITUDE": 41.2018360020001, "LONGITUDE": -77.267931000999994, "NAICS_CODE": "622110", "NAICS_DESC": "GENERAL MEDICAL AND SURGICAL HOSPITALS", "SOURCE": "http://sais.health.pa.gov/commonpoc/content/publiccommonpoc/normalSearch.asp", "SOURCEDATE": "2018-08-09T00:00:00.000Z", "VAL_METHOD": "IMAGERY/OTHER", "VAL_DATE": "2019-04-16T00:00:00.000Z", "WEBSITE": "http://www.jsh.org", "STATE_ID": "101400", "ALT_NAME": "NOT AVAILABLE", "ST_FIPS": "42", "OWNER": "NON-PROFIT", "TTL_STAFF": -999, "BEDS": 25, "TRAUMA": "NOT AVAILABLE", "HELIPAD": "N" }, "geometry": { "type": "Polygon", "coordinates": [ [ [ -77.3392931, 41.1333113 ], [ -77.360407, 41.141282 ], [ -77.371472, 41.149869 ], [ -77.379557, 41.162435 ], [ -77.3772358, 41.169549 ], [ -77.3730152, 41.176843200000015 ], [ -77.333791, 41.237561 ], [ -77.231145, 41.261735 ], [ -77.149467, 41.228606 ], [ -77.149329, 41.228477 ], [ -77.15378, 41.219185 ], [ -77.202864, 41.155958 ], [ -77.229348, 41.144984 ], [ -77.3392931, 41.1333113 ] ] ] } },
{ "type": "Feature", "properties": { "OBJECTID": 3836, "ID": "0020518071", "NAME": "PALMERTON HOSPITAL", "ADDRESS": "135 LAFAYETTE AVENUE", "CITY": "PALMERTON", "STATE": "PA", "ZIP": "18071", "ZIP4": "NOT AVAILABLE", "TELEPHONE": "(610) 826-3141", "TYPE": "GENERAL ACUTE CARE", "STATUS": "OPEN", "POPULATION": 60, "COUNTY": "CARBON", "COUNTYFIPS": "42025", "COUNTRY": "USA", "LATITUDE": 40.802971001000103, "LONGITUDE": -75.615028, "NAICS_CODE": "622110", "NAICS_DESC": "GENERAL MEDICAL AND SURGICAL HOSPITALS", "SOURCE": "http://sais.health.pa.gov/commonpoc/content/publiccommonpoc/normalSearch.asp", "SOURCEDATE": "2018-08-09T00:00:00.000Z", "VAL_METHOD": "IMAGERY/OTHER", "VAL_DATE": "2019-04-16T00:00:00.000Z", "WEBSITE": "http://www.ghmh.org/content/palmertoncampus.htm", "STATE_ID": "420600", "ALT_NAME": "NOT AVAILABLE", "ST_FIPS": "42", "OWNER": "NON-PROFIT", "TTL_STAFF": -999, "BEDS": 60, "TRAUMA": "NOT AVAILABLE", "HELIPAD": "N" }, "geometry": { "type": "Polygon", "coordinates": [ [ [ -75.7177793, 40.782371799999972 ], [ -75.7181345, 40.7830134 ], [ -75.7186725, 40.784803299999986 ], [ -75.7203971, 40.8216901 ], [ -75.7137876, 40.833941599999946 ], [ -75.7110668, 40.8389697 ], [ -75.6980697, 40.842878899999988 ], [ -75.5867782, 40.864971899999979 ], [ -75.579948, 40.865966300000018 ], [ -75.522637, 40.832486399999979 ], [ -75.5182392, 40.825133200000025 ], [ -75.530847300000019, 40.815755 ], [ -75.6121104, 40.793455500000015 ], [ -75.6497935, 40.786418800000028 ], [ -75.6997172, 40.783255200000042 ], [ -75.7177793, 40.782371799999972 ] ] ] } },
{ "type": "Feature", "properties": { "OBJECTID": 3839, "ID": "0002818847", "NAME": "BARNES-KASSON COUNTY HOSPITAL", "ADDRESS": "2872 TURNPIKE STREET", "CITY": "SUSQUEHANNA", "STATE": "PA", "ZIP": "18847", "ZIP4": "NOT AVAILABLE", "TELEPHONE": "(570) 853-3135", "TYPE": "GENERAL ACUTE CARE", "STATUS": "OPEN", "POPULATION": 58, "COUNTY": "SUSQUEHANNA", "COUNTYFIPS": "42115", "COUNTRY": "USA", "LATITUDE": 41.946559143000101, "LONGITUDE": -75.592303704999907, "NAICS_CODE": "622110", "NAICS_DESC": "GENERAL MEDICAL AND SURGICAL HOSPITALS", "SOURCE": "http://sais.health.pa.gov/commonpoc/content/publiccommonpoc/normalSearch.asp", "SOURCEDATE": "2018-08-09T00:00:00.000Z", "VAL_METHOD": "IMAGERY/OTHER", "VAL_DATE": "2019-04-16T00:00:00.000Z", "WEBSITE": "http://www.barnes-kasson.org", "STATE_ID": "020500", "ALT_NAME": "NOT AVAILABLE", "ST_FIPS": "42", "OWNER": "NON-PROFIT", "TTL_STAFF": -999, "BEDS": 58, "TRAUMA": "NOT AVAILABLE", "HELIPAD": "N" }, "geometry": { "type": "Polygon", "coordinates": [ [ [ -75.588608500000021, 41.874019 ], [ -75.6150234, 41.8922554 ], [ -75.6380186, 41.9090464 ], [ -75.6720848, 41.968312300000022 ], [ -75.667264, 41.973213 ], [ -75.609825, 41.999065 ], [ -75.579273, 41.999025199999977 ], [ -75.538673, 41.972301 ], [ -75.5237737, 41.9600064 ], [ -75.531091, 41.931258 ], [ -75.574035, 41.883951 ], [ -75.588608500000021, 41.874019 ] ] ] } },
{ "type": "Feature", "properties": { "OBJECTID": 3841, "ID": "0008318020", "NAME": "COORDINATED HEALTH ORTHOPEDIC HOSPITAL", "ADDRESS": "2310 HIGHLAND AVENUE", "CITY": "BETHLEHEM", "STATE": "PA", "ZIP": "18020", "ZIP4": "NOT AVAILABLE", "TELEPHONE": "(610) 691-4300", "TYPE": "SPECIAL", "STATUS": "OPEN", "POPULATION": -999, "COUNTY": "NORTHAMPTON", "COUNTYFIPS": "42095", "COUNTRY": "USA", "LATITUDE": 40.673121466000097, "LONGITUDE": -75.365457125000006, "NAICS_CODE": "622310", "NAICS_DESC": "ORTHOPEDIC HOSPITALS", "SOURCE": "http://sais.health.pa.gov/commonpoc/content/publiccommonpoc/normalSearch.asp", "SOURCEDATE": "2018-08-09T00:00:00.000Z", "VAL_METHOD": "IMAGERY/OTHER", "VAL_DATE": "2019-04-16T00:00:00.000Z", "WEBSITE": "http://www.coordinatedhealth.com", "STATE_ID": "103702", "ALT_NAME": "NOT AVAILABLE", "ST_FIPS": "42", "OWNER": "PROPRIETARY", "TTL_STAFF": -999, "BEDS": -999, "TRAUMA": "NOT AVAILABLE", "HELIPAD": "N" }, "geometry": { "type": "Polygon", "coordinates": [ [ [ -75.446574, 40.61413 ], [ -75.460918, 40.617733 ], [ -75.4865381, 40.625424799999934 ], [ -75.485981, 40.632192 ], [ -75.4692396, 40.697083499999934 ], [ -75.4204323, 40.7354896 ], [ -75.392959, 40.744058 ], [ -75.3095407, 40.739333 ], [ -75.2822689, 40.722128199999979 ], [ -75.2430378, 40.6899236 ], [ -75.2429313, 40.6891703 ], [ -75.2426796, 40.683876799999958 ], [ -75.2464705, 40.676513 ], [ -75.2753963, 40.640555200000016 ], [ -75.3490874, 40.60771 ], [ -75.3796296, 40.605073399999974 ], [ -75.3848975, 40.6047383 ], [ -75.446574, 40.61413 ] ] ] } },
{ "type": "Feature", "properties": { "OBJECTID": 3909, "ID": "0169913904", "NAME": "GREATER BINGHAMTON HEALTH CENTER", "ADDRESS": "425 ROBINSON STREET", "CITY": "BINGHAMTON", "STATE": "NY", "ZIP": "13904", "ZIP4": "1755", "TELEPHONE": "(607) 724-1391", "TYPE": "PSYCHIATRIC", "STATUS": "OPEN", "POPULATION": -999, "COUNTY": "BROOME", "COUNTYFIPS": "36007", "COUNTRY": "USA", "LATITUDE": 42.105824998000102, "LONGITUDE": -75.868268490999995, "NAICS_CODE": "622210", "NAICS_DESC": "PSYCHIATRIC AND SUBSTANCE ABUSE HOSPITALS", "SOURCE": "https://profiles.health.ny.gov/hospital/county_or_region/", "SOURCEDATE": "2018-08-20T00:00:00.000Z", "VAL_METHOD": "IMAGERY", "VAL_DATE": "2019-05-09T00:00:00.000Z", "WEBSITE": "https://www.omh.ny.gov/omhweb/facilities/bipc/", "STATE_ID": "NOT AVAILABLE", "ALT_NAME": "NOT AVAILABLE", "ST_FIPS": "36", "OWNER": "GOVERNMENT - STATE", "TTL_STAFF": -999, "BEDS": -999, "TRAUMA": "NOT AVAILABLE", "HELIPAD": "N" }, "geometry": { "type": "Polygon", "coordinates": [ [ [ -75.930063, 42.065723 ], [ -75.9720361, 42.095696099999962 ], [ -75.990624, 42.117595 ], [ -75.9777094, 42.1261747 ], [ -75.900645, 42.171292 ], [ -75.873299, 42.17328 ], [ -75.831262, 42.152041 ], [ -75.791208, 42.12438 ], [ -75.7547106, 42.0932233 ], [ -75.7946175, 42.045447300000056 ], [ -75.930063, 42.065723 ] ] ] } },
{ "type": "Feature", "properties": { "OBJECTID": 3979, "ID": "0170014901", "NAME": "ELMIRA PSYCHIATRIC CENTER", "ADDRESS": "100 WASHINGTON STREET", "CITY": "ELMIRA", "STATE": "NY", "ZIP": "14901", "ZIP4": "NOT AVAILABLE", "TELEPHONE": "(607) 737-4711", "TYPE": "PSYCHIATRIC", "STATUS": "OPEN", "POPULATION": -999, "COUNTY": "CHEMUNG", "COUNTYFIPS": "36015", "COUNTRY": "USA", "LATITUDE": 42.091611272000101, "LONGITUDE": -76.795049712999997, "NAICS_CODE": "622210", "NAICS_DESC": "PSYCHIATRIC AND SUBSTANCE ABUSE HOSPITALS", "SOURCE": "https://profiles.health.ny.gov/hospital/county_or_region/", "SOURCEDATE": "2018-08-20T00:00:00.000Z", "VAL_METHOD": "IMAGERY", "VAL_DATE": "2019-05-09T00:00:00.000Z", "WEBSITE": "https://www.omh.ny.gov/omhweb/facilities/elpc/", "STATE_ID": "NOT AVAILABLE", "ALT_NAME": "NOT AVAILABLE", "ST_FIPS": "36", "OWNER": "GOVERNMENT - STATE", "TTL_STAFF": -999, "BEDS": -999, "TRAUMA": "NOT AVAILABLE", "HELIPAD": "Y" }, "geometry": { "type": "Polygon", "coordinates": [ [ [ -76.7777419, 42.001620900000049 ], [ -76.8701363, 42.0365812 ], [ -76.901279, 42.075949 ], [ -76.9066352, 42.0962697 ], [ -76.8825699, 42.155819400000034 ], [ -76.878304900000018, 42.164707799999974 ], [ -76.860361, 42.176592 ], [ -76.834892, 42.189352 ], [ -76.793775, 42.193125 ], [ -76.78369, 42.193286 ], [ -76.6720444, 42.029576500000026 ], [ -76.7295009, 42.001426299999956 ], [ -76.7777419, 42.001620900000049 ] ] ] } },
{ "type": "Feature", "properties": { "OBJECTID": 3993, "ID": "0179418360", "NAME": "ST LUKES HOSPITAL MONROE CAMPUS", "ADDRESS": "100 ST LUKES LANE", "CITY": "STROUDSBURG", "STATE": "PA", "ZIP": "18360", "ZIP4": "NOT AVAILABLE", "TELEPHONE": "(272) 212-1000", "TYPE": "GENERAL ACUTE CARE", "STATUS": "OPEN", "POPULATION": -999, "COUNTY": "MONROE", "COUNTYFIPS": "42089", "COUNTRY": "USA", "LATITUDE": 40.997531, "LONGITUDE": -75.259981, "NAICS_CODE": "622110", "NAICS_DESC": "GENERAL MEDICAL AND SURGICAL HOSPITALS", "SOURCE": "http://sais.health.pa.gov/commonpoc/content/publiccommonpoc/normalSearch.asp", "SOURCEDATE": "2018-08-09T00:00:00.000Z", "VAL_METHOD": "IMAGERY", "VAL_DATE": "2019-05-09T00:00:00.000Z", "WEBSITE": "http://monroe.slhn.org/", "STATE_ID": "NOT AVAILABLE", "ALT_NAME": "NOT AVAILABLE", "ST_FIPS": "42", "OWNER": "NOT AVAILABLE", "TTL_STAFF": -999, "BEDS": -999, "TRAUMA": "NOT AVAILABLE", "HELIPAD": "Y" }, "geometry": { "type": "Polygon", "coordinates": [ [ [ -75.3120066, 40.891104300000023 ], [ -75.3453834, 40.924990199999975 ], [ -75.3625589, 40.9931744 ], [ -75.3632102, 40.996381500000034 ], [ -75.3525545, 41.059689400000018 ], [ -75.3455457, 41.0676933 ], [ -75.3277019, 41.081565100000013 ], [ -75.2869105, 41.071392399999972 ], [ -75.280901700000015, 41.06960549999993 ], [ -75.2087671, 41.038260200000032 ], [ -75.148121, 41.0038633 ], [ -75.1434633, 40.9957526 ], [ -75.1429733, 40.9912976 ], [ -75.1562105, 40.976114100000025 ], [ -75.198011400000013, 40.944875499999988 ], [ -75.3120066, 40.891104300000023 ] ] ] } }
]
}
