{
"type": "FeatureCollection",
"crs": { "type": "name", "properties": { "name": "urn:ogc:def:crs:OGC:1.3:CRS84" } },
"features": [
{ "type": "Feature", "properties": { "OBJECTID": 6309, "ID": "0017362557", "NAME": "PANA COMMUNITY HOSPITAL", "ADDRESS": "101 E NINTH STREET", "CITY": "PANA", "STATE": "IL", "ZIP": "62557", "ZIP4": "NOT AVAILABLE", "TELEPHONE": "(217) 562-2131", "TYPE": "CRITICAL ACCESS", "STATUS": "OPEN", "POPULATION": 22, "COUNTY": "CHRISTIAN", "COUNTYFIPS": "17021", "COUNTRY": "USA", "LATITUDE": 39.379701237000099, "LONGITUDE": -89.084404234000004, "NAICS_CODE": "622110", "NAICS_DESC": "GENERAL MEDICAL AND SURGICAL HOSPITALS", "SOURCE": "https://data.illinois.gov/", "SOURCEDATE": "2018-08-09T00:00:00.000Z", "VAL_METHOD": "IMAGERY", "VAL_DATE": "2014-03-12T00:00:00.000Z", "WEBSITE": "http://www.panahospital.com", "STATE_ID": "141341", "ALT_NAME": "NOT AVAILABLE", "ST_FIPS": "17", "OWNER": "NON-PROFIT", "TTL_STAFF": -999, "BEDS": 22, "TRAUMA": "NOT AVAILABLE", "HELIPAD": "Y" }, "geometry": { "type": "Polygon", "coordinates": [ [ [ -89.09990330943802, 39.290634510577036 ], [ -89.1671493, 39.399826300000022 ], [ -89.1410862, 39.436278399999964 ], [ -89.1006175, 39.454665599999977 ], [ -89.098982510376544, 39.45462519819386 ], [ -89.044922904851447, 39.440780652877052 ], [ -88.991146545856708, 39.390291498148926 ], [ -88.991078749869303, 39.382983315388834 ], [ -89.060342969178521, 39.314294861373661 ], [ -89.09990330943802, 39.290634510577036 ] ] ] } },
{ "type": "Feature", "properties": { "OBJECTID": 418, "ID": "0014860942", "NAME": "HOOPESTON COMMUNITY MEMORIAL HOSPITAL", "ADDRESS": "701 EAST ORANGE STREET", "CITY": "HOOPESTON", "STATE": "IL", "ZIP": "60942", "ZIP4": "NOT AVAILABLE", "TELEPHONE": "(217) 283-5531", "TYPE": "CRITICAL ACCESS", "STATUS": "OPEN", "POPULATION": 99, "COUNTY": "VERMILION", "COUNTYFIPS": "17183", "COUNTRY": "USA", "LATITUDE": 40.458689892000102, "LONGITUDE": -87.659733270999894, "NAICS_CODE": "622110", "NAICS_DESC": "GENERAL MEDICAL AND SURGICAL HOSPITALS", "SOURCE": "https://data.illinois.gov/", "SOURCEDATE": "2018-08-09T00:00:00.000Z", "VAL_METHOD": "IMAGERY", "VAL_DATE": "2014-03-12T00:00:00.000Z", "WEBSITE": "http://www.carle.org", "STATE_ID": "141316", "ALT_NAME": "NOT AVAILABLE", "ST_FIPS": "17", "OWNER": "NON-PROFIT", "TTL_STAFF": -999, "BEDS": 99, "TRAUMA": "NOT AVAILABLE", "HELIPAD": "Y" }, "geometry": { "type": "Polygon", "coordinates": [ [ [ -87.6716274, 40.384685500000018 ], [ -87.7813297, 40.458816199999973 ], [ -87.69217, 40.531113 ], [ -87.555058, 40.468376 ], [ -87.5451495, 40.461361 ], [ -87.605357, 40.409559 ], [ -87.6716274, 40.384685500000018 ] ] ] } },
{ "type": "Feature", "properties": { "OBJECTID": 419, "ID": "0004761832", "NAME": "PRESENCE UNITED SAMARITANS MEDCTR-LOGAN", "ADDRESS": "812 N LOGAN", "CITY": "DANVILLE", "STATE": "IL", "ZIP": "61832", "ZIP4": "NOT AVAILABLE", "TELEPHONE": "(217) 443-5000", "TYPE": "GENERAL ACUTE CARE", "STATUS": "OPEN", "POPULATION": 127, "COUNTY": "VERMILION", "COUNTYFIPS": "17183", "COUNTRY": "USA", "LATITUDE": 40.137832453000001, "LONGITUDE": -87.645433243999904, "NAICS_CODE": "622110", "NAICS_DESC": "GENERAL MEDICAL AND SURGICAL HOSPITALS", "SOURCE": "https://data.illinois.gov/", "SOURCEDATE": "2018-08-09T00:00:00.000Z", "VAL_METHOD": "IMAGERY", "VAL_DATE": "2016-04-25T00:00:00.000Z", "WEBSITE": "http://www.presencehealth.org/presence-united-samaritans-medical-center-danville", "STATE_ID": "140093", "ALT_NAME": "NOT AVAILABLE", "ST_FIPS": "17", "OWNER": "NON-PROFIT", "TTL_STAFF": -999, "BEDS": 127, "TRAUMA": "NOT AVAILABLE", "HELIPAD": "Y" }, "geometry": { "type": "Polygon", "coordinates": [ [ [ -87.638652, 40.042581300000045 ], [ -87.7336499, 40.114859 ], [ -87.748491700000017, 40.1276854 ], [ -87.7205961, 40.159995400000021 ], [ -87.6697672, 40.210546199999975 ], [ -87.6400015, 40.221330399999935 ], [ -87.6225428, 40.209629699999972 ], [ -87.5597117, 40.1550638 ], [ -87.5347688, 40.113787099999968 ], [ -87.638652, 40.042581300000045 ] ] ] } },
{ "type": "Feature", "properties": { "OBJECTID": 475, "ID": "0001261856", "NAME": "KIRBY MEDICAL CENTER", "ADDRESS": "1000 MEDICAL CENTER DRIVE", "CITY": "MONTICELLO", "STATE": "IL", "ZIP": "61856", "ZIP4": "NOT AVAILABLE", "TELEPHONE": "(217) 762-2115", "TYPE": "CRITICAL ACCESS", "STATUS": "OPEN", "POPULATION": 16, "COUNTY": "PIATT", "COUNTYFIPS": "17147", "COUNTRY": "USA", "LATITUDE": 40.06044805, "LONGITUDE": -88.558821703999996, "NAICS_CODE": "622110", "NAICS_DESC": "GENERAL MEDICAL AND SURGICAL HOSPITALS", "SOURCE": "https://data.illinois.gov/", "SOURCEDATE": "2018-08-09T00:00:00.000Z", "VAL_METHOD": "IMAGERY", "VAL_DATE": "2014-02-10T00:00:00.000Z", "WEBSITE": "http://www.kirbyhealth.org", "STATE_ID": "0005785", "ALT_NAME": "NOT AVAILABLE", "ST_FIPS": "17", "OWNER": "NON-PROFIT", "TTL_STAFF": -999, "BEDS": 16, "TRAUMA": "NOT AVAILABLE", "HELIPAD": "Y" }, "geometry": { "type": "Polygon", "coordinates": [ [ [ -88.5748012, 39.988516699999984 ], [ -88.6361575, 40.017658499999989 ], [ -88.6316864, 40.0545295 ], [ -88.6232167, 40.0761975 ], [ -88.5742223, 40.114712 ], [ -88.5586387, 40.1160326 ], [ -88.5105215, 40.1150994 ], [ -88.4886349, 40.105765800000029 ], [ -88.4822738, 40.098392599999976 ], [ -88.5295921, 40.025220599999983 ], [ -88.5748012, 39.988516699999984 ] ] ] } },
{ "type": "Feature", "properties": { "OBJECTID": 548, "ID": "0004661801", "NAME": "THE CARLE FOUNDATION HOSPITAL", "ADDRESS": "611 WEST PARK STREET", "CITY": "URBANA", "STATE": "IL", "ZIP": "61801", "ZIP4": "NOT AVAILABLE", "TELEPHONE": "(217) 383-3311", "TYPE": "GENERAL ACUTE CARE", "STATUS": "OPEN", "POPULATION": 322, "COUNTY": "CHAMPAIGN", "COUNTYFIPS": "17019", "COUNTRY": "USA", "LATITUDE": 40.117041763000003, "LONGITUDE": -88.214948659999905, "NAICS_CODE": "622110", "NAICS_DESC": "GENERAL MEDICAL AND SURGICAL HOSPITALS", "SOURCE": "https://data.illinois.gov/", "SOURCEDATE": "2018-08-09T00:00:00.000Z", "VAL_METHOD": "IMAGERY", "VAL_DATE": "2016-04-26T00:00:00.000Z", "WEBSITE": "http://www.carle.com/hospital", "STATE_ID": "140091", "ALT_NAME": "NOT AVAILABLE", "ST_FIPS": "17", "OWNER": "NON-PROFIT", "TTL_STAFF": -999, "BEDS": 322, "TRAUMA": "LEVEL I", "HELIPAD": "Y" }, "geometry": { "type": "Polygon", "coordinates": [ [ [ -88.2092, 40.03984 ], [ -88.2526903, 40.047459 ], [ -88.3144628, 40.108818700000043 ], [ -88.318009, 40.113268 ], [ -88.3180395, 40.1146693 ], [ -88.314655, 40.127795 ], [ -88.2962969, 40.151355300000027 ], [ -88.2871785, 40.162913300000014 ], [ -88.277174, 40.171182 ], [ -88.258473, 40.185652 ], [ -88.1824653, 40.2035322 ], [ -88.1822814, 40.203533299999968 ], [ -88.039374, 40.120222 ], [ -88.036959, 40.116828 ], [ -88.040525, 40.113163 ], [ -88.2092, 40.03984 ] ] ] } },
{ "type": "Feature", "properties": { "OBJECTID": 571, "ID": "0006762526", "NAME": "DECATUR MEMORIAL HOSPITAL", "ADDRESS": "2300 NORTH EDWARD STREET", "CITY": "DECATUR", "STATE": "IL", "ZIP": "62526", "ZIP4": "NOT AVAILABLE", "TELEPHONE": "(217) 877-8121", "TYPE": "GENERAL ACUTE CARE", "STATUS": "OPEN", "POPULATION": 188, "COUNTY": "MACON", "COUNTYFIPS": "17115", "COUNTRY": "USA", "LATITUDE": 39.867253398000102, "LONGITUDE": -88.960982947000005, "NAICS_CODE": "622110", "NAICS_DESC": "GENERAL MEDICAL AND SURGICAL HOSPITALS", "SOURCE": "https://data.illinois.gov/", "SOURCEDATE": "2018-08-09T00:00:00.000Z", "VAL_METHOD": "IMAGERY/OTHER", "VAL_DATE": "2014-03-12T00:00:00.000Z", "WEBSITE": "http://www.dmhcares.org", "STATE_ID": "140135", "ALT_NAME": "NOT AVAILABLE", "ST_FIPS": "17", "OWNER": "NON-PROFIT", "TTL_STAFF": -999, "BEDS": 188, "TRAUMA": "LEVEL II", "HELIPAD": "Y" }, "geometry": { "type": "Polygon", "coordinates": [ [ [ -88.981351298406466, 39.770630690425804 ], [ -89.055234537946717, 39.83721581076049 ], [ -89.047964481432857, 39.921757622453029 ], [ -88.956291600395275, 39.964227039513084 ], [ -88.956030400529514, 39.964221939958762 ], [ -88.874692770101078, 39.915391316965966 ], [ -88.864815293739156, 39.850025293976131 ], [ -88.86476709123923, 39.849595394472111 ], [ -88.873717921439749, 39.819946194913555 ], [ -88.878180808066531, 39.817405284289926 ], [ -88.981351298406466, 39.770630690425804 ] ] ] } },
{ "type": "Feature", "properties": { "OBJECTID": 633, "ID": "0015261944", "NAME": "PARIS COMMUNITY HOSPITAL", "ADDRESS": "721 E COURT STREET", "CITY": "PARIS", "STATE": "IL", "ZIP": "61944", "ZIP4": "NOT AVAILABLE", "TELEPHONE": "(217) 465-4141", "TYPE": "CRITICAL ACCESS", "STATUS": "OPEN", "POPULATION": 25, "COUNTY": "EDGAR", "COUNTYFIPS": "17045", "COUNTRY": "USA", "LATITUDE": 39.606840038000001, "LONGITUDE": -87.677654701999998, "NAICS_CODE": "622110", "NAICS_DESC": "GENERAL MEDICAL AND SURGICAL HOSPITALS", "SOURCE": "https://data.illinois.gov/", "SOURCEDATE": "2018-08-09T00:00:00.000Z", "VAL_METHOD": "IMAGERY", "VAL_DATE": "2014-03-12T00:00:00.000Z", "WEBSITE": "http://www.pariscommunityhospital.com", "STATE_ID": "141320", "ALT_NAME": "NOT AVAILABLE", "ST_FIPS": "17", "OWNER": "NON-PROFIT", "TTL_STAFF": -999, "BEDS": 25, "TRAUMA": "NOT AVAILABLE", "HELIPAD": "Y" }, "geometry": { "type": "Polygon", "coordinates": [ [ [ -87.676442, 39.531203 ], [ -87.78364, 39.57347 ], [ -87.783295, 39.618181 ], [ -87.783171, 39.618668 ], [ -87.749944, 39.646146 ], [ -87.723224, 39.661251 ], [ -87.688935, 39.67697 ], [ -87.650012, 39.685544 ], [ -87.649739, 39.685522 ], [ -87.612278, 39.65767 ], [ -87.593545, 39.643354 ], [ -87.556419, 39.607316 ], [ -87.587936, 39.56878 ], [ -87.6426606, 39.5419823 ], [ -87.676442, 39.531203 ] ] ] } },
{ "type": "Feature", "properties": { "OBJECTID": 7148, "ID": "0002461832", "NAME": "VETERANS AFFAIRS ILLIANA HEALTH CARE SYSTEM", "ADDRESS": "1900 E. MAIN", "CITY": "DANVILLE", "STATE": "IL", "ZIP": "61832", "ZIP4": "NOT AVAILABLE", "TELEPHONE": "(217) 554-3000", "TYPE": "MILITARY", "STATUS": "OPEN", "POPULATION": 221, "COUNTY": "VERMILION", "COUNTYFIPS": "17183", "COUNTRY": "USA", "LATITUDE": 40.123271713000101, "LONGITUDE": -87.586953131000001, "NAICS_CODE": "622110", "NAICS_DESC": "GENERAL MEDICAL AND SURGICAL HOSPITALS", "SOURCE": "https://data.illinois.gov/", "SOURCEDATE": "2018-08-09T00:00:00.000Z", "VAL_METHOD": "IMAGERY/OTHER", "VAL_DATE": "2014-03-12T00:00:00.000Z", "WEBSITE": "http://www.danville.va.gov/", "STATE_ID": "14004F", "ALT_NAME": "NOT AVAILABLE", "ST_FIPS": "17", "OWNER": "GOVERNMENT - FEDERAL", "TTL_STAFF": -999, "BEDS": 221, "TRAUMA": "NOT AVAILABLE", "HELIPAD": "Y" }, "geometry": { "type": "Polygon", "coordinates": [ [ [ -87.6348878, 40.072478900000021 ], [ -87.672557, 40.094339 ], [ -87.7062006, 40.121391599999988 ], [ -87.6318751, 40.172868299999976 ], [ -87.6033388, 40.175642300000014 ], [ -87.5598431, 40.162412400000029 ], [ -87.531551400000012, 40.138638 ], [ -87.531584, 40.118046 ], [ -87.539755700000015, 40.1050131 ], [ -87.5543404, 40.096246 ], [ -87.6348878, 40.072478900000021 ] ] ] } },
{ "type": "Feature", "properties": { "OBJECTID": 7239, "ID": "0017162568", "NAME": "TAYLORVILLE MEMORIAL HOSPITAL", "ADDRESS": "201 EAST PLEASANT STREET", "CITY": "TAYLORVILLE", "STATE": "IL", "ZIP": "62568", "ZIP4": "NOT AVAILABLE", "TELEPHONE": "(217) 824-3331", "TYPE": "CRITICAL ACCESS", "STATUS": "OPEN", "POPULATION": 45, "COUNTY": "CHRISTIAN", "COUNTYFIPS": "17021", "COUNTRY": "USA", "LATITUDE": 39.555325371000002, "LONGITUDE": -89.294259542999995, "NAICS_CODE": "622110", "NAICS_DESC": "GENERAL MEDICAL AND SURGICAL HOSPITALS", "SOURCE": "https://data.illinois.gov/", "SOURCEDATE": "2018-08-09T00:00:00.000Z", "VAL_METHOD": "IMAGERY", "VAL_DATE": "2014-03-12T00:00:00.000Z", "WEBSITE": "http://www.taylorvillememorial.org", "STATE_ID": "141339", "ALT_NAME": "NOT AVAILABLE", "ST_FIPS": "17", "OWNER": "NON-PROFIT", "TTL_STAFF": -999, "BEDS": 45, "TRAUMA": "NOT AVAILABLE", "HELIPAD": "Y" }, "geometry": { "type": "Polygon", "coordinates": [ [ [ -89.297182, 39.47993 ], [ -89.3582267, 39.4988926 ], [ -89.3904573, 39.567954900000018 ], [ -89.3687197, 39.6330105 ], [ -89.3685466, 39.633175 ], [ -89.2888812, 39.626128500000021 ], [ -89.2148622, 39.6115978 ], [ -89.208688, 39.4948281 ], [ -89.297182, 39.47993 ] ] ] } },
{ "type": "Feature", "properties": { "OBJECTID": 5248, "ID": "0014960936", "NAME": "GIBSON COMMUNITY HOSPITAL", "ADDRESS": "1120 N MELVIN STREET", "CITY": "GIBSON CITY", "STATE": "IL", "ZIP": "60936", "ZIP4": "NOT AVAILABLE", "TELEPHONE": "(217) 784-4251", "TYPE": "CRITICAL ACCESS", "STATUS": "OPEN", "POPULATION": 67, "COUNTY": "FORD", "COUNTYFIPS": "17053", "COUNTRY": "USA", "LATITUDE": 40.478366976000103, "LONGITUDE": -88.370264992000003, "NAICS_CODE": "622110", "NAICS_DESC": "GENERAL MEDICAL AND SURGICAL HOSPITALS", "SOURCE": "https://data.illinois.gov/", "SOURCEDATE": "2018-08-09T00:00:00.000Z", "VAL_METHOD": "IMAGERY", "VAL_DATE": "2014-03-12T00:00:00.000Z", "WEBSITE": "http://www.gibsonhospital.org", "STATE_ID": "141317", "ALT_NAME": "NOT AVAILABLE", "ST_FIPS": "17", "OWNER": "NON-PROFIT", "TTL_STAFF": -999, "BEDS": 67, "TRAUMA": "NOT AVAILABLE", "HELIPAD": "Y" }, "geometry": { "type": "Polygon", "coordinates": [ [ [ -88.375585, 40.403885 ], [ -88.4387726, 40.4132322 ], [ -88.4593436, 40.465548299999959 ], [ -88.461174, 40.471734 ], [ -88.459227, 40.486243 ], [ -88.38505, 40.55892 ], [ -88.328963, 40.544568 ], [ -88.290967, 40.534567 ], [ -88.2710045, 40.472056300000013 ], [ -88.270439, 40.469883 ], [ -88.270854, 40.468503 ], [ -88.272041, 40.467327 ], [ -88.329137, 40.427726 ], [ -88.375585, 40.403885 ] ] ] } },
{ "type": "Feature", "properties": { "OBJECTID": 5269, "ID": "0013861727", "NAME": "DR JOHN WARNER HOSPITAL", "ADDRESS": "422 W WHITE ST", "CITY": "CLINTON", "STATE": "IL", "ZIP": "61727", "ZIP4": "NOT AVAILABLE", "TELEPHONE": "(217) 935-9571", "TYPE": "CRITICAL ACCESS", "STATUS": "OPEN", "POPULATION": 25, "COUNTY": "DE WITT", "COUNTYFIPS": "17039", "COUNTRY": "USA", "LATITUDE": 40.148417520000102, "LONGITUDE": -88.964608206999998, "NAICS_CODE": "622110", "NAICS_DESC": "GENERAL MEDICAL AND SURGICAL HOSPITALS", "SOURCE": "https://data.illinois.gov/", "SOURCEDATE": "2018-08-09T00:00:00.000Z", "VAL_METHOD": "IMAGERY", "VAL_DATE": "2014-02-10T00:00:00.000Z", "WEBSITE": "http://www.djwhospital.org", "STATE_ID": "141303", "ALT_NAME": "NOT AVAILABLE", "ST_FIPS": "17", "OWNER": "GOVERNMENT - LOCAL", "TTL_STAFF": -999, "BEDS": 25, "TRAUMA": "NOT AVAILABLE", "HELIPAD": "N" }, "geometry": { "type": "Polygon", "coordinates": [ [ [ -88.965328185984234, 40.037121182994539 ], [ -89.067635297605634, 40.110278508704653 ], [ -89.062097447243502, 40.152493643140296 ], [ -88.977096888088383, 40.264639036720801 ], [ -88.976289888501029, 40.265433041318559 ], [ -88.974390299540943, 40.264645142844749 ], [ -88.865790090382063, 40.17814990278584 ], [ -88.855462908971944, 40.127541683569362 ], [ -88.962365690025862, 40.037190387910883 ], [ -88.965328185984234, 40.037121182994539 ] ] ] } },
{ "type": "Feature", "properties": { "OBJECTID": 5282, "ID": "0009561938", "NAME": "SARAH BUSH LINCOLN HEALTH CENTER", "ADDRESS": "1000 HEALTH CENTER DRIVE, P O BOX 372", "CITY": "MATTOON", "STATE": "IL", "ZIP": "61938", "ZIP4": "NOT AVAILABLE", "TELEPHONE": "(217) 258-2572", "TYPE": "GENERAL ACUTE CARE", "STATUS": "OPEN", "POPULATION": 118, "COUNTY": "COLES", "COUNTYFIPS": "17029", "COUNTRY": "USA", "LATITUDE": 39.488541184, "LONGITUDE": -88.273108637999897, "NAICS_CODE": "622110", "NAICS_DESC": "GENERAL MEDICAL AND SURGICAL HOSPITALS", "SOURCE": "https://data.illinois.gov/", "SOURCEDATE": "2018-08-09T00:00:00.000Z", "VAL_METHOD": "IMAGERY", "VAL_DATE": "2014-03-12T00:00:00.000Z", "WEBSITE": "http://www.sarahbush.org", "STATE_ID": "140189", "ALT_NAME": "NOT AVAILABLE", "ST_FIPS": "17", "OWNER": "NON-PROFIT", "TTL_STAFF": -999, "BEDS": 118, "TRAUMA": "NOT AVAILABLE", "HELIPAD": "Y" }, "geometry": { "type": "Polygon", "coordinates": [ [ [ -88.266842, 39.41838 ], [ -88.3783242, 39.428148400000019 ], [ -88.3936904, 39.4894427 ], [ -88.353347, 39.5207205 ], [ -88.303728, 39.550196199999959 ], [ -88.2664316, 39.565041500000014 ], [ -88.237833, 39.546821 ], [ -88.160689, 39.485147 ], [ -88.1629214, 39.4824676 ], [ -88.214689, 39.448337 ], [ -88.266842, 39.41838 ] ] ] } },
{ "type": "Feature", "properties": { "OBJECTID": 5292, "ID": "0007861764", "NAME": "SAINT JAMES HOSPITAL", "ADDRESS": "2500 WEST REYNOLDS STREET", "CITY": "PONTIAC", "STATE": "IL", "ZIP": "61764", "ZIP4": "NOT AVAILABLE", "TELEPHONE": "(815) 842-2828", "TYPE": "GENERAL ACUTE CARE", "STATUS": "OPEN", "POPULATION": 42, "COUNTY": "LIVINGSTON", "COUNTYFIPS": "17105", "COUNTRY": "USA", "LATITUDE": 40.870997483000103, "LONGITUDE": -88.679515093999996, "NAICS_CODE": "622110", "NAICS_DESC": "GENERAL MEDICAL AND SURGICAL HOSPITALS", "SOURCE": "https://data.illinois.gov/", "SOURCEDATE": "2018-08-09T00:00:00.000Z", "VAL_METHOD": "IMAGERY", "VAL_DATE": "2014-03-12T00:00:00.000Z", "WEBSITE": "http://www.osfsaintjames.org/", "STATE_ID": "140161", "ALT_NAME": "NOT AVAILABLE", "ST_FIPS": "17", "OWNER": "NON-PROFIT", "TTL_STAFF": -999, "BEDS": 42, "TRAUMA": "NOT AVAILABLE", "HELIPAD": "Y" }, "geometry": { "type": "Polygon", "coordinates": [ [ [ -88.719027, 40.814582 ], [ -88.7769641, 40.857466 ], [ -88.7960971, 40.871846 ], [ -88.725207, 40.931298400000045 ], [ -88.643705, 40.961023499999982 ], [ -88.5857695, 40.917895899999984 ], [ -88.5851582, 40.8450672 ], [ -88.6229044, 40.8152352 ], [ -88.6781968, 40.814359699999969 ], [ -88.719027, 40.814582 ] ] ] } },
{ "type": "Feature", "properties": { "OBJECTID": 5307, "ID": "0008162521", "NAME": "ST MARYS HOSPITAL", "ADDRESS": "1800 E LAKE SHORE DR", "CITY": "DECATUR", "STATE": "IL", "ZIP": "62521", "ZIP4": "NOT AVAILABLE", "TELEPHONE": "(217) 464-7000", "TYPE": "GENERAL ACUTE CARE", "STATUS": "OPEN", "POPULATION": -999, "COUNTY": "MACON", "COUNTYFIPS": "17115", "COUNTRY": "USA", "LATITUDE": 39.827452951000097, "LONGITUDE": -88.931682630999902, "NAICS_CODE": "622110", "NAICS_DESC": "GENERAL MEDICAL AND SURGICAL HOSPITALS", "SOURCE": "https://data.illinois.gov/", "SOURCEDATE": "2018-08-09T00:00:00.000Z", "VAL_METHOD": "IMAGERY", "VAL_DATE": "2014-03-12T00:00:00.000Z", "WEBSITE": "https://www.stmarysdecatur.com/", "STATE_ID": "140166", "ALT_NAME": "NOT AVAILABLE", "ST_FIPS": "17", "OWNER": "NON-PROFIT", "TTL_STAFF": -999, "BEDS": -999, "TRAUMA": "NOT AVAILABLE", "HELIPAD": "Y" }, "geometry": { "type": "Polygon", "coordinates": [ [ [ -88.981351298406466, 39.770630690425804 ], [ -88.999790347204708, 39.778338932891948 ], [ -89.011454849055255, 39.797027368250355 ], [ -89.019358695317166, 39.81760289632048 ], [ -89.028832669666158, 39.844380032620535 ], [ -89.029372980232793, 39.847013135108632 ], [ -89.028860590071545, 39.848143433877141 ], [ -89.017368318247847, 39.856958000579866 ], [ -88.955131468217147, 39.900886652176759 ], [ -88.917845749699993, 39.914180427800339 ], [ -88.895357628585487, 39.909176677910715 ], [ -88.841106588836993, 39.849517755728556 ], [ -88.840275255071958, 39.810277199193798 ], [ -88.840283850419979, 39.809495599991877 ], [ -88.870728330227621, 39.786942830337352 ], [ -88.891812115384795, 39.78257856851971 ], [ -88.981351298406466, 39.770630690425804 ] ] ] } },
{ "type": "Feature", "properties": { "OBJECTID": 5445, "ID": "0013661856", "NAME": "JOHN & MARY KIRBY HOSPITAL", "ADDRESS": "1111 N STATE ST", "CITY": "MONTICELLO", "STATE": "IL", "ZIP": "61856", "ZIP4": "NOT AVAILABLE", "TELEPHONE": "(217) 762-2115", "TYPE": "CRITICAL ACCESS", "STATUS": "CLOSED", "POPULATION": -999, "COUNTY": "PIATT", "COUNTYFIPS": "17147", "COUNTRY": "USA", "LATITUDE": 40.034074085999997, "LONGITUDE": -88.568703408999994, "NAICS_CODE": "622110", "NAICS_DESC": "GENERAL MEDICAL AND SURGICAL HOSPITALS", "SOURCE": "https://data.illinois.gov/", "SOURCEDATE": "2012-07-27T00:00:00.000Z", "VAL_METHOD": "IMAGERY", "VAL_DATE": "2014-02-10T00:00:00.000Z", "WEBSITE": "http://www.kirbyhospital.org/", "STATE_ID": "141301", "ALT_NAME": "NOT AVAILABLE", "ST_FIPS": "17", "OWNER": "NON-PROFIT", "TTL_STAFF": -999, "BEDS": -999, "TRAUMA": "NOT AVAILABLE", "HELIPAD": "N" }, "geometry": { "type": "Polygon", "coordinates": [ [ [ -88.5748466, 39.9372576 ], [ -88.649923, 40.003960900000024 ], [ -88.6663812, 40.021860299999965 ], [ -88.6664863, 40.0222892 ], [ -88.6693703, 40.040087100000036 ], [ -88.6310249, 40.076260699999942 ], [ -88.5542499, 40.105286 ], [ -88.5208346, 40.109137499999974 ], [ -88.4886349, 40.105765800000029 ], [ -88.4693653, 40.025627199999953 ], [ -88.5009044, 39.996102799999974 ], [ -88.5748466, 39.9372576 ] ] ] } },
{ "type": "Feature", "properties": { "OBJECTID": 3330, "ID": "0001261364", "NAME": "ST MARYS HOSPITAL", "ADDRESS": "111  SPRING STREET", "CITY": "STREATOR", "STATE": "IL", "ZIP": "61364", "ZIP4": "NOT AVAILABLE", "TELEPHONE": "(815) 673-2311", "TYPE": "GENERAL ACUTE CARE", "STATUS": "OPEN", "POPULATION": 98, "COUNTY": "LA SALLE", "COUNTYFIPS": "17099", "COUNTRY": "USA", "LATITUDE": 41.11359098, "LONGITUDE": -88.834582237000006, "NAICS_CODE": "622110", "NAICS_DESC": "GENERAL MEDICAL AND SURGICAL HOSPITALS", "SOURCE": "https://data.illinois.gov/", "SOURCEDATE": "2018-08-09T00:00:00.000Z", "VAL_METHOD": "IMAGERY", "VAL_DATE": "2014-03-12T00:00:00.000Z", "WEBSITE": "http://www.stmaryshospital.org", "STATE_ID": "140026", "ALT_NAME": "NOT AVAILABLE", "ST_FIPS": "17", "OWNER": "NON-PROFIT", "TTL_STAFF": -999, "BEDS": 98, "TRAUMA": "NOT AVAILABLE", "HELIPAD": "Y" }, "geometry": { "type": "Polygon", "coordinates": [ [ [ -88.8432908, 41.0318961 ], [ -88.8673718, 41.045991400000013 ], [ -88.8906761, 41.0673962 ], [ -88.9314233, 41.120368399999983 ], [ -88.8766147, 41.163969 ], [ -88.8360831, 41.193515400000017 ], [ -88.816539, 41.179133 ], [ -88.739784, 41.121385699999948 ], [ -88.7760834, 41.061937099999966 ], [ -88.8004117, 41.043646099999961 ], [ -88.8337304, 41.03214859999995 ], [ -88.8432908, 41.0318961 ] ] ] } },
{ "type": "Feature", "properties": { "OBJECTID": 3357, "ID": "0008260970", "NAME": "IROQUOIS MEMORIAL HOSPITAL", "ADDRESS": "200 FAIRMAN STREET", "CITY": "WATSEKA", "STATE": "IL", "ZIP": "60970", "ZIP4": "NOT AVAILABLE", "TELEPHONE": "(815) 432-5201", "TYPE": "GENERAL ACUTE CARE", "STATUS": "OPEN", "POPULATION": 84, "COUNTY": "IROQUOIS", "COUNTYFIPS": "17075", "COUNTRY": "USA", "LATITUDE": 40.765601887000102, "LONGITUDE": -87.732517480999903, "NAICS_CODE": "622110", "NAICS_DESC": "GENERAL MEDICAL AND SURGICAL HOSPITALS", "SOURCE": "https://data.illinois.gov/", "SOURCEDATE": "2018-08-09T00:00:00.000Z", "VAL_METHOD": "IMAGERY/OTHER", "VAL_DATE": "2014-03-12T00:00:00.000Z", "WEBSITE": "http://www.iroquoismemorial.com", "STATE_ID": "140167", "ALT_NAME": "NOT AVAILABLE", "ST_FIPS": "17", "OWNER": "NON-PROFIT", "TTL_STAFF": -999, "BEDS": 84, "TRAUMA": "NOT AVAILABLE", "HELIPAD": "Y" }, "geometry": { "type": "Polygon", "coordinates": [ [ [ -87.749662, 40.699743 ], [ -87.784646, 40.728089 ], [ -87.824966, 40.770992 ], [ -87.763648, 40.830798 ], [ -87.745797, 40.847536 ], [ -87.652901, 40.789358 ], [ -87.635584, 40.775099 ], [ -87.632934, 40.760386 ], [ -87.669538, 40.716051 ], [ -87.683522, 40.704776 ], [ -87.749662, 40.699743 ] ] ] } },
{ "type": "Feature", "properties": { "OBJECTID": 3468, "ID": "0003261820", "NAME": "THE PAVILION FOUNDATION", "ADDRESS": "809 WEST CHURCH STREET", "CITY": "CHAMPAIGN", "STATE": "IL", "ZIP": "61820", "ZIP4": "NOT AVAILABLE", "TELEPHONE": "(217) 373-1700", "TYPE": "PSYCHIATRIC", "STATUS": "OPEN", "POPULATION": 46, "COUNTY": "CHAMPAIGN", "COUNTYFIPS": "17019", "COUNTRY": "USA", "LATITUDE": 40.117707705999997, "LONGITUDE": -88.257536742999903, "NAICS_CODE": "622210", "NAICS_DESC": "PSYCHIATRIC AND SUBSTANCE ABUSE HOSPITALS", "SOURCE": "https://data.illinois.gov/", "SOURCEDATE": "2018-08-09T00:00:00.000Z", "VAL_METHOD": "IMAGERY/OTHER", "VAL_DATE": "2014-02-10T00:00:00.000Z", "WEBSITE": "http://www.pavilionhospital.com", "STATE_ID": "0004689", "ALT_NAME": "NOT AVAILABLE", "ST_FIPS": "17", "OWNER": "PROPRIETARY", "TTL_STAFF": -999, "BEDS": 46, "TRAUMA": "NOT AVAILABLE", "HELIPAD": "N" }, "geometry": { "type": "Polygon", "coordinates": [ [ [ -88.303742, 40.029524 ], [ -88.40745, 40.113202 ], [ -88.407505, 40.127686 ], [ -88.393171, 40.196427 ], [ -88.365326, 40.201798 ], [ -88.220553, 40.1888 ], [ -88.181862, 40.171122 ], [ -88.163039, 40.156705 ], [ -88.1436455, 40.1133575 ], [ -88.181579, 40.081536 ], [ -88.182732, 40.080606 ], [ -88.238179, 40.039719 ], [ -88.2481628, 40.033452099999984 ], [ -88.255182, 40.029697 ], [ -88.303742, 40.029524 ] ] ] } },
{ "type": "Feature", "properties": { "OBJECTID": 3469, "ID": "0005361801", "NAME": "PRESENCE COVENANT MEDICAL CENTER", "ADDRESS": "1400 WEST PARK AVENUE", "CITY": "URBANA", "STATE": "IL", "ZIP": "61801", "ZIP4": "NOT AVAILABLE", "TELEPHONE": "(217) 337-2000", "TYPE": "GENERAL ACUTE CARE", "STATUS": "OPEN", "POPULATION": 181, "COUNTY": "CHAMPAIGN", "COUNTYFIPS": "17019", "COUNTRY": "USA", "LATITUDE": 40.117971109000102, "LONGITUDE": -88.227107261, "NAICS_CODE": "622110", "NAICS_DESC": "GENERAL MEDICAL AND SURGICAL HOSPITALS", "SOURCE": "https://data.illinois.gov/", "SOURCEDATE": "2018-08-09T00:00:00.000Z", "VAL_METHOD": "IMAGERY", "VAL_DATE": "2014-02-10T00:00:00.000Z", "WEBSITE": "http://www.provena.org/covenant", "STATE_ID": "140113", "ALT_NAME": "NOT AVAILABLE", "ST_FIPS": "17", "OWNER": "NON-PROFIT", "TTL_STAFF": -999, "BEDS": 181, "TRAUMA": "NOT AVAILABLE", "HELIPAD": "N" }, "geometry": { "type": "Polygon", "coordinates": [ [ [ -88.254238, 40.035615 ], [ -88.254462, 40.035637 ], [ -88.3040635, 40.0752052 ], [ -88.3333018, 40.112205300000014 ], [ -88.333299, 40.113312 ], [ -88.314752, 40.160386 ], [ -88.269368, 40.185719 ], [ -88.220553, 40.1888 ], [ -88.182295, 40.189304 ], [ -88.182093, 40.189302 ], [ -88.048187, 40.120312 ], [ -88.161869, 40.06941 ], [ -88.238179, 40.039719 ], [ -88.254238, 40.035615 ] ] ] } },
{ "type": "Feature", "properties": { "OBJECTID": 3473, "ID": "0001162565", "NAME": "SHELBY MEMORIAL HOSPITAL", "ADDRESS": "200 S CEDAR ST", "CITY": "SHELBYVILLE", "STATE": "IL", "ZIP": "62565", "ZIP4": "NOT AVAILABLE", "TELEPHONE": "(217) 774-3961", "TYPE": "GENERAL ACUTE CARE", "STATUS": "OPEN", "POPULATION": 30, "COUNTY": "SHELBY", "COUNTYFIPS": "17173", "COUNTRY": "USA", "LATITUDE": 39.405781830000102, "LONGITUDE": -88.807950641000005, "NAICS_CODE": "622110", "NAICS_DESC": "GENERAL MEDICAL AND SURGICAL HOSPITALS", "SOURCE": "https://data.illinois.gov/", "SOURCEDATE": "2018-08-09T00:00:00.000Z", "VAL_METHOD": "IMAGERY", "VAL_DATE": "2014-03-12T00:00:00.000Z", "WEBSITE": "http://www.mysmh.org", "STATE_ID": "140019", "ALT_NAME": "NOT AVAILABLE", "ST_FIPS": "17", "OWNER": "NON-PROFIT", "TTL_STAFF": -999, "BEDS": 30, "TRAUMA": "NOT AVAILABLE", "HELIPAD": "Y" }, "geometry": { "type": "Polygon", "coordinates": [ [ [ -88.78768054127724, 39.340522859908276 ], [ -88.801277517712037, 39.342168855872885 ], [ -88.861846710893445, 39.355050226405417 ], [ -88.926939980540652, 39.405601713920611 ], [ -88.831170524878075, 39.471119731610024 ], [ -88.807780395744672, 39.485802254063096 ], [ -88.7904457361211, 39.476365285710571 ], [ -88.6864446, 39.404392400000042 ], [ -88.7463659, 39.36508080000003 ], [ -88.78768054127724, 39.340522859908276 ] ] ] } }
]
}
