{
"type": "FeatureCollection",
"crs": { "type": "name", "properties": { "name": "urn:ogc:def:crs:OGC:1.3:CRS84" } },
"features": [
{ "type": "Feature", "properties": { "OBJECTID": 1090, "ID": "0004166736", "NAME": "FREDONIA REGIONAL HOSPITAL", "ADDRESS": "1527 MADISON", "CITY": "FREDONIA", "STATE": "KS", "ZIP": "66736", "ZIP4": "NOT AVAILABLE", "TELEPHONE": "(620) 378-2121", "TYPE": "CRITICAL ACCESS", "STATUS": "OPEN", "POPULATION": 34, "COUNTY": "WILSON", "COUNTYFIPS": "20205", "COUNTRY": "USA", "LATITUDE": 37.534067876999998, "LONGITUDE": -95.814152018999906, "NAICS_CODE": "622110", "NAICS_DESC": "GENERAL MEDICAL AND SURGICAL HOSPITALS", "SOURCE": "http://www.kdheks.gov/bhfr/fac_list/", "SOURCEDATE": "2018-08-16T00:00:00.000Z", "VAL_METHOD": "IMAGERY", "VAL_DATE": "2014-01-09T00:00:00.000Z", "WEBSITE": "http://www.fredoniaregionalhospital.org", "STATE_ID": "H103001", "ALT_NAME": "FREDONIA REGIONAL HOSPITAL", "ST_FIPS": "20", "OWNER": "GOVERNMENT - LOCAL", "TTL_STAFF": -999, "BEDS": 34, "TRAUMA": "NOT AVAILABLE", "HELIPAD": "Y" }, "geometry": { "type": "Polygon", "coordinates": [ [ [ -95.833779, 37.451136 ], [ -95.906906, 37.523371 ], [ -95.908275, 37.572059 ], [ -95.906074, 37.618113 ], [ -95.835463, 37.6178 ], [ -95.833525, 37.61779 ], [ -95.832784, 37.617783 ], [ -95.814625, 37.610303 ], [ -95.7062695, 37.530143 ], [ -95.733395, 37.466297 ], [ -95.7337495, 37.4661545 ], [ -95.833779, 37.451136 ] ] ] } },
{ "type": "Feature", "properties": { "OBJECTID": 1108, "ID": "0018064804", "NAME": "MERCY HOSPITAL JOPLIN", "ADDRESS": "100 MERCY WAY", "CITY": "JOPLIN", "STATE": "MO", "ZIP": "64804", "ZIP4": "NOT AVAILABLE", "TELEPHONE": "(417) 556-3729", "TYPE": "GENERAL ACUTE CARE", "STATUS": "OPEN", "POPULATION": 240, "COUNTY": "NEWTON", "COUNTYFIPS": "29145", "COUNTRY": "USA", "LATITUDE": 37.036513395, "LONGITUDE": -94.509709275999995, "NAICS_CODE": "622110", "NAICS_DESC": "GENERAL MEDICAL AND SURGICAL HOSPITALS", "SOURCE": "http://health.mo.gov/safety/healthservregs/directories.php", "SOURCEDATE": "2018-08-09T00:00:00.000Z", "VAL_METHOD": "IMAGERY/OTHER", "VAL_DATE": "2016-08-15T00:00:00.000Z", "WEBSITE": "https://www.mercy.net/practice/mercy-hospital-joplin", "STATE_ID": "H115", "ALT_NAME": "NOT AVAILABLE", "ST_FIPS": "29", "OWNER": "NON-PROFIT", "TTL_STAFF": -999, "BEDS": 240, "TRAUMA": "LEVEL II", "HELIPAD": "Y" }, "geometry": { "type": "Polygon", "coordinates": [ [ [ -94.565519, 36.940021 ], [ -94.618144, 36.9875901 ], [ -94.6185651, 36.9946906 ], [ -94.6182962, 37.0051904 ], [ -94.617994, 37.009144 ], [ -94.60368, 37.028986 ], [ -94.5483741, 37.0846498 ], [ -94.53108, 37.094966 ], [ -94.5206832, 37.0996874 ], [ -94.5172107, 37.101107500000026 ], [ -94.4762334, 37.1079015 ], [ -94.40548, 37.05424 ], [ -94.458639, 36.975069 ], [ -94.565519, 36.940021 ] ] ] } },
{ "type": "Feature", "properties": { "OBJECTID": 1109, "ID": "0001865807", "NAME": "COX MEDICAL CENTERS SOUTH HOSPITAL", "ADDRESS": "3801 SOUTH NATIONAL AVENUE", "CITY": "SPRINGFIELD", "STATE": "MO", "ZIP": "65807", "ZIP4": "NOT AVAILABLE", "TELEPHONE": "(417) 269-6000", "TYPE": "GENERAL ACUTE CARE", "STATUS": "OPEN", "POPULATION": 86, "COUNTY": "GREENE", "COUNTYFIPS": "29077", "COUNTRY": "USA", "LATITUDE": 37.144946252000103, "LONGITUDE": -93.27967732, "NAICS_CODE": "622110", "NAICS_DESC": "GENERAL MEDICAL AND SURGICAL HOSPITALS", "SOURCE": "http://health.mo.gov/safety/healthservregs/directories.php", "SOURCEDATE": "2018-08-09T00:00:00.000Z", "VAL_METHOD": "IMAGERY/OTHER", "VAL_DATE": "2014-02-10T00:00:00.000Z", "WEBSITE": "http://www.coxhealth.com/body.cfm?id=1344", "STATE_ID": "H027", "ALT_NAME": "LESTER E. COX SOUTH MEDICAL CENTER", "ST_FIPS": "29", "OWNER": "NON-PROFIT", "TTL_STAFF": -999, "BEDS": 86, "TRAUMA": "LEVEL I", "HELIPAD": "Y" }, "geometry": { "type": "Polygon", "coordinates": [ [ [ -93.191284, 37.078374 ], [ -93.3253528, 37.094253500000029 ], [ -93.3707588, 37.102444899999988 ], [ -93.4409782, 37.1399254 ], [ -93.4411354, 37.1401408 ], [ -93.4412247, 37.1402968 ], [ -93.4422891, 37.192796 ], [ -93.2753752, 37.227349100000012 ], [ -93.2613596, 37.225936300000015 ], [ -93.2253292, 37.220923400000018 ], [ -93.1193348, 37.11896680000001 ], [ -93.119337800000011, 37.118655 ], [ -93.119411, 37.115310300000026 ], [ -93.191284, 37.078374 ] ] ] } },
{ "type": "Feature", "properties": { "OBJECTID": 1110, "ID": "0002065802", "NAME": "COX MEDICAL CENTERS NORTH HOSPITAL", "ADDRESS": "1423 NORTH JEFFERSON STREET", "CITY": "SPRINGFIELD", "STATE": "MO", "ZIP": "65802", "ZIP4": "NOT AVAILABLE", "TELEPHONE": "(417) 269-3000", "TYPE": "GENERAL ACUTE CARE", "STATUS": "OPEN", "POPULATION": 75, "COUNTY": "GREENE", "COUNTYFIPS": "29077", "COUNTRY": "USA", "LATITUDE": 37.224782487, "LONGITUDE": -93.289963778999905, "NAICS_CODE": "622110", "NAICS_DESC": "GENERAL MEDICAL AND SURGICAL HOSPITALS", "SOURCE": "http://health.mo.gov/safety/healthservregs/directories.php", "SOURCEDATE": "2018-08-09T00:00:00.000Z", "VAL_METHOD": "IMAGERY/OTHER", "VAL_DATE": "2014-02-10T00:00:00.000Z", "WEBSITE": "http://www.coxhealth.com/body.cfm?id=1343", "STATE_ID": "H026", "ALT_NAME": "LESTER E. COX NORTH MEDICAL CENTER", "ST_FIPS": "29", "OWNER": "NON-PROFIT", "TTL_STAFF": -999, "BEDS": 75, "TRAUMA": "NOT AVAILABLE", "HELIPAD": "Y" }, "geometry": { "type": "Polygon", "coordinates": [ [ [ -93.3194084, 37.1415248 ], [ -93.366643, 37.1798318 ], [ -93.3741837, 37.186279200000023 ], [ -93.398318500000016, 37.212803099999967 ], [ -93.3983145, 37.213028600000037 ], [ -93.396478800000011, 37.227437700000046 ], [ -93.3833502, 37.273806599999965 ], [ -93.3307315, 37.314822 ], [ -93.2638044, 37.291673 ], [ -93.2131241, 37.272365299999962 ], [ -93.1791775, 37.2513846 ], [ -93.170154, 37.222464699999982 ], [ -93.2089499, 37.179803200000023 ], [ -93.2564333, 37.158490699999952 ], [ -93.2628521, 37.1560855 ], [ -93.2959992, 37.145983399999949 ], [ -93.3187456, 37.1415689 ], [ -93.3194084, 37.1415248 ] ] ] } },
{ "type": "Feature", "properties": { "OBJECTID": 1119, "ID": "0016264772", "NAME": "NEVADA REGIONAL MEDICAL CENTER", "ADDRESS": "800 SOUTH ASH STREET", "CITY": "NEVADA", "STATE": "MO", "ZIP": "64772", "ZIP4": "NOT AVAILABLE", "TELEPHONE": "(417) 667-3355", "TYPE": "GENERAL ACUTE CARE", "STATUS": "OPEN", "POPULATION": 71, "COUNTY": "VERNON", "COUNTYFIPS": "29217", "COUNTRY": "USA", "LATITUDE": 37.831184524000001, "LONGITUDE": -94.360485531999998, "NAICS_CODE": "622110", "NAICS_DESC": "GENERAL MEDICAL AND SURGICAL HOSPITALS", "SOURCE": "http://health.mo.gov/safety/healthservregs/directories.php", "SOURCEDATE": "2018-08-09T00:00:00.000Z", "VAL_METHOD": "IMAGERY", "VAL_DATE": "2014-02-10T00:00:00.000Z", "WEBSITE": "http://www.nrmchealth.com", "STATE_ID": "H071", "ALT_NAME": "NOT AVAILABLE", "ST_FIPS": "29", "OWNER": "GOVERNMENT - LOCAL", "TTL_STAFF": -999, "BEDS": 71, "TRAUMA": "NOT AVAILABLE", "HELIPAD": "Y" }, "geometry": { "type": "Polygon", "coordinates": [ [ [ -94.3089809, 37.756005799999983 ], [ -94.439859, 37.795513 ], [ -94.510198, 37.838533 ], [ -94.5103153, 37.8412404 ], [ -94.3671434, 37.952925499999978 ], [ -94.233723, 37.866101 ], [ -94.233909, 37.862041 ], [ -94.3089809, 37.756005799999983 ] ] ] } },
{ "type": "Feature", "properties": { "OBJECTID": 1122, "ID": "0001964759", "NAME": "BARTON COUNTY MEMORIAL HOSPITAL", "ADDRESS": "29 NW  1ST LANE", "CITY": "LAMAR", "STATE": "MO", "ZIP": "64759", "ZIP4": "NOT AVAILABLE", "TELEPHONE": "(417) 681-5100", "TYPE": "CRITICAL ACCESS", "STATUS": "OPEN", "POPULATION": 25, "COUNTY": "BARTON", "COUNTYFIPS": "29011", "COUNTRY": "USA", "LATITUDE": 37.5056964360001, "LONGITUDE": -94.300845265999996, "NAICS_CODE": "622110", "NAICS_DESC": "GENERAL MEDICAL AND SURGICAL HOSPITALS", "SOURCE": "http://health.mo.gov/safety/healthservregs/directories.php", "SOURCEDATE": "2018-08-09T00:00:00.000Z", "VAL_METHOD": "IMAGERY", "VAL_DATE": "2014-02-10T00:00:00.000Z", "WEBSITE": "http://www.bcmh.net", "STATE_ID": "H009", "ALT_NAME": "NOT AVAILABLE", "ST_FIPS": "29", "OWNER": "GOVERNMENT - LOCAL", "TTL_STAFF": -999, "BEDS": 25, "TRAUMA": "NOT AVAILABLE", "HELIPAD": "Y" }, "geometry": { "type": "Polygon", "coordinates": [ [ [ -94.300488, 37.354502 ], [ -94.336418, 37.399475 ], [ -94.400258, 37.482002 ], [ -94.39755, 37.513274 ], [ -94.386091, 37.546983 ], [ -94.308777, 37.659258 ], [ -94.221285, 37.586714 ], [ -94.178892, 37.490245 ], [ -94.300488, 37.354502 ] ] ] } },
{ "type": "Feature", "properties": { "OBJECTID": 1125, "ID": "0009264804", "NAME": "FREEMAN HOSPITAL EAST", "ADDRESS": "932 EAST 34TH STREET", "CITY": "JOPLIN", "STATE": "MO", "ZIP": "64804", "ZIP4": "NOT AVAILABLE", "TELEPHONE": "(417) 347-1111", "TYPE": "GENERAL ACUTE CARE", "STATUS": "OPEN", "POPULATION": 72, "COUNTY": "NEWTON", "COUNTYFIPS": "29145", "COUNTRY": "USA", "LATITUDE": 37.050752627000101, "LONGITUDE": -94.507006825000005, "NAICS_CODE": "622110", "NAICS_DESC": "GENERAL MEDICAL AND SURGICAL HOSPITALS", "SOURCE": "http://health.mo.gov/safety/healthservregs/directories.php", "SOURCEDATE": "2018-08-09T00:00:00.000Z", "VAL_METHOD": "IMAGERY/OTHER", "VAL_DATE": "2014-02-10T00:00:00.000Z", "WEBSITE": "http://www.freemanhealth.com/freeman-east-joplin-missouri", "STATE_ID": "H039", "ALT_NAME": "NOT AVAILABLE", "ST_FIPS": "29", "OWNER": "NON-PROFIT", "TTL_STAFF": -999, "BEDS": 72, "TRAUMA": "NOT AVAILABLE", "HELIPAD": "N" }, "geometry": { "type": "Polygon", "coordinates": [ [ [ -94.561366, 36.948636 ], [ -94.6185651, 36.9946906 ], [ -94.6182962, 37.0051904 ], [ -94.617994, 37.009144 ], [ -94.58850240000001, 37.056952199999962 ], [ -94.566881400000014, 37.085101400000042 ], [ -94.5274799, 37.106356600000041 ], [ -94.5241821, 37.107620399999988 ], [ -94.47739110000002, 37.123485 ], [ -94.4755982, 37.123754099999985 ], [ -94.4033306, 37.068543 ], [ -94.396723800000018, 37.0540967 ], [ -94.45974, 36.98732 ], [ -94.463813, 36.984385 ], [ -94.561366, 36.948636 ] ] ] } },
{ "type": "Feature", "properties": { "OBJECTID": 1126, "ID": "0009364804", "NAME": "FREEMAN HOSPITAL WEST", "ADDRESS": "1102 WEST 32ND STREET", "CITY": "JOPLIN", "STATE": "MO", "ZIP": "64804", "ZIP4": "NOT AVAILABLE", "TELEPHONE": "(417) 347-1111", "TYPE": "GENERAL ACUTE CARE", "STATUS": "OPEN", "POPULATION": 72, "COUNTY": "NEWTON", "COUNTYFIPS": "29145", "COUNTRY": "USA", "LATITUDE": 37.052731283000099, "LONGITUDE": -94.526798088000007, "NAICS_CODE": "622110", "NAICS_DESC": "GENERAL MEDICAL AND SURGICAL HOSPITALS", "SOURCE": "http://health.mo.gov/safety/healthservregs/directories.php", "SOURCEDATE": "2018-08-09T00:00:00.000Z", "VAL_METHOD": "IMAGERY/OTHER", "VAL_DATE": "2014-02-10T00:00:00.000Z", "WEBSITE": "http://www.freemanhealth.com/freeman-west-joplin-missouri/", "STATE_ID": "H040", "ALT_NAME": "NOT AVAILABLE", "ST_FIPS": "29", "OWNER": "NON-PROFIT", "TTL_STAFF": -999, "BEDS": 72, "TRAUMA": "LEVEL II", "HELIPAD": "Y" }, "geometry": { "type": "Polygon", "coordinates": [ [ [ -94.552451, 36.961044 ], [ -94.6185651, 36.9946906 ], [ -94.6182962, 37.0051904 ], [ -94.617994, 37.009144 ], [ -94.5865639, 37.0858511 ], [ -94.54837, 37.099447 ], [ -94.5437924, 37.100860099999977 ], [ -94.5327972, 37.103339499999983 ], [ -94.5207883, 37.105912 ], [ -94.4762334, 37.1079015 ], [ -94.40548, 37.05424 ], [ -94.467967, 36.993641 ], [ -94.549903, 36.962018 ], [ -94.552451, 36.961044 ] ] ] } },
{ "type": "Feature", "properties": { "OBJECTID": 1127, "ID": "0009464804", "NAME": "LANDMARK HOSPITAL OF JOPLIN", "ADDRESS": "2040 W . 32ND STREET", "CITY": "JOPLIN", "STATE": "MO", "ZIP": "64804", "ZIP4": "NOT AVAILABLE", "TELEPHONE": "(417) 627-1309", "TYPE": "LONG TERM CARE", "STATUS": "OPEN", "POPULATION": 30, "COUNTY": "NEWTON", "COUNTYFIPS": "29145", "COUNTRY": "USA", "LATITUDE": 37.053538244000002, "LONGITUDE": -94.538381457999904, "NAICS_CODE": "622310", "NAICS_DESC": "SPECIALTY (EXCEPT PSYCHIATRIC AND SUBSTANCE ABUSE) HOSPITALS", "SOURCE": "http://health.mo.gov/safety/healthservregs/directories.php", "SOURCEDATE": "2018-08-09T00:00:00.000Z", "VAL_METHOD": "IMAGERY/OTHER", "VAL_DATE": "2013-09-20T00:00:00.000Z", "WEBSITE": "http://www.landmarkhospitals.com", "STATE_ID": "H163", "ALT_NAME": "NOT AVAILABLE", "ST_FIPS": "29", "OWNER": "PROPRIETARY", "TTL_STAFF": -999, "BEDS": 30, "TRAUMA": "NOT AVAILABLE", "HELIPAD": "N" }, "geometry": { "type": "Polygon", "coordinates": [ [ [ -94.552389, 36.965065 ], [ -94.6129385, 36.9966232 ], [ -94.618268, 37.001577600000026 ], [ -94.6182962, 37.0051904 ], [ -94.618014, 37.030956 ], [ -94.6079131, 37.084990600000019 ], [ -94.582863, 37.099049 ], [ -94.5668502, 37.100764 ], [ -94.526031, 37.103936 ], [ -94.4764544, 37.102715400000022 ], [ -94.4209724, 37.058129899999983 ], [ -94.4209793, 37.057299 ], [ -94.4210097, 37.054262699999974 ], [ -94.47048, 36.998247 ], [ -94.552389, 36.965065 ] ] ] } },
{ "type": "Feature", "properties": { "OBJECTID": 1128, "ID": "0009564850", "NAME": "FREEMAN NEOSHO HOSPITAL", "ADDRESS": "113 WEST HICKORY STREET", "CITY": "NEOSHO", "STATE": "MO", "ZIP": "64850", "ZIP4": "NOT AVAILABLE", "TELEPHONE": "(417) 451-1234", "TYPE": "CRITICAL ACCESS", "STATUS": "OPEN", "POPULATION": 49, "COUNTY": "NEWTON", "COUNTYFIPS": "29145", "COUNTRY": "USA", "LATITUDE": 36.866953957000099, "LONGITUDE": -94.369467920999995, "NAICS_CODE": "622110", "NAICS_DESC": "GENERAL MEDICAL AND SURGICAL HOSPITALS", "SOURCE": "http://health.mo.gov/safety/healthservregs/directories.php", "SOURCEDATE": "2018-08-09T00:00:00.000Z", "VAL_METHOD": "IMAGERY/OTHER", "VAL_DATE": "2014-02-10T00:00:00.000Z", "WEBSITE": "http://www.freemanhealth.com", "STATE_ID": "H041", "ALT_NAME": "NOT AVAILABLE", "ST_FIPS": "29", "OWNER": "NON-PROFIT", "TTL_STAFF": -999, "BEDS": 49, "TRAUMA": "LEVEL III", "HELIPAD": "Y" }, "geometry": { "type": "Polygon", "coordinates": [ [ [ -94.408979, 36.773929 ], [ -94.411004, 36.774008 ], [ -94.432313, 36.789319200000016 ], [ -94.493334, 36.833995 ], [ -94.493251, 36.834855 ], [ -94.483444, 36.891779 ], [ -94.4443878, 36.924126500000028 ], [ -94.4261572, 36.931774200000035 ], [ -94.318354, 36.944101 ], [ -94.316257, 36.944058 ], [ -94.281056, 36.930515 ], [ -94.255379, 36.920426 ], [ -94.2541199, 36.919201900000012 ], [ -94.263698, 36.881018 ], [ -94.264448, 36.878056 ], [ -94.288319, 36.827744 ], [ -94.346682900000019, 36.800800600000038 ], [ -94.408979, 36.773929 ] ] ] } },
{ "type": "Feature", "properties": { "OBJECTID": 1148, "ID": "0001465803", "NAME": "OZARKS COMMUNITY HOSPITAL", "ADDRESS": "2828 NORTH NATIONAL AVENUE", "CITY": "SPRINGFIELD", "STATE": "MO", "ZIP": "65803", "ZIP4": "NOT AVAILABLE", "TELEPHONE": "(417) 837-4000", "TYPE": "GENERAL ACUTE CARE", "STATUS": "OPEN", "POPULATION": 15, "COUNTY": "GREENE", "COUNTYFIPS": "29077", "COUNTRY": "USA", "LATITUDE": 37.24856378, "LONGITUDE": -93.272401875, "NAICS_CODE": "622110", "NAICS_DESC": "GENERAL MEDICAL AND SURGICAL HOSPITALS", "SOURCE": "http://health.mo.gov/safety/healthservregs/directories.php", "SOURCEDATE": "2018-08-09T00:00:00.000Z", "VAL_METHOD": "IMAGERY/OTHER", "VAL_DATE": "2013-09-24T00:00:00.000Z", "WEBSITE": "http://www.ochonline.com", "STATE_ID": "H034", "ALT_NAME": "DOCTORS HOSPITAL OF SPRINGFIELD DBA OZARKS COM", "ST_FIPS": "29", "OWNER": "PROPRIETARY", "TTL_STAFF": -999, "BEDS": 15, "TRAUMA": "NOT AVAILABLE", "HELIPAD": "N" }, "geometry": { "type": "Polygon", "coordinates": [ [ [ -93.2627671, 37.162996400000019 ], [ -93.2771591, 37.164852599999961 ], [ -93.398318500000016, 37.212803099999967 ], [ -93.3983145, 37.213028600000037 ], [ -93.397106900000011, 37.277262799999988 ], [ -93.3970477, 37.277528 ], [ -93.3299003, 37.3352624 ], [ -93.2667561, 37.336825699999977 ], [ -93.244236, 37.331159500000027 ], [ -93.176858, 37.3010227 ], [ -93.1175676, 37.2727195 ], [ -93.1701996, 37.219154099999983 ], [ -93.2089499, 37.179803200000023 ], [ -93.2167608, 37.176360900000013 ], [ -93.2259589, 37.172492700000078 ], [ -93.2625462, 37.162993900000018 ], [ -93.2627671, 37.162996400000019 ] ] ] } },
{ "type": "Feature", "properties": { "OBJECTID": 1150, "ID": "0004765560", "NAME": "SALEM MEMORIAL DISTRICT HOSPITAL", "ADDRESS": "35629 HWY 72", "CITY": "SULLIVAN", "STATE": "MO", "ZIP": "65560", "ZIP4": "NOT AVAILABLE", "TELEPHONE": "(573) 729-6626", "TYPE": "CRITICAL ACCESS", "STATUS": "OPEN", "POPULATION": 55, "COUNTY": "DENT", "COUNTYFIPS": "29065", "COUNTRY": "USA", "LATITUDE": 37.66045595, "LONGITUDE": -91.569352382000005, "NAICS_CODE": "622110", "NAICS_DESC": "GENERAL MEDICAL AND SURGICAL HOSPITALS", "SOURCE": "http://health.mo.gov/safety/healthservregs/directories.php", "SOURCEDATE": "2018-08-09T00:00:00.000Z", "VAL_METHOD": "IMAGERY/OTHER", "VAL_DATE": "2014-02-10T00:00:00.000Z", "WEBSITE": "http://www.smdh.net", "STATE_ID": "H096", "ALT_NAME": "NOT AVAILABLE", "ST_FIPS": "29", "OWNER": "GOVERNMENT - DISTRICT/AUTHORITY", "TTL_STAFF": -999, "BEDS": 55, "TRAUMA": "LEVEL IV", "HELIPAD": "Y" }, "geometry": { "type": "Polygon", "coordinates": [ [ [ -91.526767, 37.57307 ], [ -91.532637, 37.57331 ], [ -91.615113, 37.582858 ], [ -91.643287, 37.593935 ], [ -91.644182, 37.594879 ], [ -91.654923, 37.637225 ], [ -91.671112, 37.716871 ], [ -91.669436, 37.774828 ], [ -91.516573, 37.705637 ], [ -91.495531, 37.68537 ], [ -91.45546, 37.631801 ], [ -91.519886, 37.573353 ], [ -91.526767, 37.57307 ] ] ] } },
{ "type": "Feature", "properties": { "OBJECTID": 1153, "ID": "0016465483", "NAME": "TEXAS COUNTY MEMORIAL HOSPITAL", "ADDRESS": "1333 S. SAM  BOULEVARD", "CITY": "HOUSTON", "STATE": "MO", "ZIP": "65483", "ZIP4": "NOT AVAILABLE", "TELEPHONE": "(417) 967-3311", "TYPE": "GENERAL ACUTE CARE", "STATUS": "OPEN", "POPULATION": 66, "COUNTY": "TEXAS", "COUNTYFIPS": "29215", "COUNTRY": "USA", "LATITUDE": 37.316121685, "LONGITUDE": -91.961168535, "NAICS_CODE": "622110", "NAICS_DESC": "GENERAL MEDICAL AND SURGICAL HOSPITALS", "SOURCE": "http://health.mo.gov/safety/healthservregs/directories.php", "SOURCEDATE": "2018-08-09T00:00:00.000Z", "VAL_METHOD": "IMAGERY/OTHER", "VAL_DATE": "2014-02-10T00:00:00.000Z", "WEBSITE": "http://www.tcmh.org/", "STATE_ID": "H133", "ALT_NAME": "NOT AVAILABLE", "ST_FIPS": "29", "OWNER": "GOVERNMENT - LOCAL", "TTL_STAFF": -999, "BEDS": 66, "TRAUMA": "NOT AVAILABLE", "HELIPAD": "Y" }, "geometry": { "type": "Polygon", "coordinates": [ [ [ -92.019625, 37.218242 ], [ -92.0240699, 37.219538 ], [ -92.049481, 37.283715 ], [ -92.045146, 37.352678 ], [ -92.045078, 37.353298 ], [ -92.030529, 37.358212 ], [ -91.940421, 37.386048 ], [ -91.905277, 37.396139 ], [ -91.9013187, 37.3910549 ], [ -91.895791, 37.382973 ], [ -91.878469, 37.342652 ], [ -91.874253, 37.310692 ], [ -91.874196, 37.309971 ], [ -91.884692, 37.288422 ], [ -91.903549, 37.274088 ], [ -91.951445, 37.244882 ], [ -92.019625, 37.218242 ] ] ] } },
{ "type": "Feature", "properties": { "OBJECTID": 1155, "ID": "0009965401", "NAME": "PHELPS COUNTY REGIONAL MEDICAL CENTER", "ADDRESS": "1000 WEST TENTH STREET", "CITY": "ROLLA", "STATE": "MO", "ZIP": "65401", "ZIP4": "NOT AVAILABLE", "TELEPHONE": "(573) 364-9000", "TYPE": "GENERAL ACUTE CARE", "STATUS": "OPEN", "POPULATION": 242, "COUNTY": "PHELPS", "COUNTYFIPS": "29161", "COUNTRY": "USA", "LATITUDE": 37.952489533000097, "LONGITUDE": -91.785982985999993, "NAICS_CODE": "622110", "NAICS_DESC": "GENERAL MEDICAL AND SURGICAL HOSPITALS", "SOURCE": "http://health.mo.gov/safety/healthservregs/directories.php", "SOURCEDATE": "2018-08-09T00:00:00.000Z", "VAL_METHOD": "IMAGERY/OTHER", "VAL_DATE": "2014-02-10T00:00:00.000Z", "WEBSITE": "http://www.pcrmcphysiciansgroup.com/", "STATE_ID": "H082", "ALT_NAME": "NOT AVAILABLE", "ST_FIPS": "29", "OWNER": "GOVERNMENT - LOCAL", "TTL_STAFF": -999, "BEDS": 242, "TRAUMA": "LEVEL III", "HELIPAD": "Y" }, "geometry": { "type": "Polygon", "coordinates": [ [ [ -91.7977217, 37.8497822 ], [ -91.9404506, 37.9431003 ], [ -91.938732, 37.945284 ], [ -91.843228, 38.029228099999969 ], [ -91.777031, 38.059739 ], [ -91.774903, 38.059772 ], [ -91.6215971, 38.0029868 ], [ -91.6615275, 37.946544700000025 ], [ -91.7087959, 37.885655600000021 ], [ -91.7977217, 37.8497822 ] ] ] } },
{ "type": "Feature", "properties": { "OBJECTID": 1161, "ID": "0001565625", "NAME": "MERCY HOSPITAL CASSVILLE", "ADDRESS": "94 MAIN STREET", "CITY": "CASSVILLE", "STATE": "MO", "ZIP": "65625", "ZIP4": "NOT AVAILABLE", "TELEPHONE": "(417) 847-6000", "TYPE": "CRITICAL ACCESS", "STATUS": "OPEN", "POPULATION": 18, "COUNTY": "BARRY", "COUNTYFIPS": "29009", "COUNTRY": "USA", "LATITUDE": 36.674782571999998, "LONGITUDE": -93.872092836999997, "NAICS_CODE": "622110", "NAICS_DESC": "GENERAL MEDICAL AND SURGICAL HOSPITALS", "SOURCE": "http://health.mo.gov/safety/healthservregs/directories.php", "SOURCEDATE": "2018-08-09T00:00:00.000Z", "VAL_METHOD": "IMAGERY/OTHER", "VAL_DATE": "2014-02-10T00:00:00.000Z", "WEBSITE": "http://www.mercy.net/northwestarar/practice/mercy-hospital-cassville", "STATE_ID": "H101", "ALT_NAME": "NOT AVAILABLE", "ST_FIPS": "29", "OWNER": "NON-PROFIT", "TTL_STAFF": -999, "BEDS": 18, "TRAUMA": "NOT AVAILABLE", "HELIPAD": "Y" }, "geometry": { "type": "Polygon", "coordinates": [ [ [ -93.951267, 36.59056 ], [ -93.992874, 36.669085 ], [ -93.938434, 36.74414 ], [ -93.915633, 36.769059 ], [ -93.8323648, 36.7445434 ], [ -93.774073, 36.726347 ], [ -93.770543, 36.652565 ], [ -93.796906, 36.630974 ], [ -93.836492, 36.604356 ], [ -93.836954, 36.60418 ], [ -93.951267, 36.59056 ] ] ] } },
{ "type": "Feature", "properties": { "OBJECTID": 1163, "ID": "0003664744", "NAME": "CEDAR COUNTY MEMORIAL HOSPITAL", "ADDRESS": "1401 SOUTH PARK STREET EL", "CITY": "EL DORADO SPRINGS", "STATE": "MO", "ZIP": "64744", "ZIP4": "NOT AVAILABLE", "TELEPHONE": "(417) 876-2511", "TYPE": "CRITICAL ACCESS", "STATUS": "OPEN", "POPULATION": 25, "COUNTY": "CEDAR", "COUNTYFIPS": "29039", "COUNTRY": "USA", "LATITUDE": 37.860225318000097, "LONGITUDE": -94.017012409000003, "NAICS_CODE": "622110", "NAICS_DESC": "GENERAL MEDICAL AND SURGICAL HOSPITALS", "SOURCE": "http://health.mo.gov/safety/healthservregs/directories.php", "SOURCEDATE": "2018-08-09T00:00:00.000Z", "VAL_METHOD": "IMAGERY", "VAL_DATE": "2014-02-10T00:00:00.000Z", "WEBSITE": "http://www.cedarcountyhospital.org", "STATE_ID": "H019", "ALT_NAME": "NOT AVAILABLE", "ST_FIPS": "29", "OWNER": "GOVERNMENT - LOCAL", "TTL_STAFF": -999, "BEDS": 25, "TRAUMA": "NOT AVAILABLE", "HELIPAD": "Y" }, "geometry": { "type": "Polygon", "coordinates": [ [ [ -94.027482, 37.754415 ], [ -94.028858, 37.754444 ], [ -94.0451686, 37.7685741 ], [ -94.0695915, 37.8355381 ], [ -94.0692243, 37.842788 ], [ -94.0680546, 37.8636513 ], [ -94.061115, 37.900819 ], [ -94.042301, 37.907722 ], [ -93.859633, 37.879632 ], [ -93.884277, 37.852697 ], [ -93.980924800000011, 37.767339399999962 ], [ -94.027482, 37.754415 ] ] ] } },
{ "type": "Feature", "properties": { "OBJECTID": 1165, "ID": "0018265065", "NAME": "OSAGE BEACH CENTER FOR COGNITIVE DISORDERS", "ADDRESS": "840 PASSOVER RD", "CITY": "OSAGE BEACH", "STATE": "MO", "ZIP": "65065", "ZIP4": "NOT AVAILABLE", "TELEPHONE": "(573) 302-0319", "TYPE": "PSYCHIATRIC", "STATUS": "OPEN", "POPULATION": 14, "COUNTY": "CAMDEN", "COUNTYFIPS": "29029", "COUNTRY": "USA", "LATITUDE": 38.134963509000002, "LONGITUDE": -92.628889333000004, "NAICS_CODE": "622210", "NAICS_DESC": "PSYCHIATRIC AND SUBSTANCE ABUSE HOSPITALS", "SOURCE": "http://health.mo.gov/safety/healthservregs/directories.php", "SOURCEDATE": "2018-08-09T00:00:00.000Z", "VAL_METHOD": "IMAGERY/OTHER", "VAL_DATE": "2016-08-15T00:00:00.000Z", "WEBSITE": "http://www.osagebeachccd.com/", "STATE_ID": "H185", "ALT_NAME": "NOT AVAILABLE", "ST_FIPS": "29", "OWNER": "PROPRIETARY", "TTL_STAFF": -999, "BEDS": 14, "TRAUMA": "NOT AVAILABLE", "HELIPAD": "N" }, "geometry": { "type": "Polygon", "coordinates": [ [ [ -92.6991854, 38.048811600000036 ], [ -92.7017582, 38.050220200000048 ], [ -92.7028422, 38.052251699999985 ], [ -92.7119618, 38.07495369999998 ], [ -92.728791300000012, 38.134869800000011 ], [ -92.7307827, 38.1449162 ], [ -92.7252283, 38.1474634 ], [ -92.5849047, 38.1997761 ], [ -92.5834194, 38.1997775 ], [ -92.5831132, 38.199573900000026 ], [ -92.5785409, 38.196353200000033 ], [ -92.563699200000016, 38.182372300000019 ], [ -92.5340848, 38.1160873 ], [ -92.6988957, 38.048817500000013 ], [ -92.6991854, 38.048811600000036 ] ] ] } },
{ "type": "Feature", "properties": { "OBJECTID": 1167, "ID": "0018465721", "NAME": "MERCY ORTHOPEDIC HOSPITAL SPRINGFIELD", "ADDRESS": "3050 E RIVERBLUFF BOULEVARD", "CITY": "OZARK", "STATE": "MO", "ZIP": "65721", "ZIP4": "NOT AVAILABLE", "TELEPHONE": "(417) 885-3000", "TYPE": "SPECIAL", "STATUS": "OPEN", "POPULATION": 48, "COUNTY": "GREENE", "COUNTYFIPS": "29077", "COUNTRY": "USA", "LATITUDE": 37.098953385000101, "LONGITUDE": -93.234741947000003, "NAICS_CODE": "622310", "NAICS_DESC": "ORTHOPEDIC HOSPITALS", "SOURCE": "http://health.mo.gov/safety/healthservregs/directories.php", "SOURCEDATE": "2018-08-09T00:00:00.000Z", "VAL_METHOD": "IMAGERY/OTHER", "VAL_DATE": "2016-08-15T00:00:00.000Z", "WEBSITE": "https://www.mercy.net/practice/mercy-orthopedic-hospital-springfield", "STATE_ID": "H182", "ALT_NAME": "NOT AVAILABLE", "ST_FIPS": "29", "OWNER": "NON-PROFIT", "TTL_STAFF": -999, "BEDS": 48, "TRAUMA": "NOT AVAILABLE", "HELIPAD": "N" }, "geometry": { "type": "Polygon", "coordinates": [ [ [ -93.189169, 37.057324 ], [ -93.297440100000017, 37.0985242 ], [ -93.3104453, 37.109116200000045 ], [ -93.3387616, 37.1384311 ], [ -93.330192, 37.15298 ], [ -93.3229905, 37.15936 ], [ -93.2247872, 37.235403200000015 ], [ -93.1011094, 37.118491899999974 ], [ -93.101076100000014, 37.118195 ], [ -93.1195855, 37.1044269 ], [ -93.189169, 37.057324 ] ] ] } },
{ "type": "Feature", "properties": { "OBJECTID": 1168, "ID": "0018565804", "NAME": "MERCY REHABILITATION HOSPITAL SPRINGFIELD", "ADDRESS": "5904 S SOUTHWOOD ROAD", "CITY": "SPRINGFIELD", "STATE": "MO", "ZIP": "65804", "ZIP4": "NOT AVAILABLE", "TELEPHONE": "(417) 227-9000", "TYPE": "REHABILITATION", "STATUS": "OPEN", "POPULATION": 60, "COUNTY": "GREENE", "COUNTYFIPS": "29077", "COUNTRY": "USA", "LATITUDE": 37.104586002000097, "LONGITUDE": -93.235602098000001, "NAICS_CODE": "622310", "NAICS_DESC": "REHABILITATION HOSPITALS (EXCEPT ALCOHOLISM, DRUG ADDICTION)", "SOURCE": "http://health.mo.gov/safety/healthservregs/directories.php", "SOURCEDATE": "2018-08-09T00:00:00.000Z", "VAL_METHOD": "IMAGERY/OTHER", "VAL_DATE": "2016-08-15T00:00:00.000Z", "WEBSITE": "https://www.mercy.net/practice/mercy-rehabilitation-hospital-springfield", "STATE_ID": "H184", "ALT_NAME": "NOT AVAILABLE", "ST_FIPS": "29", "OWNER": "NON-PROFIT", "TTL_STAFF": -999, "BEDS": 60, "TRAUMA": "NOT AVAILABLE", "HELIPAD": "N" }, "geometry": { "type": "Polygon", "coordinates": [ [ [ -93.190043, 37.061916 ], [ -93.3034563, 37.0997697 ], [ -93.3138563, 37.107913 ], [ -93.3140586, 37.1080971 ], [ -93.3185568, 37.116512400000026 ], [ -93.3278849, 37.138349 ], [ -93.3280983, 37.140094499999975 ], [ -93.3278535, 37.14448459999997 ], [ -93.3232337, 37.152960900000018 ], [ -93.2250608, 37.227992799999967 ], [ -93.11921, 37.126305 ], [ -93.1166264, 37.1227662 ], [ -93.116094, 37.1152385 ], [ -93.1194684, 37.111681600000033 ], [ -93.190043, 37.061916 ] ] ] } },
{ "type": "Feature", "properties": { "OBJECTID": 1544, "ID": "0011566762", "NAME": "VIA CHRISTI HOSPITAL PITTSBURG INC", "ADDRESS": "1 MT CARMEL WAY", "CITY": "PITTSBURG", "STATE": "KS", "ZIP": "66762", "ZIP4": "NOT AVAILABLE", "TELEPHONE": "(620) 231-6100", "TYPE": "GENERAL ACUTE CARE", "STATUS": "OPEN", "POPULATION": 111, "COUNTY": "CRAWFORD", "COUNTYFIPS": "20037", "COUNTRY": "USA", "LATITUDE": 37.380158548000097, "LONGITUDE": -94.684629496999904, "NAICS_CODE": "622110", "NAICS_DESC": "GENERAL MEDICAL AND SURGICAL HOSPITALS", "SOURCE": "http://www.kdheks.gov/bhfr/fac_list/", "SOURCEDATE": "2018-08-16T00:00:00.000Z", "VAL_METHOD": "IMAGERY", "VAL_DATE": "2014-03-12T00:00:00.000Z", "WEBSITE": "http://www.viachristi.org", "STATE_ID": "H019002", "ALT_NAME": "VIA CHRISTI HOSPITAL PITTSBURG INC", "ST_FIPS": "20", "OWNER": "NON-PROFIT", "TTL_STAFF": -999, "BEDS": 111, "TRAUMA": "LEVEL III", "HELIPAD": "Y" }, "geometry": { "type": "Polygon", "coordinates": [ [ [ -94.7054893, 37.295297899999973 ], [ -94.759783, 37.324431799999964 ], [ -94.7675883, 37.339033100000037 ], [ -94.7780984, 37.411319299999953 ], [ -94.778118, 37.418421 ], [ -94.7053216, 37.469628299999961 ], [ -94.7051194, 37.469627600000017 ], [ -94.686476, 37.469392 ], [ -94.630923, 37.425463 ], [ -94.617414, 37.410959 ], [ -94.615554, 37.40849 ], [ -94.61761, 37.352844 ], [ -94.624734, 37.344589 ], [ -94.7054893, 37.295297899999973 ] ] ] } },
{ "type": "Feature", "properties": { "OBJECTID": 2043, "ID": "0000966725", "NAME": "MERCY HOSPITAL COLUMBUS", "ADDRESS": "220 N PENNSYLVANIA AVENUE", "CITY": "COLUMBUS", "STATE": "KS", "ZIP": "66725", "ZIP4": "NOT AVAILABLE", "TELEPHONE": "(620) 429-2545", "TYPE": "CRITICAL ACCESS", "STATUS": "OPEN", "POPULATION": 18, "COUNTY": "CHEROKEE", "COUNTYFIPS": "20021", "COUNTRY": "USA", "LATITUDE": 37.172567671000003, "LONGITUDE": -94.84313905, "NAICS_CODE": "622110", "NAICS_DESC": "GENERAL MEDICAL AND SURGICAL HOSPITALS", "SOURCE": "http://www.kdheks.gov/bhfr/fac_list/", "SOURCEDATE": "2018-08-16T00:00:00.000Z", "VAL_METHOD": "IMAGERY", "VAL_DATE": "2016-04-28T00:00:00.000Z", "WEBSITE": "https://www.mercy.net/practice/mercy-hospital-columbus", "STATE_ID": "H011002", "ALT_NAME": "MERCY MAUDE NORTON HOSPITAL", "ST_FIPS": "20", "OWNER": "PROPRIETARY", "TTL_STAFF": -999, "BEDS": 18, "TRAUMA": "NOT AVAILABLE", "HELIPAD": "N" }, "geometry": { "type": "Polygon", "coordinates": [ [ [ -94.8314755, 37.045889100000011 ], [ -94.959016, 37.171692 ], [ -94.9590118, 37.1794437 ], [ -94.9406454, 37.193593699999958 ], [ -94.8321113, 37.266570799999982 ], [ -94.707053, 37.177899400000015 ], [ -94.8314755, 37.045889100000011 ] ] ] } },
{ "type": "Feature", "properties": { "OBJECTID": 2135, "ID": "0007864801", "NAME": "MERCY HOSPITAL JOPLIN", "ADDRESS": "2817 ST. JOHN'S BLVD", "CITY": "JOPLIN", "STATE": "MO", "ZIP": "64801", "ZIP4": "NOT AVAILABLE", "TELEPHONE": "(417) 781-2727", "TYPE": "GENERAL ACUTE CARE", "STATUS": "CLOSED", "POPULATION": 341, "COUNTY": "JASPER", "COUNTYFIPS": "29097", "COUNTRY": "USA", "LATITUDE": 37.056626217000002, "LONGITUDE": -94.527236385999998, "NAICS_CODE": "622110", "NAICS_DESC": "GENERAL MEDICAL AND SURGICAL HOSPITALS", "SOURCE": "http://gis.dhss.mo.gov/Website/AGS_healthFacility/healthFacility.html", "SOURCEDATE": "2013-02-15T00:00:00.000Z", "VAL_METHOD": "IMAGERY/OTHER", "VAL_DATE": "2014-02-10T00:00:00.000Z", "WEBSITE": "http://www.stj.com", "STATE_ID": "H115", "ALT_NAME": "NOT AVAILABLE", "ST_FIPS": "29", "OWNER": "NON-PROFIT", "TTL_STAFF": -999, "BEDS": 341, "TRAUMA": "NOT AVAILABLE", "HELIPAD": "Y" }, "geometry": { "type": "Polygon", "coordinates": [ [ [ -94.552451, 36.961044 ], [ -94.6129385, 36.9966232 ], [ -94.618268, 37.001577600000026 ], [ -94.6182962, 37.0051904 ], [ -94.602505, 37.086968 ], [ -94.601415, 37.08781 ], [ -94.5257588, 37.110556800000019 ], [ -94.4762334, 37.1079015 ], [ -94.40548, 37.05424 ], [ -94.468411, 36.995947 ], [ -94.495261, 36.983478 ], [ -94.552451, 36.961044 ] ] ] } },
{ "type": "Feature", "properties": { "OBJECTID": 2138, "ID": "0016164772", "NAME": "HEARTLAND BEHAVIORAL HEALTH SERVICES", "ADDRESS": "1500 WEST ASHLAND", "CITY": "NEVADA", "STATE": "MO", "ZIP": "64772", "ZIP4": "NOT AVAILABLE", "TELEPHONE": "(800) 654-9605", "TYPE": "PSYCHIATRIC", "STATUS": "OPEN", "POPULATION": 69, "COUNTY": "VERNON", "COUNTYFIPS": "29217", "COUNTRY": "USA", "LATITUDE": 37.845965164000098, "LONGITUDE": -94.375834897999894, "NAICS_CODE": "622210", "NAICS_DESC": "PSYCHIATRIC AND SUBSTANCE ABUSE HOSPITALS", "SOURCE": "http://health.mo.gov/safety/healthservregs/directories.php", "SOURCEDATE": "2018-08-09T00:00:00.000Z", "VAL_METHOD": "IMAGERY/OTHER", "VAL_DATE": "2014-02-10T00:00:00.000Z", "WEBSITE": "http://www.heartlandbehavioral.com", "STATE_ID": "H046", "ALT_NAME": "NOT AVAILABLE", "ST_FIPS": "29", "OWNER": "PROPRIETARY", "TTL_STAFF": -999, "BEDS": 69, "TRAUMA": "NOT AVAILABLE", "HELIPAD": "N" }, "geometry": { "type": "Polygon", "coordinates": [ [ [ -94.313204, 37.759705799999971 ], [ -94.4482567, 37.781203099999956 ], [ -94.546757, 37.842292 ], [ -94.367697100000015, 37.955833400000024 ], [ -94.233723, 37.866101 ], [ -94.233909, 37.862041 ], [ -94.3068962, 37.7624717 ], [ -94.313204, 37.759705799999971 ] ] ] } },
{ "type": "Feature", "properties": { "OBJECTID": 2145, "ID": "0002265804", "NAME": "MERCY HOSPITAL SPRINGFIELD", "ADDRESS": "1235 EAST CHEROKEE STREET", "CITY": "SPRINGFIELD", "STATE": "MO", "ZIP": "65804", "ZIP4": "NOT AVAILABLE", "TELEPHONE": "(417) 885-2000", "TYPE": "GENERAL ACUTE CARE", "STATUS": "OPEN", "POPULATION": 866, "COUNTY": "GREENE", "COUNTYFIPS": "29077", "COUNTRY": "USA", "LATITUDE": 37.178982373000103, "LONGITUDE": -93.275275992999994, "NAICS_CODE": "622110", "NAICS_DESC": "GENERAL MEDICAL AND SURGICAL HOSPITALS", "SOURCE": "http://health.mo.gov/safety/healthservregs/directories.php", "SOURCEDATE": "2018-08-09T00:00:00.000Z", "VAL_METHOD": "IMAGERY/OTHER", "VAL_DATE": "2014-02-10T00:00:00.000Z", "WEBSITE": "https://www.mercy.net/practice/mercy-hospital-springfield/", "STATE_ID": "H114", "ALT_NAME": "NOT AVAILABLE", "ST_FIPS": "29", "OWNER": "NON-PROFIT", "TTL_STAFF": -999, "BEDS": 866, "TRAUMA": "LEVEL I", "HELIPAD": "Y" }, "geometry": { "type": "Polygon", "coordinates": [ [ [ -93.2300999, 37.096860800000016 ], [ -93.2778318, 37.098118 ], [ -93.3034563, 37.0997697 ], [ -93.4062283, 37.157579500000033 ], [ -93.4063144, 37.15772989999995 ], [ -93.4006888, 37.16889409999996 ], [ -93.3866839, 37.191360700000025 ], [ -93.3693525, 37.212403 ], [ -93.3492647, 37.226879400000023 ], [ -93.3109972, 37.24457539999996 ], [ -93.2739917, 37.259506599999987 ], [ -93.2648284, 37.262175 ], [ -93.2243959, 37.2566528 ], [ -93.2137879, 37.250145900000014 ], [ -93.1884849, 37.2231126 ], [ -93.1522445, 37.181196199999967 ], [ -93.1911477, 37.120232300000055 ], [ -93.2300999, 37.096860800000016 ] ] ] } },
{ "type": "Feature", "properties": { "OBJECTID": 2823, "ID": "0017766739", "NAME": "PREMIER SURGICAL INSTITUTE", "ADDRESS": "1619 K 66", "CITY": "GALENA", "STATE": "KS", "ZIP": "66739", "ZIP4": "NOT AVAILABLE", "TELEPHONE": "(620) 783-1732", "TYPE": "LONG TERM CARE", "STATUS": "OPEN", "POPULATION": 36, "COUNTY": "CHEROKEE", "COUNTYFIPS": "20021", "COUNTRY": "USA", "LATITUDE": 37.078112798000099, "LONGITUDE": -94.622533156000003, "NAICS_CODE": "622310", "NAICS_DESC": "SPECIALTY (EXCEPT PSYCHIATRIC AND SUBSTANCE ABUSE) HOSPITALS", "SOURCE": "http://www.kdheks.gov/bhfr/fac_list/", "SOURCEDATE": "2018-08-16T00:00:00.000Z", "VAL_METHOD": "IMAGERY", "VAL_DATE": "2016-04-29T00:00:00.000Z", "WEBSITE": "http://premiersurgicalinstitute.com/", "STATE_ID": "H011003", "ALT_NAME": "NOT AVAILABLE", "ST_FIPS": "20", "OWNER": "PROPRIETARY", "TTL_STAFF": -999, "BEDS": 36, "TRAUMA": "NOT AVAILABLE", "HELIPAD": "N" }, "geometry": { "type": "Polygon", "coordinates": [ [ [ -94.6310324, 36.9986411 ], [ -94.649215100000021, 37.002619399999979 ], [ -94.669846, 37.009088 ], [ -94.7131047, 37.023695 ], [ -94.7347783, 37.031944700000025 ], [ -94.737029, 37.0331934 ], [ -94.7406579, 37.045970200000035 ], [ -94.741112500000014, 37.073156399999974 ], [ -94.722452, 37.104621 ], [ -94.7179409, 37.1090069 ], [ -94.704349, 37.1209177 ], [ -94.5808473, 37.157215 ], [ -94.565188, 37.144199 ], [ -94.5049069, 37.091873 ], [ -94.4972815, 37.083863 ], [ -94.501048, 37.079951 ], [ -94.514136, 37.069521 ], [ -94.6175198, 37.004274699999982 ], [ -94.6310324, 36.9986411 ] ] ] } },
{ "type": "Feature", "properties": { "OBJECTID": 2828, "ID": "0002967301", "NAME": "MERCY HOSPITAL INDEPENDENCE", "ADDRESS": "800 WEST MYRTLE STREET", "CITY": "INDEPENDENCE", "STATE": "KS", "ZIP": "67301", "ZIP4": "NOT AVAILABLE", "TELEPHONE": "(620) 331-2200", "TYPE": "GENERAL ACUTE CARE", "STATUS": "CLOSED", "POPULATION": 40, "COUNTY": "MONTGOMERY", "COUNTYFIPS": "20125", "COUNTRY": "USA", "LATITUDE": 37.224778634000103, "LONGITUDE": -95.716726455999904, "NAICS_CODE": "622110", "NAICS_DESC": "GENERAL MEDICAL AND SURGICAL HOSPITALS", "SOURCE": "http://www.kdheks.gov/bhfr/fac_list/", "SOURCEDATE": "2013-05-30T00:00:00.000Z", "VAL_METHOD": "IMAGERY", "VAL_DATE": "2014-02-10T00:00:00.000Z", "WEBSITE": "http://www.mercykansas.com", "STATE_ID": "H063004", "ALT_NAME": "MERCY HOSPITALS KANSAS COMMUNITIES INC", "ST_FIPS": "20", "OWNER": "NON-PROFIT", "TTL_STAFF": -999, "BEDS": 40, "TRAUMA": "NOT AVAILABLE", "HELIPAD": "Y" }, "geometry": { "type": "Polygon", "coordinates": [ [ [ -95.710668, 37.138424 ], [ -95.810007905035576, 37.153306747511643 ], [ -95.846838, 37.222609 ], [ -95.708634, 37.340852 ], [ -95.5854005, 37.233064600000013 ], [ -95.582516, 37.222749 ], [ -95.710668, 37.138424 ] ] ] } },
{ "type": "Feature", "properties": { "OBJECTID": 2922, "ID": "0005365807", "NAME": "COX MEDICAL CENTERS MEYER ORTHOPEDIC", "ADDRESS": "3535 S. NATIONAL AVE.", "CITY": "SPRINGFIELD", "STATE": "MO", "ZIP": "65807", "ZIP4": "NOT AVAILABLE", "TELEPHONE": "(417) 269-9800", "TYPE": "REHABILITATION", "STATUS": "OPEN", "POPULATION": 86, "COUNTY": "GREENE", "COUNTYFIPS": "29077", "COUNTRY": "USA", "LATITUDE": 37.150727703000001, "LONGITUDE": -93.27958382, "NAICS_CODE": "622310", "NAICS_DESC": "REHABILITATION HOSPITALS (EXCEPT ALCOHOLISM, DRUG ADDICTION)", "SOURCE": "http://health.mo.gov/safety/healthservregs/directories.php", "SOURCEDATE": "2018-08-09T00:00:00.000Z", "VAL_METHOD": "IMAGERY/OTHER", "VAL_DATE": "2013-09-24T00:00:00.000Z", "WEBSITE": "https://www.coxhealth.com/our-hospitals-and-clinics/our-locations/meyer-orthopedic-rehabilitation-hospital/", "STATE_ID": "H028", "ALT_NAME": "MEYER ORTHOPEDIC AND REHABILITATION HOSPITAL", "ST_FIPS": "29", "OWNER": "NOT AVAILABLE", "TTL_STAFF": -999, "BEDS": 86, "TRAUMA": "NOT AVAILABLE", "HELIPAD": "N" }, "geometry": { "type": "Polygon", "coordinates": [ [ [ -93.3253528, 37.094253500000029 ], [ -93.370493, 37.11033189999997 ], [ -93.3719819, 37.110869199999982 ], [ -93.424651, 37.1479621 ], [ -93.4285372, 37.179383299999962 ], [ -93.4237674, 37.181156899999955 ], [ -93.2750876, 37.233296299999949 ], [ -93.2612381, 37.233224500000041 ], [ -93.2253292, 37.220923400000018 ], [ -93.1847223, 37.1792044 ], [ -93.1375578, 37.119368799999982 ], [ -93.1375813, 37.119011 ], [ -93.1887562, 37.09129779999995 ], [ -93.191082, 37.091291 ], [ -93.3253528, 37.094253500000029 ] ] ] } },
{ "type": "Feature", "properties": { "OBJECTID": 2925, "ID": "0006264836", "NAME": "MERCY HOSPITAL CARTHAGE", "ADDRESS": "3125 DR RUSSELL SMITH WAY", "CITY": "CARTHAGE", "STATE": "MO", "ZIP": "64836", "ZIP4": "NOT AVAILABLE", "TELEPHONE": "(417) 358-8121", "TYPE": "CRITICAL ACCESS", "STATUS": "OPEN", "POPULATION": 25, "COUNTY": "JASPER", "COUNTYFIPS": "29097", "COUNTRY": "USA", "LATITUDE": 37.136211494000101, "LONGITUDE": -94.321103992000005, "NAICS_CODE": "622110", "NAICS_DESC": "GENERAL MEDICAL AND SURGICAL HOSPITALS", "SOURCE": "http://health.mo.gov/safety/healthservregs/directories.php", "SOURCEDATE": "2018-08-09T00:00:00.000Z", "VAL_METHOD": "IMAGERY/OTHER", "VAL_DATE": "2014-02-10T00:00:00.000Z", "WEBSITE": "https://www.mercy.net/practice/mercy-hospital-carthage", "STATE_ID": "H063", "ALT_NAME": "NOT AVAILABLE", "ST_FIPS": "29", "OWNER": "NON-PROFIT", "TTL_STAFF": -999, "BEDS": 25, "TRAUMA": "NOT AVAILABLE", "HELIPAD": "Y" }, "geometry": { "type": "Polygon", "coordinates": [ [ [ -94.314433, 37.008013 ], [ -94.315517, 37.008061 ], [ -94.4271329, 37.0502592 ], [ -94.4283353, 37.053794799999956 ], [ -94.428676, 37.058984 ], [ -94.4280175, 37.0689492 ], [ -94.4252301, 37.079806599999984 ], [ -94.3887983, 37.14067 ], [ -94.3586901, 37.1800593 ], [ -94.3320846, 37.2034896 ], [ -94.274267, 37.147367 ], [ -94.221719, 37.07383 ], [ -94.314433, 37.008013 ] ] ] } },
{ "type": "Feature", "properties": { "OBJECTID": 2937, "ID": "0001765806", "NAME": "LAKELAND BEHAVIORAL HEALTH SYSTEM", "ADDRESS": "440 SOUTH MARKET", "CITY": "SPRINGFIELD", "STATE": "MO", "ZIP": "65806", "ZIP4": "NOT AVAILABLE", "TELEPHONE": "(417) 221-4854", "TYPE": "PSYCHIATRIC", "STATUS": "OPEN", "POPULATION": 122, "COUNTY": "GREENE", "COUNTYFIPS": "29077", "COUNTRY": "USA", "LATITUDE": 37.205801256000001, "LONGITUDE": -93.295218614999996, "NAICS_CODE": "622210", "NAICS_DESC": "PSYCHIATRIC AND SUBSTANCE ABUSE HOSPITALS", "SOURCE": "http://health.mo.gov/safety/healthservregs/directories.php", "SOURCEDATE": "2018-08-09T00:00:00.000Z", "VAL_METHOD": "IMAGERY", "VAL_DATE": "2014-02-10T00:00:00.000Z", "WEBSITE": "https://www.lakelandbehavioralhealth.com/", "STATE_ID": "H057", "ALT_NAME": "NOT AVAILABLE", "ST_FIPS": "29", "OWNER": "PROPRIETARY", "TTL_STAFF": -999, "BEDS": 122, "TRAUMA": "NOT AVAILABLE", "HELIPAD": "N" }, "geometry": { "type": "Polygon", "coordinates": [ [ [ -93.2967816, 37.1162517 ], [ -93.38941, 37.166353400000013 ], [ -93.3895334, 37.1664831 ], [ -93.398318500000016, 37.212803099999967 ], [ -93.3983145, 37.213028600000037 ], [ -93.3971891, 37.2145301 ], [ -93.3602576, 37.254002 ], [ -93.3278334, 37.28260759999997 ], [ -93.3275511, 37.2826198 ], [ -93.2965832, 37.277860600000054 ], [ -93.2645894, 37.26954580000001 ], [ -93.224021, 37.250155199999988 ], [ -93.2049729, 37.223632500000022 ], [ -93.1950697, 37.208758 ], [ -93.1926906, 37.2012897 ], [ -93.2126589, 37.179917800000013 ], [ -93.2559424, 37.145413 ], [ -93.2965644, 37.1162488 ], [ -93.2967816, 37.1162517 ] ] ] } },
{ "type": "Feature", "properties": { "OBJECTID": 2944, "ID": "0010265613", "NAME": "CITIZENS MEMORIAL HOSPITAL", "ADDRESS": "1500 NORTH OAKLAND AVE", "CITY": "BOLIVAR", "STATE": "MO", "ZIP": "65613", "ZIP4": "NOT AVAILABLE", "TELEPHONE": "(417) 328-6040", "TYPE": "GENERAL ACUTE CARE", "STATUS": "OPEN", "POPULATION": 86, "COUNTY": "POLK", "COUNTYFIPS": "29167", "COUNTRY": "USA", "LATITUDE": 37.626483501000102, "LONGITUDE": -93.420113951000005, "NAICS_CODE": "622110", "NAICS_DESC": "GENERAL MEDICAL AND SURGICAL HOSPITALS", "SOURCE": "http://health.mo.gov/safety/healthservregs/directories.php", "SOURCEDATE": "2018-08-09T00:00:00.000Z", "VAL_METHOD": "IMAGERY/OTHER", "VAL_DATE": "2014-02-10T00:00:00.000Z", "WEBSITE": "http://www.citizensmemorial.com", "STATE_ID": "H023", "ALT_NAME": "NOT AVAILABLE", "ST_FIPS": "29", "OWNER": "GOVERNMENT - DISTRICT/AUTHORITY", "TTL_STAFF": -999, "BEDS": 86, "TRAUMA": "LEVEL III", "HELIPAD": "Y" }, "geometry": { "type": "Polygon", "coordinates": [ [ [ -93.370421, 37.518854 ], [ -93.52311, 37.61403 ], [ -93.540131, 37.626549 ], [ -93.5010092, 37.686231 ], [ -93.5008041, 37.68633379999995 ], [ -93.441068, 37.699862 ], [ -93.414202, 37.691234 ], [ -93.3791116, 37.670634600000014 ], [ -93.316029, 37.612953 ], [ -93.30895, 37.604679 ], [ -93.370161, 37.519063 ], [ -93.370421, 37.518854 ] ] ] } },
{ "type": "Feature", "properties": { "OBJECTID": 2949, "ID": "0001665708", "NAME": "COX MONETT HOSPITAL", "ADDRESS": "801 NORTH LINCOLN AVENUE", "CITY": "MONETT", "STATE": "MO", "ZIP": "65708", "ZIP4": "NOT AVAILABLE", "TELEPHONE": "(417) 235-3144", "TYPE": "CRITICAL ACCESS", "STATUS": "OPEN", "POPULATION": 25, "COUNTY": "BARRY", "COUNTYFIPS": "29009", "COUNTRY": "USA", "LATITUDE": 36.9270036200001, "LONGITUDE": -93.930746982000002, "NAICS_CODE": "622110", "NAICS_DESC": "GENERAL MEDICAL AND SURGICAL HOSPITALS", "SOURCE": "http://health.mo.gov/safety/healthservregs/directories.php", "SOURCEDATE": "2018-08-09T00:00:00.000Z", "VAL_METHOD": "IMAGERY/OTHER", "VAL_DATE": "2014-02-10T00:00:00.000Z", "WEBSITE": "http://www.coxhealth.com/body.cfm?id=1341", "STATE_ID": "H029", "ALT_NAME": "NOT AVAILABLE", "ST_FIPS": "29", "OWNER": "NON-PROFIT", "TTL_STAFF": -999, "BEDS": 25, "TRAUMA": "LEVEL IV", "HELIPAD": "Y" }, "geometry": { "type": "Polygon", "coordinates": [ [ [ -93.922811, 36.823701 ], [ -94.048411, 36.902532 ], [ -94.0628266, 36.931495899999987 ], [ -93.934114, 37.001616 ], [ -93.916282, 37.001809 ], [ -93.855418, 36.957359 ], [ -93.8273462, 36.9327927 ], [ -93.846612, 36.897837 ], [ -93.870757, 36.869133 ], [ -93.922811, 36.823701 ] ] ] } },
{ "type": "Feature", "properties": { "OBJECTID": 6159, "ID": "0006065775", "NAME": "OZARKS MEDICAL CENTER", "ADDRESS": "1100 KENTUCKY AVENUE", "CITY": "WEST PLAINS", "STATE": "MO", "ZIP": "65775", "ZIP4": "NOT AVAILABLE", "TELEPHONE": "(417) 256-9111", "TYPE": "GENERAL ACUTE CARE", "STATUS": "OPEN", "POPULATION": 114, "COUNTY": "HOWELL", "COUNTYFIPS": "29091", "COUNTRY": "USA", "LATITUDE": 36.738187951, "LONGITUDE": -91.874588081, "NAICS_CODE": "622110", "NAICS_DESC": "GENERAL MEDICAL AND SURGICAL HOSPITALS", "SOURCE": "http://health.mo.gov/safety/healthservregs/directories.php", "SOURCEDATE": "2018-08-09T00:00:00.000Z", "VAL_METHOD": "IMAGERY", "VAL_DATE": "2014-03-12T00:00:00.000Z", "WEBSITE": "http://www.ozarksmedicalcenter.com", "STATE_ID": "H076", "ALT_NAME": "NOT AVAILABLE", "ST_FIPS": "29", "OWNER": "NON-PROFIT", "TTL_STAFF": -999, "BEDS": 114, "TRAUMA": "LEVEL II", "HELIPAD": "Y" }, "geometry": { "type": "Polygon", "coordinates": [ [ [ -91.9291919, 36.652845 ], [ -91.9299516, 36.65391289999998 ], [ -91.957626, 36.708391 ], [ -91.969806, 36.745173 ], [ -91.927125, 36.81987 ], [ -91.916286, 36.833875 ], [ -91.915831, 36.834103 ], [ -91.912268, 36.83407 ], [ -91.910006, 36.834048 ], [ -91.785307, 36.764617 ], [ -91.772883, 36.674863 ], [ -91.773188, 36.674404 ], [ -91.861856, 36.654967 ], [ -91.9291919, 36.652845 ] ] ] } },
{ "type": "Feature", "properties": { "OBJECTID": 4342, "ID": "0003766701", "NAME": "MERCY HOSPITAL\u001eFORT SCOTT", "ADDRESS": "401 WOODLAND HILLS BLVD", "CITY": "FORT SCOTT", "STATE": "KS", "ZIP": "66701", "ZIP4": "NOT AVAILABLE", "TELEPHONE": "(620) 223-2200", "TYPE": "GENERAL ACUTE CARE", "STATUS": "OPEN", "POPULATION": 61, "COUNTY": "BOURBON", "COUNTYFIPS": "20011", "COUNTRY": "USA", "LATITUDE": 37.805407812000098, "LONGITUDE": -94.706232259000004, "NAICS_CODE": "622110", "NAICS_DESC": "GENERAL MEDICAL AND SURGICAL HOSPITALS", "SOURCE": "http://www.kdheks.gov/bhfr/fac_list/", "SOURCEDATE": "2018-08-16T00:00:00.000Z", "VAL_METHOD": "IMAGERY", "VAL_DATE": "2014-02-10T00:00:00.000Z", "WEBSITE": "http://www.mercykansas.com", "STATE_ID": "H006001", "ALT_NAME": "MERCY HOPSITALS KANSAS COMMUNITIES INC", "ST_FIPS": "20", "OWNER": "NON-PROFIT", "TTL_STAFF": -999, "BEDS": 61, "TRAUMA": "NOT AVAILABLE", "HELIPAD": "Y" }, "geometry": { "type": "Polygon", "coordinates": [ [ [ -94.7033595, 37.6767101 ], [ -94.710708, 37.679091 ], [ -94.7558823, 37.732433100000051 ], [ -94.792165, 37.787872 ], [ -94.79351, 37.790703 ], [ -94.779503, 37.864178 ], [ -94.769247, 37.877826 ], [ -94.713395, 37.942414 ], [ -94.710895, 37.942799 ], [ -94.691537, 37.937408 ], [ -94.601622, 37.843921 ], [ -94.6016575, 37.842959600000015 ], [ -94.649475100000018, 37.731526099999989 ], [ -94.7033595, 37.6767101 ] ] ] } },
{ "type": "Feature", "properties": { "OBJECTID": 4347, "ID": "0010267356", "NAME": "OSWEGO COMMUNITY HOSPITAL", "ADDRESS": "800 BARKER DRIVE", "CITY": "OSWEGO", "STATE": "KS", "ZIP": "67356", "ZIP4": "NOT AVAILABLE", "TELEPHONE": "(620) 795-2921", "TYPE": "GENERAL ACUTE CARE", "STATUS": "OPEN", "POPULATION": 12, "COUNTY": "LABETTE", "COUNTYFIPS": "20099", "COUNTRY": "USA", "LATITUDE": 37.159818185000098, "LONGITUDE": -95.110176485999901, "NAICS_CODE": "622110", "NAICS_DESC": "GENERAL MEDICAL AND SURGICAL HOSPITALS", "SOURCE": "http://www.kdheks.gov/bhfr/fac_list/", "SOURCEDATE": "2018-08-16T00:00:00.000Z", "VAL_METHOD": "IMAGERY", "VAL_DATE": "2014-01-09T00:00:00.000Z", "WEBSITE": "http://www.oswegocommunityhospital.com", "STATE_ID": "H050003", "ALT_NAME": "CAH ACQUISITION COMPAMY 2 LLC", "ST_FIPS": "20", "OWNER": "PROPRIETARY", "TTL_STAFF": -999, "BEDS": 12, "TRAUMA": "NOT AVAILABLE", "HELIPAD": "N" }, "geometry": { "type": "Polygon", "coordinates": [ [ [ -95.100366, 37.047665 ], [ -95.102179, 37.048207 ], [ -95.21288, 37.193496 ], [ -95.190171, 37.207856 ], [ -95.122204, 37.241224 ], [ -95.119193, 37.241243 ], [ -94.9818103, 37.179950500000025 ], [ -95.100366, 37.047665 ] ] ] } },
{ "type": "Feature", "properties": { "OBJECTID": 4350, "ID": "0011367357", "NAME": "LABETTE HEALTH", "ADDRESS": "1902 SOUTH US HWY 59", "CITY": "PARSONS", "STATE": "KS", "ZIP": "67357", "ZIP4": "NOT AVAILABLE", "TELEPHONE": "(620) 421-4881", "TYPE": "GENERAL ACUTE CARE", "STATUS": "OPEN", "POPULATION": 55, "COUNTY": "LABETTE", "COUNTYFIPS": "20099", "COUNTRY": "USA", "LATITUDE": 37.321080734000098, "LONGITUDE": -95.264456375999899, "NAICS_CODE": "622110", "NAICS_DESC": "GENERAL MEDICAL AND SURGICAL HOSPITALS", "SOURCE": "http://www.kdheks.gov/bhfr/fac_list/", "SOURCEDATE": "2018-08-16T00:00:00.000Z", "VAL_METHOD": "IMAGERY", "VAL_DATE": "2014-02-10T00:00:00.000Z", "WEBSITE": "http://www.labettehealth.com", "STATE_ID": "H050002", "ALT_NAME": "LABETTE COUNTY MEDICAL CENTER", "ST_FIPS": "20", "OWNER": "GOVERNMENT - LOCAL", "TTL_STAFF": -999, "BEDS": 55, "TRAUMA": "LEVEL III", "HELIPAD": "Y" }, "geometry": { "type": "Polygon", "coordinates": [ [ [ -95.267192, 37.207753 ], [ -95.303373, 37.252229 ], [ -95.3537574, 37.344493399999976 ], [ -95.330951, 37.372002 ], [ -95.2702371, 37.427520899999955 ], [ -95.157978, 37.340202 ], [ -95.22121, 37.252089 ], [ -95.267192, 37.207753 ] ] ] } },
{ "type": "Feature", "properties": { "OBJECTID": 4464, "ID": "0157767701", "NAME": "ALLEN COUNTY REGIONAL HOSPITAL", "ADDRESS": "3066 NORTH KENTUCKY STREET", "CITY": "IOLA", "STATE": "KS", "ZIP": "67701", "ZIP4": "NOT AVAILABLE", "TELEPHONE": "NOT AVAILABLE", "TYPE": "CRITICAL ACCESS", "STATUS": "OPEN", "POPULATION": -999, "COUNTY": "ALLEN", "COUNTYFIPS": "20001", "COUNTRY": "USA", "LATITUDE": 37.948799330999996, "LONGITUDE": -95.391733852999906, "NAICS_CODE": "622110", "NAICS_DESC": "GENERAL MEDICAL AND SURGICAL HOSPITALS", "SOURCE": "http://www.kdheks.gov/bhfr/fac_list/", "SOURCEDATE": "2018-08-16T00:00:00.000Z", "VAL_METHOD": "IMAGERY/OTHER", "VAL_DATE": "2015-05-30T00:00:00.000Z", "WEBSITE": "NOT AVAILABLE", "STATE_ID": "H001001", "ALT_NAME": "NOT AVAILABLE", "ST_FIPS": "20", "OWNER": "GOVERNMENT - LOCAL", "TTL_STAFF": -999, "BEDS": -999, "TRAUMA": "LEVEL IV", "HELIPAD": "Y" }, "geometry": { "type": "Polygon", "coordinates": [ [ [ -95.39102, 37.863931 ], [ -95.5009041, 37.9219645 ], [ -95.454606, 37.994726 ], [ -95.389925, 38.038495 ], [ -95.380537, 38.039619 ], [ -95.363211, 38.038438 ], [ -95.317362, 37.994493 ], [ -95.280515, 37.954734 ], [ -95.280533, 37.950944 ], [ -95.2807028, 37.921908 ], [ -95.299124, 37.907516700000031 ], [ -95.354136, 37.878251 ], [ -95.39102, 37.863931 ] ] ] } },
{ "type": "Feature", "properties": { "OBJECTID": 4958, "ID": "0000666720", "NAME": "NEOSHO MEMORIAL REGIONAL MEDICAL CENTER", "ADDRESS": "629 SOUTH PLUMMER", "CITY": "CHANUTE", "STATE": "KS", "ZIP": "66720", "ZIP4": "NOT AVAILABLE", "TELEPHONE": "(620) 431-4000", "TYPE": "CRITICAL ACCESS", "STATUS": "OPEN", "POPULATION": 25, "COUNTY": "NEOSHO", "COUNTYFIPS": "20133", "COUNTRY": "USA", "LATITUDE": 37.675276996000001, "LONGITUDE": -95.472116544000002, "NAICS_CODE": "622110", "NAICS_DESC": "GENERAL MEDICAL AND SURGICAL HOSPITALS", "SOURCE": "http://www.kdheks.gov/bhfr/fac_list/", "SOURCEDATE": "2018-08-16T00:00:00.000Z", "VAL_METHOD": "IMAGERY", "VAL_DATE": "2014-03-12T00:00:00.000Z", "WEBSITE": "http://www.nmrmc.com", "STATE_ID": "H067001", "ALT_NAME": "NEOSHO MEMORIAL REGIONAL MEDICAL CENTER", "ST_FIPS": "20", "OWNER": "GOVERNMENT - LOCAL", "TTL_STAFF": -999, "BEDS": 25, "TRAUMA": "LEVEL IV", "HELIPAD": "Y" }, "geometry": { "type": "Polygon", "coordinates": [ [ [ -95.4708939, 37.572512599999989 ], [ -95.6331911, 37.6893998 ], [ -95.51623, 37.732772 ], [ -95.438398, 37.750887 ], [ -95.3618724, 37.6817228 ], [ -95.4708939, 37.572512599999989 ] ] ] } },
{ "type": "Feature", "properties": { "OBJECTID": 4960, "ID": "0004566743", "NAME": "GIRARD MEDICAL CENTER", "ADDRESS": "302 NORTH HOSPITAL DRIVE", "CITY": "GIRARD", "STATE": "KS", "ZIP": "66743", "ZIP4": "NOT AVAILABLE", "TELEPHONE": "(620) 724-8291", "TYPE": "CRITICAL ACCESS", "STATUS": "OPEN", "POPULATION": 35, "COUNTY": "CRAWFORD", "COUNTYFIPS": "20037", "COUNTRY": "USA", "LATITUDE": 37.514603663000102, "LONGITUDE": -94.857729813999995, "NAICS_CODE": "622110", "NAICS_DESC": "GENERAL MEDICAL AND SURGICAL HOSPITALS", "SOURCE": "http://www.kdheks.gov/bhfr/fac_list/", "SOURCEDATE": "2018-08-16T00:00:00.000Z", "VAL_METHOD": "IMAGERY", "VAL_DATE": "2014-03-12T00:00:00.000Z", "WEBSITE": "http://www.girardmedicalcenter.com", "STATE_ID": "H019001", "ALT_NAME": "HOSPITAL DISTRICT NO.1 OF CRAWFORD COUNTY", "ST_FIPS": "20", "OWNER": "GOVERNMENT - DISTRICT/AUTHORITY", "TTL_STAFF": -999, "BEDS": 35, "TRAUMA": "LEVEL IV", "HELIPAD": "Y" }, "geometry": { "type": "Polygon", "coordinates": [ [ [ -94.832855, 37.425984 ], [ -94.891752, 37.45451 ], [ -94.988609, 37.514688 ], [ -94.887755, 37.572549 ], [ -94.850944, 37.586808 ], [ -94.832577, 37.593504 ], [ -94.831827, 37.593515 ], [ -94.741873, 37.513775 ], [ -94.832855, 37.425984 ] ] ] } },
{ "type": "Feature", "properties": { "OBJECTID": 681, "ID": "0001267045", "NAME": "GREENWOOD COUNTY HOSPITAL", "ADDRESS": "100 W 16TH STREET", "CITY": "EUREKA", "STATE": "KS", "ZIP": "67045", "ZIP4": "NOT AVAILABLE", "TELEPHONE": "(620) 583-7451", "TYPE": "CRITICAL ACCESS", "STATUS": "OPEN", "POPULATION": 25, "COUNTY": "GREENWOOD", "COUNTYFIPS": "20073", "COUNTRY": "USA", "LATITUDE": 37.83569758, "LONGITUDE": -96.293802501000002, "NAICS_CODE": "622110", "NAICS_DESC": "GENERAL MEDICAL AND SURGICAL HOSPITALS", "SOURCE": "http://www.kdheks.gov/bhfr/fac_list/", "SOURCEDATE": "2018-08-16T00:00:00.000Z", "VAL_METHOD": "IMAGERY", "VAL_DATE": "2014-02-10T00:00:00.000Z", "WEBSITE": "http://www.gwch.org", "STATE_ID": "H037001", "ALT_NAME": "GREENWOOD COUNTY HOSPITAL", "ST_FIPS": "20", "OWNER": "GOVERNMENT - LOCAL", "TTL_STAFF": -999, "BEDS": 25, "TRAUMA": "LEVEL IV", "HELIPAD": "N" }, "geometry": { "type": "Polygon", "coordinates": [ [ [ -96.289027, 37.780683 ], [ -96.316358, 37.781247 ], [ -96.344265, 37.788495 ], [ -96.3801216, 37.810300700000028 ], [ -96.3490941, 37.85079 ], [ -96.30609, 37.886485 ], [ -96.2879884, 37.899731 ], [ -96.1962069, 37.832846300000014 ], [ -96.1976142, 37.824662399999987 ], [ -96.2325984, 37.795556 ], [ -96.289027, 37.780683 ] ] ] } },
{ "type": "Feature", "properties": { "OBJECTID": 690, "ID": "0009366757", "NAME": "WILSON MEDICAL CENTER", "ADDRESS": "REECE CAMPUS 2600 OTTAWA ROAD", "CITY": "NEODESHA", "STATE": "KS", "ZIP": "66757", "ZIP4": "NOT AVAILABLE", "TELEPHONE": "(620) 325-8369", "TYPE": "GENERAL ACUTE CARE", "STATUS": "OPEN", "POPULATION": 15, "COUNTY": "WILSON", "COUNTYFIPS": "20205", "COUNTRY": "USA", "LATITUDE": 37.409570584999997, "LONGITUDE": -95.708332151999997, "NAICS_CODE": "622110", "NAICS_DESC": "GENERAL MEDICAL AND SURGICAL HOSPITALS", "SOURCE": "http://www.kdheks.gov/bhfr/fac_list/", "SOURCEDATE": "2018-08-16T00:00:00.000Z", "VAL_METHOD": "IMAGERY", "VAL_DATE": "2014-02-10T00:00:00.000Z", "WEBSITE": "http://www.wilsonmedical.org", "STATE_ID": "H103002", "ALT_NAME": "WILSON COUNTY HOSPITAL FOUNDATION", "ST_FIPS": "20", "OWNER": "GOVERNMENT - LOCAL", "TTL_STAFF": -999, "BEDS": 15, "TRAUMA": "NOT AVAILABLE", "HELIPAD": "Y" }, "geometry": { "type": "Polygon", "coordinates": [ [ [ -95.711089, 37.290732 ], [ -95.71645, 37.290751 ], [ -95.716749, 37.290754 ], [ -95.832838, 37.415675 ], [ -95.800083, 37.514866 ], [ -95.798792, 37.51508 ], [ -95.788776, 37.515293 ], [ -95.651453, 37.486395 ], [ -95.597222, 37.429842 ], [ -95.597214, 37.427596 ], [ -95.597215, 37.427212 ], [ -95.620371, 37.351693 ], [ -95.711089, 37.290732 ] ] ] } },
{ "type": "Feature", "properties": { "OBJECTID": 7311, "ID": "0003166749", "NAME": "ALLEN COUNTY HOSPITAL", "ADDRESS": "101 SOUTH 1ST STREET", "CITY": "IOLA", "STATE": "KS", "ZIP": "66749", "ZIP4": "NOT AVAILABLE", "TELEPHONE": "(620) 365-1021", "TYPE": "GENERAL ACUTE CARE", "STATUS": "CLOSED", "POPULATION": 25, "COUNTY": "ALLEN", "COUNTYFIPS": "20001", "COUNTRY": "USA", "LATITUDE": 37.921409279000002, "LONGITUDE": -95.394322629000001, "NAICS_CODE": "622110", "NAICS_DESC": "GENERAL MEDICAL AND SURGICAL HOSPITALS", "SOURCE": "http://www.kdheks.gov/bhfr/fac_list/", "SOURCEDATE": "2013-05-30T00:00:00.000Z", "VAL_METHOD": "IMAGERY", "VAL_DATE": "2014-01-09T00:00:00.000Z", "WEBSITE": "http://www.allencountyhospital.com", "STATE_ID": "H001001", "ALT_NAME": "MIDAMERICA DIVISION \u001e HCA LLC", "ST_FIPS": "20", "OWNER": "PROPRIETARY", "TTL_STAFF": -999, "BEDS": 25, "TRAUMA": "NOT AVAILABLE", "HELIPAD": "N" }, "geometry": { "type": "Polygon", "coordinates": [ [ [ -95.4102413, 37.8165832 ], [ -95.4184756, 37.820081800000033 ], [ -95.519129, 37.907488 ], [ -95.519210900000019, 37.9206876 ], [ -95.519193, 37.922025 ], [ -95.50099, 37.936558 ], [ -95.3806173, 38.0240033 ], [ -95.262311, 37.92178 ], [ -95.4102413, 37.8165832 ] ] ] } },
{ "type": "Feature", "properties": { "OBJECTID": 7441, "ID": "0000000029", "NAME": "FORT LEONARD WOOD ARMY COMMUNITY HOSPITAL", "ADDRESS": "4430 MISSOURI AVE", "CITY": "FORT LEONARD WOOD", "STATE": "MO", "ZIP": "65473", "ZIP4": "NOT AVAILABLE", "TELEPHONE": "(573) 596-0456", "TYPE": "MILITARY", "STATUS": "OPEN", "POPULATION": -999, "COUNTY": "PULASKI", "COUNTYFIPS": "29169", "COUNTRY": "USA", "LATITUDE": 37.766164563000103, "LONGITUDE": -92.11483258, "NAICS_CODE": "622110", "NAICS_DESC": "GENERAL MEDICAL AND SURGICAL HOSPITALS", "SOURCE": "http://www.tricare.mil/mtf", "SOURCEDATE": "2019-04-02T00:00:00.000Z", "VAL_METHOD": "IMAGERY/OTHER", "VAL_DATE": "2015-07-25T00:00:00.000Z", "WEBSITE": "https://health.mil/Military-Health-Topics/Access-Cost-Quality-and-Safety/Patient-Portal-for-MHS-Quality-Patient-Safety-and-Access-Information/See-How-Were-Doing/Army/ACH-LEONARD-WOOD", "STATE_ID": "NOT AVAILABLE", "ALT_NAME": "NOT AVAILABLE", "ST_FIPS": "29", "OWNER": "GOVERNMENT - FEDERAL", "TTL_STAFF": -999, "BEDS": -999, "TRAUMA": "NOT AVAILABLE", "HELIPAD": "Y" }, "geometry": { "type": "Polygon", "coordinates": [ [ [ -92.152631, 37.685084 ], [ -92.192518100000015, 37.724161700000018 ], [ -92.2150455, 37.7842543 ], [ -92.2208851, 37.803026200000026 ], [ -92.186664, 37.830673 ], [ -92.147568, 37.851667 ], [ -92.092885, 37.844503 ], [ -92.0846394, 37.842923300000024 ], [ -92.0840268, 37.842755800000027 ], [ -92.0252112, 37.763057 ], [ -92.0539722, 37.7327718 ], [ -92.0952933, 37.706122899999961 ], [ -92.152631, 37.685084 ] ] ] } },
{ "type": "Feature", "properties": { "OBJECTID": 5032, "ID": "0017965109", "NAME": "SSM HEALTH ST. MARY'S HOSPITAL - JEFFERSON CITY", "ADDRESS": "2505 MISSION DR", "CITY": "JEFFERSON CITY", "STATE": "MO", "ZIP": "65109", "ZIP4": "NOT AVAILABLE", "TELEPHONE": "(573) 681-3000", "TYPE": "GENERAL ACUTE CARE", "STATUS": "OPEN", "POPULATION": 154, "COUNTY": "COLE", "COUNTYFIPS": "29051", "COUNTRY": "USA", "LATITUDE": 38.558698187000097, "LONGITUDE": -92.22156912, "NAICS_CODE": "622110", "NAICS_DESC": "GENERAL MEDICAL AND SURGICAL HOSPITALS", "SOURCE": "http://health.mo.gov/safety/healthservregs/directories.php", "SOURCEDATE": "2018-08-09T00:00:00.000Z", "VAL_METHOD": "IMAGERY/OTHER", "VAL_DATE": "2016-08-15T00:00:00.000Z", "WEBSITE": "https://www.ssmhealth.com/locations/st-marys-hospital-jefferson-city?utm_id=gmb18-13", "STATE_ID": "H128", "ALT_NAME": "NOT AVAILABLE", "ST_FIPS": "29", "OWNER": "NON-PROFIT", "TTL_STAFF": -999, "BEDS": 154, "TRAUMA": "NOT AVAILABLE", "HELIPAD": "Y" }, "geometry": { "type": "Polygon", "coordinates": [ [ [ -92.2845084, 38.471768099999963 ], [ -92.3422764, 38.53197 ], [ -92.3457671, 38.536788300000012 ], [ -92.3504453, 38.594437300000024 ], [ -92.3504024, 38.594699400000053 ], [ -92.3501824, 38.595683600000029 ], [ -92.3500239, 38.596324299999971 ], [ -92.3497559, 38.5972103 ], [ -92.3489202, 38.5988288 ], [ -92.3473154, 38.600797899999961 ], [ -92.346265, 38.601988200000051 ], [ -92.343481, 38.604263 ], [ -92.2714295, 38.634091499999982 ], [ -92.2518198, 38.640601 ], [ -92.1464712, 38.568165600000036 ], [ -92.137571, 38.561867899999982 ], [ -92.1356621, 38.559905700000023 ], [ -92.1206384, 38.543029900000022 ], [ -92.1217599, 38.54128080000001 ], [ -92.1737265, 38.4875413 ], [ -92.1757113, 38.485865900000022 ], [ -92.2845084, 38.471768099999963 ] ] ] } },
{ "type": "Feature", "properties": { "OBJECTID": 5041, "ID": "0006365101", "NAME": "CAPITAL REGION MEDICAL CENTER", "ADDRESS": "1125 MADISON", "CITY": "JEFFERSON CITY", "STATE": "MO", "ZIP": "65101", "ZIP4": "NOT AVAILABLE", "TELEPHONE": "(573) 632-5000", "TYPE": "GENERAL ACUTE CARE", "STATUS": "OPEN", "POPULATION": 114, "COUNTY": "COLE", "COUNTYFIPS": "29051", "COUNTRY": "USA", "LATITUDE": 38.565792362000003, "LONGITUDE": -92.181792523999903, "NAICS_CODE": "622110", "NAICS_DESC": "GENERAL MEDICAL AND SURGICAL HOSPITALS", "SOURCE": "http://health.mo.gov/safety/healthservregs/directories.php", "SOURCEDATE": "2018-08-09T00:00:00.000Z", "VAL_METHOD": "IMAGERY", "VAL_DATE": "2014-02-10T00:00:00.000Z", "WEBSITE": "http://www.crmc.org", "STATE_ID": "H016", "ALT_NAME": "NOT AVAILABLE", "ST_FIPS": "29", "OWNER": "NON-PROFIT", "TTL_STAFF": -999, "BEDS": 114, "TRAUMA": "LEVEL II", "HELIPAD": "Y" }, "geometry": { "type": "Polygon", "coordinates": [ [ [ -92.2845084, 38.471768099999963 ], [ -92.320629900000014, 38.584062100000018 ], [ -92.2569072, 38.62827260000001 ], [ -92.2520477, 38.6278719 ], [ -92.242531400000018, 38.625381499999989 ], [ -92.224239, 38.618511 ], [ -92.0719964, 38.5541438 ], [ -92.0400258, 38.513446200000047 ], [ -92.0408283, 38.512751500000022 ], [ -92.1764475, 38.480193900000039 ], [ -92.2845084, 38.471768099999963 ] ] ] } },
{ "type": "Feature", "properties": { "OBJECTID": 5045, "ID": "0005965548", "NAME": "MERCY ST. FRANCIS HOSPITAL", "ADDRESS": "100 WEST HIGHWAY 60", "CITY": "MOUNTAIN VIEW", "STATE": "MO", "ZIP": "65548", "ZIP4": "NOT AVAILABLE", "TELEPHONE": "(417) 934-7000", "TYPE": "CRITICAL ACCESS", "STATUS": "OPEN", "POPULATION": 25, "COUNTY": "HOWELL", "COUNTYFIPS": "29091", "COUNTRY": "USA", "LATITUDE": 37.002438610000098, "LONGITUDE": -91.703233213000004, "NAICS_CODE": "622110", "NAICS_DESC": "GENERAL MEDICAL AND SURGICAL HOSPITALS", "SOURCE": "http://health.mo.gov/safety/healthservregs/directories.php", "SOURCEDATE": "2018-08-09T00:00:00.000Z", "VAL_METHOD": "IMAGERY", "VAL_DATE": "2014-02-10T00:00:00.000Z", "WEBSITE": "https://www.mercy.net/practice/mercy-st-francis-hospital", "STATE_ID": "H109", "ALT_NAME": "NOT AVAILABLE", "ST_FIPS": "29", "OWNER": "NON-PROFIT", "TTL_STAFF": -999, "BEDS": 25, "TRAUMA": "NOT AVAILABLE", "HELIPAD": "Y" }, "geometry": { "type": "Polygon", "coordinates": [ [ [ -91.680059, 36.927864 ], [ -91.76611, 36.933904 ], [ -91.864458, 36.972425 ], [ -91.841425, 36.999642 ], [ -91.836903, 37.002745 ], [ -91.7221354, 37.0652345 ], [ -91.669001, 37.0489 ], [ -91.642142, 37.036638 ], [ -91.624392, 37.019471 ], [ -91.6144247, 36.989546 ], [ -91.6139036, 36.985750200000034 ], [ -91.6203863, 36.97481 ], [ -91.670984, 36.934502 ], [ -91.680059, 36.927864 ] ] ] } },
{ "type": "Feature", "properties": { "OBJECTID": 5046, "ID": "0016065616", "NAME": "COX MEDICAL CENTER BRANSON", "ADDRESS": "525 BRANSON LANDING BLVD, PO BOX 650", "CITY": "BRANSON", "STATE": "MO", "ZIP": "65616", "ZIP4": "NOT AVAILABLE", "TELEPHONE": "(417) 335-7000", "TYPE": "GENERAL ACUTE CARE", "STATUS": "OPEN", "POPULATION": 157, "COUNTY": "TANEY", "COUNTYFIPS": "29213", "COUNTRY": "USA", "LATITUDE": 36.650610079000003, "LONGITUDE": -93.22186944000001, "NAICS_CODE": "622110", "NAICS_DESC": "GENERAL MEDICAL AND SURGICAL HOSPITALS", "SOURCE": "http://health.mo.gov/safety/healthservregs/directories.php", "SOURCEDATE": "2018-08-09T00:00:00.000Z", "VAL_METHOD": "IMAGERY", "VAL_DATE": "2014-02-10T00:00:00.000Z", "WEBSITE": "www.coxhealth.com/", "STATE_ID": "H100", "ALT_NAME": "NOT AVAILABLE", "ST_FIPS": "29", "OWNER": "NON-PROFIT", "TTL_STAFF": -999, "BEDS": 157, "TRAUMA": "LEVEL II", "HELIPAD": "Y" }, "geometry": { "type": "Polygon", "coordinates": [ [ [ -93.2667605, 36.5556524 ], [ -93.3117875, 36.640043899999981 ], [ -93.3014226, 36.664887499999971 ], [ -93.2744327, 36.7271258 ], [ -93.251699, 36.76061 ], [ -93.2243391, 36.770159600000049 ], [ -93.2240285, 36.770206500000015 ], [ -93.1740326, 36.727152699999969 ], [ -93.141363, 36.625501 ], [ -93.141376, 36.624984 ], [ -93.155318, 36.614628 ], [ -93.206452400000018, 36.5787132 ], [ -93.25444, 36.557556 ], [ -93.2667605, 36.5556524 ] ] ] } },
{ "type": "Feature", "properties": { "OBJECTID": 5052, "ID": "0003265065", "NAME": "LAKE REGIONAL HEALTH SYSTEM", "ADDRESS": "54 HOSPITAL DRIVE", "CITY": "OSAGE BEACH", "STATE": "MO", "ZIP": "65065", "ZIP4": "NOT AVAILABLE", "TELEPHONE": "(573) 348-8000", "TYPE": "GENERAL ACUTE CARE", "STATUS": "OPEN", "POPULATION": 116, "COUNTY": "CAMDEN", "COUNTYFIPS": "29029", "COUNTRY": "USA", "LATITUDE": 38.120630587999997, "LONGITUDE": -92.683043486000003, "NAICS_CODE": "622110", "NAICS_DESC": "GENERAL MEDICAL AND SURGICAL HOSPITALS", "SOURCE": "http://health.mo.gov/safety/healthservregs/directories.php", "SOURCEDATE": "2018-08-09T00:00:00.000Z", "VAL_METHOD": "IMAGERY/OTHER", "VAL_DATE": "2014-02-10T00:00:00.000Z", "WEBSITE": "http://www.lakeregional.com", "STATE_ID": "H056", "ALT_NAME": "NOT AVAILABLE", "ST_FIPS": "29", "OWNER": "NON-PROFIT", "TTL_STAFF": -999, "BEDS": 116, "TRAUMA": "LEVEL III", "HELIPAD": "Y" }, "geometry": { "type": "Polygon", "coordinates": [ [ [ -92.696855, 38.008698199999955 ], [ -92.7377064, 38.0144335 ], [ -92.739036, 38.084722 ], [ -92.7341054, 38.145214900000028 ], [ -92.733892, 38.147226 ], [ -92.730479100000011, 38.1497826 ], [ -92.72601, 38.151121 ], [ -92.6276803, 38.171338 ], [ -92.58705, 38.176842 ], [ -92.5784627, 38.176906299999985 ], [ -92.5573754, 38.130545200000036 ], [ -92.5569967, 38.1294408 ], [ -92.5571429, 38.128870700000029 ], [ -92.696855, 38.008698199999955 ] ] ] } },
{ "type": "Feature", "properties": { "OBJECTID": 5335, "ID": "0012367361", "NAME": "SEDAN CITY HOSPITAL", "ADDRESS": "300 NORTH STREET", "CITY": "SEDAN", "STATE": "KS", "ZIP": "67361", "ZIP4": "NOT AVAILABLE", "TELEPHONE": "(620) 725-3115", "TYPE": "GENERAL ACUTE CARE", "STATUS": "OPEN", "POPULATION": 25, "COUNTY": "CHAUTAUQUA", "COUNTYFIPS": "20019", "COUNTRY": "USA", "LATITUDE": 37.133882219, "LONGITUDE": -96.189117916000001, "NAICS_CODE": "622110", "NAICS_DESC": "GENERAL MEDICAL AND SURGICAL HOSPITALS", "SOURCE": "http://www.kdheks.gov/bhfr/fac_list/", "SOURCEDATE": "2018-08-16T00:00:00.000Z", "VAL_METHOD": "IMAGERY", "VAL_DATE": "2014-02-10T00:00:00.000Z", "WEBSITE": "NOT AVAILABLE", "STATE_ID": "H010002", "ALT_NAME": "SEDAN CITY HOSPITAL", "ST_FIPS": "20", "OWNER": "GOVERNMENT - LOCAL", "TTL_STAFF": -999, "BEDS": 25, "TRAUMA": "NOT AVAILABLE", "HELIPAD": "Y" }, "geometry": { "type": "Polygon", "coordinates": [ [ [ -96.18161004296347, 37.034720253362316 ], [ -96.308578226964187, 37.113219174296773 ], [ -96.231861353069021, 37.169621558591942 ], [ -96.219140385412587, 37.171325564978218 ], [ -96.196174477935628, 37.166404555506766 ], [ -96.163430612953533, 37.157382542081855 ], [ -96.108723829198169, 37.140541531544528 ], [ -96.094386052281138, 37.078850454815196 ], [ -96.09451005377943, 37.078257453872418 ], [ -96.095829052977024, 37.077598451461085 ], [ -96.18161004296347, 37.034720253362316 ] ] ] } },
{ "type": "Feature", "properties": { "OBJECTID": 5389, "ID": "0000000074", "NAME": "PARSONS STATE HOSPITAL", "ADDRESS": "2601 GABRIEL AVENUE", "CITY": "PARSONS", "STATE": "KS", "ZIP": "67357", "ZIP4": "NOT AVAILABLE", "TELEPHONE": "(620) 820-5271", "TYPE": "GENERAL ACUTE CARE", "STATUS": "OPEN", "POPULATION": -999, "COUNTY": "LABETTE", "COUNTYFIPS": "20099", "COUNTRY": "USA", "LATITUDE": 37.351263043000102, "LONGITUDE": -95.280542260999894, "NAICS_CODE": "622110", "NAICS_DESC": "GENERAL MEDICAL AND SURGICAL HOSPITALS", "SOURCE": "http://www.kdheks.gov/bhfr/fac_list/", "SOURCEDATE": "2018-08-16T00:00:00.000Z", "VAL_METHOD": "IMAGERY/OTHER", "VAL_DATE": "2015-05-22T00:00:00.000Z", "WEBSITE": "http://www.kdads.ks.gov/Parsons/Parsons_Index.html", "STATE_ID": "NOT AVAILABLE", "ALT_NAME": "NOT AVAILABLE", "ST_FIPS": "20", "OWNER": "GOVERNMENT - STATE", "TTL_STAFF": -999, "BEDS": -999, "TRAUMA": "NOT AVAILABLE", "HELIPAD": "N" }, "geometry": { "type": "Polygon", "coordinates": [ [ [ -95.267223, 37.266732 ], [ -95.285327, 37.266861 ], [ -95.4125965, 37.34299 ], [ -95.341431, 37.384072 ], [ -95.27024, 37.413150200000018 ], [ -95.157978, 37.340202 ], [ -95.267223, 37.266732 ] ] ] } },
{ "type": "Feature", "properties": { "OBJECTID": 5540, "ID": "0000867337", "NAME": "COFFEYVILLE REGIONAL MEDICAL CENTER", "ADDRESS": "1400 W 4TH ST", "CITY": "COFFEYVILLE", "STATE": "KS", "ZIP": "67337", "ZIP4": "NOT AVAILABLE", "TELEPHONE": "(620) 252-1537", "TYPE": "GENERAL ACUTE CARE", "STATUS": "OPEN", "POPULATION": 88, "COUNTY": "MONTGOMERY", "COUNTYFIPS": "20125", "COUNTRY": "USA", "LATITUDE": 37.040993678000099, "LONGITUDE": -95.639427338000004, "NAICS_CODE": "622110", "NAICS_DESC": "GENERAL MEDICAL AND SURGICAL HOSPITALS", "SOURCE": "http://www.kdheks.gov/bhfr/fac_list/", "SOURCEDATE": "2018-08-16T00:00:00.000Z", "VAL_METHOD": "IMAGERY", "VAL_DATE": "2014-03-12T00:00:00.000Z", "WEBSITE": "http://www.crmcinc.com", "STATE_ID": "H063002", "ALT_NAME": "COFFEYVILLE REG MEDICAL CENTER", "ST_FIPS": "20", "OWNER": "NON-PROFIT", "TTL_STAFF": -999, "BEDS": 88, "TRAUMA": "NOT AVAILABLE", "HELIPAD": "Y" }, "geometry": { "type": "Polygon", "coordinates": [ [ [ -95.655883, 36.999333 ], [ -95.710287, 37.004256 ], [ -95.765314, 37.032822 ], [ -95.716723, 37.066008 ], [ -95.649018, 37.094329 ], [ -95.5867694, 37.10827 ], [ -95.5862015, 37.108103 ], [ -95.541109, 37.034585 ], [ -95.550125, 37.027349 ], [ -95.586874, 37.007881 ], [ -95.6203283, 36.999354199999978 ], [ -95.655883, 36.999333 ] ] ] } },
{ "type": "Feature", "properties": { "OBJECTID": 5638, "ID": "0001065101", "NAME": "ST. MARY'S HEALTH CENTER", "ADDRESS": "100 ST. MARY'S MEDICAL PLAZA", "CITY": "JEFFERSON CITY", "STATE": "MO", "ZIP": "65101", "ZIP4": "NOT AVAILABLE", "TELEPHONE": "(573) 761-7000", "TYPE": "GENERAL ACUTE CARE", "STATUS": "CLOSED", "POPULATION": 134, "COUNTY": "COLE", "COUNTYFIPS": "29051", "COUNTRY": "USA", "LATITUDE": 38.579244833000097, "LONGITUDE": -92.182748214, "NAICS_CODE": "622110", "NAICS_DESC": "GENERAL MEDICAL AND SURGICAL HOSPITALS", "SOURCE": "http://gis.dhss.mo.gov/Website/AGS_healthFacility/healthFacility.html", "SOURCEDATE": "2013-02-15T00:00:00.000Z", "VAL_METHOD": "IMAGERY/OTHER", "VAL_DATE": "2014-02-10T00:00:00.000Z", "WEBSITE": "http://www.lethealingbegin.com", "STATE_ID": "H128", "ALT_NAME": "NOT AVAILABLE", "ST_FIPS": "29", "OWNER": "NON-PROFIT", "TTL_STAFF": -999, "BEDS": 134, "TRAUMA": "NOT AVAILABLE", "HELIPAD": "Y" }, "geometry": { "type": "Polygon", "coordinates": [ [ [ -92.2784827, 38.4733235 ], [ -92.27979, 38.4734467 ], [ -92.3468474, 38.601311299999985 ], [ -92.3466744, 38.6015124 ], [ -92.2714295, 38.634091499999982 ], [ -92.2565273, 38.6323003 ], [ -92.234336, 38.626483399999941 ], [ -92.0719964, 38.5541438 ], [ -92.05019, 38.528742 ], [ -92.0393634, 38.515653700000016 ], [ -92.0400258, 38.513446200000047 ], [ -92.0408283, 38.512751500000022 ], [ -92.1755472, 38.4880679 ], [ -92.2784827, 38.4733235 ] ] ] } },
{ "type": "Feature", "properties": { "OBJECTID": 5653, "ID": "0008065536", "NAME": "MERCY HOSPITAL LEBANON", "ADDRESS": "100 HOSPITAL DRIVE", "CITY": "LEBANON", "STATE": "MO", "ZIP": "65536", "ZIP4": "NOT AVAILABLE", "TELEPHONE": "(417) 533-6100", "TYPE": "GENERAL ACUTE CARE", "STATUS": "OPEN", "POPULATION": 58, "COUNTY": "LACLEDE", "COUNTYFIPS": "29105", "COUNTRY": "USA", "LATITUDE": 37.681277526000002, "LONGITUDE": -92.633946236, "NAICS_CODE": "622110", "NAICS_DESC": "GENERAL MEDICAL AND SURGICAL HOSPITALS", "SOURCE": "http://health.mo.gov/safety/healthservregs/directories.php", "SOURCEDATE": "2018-08-09T00:00:00.000Z", "VAL_METHOD": "IMAGERY/OTHER", "VAL_DATE": "2014-02-10T00:00:00.000Z", "WEBSITE": "https://www.mercy.net/practice/mercy-hospital-lebanon/", "STATE_ID": "H013", "ALT_NAME": "NOT AVAILABLE", "ST_FIPS": "29", "OWNER": "NON-PROFIT", "TTL_STAFF": -999, "BEDS": 58, "TRAUMA": "NOT AVAILABLE", "HELIPAD": "Y" }, "geometry": { "type": "Polygon", "coordinates": [ [ [ -92.7473754, 37.583900500000034 ], [ -92.7445831, 37.692986500000018 ], [ -92.6741765, 37.757511900000026 ], [ -92.61099, 37.782555 ], [ -92.502597, 37.760505 ], [ -92.501333, 37.754046 ], [ -92.531154, 37.664982 ], [ -92.649429, 37.589367 ], [ -92.7226821, 37.5835428 ], [ -92.7473754, 37.583900500000034 ] ] ] } },
{ "type": "Feature", "properties": { "OBJECTID": 5664, "ID": "0008265605", "NAME": "MERCY HOSPITAL AURORA", "ADDRESS": "500 S PORTER AVENUE", "CITY": "AURORA", "STATE": "MO", "ZIP": "65605", "ZIP4": "NOT AVAILABLE", "TELEPHONE": "(417) 678-2122", "TYPE": "CRITICAL ACCESS", "STATUS": "OPEN", "POPULATION": 53, "COUNTY": "LAWRENCE", "COUNTYFIPS": "29109", "COUNTRY": "USA", "LATITUDE": 36.969814975000098, "LONGITUDE": -93.710106482, "NAICS_CODE": "622110", "NAICS_DESC": "GENERAL MEDICAL AND SURGICAL HOSPITALS", "SOURCE": "http://health.mo.gov/safety/healthservregs/directories.php", "SOURCEDATE": "2018-08-09T00:00:00.000Z", "VAL_METHOD": "IMAGERY/OTHER", "VAL_DATE": "2014-02-10T00:00:00.000Z", "WEBSITE": "https://www.mercy.net/auroramo", "STATE_ID": "H003", "ALT_NAME": "NOT AVAILABLE", "ST_FIPS": "29", "OWNER": "NON-PROFIT", "TTL_STAFF": -999, "BEDS": 53, "TRAUMA": "NOT AVAILABLE", "HELIPAD": "Y" }, "geometry": { "type": "Polygon", "coordinates": [ [ [ -93.679478, 36.904733 ], [ -93.6840527, 36.90488380000005 ], [ -93.747229, 36.9115 ], [ -93.809321, 36.93446 ], [ -93.809828, 36.935073 ], [ -93.809755, 36.938775 ], [ -93.799529, 36.98856 ], [ -93.789237, 37.03435 ], [ -93.783275, 37.041543 ], [ -93.717192, 37.049391 ], [ -93.628018, 37.024812 ], [ -93.609932, 37.018931 ], [ -93.586532, 36.99552 ], [ -93.609115, 36.964519 ], [ -93.6656845, 36.913291699999974 ], [ -93.679478, 36.904733 ] ] ] } },
{ "type": "Feature", "properties": { "OBJECTID": 5665, "ID": "0008365712", "NAME": "MISSOURI REHABILITATION CENTER", "ADDRESS": "600 NORTH MAIN MT.", "CITY": "MOUNT VERNON", "STATE": "MO", "ZIP": "65712", "ZIP4": "NOT AVAILABLE", "TELEPHONE": "(417) 466-3711", "TYPE": "REHABILITATION", "STATUS": "CLOSED", "POPULATION": 79, "COUNTY": "LAWRENCE", "COUNTYFIPS": "29109", "COUNTRY": "USA", "LATITUDE": 37.111391703000002, "LONGITUDE": -93.821125283000001, "NAICS_CODE": "622310", "NAICS_DESC": "REHABILITATION HOSPITALS (EXCEPT ALCOHOLISM, DRUG ADDICTION)", "SOURCE": "http://gis.dhss.mo.gov/Website/AGS_healthFacility/healthFacility.html", "SOURCEDATE": "2013-02-15T00:00:00.000Z", "VAL_METHOD": "IMAGERY/OTHER", "VAL_DATE": "2013-09-25T00:00:00.000Z", "WEBSITE": "http://www.muhealth.org/mrcrehab", "STATE_ID": "H153", "ALT_NAME": "NOT AVAILABLE", "ST_FIPS": "29", "OWNER": "GOVERNMENT - STATE", "TTL_STAFF": -999, "BEDS": 79, "TRAUMA": "NOT AVAILABLE", "HELIPAD": "Y" }, "geometry": { "type": "Polygon", "coordinates": [ [ [ -93.783275, 37.041543 ], [ -93.946915, 37.075012 ], [ -93.873052, 37.18969849999997 ], [ -93.8451977, 37.217197400000025 ], [ -93.844599, 37.217173 ], [ -93.721004, 37.139967 ], [ -93.708818, 37.114308 ], [ -93.75211, 37.06462 ], [ -93.783275, 37.041543 ] ] ] } },
{ "type": "Feature", "properties": { "OBJECTID": 5666, "ID": "0003864744", "NAME": "SOUTHWEST MISSOURI PSYCHIATRIC REHABILITATION CT", "ADDRESS": "1301 INDUSTRIAL PARKWAY EAST EL", "CITY": "EL DORADO SPRINGS", "STATE": "MO", "ZIP": "64744", "ZIP4": "NOT AVAILABLE", "TELEPHONE": "(417) 876-1000", "TYPE": "PSYCHIATRIC", "STATUS": "CLOSED", "POPULATION": 16, "COUNTY": "CEDAR", "COUNTYFIPS": "29039", "COUNTRY": "USA", "LATITUDE": 37.861377628000099, "LONGITUDE": -93.997059513999901, "NAICS_CODE": "622210", "NAICS_DESC": "HOSPITALS, PSYCHIATRIC (EXCEPT CONVALESCENT)", "SOURCE": "http://gis.dhss.mo.gov/Website/AGS_healthFacility/healthFacility.html", "SOURCEDATE": "2013-02-15T00:00:00.000Z", "VAL_METHOD": "IMAGERY/OTHER", "VAL_DATE": "2014-02-10T00:00:00.000Z", "WEBSITE": "http://dmh.mo.gov/swmprc/", "STATE_ID": "P006", "ALT_NAME": "NOT AVAILABLE", "ST_FIPS": "29", "OWNER": "GOVERNMENT - STATE", "TTL_STAFF": -999, "BEDS": 16, "TRAUMA": "NOT AVAILABLE", "HELIPAD": "N" }, "geometry": { "type": "Polygon", "coordinates": [ [ [ -94.027143, 37.76163 ], [ -94.0692243, 37.842788 ], [ -94.0680546, 37.8636513 ], [ -94.061115, 37.900819 ], [ -94.042301, 37.907722 ], [ -93.881776, 37.894876 ], [ -93.8365, 37.884813 ], [ -93.875664, 37.843997 ], [ -93.994664, 37.767867 ], [ -94.027143, 37.76163 ] ] ] } },
{ "type": "Feature", "properties": { "OBJECTID": 3138, "ID": "0002365804", "NAME": "SELECT SPECIALTY HOSPITAL - SPRINGFIELD", "ADDRESS": "1630 EAST PRIMROSE STREET", "CITY": "SPRINGFIELD", "STATE": "MO", "ZIP": "65804", "ZIP4": "NOT AVAILABLE", "TELEPHONE": "(417) 885-4700", "TYPE": "LONG TERM CARE", "STATUS": "OPEN", "POPULATION": 44, "COUNTY": "GREENE", "COUNTYFIPS": "29077", "COUNTRY": "USA", "LATITUDE": 37.146439344000001, "LONGITUDE": -93.266518515000001, "NAICS_CODE": "622310", "NAICS_DESC": "SPECIALTY (EXCEPT PSYCHIATRIC AND SUBSTANCE ABUSE) HOSPITALS", "SOURCE": "http://health.mo.gov/safety/healthservregs/directories.php", "SOURCEDATE": "2018-08-09T00:00:00.000Z", "VAL_METHOD": "IMAGERY", "VAL_DATE": "2014-02-10T00:00:00.000Z", "WEBSITE": "http://www.selectspecialtyhospitals.com/company/locations/springfield.aspx", "STATE_ID": "H170", "ALT_NAME": "NOT AVAILABLE", "ST_FIPS": "29", "OWNER": "PROPRIETARY", "TTL_STAFF": -999, "BEDS": 44, "TRAUMA": "NOT AVAILABLE", "HELIPAD": "N" }, "geometry": { "type": "Polygon", "coordinates": [ [ [ -93.2296173, 37.092158800000021 ], [ -93.26856, 37.093755 ], [ -93.3252708, 37.098346600000028 ], [ -93.3701607, 37.118402800000041 ], [ -93.413178799999983, 37.153952199999978 ], [ -93.4134104, 37.154208899999986 ], [ -93.3953257, 37.1688161 ], [ -93.2611573, 37.2362234 ], [ -93.2250608, 37.227992799999967 ], [ -93.123878, 37.118758300000025 ], [ -93.1887562, 37.09129779999995 ], [ -93.191082, 37.091291 ], [ -93.2296173, 37.092158800000021 ] ] ] } }
]
}
