{
"type": "FeatureCollection",
"crs": { "type": "name", "properties": { "name": "urn:ogc:def:crs:OGC:1.3:CRS84" } },
"features": [
{ "type": "Feature", "properties": { "OBJECTID": 1079, "ID": "0015354449", "NAME": "MINISTRY SAINT JOSEPHS HOSPITAL", "ADDRESS": "611 ST JOSEPH AVE", "CITY": "MARSHFIELD", "STATE": "WI", "ZIP": "54449", "ZIP4": "NOT AVAILABLE", "TELEPHONE": "(715) 387-7850", "TYPE": "GENERAL ACUTE CARE", "STATUS": "OPEN", "POPULATION": 504, "COUNTY": "WOOD", "COUNTYFIPS": "55141", "COUNTRY": "USA", "LATITUDE": 44.677262097000003, "LONGITUDE": -90.178741800999902, "NAICS_CODE": "622110", "NAICS_DESC": "GENERAL MEDICAL AND SURGICAL HOSPITALS", "SOURCE": "https://www.dhs.wisconsin.gov/guide/hospital.htm", "SOURCEDATE": "2018-08-13T00:00:00.000Z", "VAL_METHOD": "IMAGERY", "VAL_DATE": "2014-03-12T00:00:00.000Z", "WEBSITE": "http://www.stjosephs-marshfield.org", "STATE_ID": "51", "ALT_NAME": "NOT AVAILABLE", "ST_FIPS": "55", "OWNER": "NON-PROFIT", "TTL_STAFF": -999, "BEDS": 504, "TRAUMA": "LEVEL II", "HELIPAD": "Y" }, "geometry": { "type": "Polygon", "coordinates": [ [ [ -90.1808604, 44.5838497 ], [ -90.279306, 44.656296700000013 ], [ -90.298991, 44.677766 ], [ -90.2992101, 44.685265400000048 ], [ -90.2836673, 44.747114499999981 ], [ -90.2835028, 44.747222800000031 ], [ -90.170189100000016, 44.757468799999977 ], [ -90.076449, 44.743062700000031 ], [ -90.045403, 44.6702364 ], [ -90.0799384, 44.6251095 ], [ -90.1200265, 44.597529 ], [ -90.1404985, 44.583651 ], [ -90.1808604, 44.5838497 ] ] ] } },
{ "type": "Feature", "properties": { "OBJECTID": 1882, "ID": "0001450401", "NAME": "NORTH IOWA MEDICAL CENTER WEST CAMPUS", "ADDRESS": "910 NORTH EISENHOWER AVENUE", "CITY": "MASON CITY", "STATE": "IA", "ZIP": "50401", "ZIP4": "NOT AVAILABLE", "TELEPHONE": "(515) 424-0440", "TYPE": "GENERAL ACUTE CARE", "STATUS": "OPEN", "POPULATION": 240, "COUNTY": "CERRO GORDO", "COUNTYFIPS": "19033", "COUNTRY": "USA", "LATITUDE": 43.155560321000102, "LONGITUDE": -93.264376537000004, "NAICS_CODE": "622110", "NAICS_DESC": "GENERAL MEDICAL AND SURGICAL HOSPITALS", "SOURCE": "https://dia-hfd.iowa.gov/DIA_HFD/CTLEntitySearch.do", "SOURCEDATE": "2018-08-09T00:00:00.000Z", "VAL_METHOD": "IMAGERY/OTHER", "VAL_DATE": "2016-04-19T00:00:00.000Z", "WEBSITE": "http://www.mercynorthiowa.com", "STATE_ID": "NOT AVAILABLE", "ALT_NAME": "NOT AVAILABLE", "ST_FIPS": "19", "OWNER": "NON-PROFIT", "TTL_STAFF": -999, "BEDS": 240, "TRAUMA": "NOT AVAILABLE", "HELIPAD": "N" }, "geometry": { "type": "Polygon", "coordinates": [ [ [ -93.2806755, 43.065129899999974 ], [ -93.34332, 43.072713599999979 ], [ -93.4231316, 43.1380311 ], [ -93.4240938, 43.139510499999986 ], [ -93.4150316, 43.150053 ], [ -93.3496164, 43.205890299999972 ], [ -93.299899899999986, 43.2218961 ], [ -93.2108552, 43.212832 ], [ -93.1418777, 43.16251769999996 ], [ -93.132452, 43.148158100000039 ], [ -93.2012666, 43.066690199999968 ], [ -93.2806755, 43.065129899999974 ] ] ] } },
{ "type": "Feature", "properties": { "OBJECTID": 1979, "ID": "0002654456", "NAME": "MEMORIAL MEDICAL CTR", "ADDRESS": "216 SUNSET PLACE", "CITY": "NEILLSVILLE", "STATE": "WI", "ZIP": "54456", "ZIP4": "NOT AVAILABLE", "TELEPHONE": "(715) 743-3101", "TYPE": "GENERAL ACUTE CARE", "STATUS": "OPEN", "POPULATION": 25, "COUNTY": "CLARK", "COUNTYFIPS": "55019", "COUNTRY": "USA", "LATITUDE": 44.557886709000101, "LONGITUDE": -90.607874937000005, "NAICS_CODE": "622110", "NAICS_DESC": "GENERAL MEDICAL AND SURGICAL HOSPITALS", "SOURCE": "https://www.dhs.wisconsin.gov/guide/hospital.htm", "SOURCEDATE": "2018-08-13T00:00:00.000Z", "VAL_METHOD": "IMAGERY", "VAL_DATE": "2014-02-10T00:00:00.000Z", "WEBSITE": "http://www.memorialmedcenter.org", "STATE_ID": "1026", "ALT_NAME": "NOT AVAILABLE", "ST_FIPS": "55", "OWNER": "NON-PROFIT", "TTL_STAFF": -999, "BEDS": 25, "TRAUMA": "NOT AVAILABLE", "HELIPAD": "Y" }, "geometry": { "type": "Polygon", "coordinates": [ [ [ -90.604258992105343, 44.478758477450747 ], [ -90.619338020759301, 44.479941473155471 ], [ -90.740157, 44.571164 ], [ -90.741103, 44.580835 ], [ -90.596427257748331, 44.647260453754697 ], [ -90.527495076996203, 44.612721484503147 ], [ -90.466324873724673, 44.552853604421202 ], [ -90.537361923726166, 44.494742495624791 ], [ -90.58897896995299, 44.479933481505107 ], [ -90.604258992105343, 44.478758477450747 ] ] ] } },
{ "type": "Feature", "properties": { "OBJECTID": 1984, "ID": "0004854615", "NAME": "BLACK RIVER MEM HSPTL", "ADDRESS": "711 W ADAMS ST", "CITY": "BLACK RIVER FALLS", "STATE": "WI", "ZIP": "54615", "ZIP4": "NOT AVAILABLE", "TELEPHONE": "(715) 284-5361", "TYPE": "GENERAL ACUTE CARE", "STATUS": "OPEN", "POPULATION": 25, "COUNTY": "JACKSON", "COUNTYFIPS": "55053", "COUNTRY": "USA", "LATITUDE": 44.303241097000097, "LONGITUDE": -90.855151436, "NAICS_CODE": "622110", "NAICS_DESC": "GENERAL MEDICAL AND SURGICAL HOSPITALS", "SOURCE": "https://www.dhs.wisconsin.gov/guide/hospital.htm", "SOURCEDATE": "2018-08-13T00:00:00.000Z", "VAL_METHOD": "IMAGERY", "VAL_DATE": "2014-03-12T00:00:00.000Z", "WEBSITE": "http://www.brmh.net", "STATE_ID": "1037", "ALT_NAME": "NOT AVAILABLE", "ST_FIPS": "55", "OWNER": "NON-PROFIT", "TTL_STAFF": -999, "BEDS": 25, "TRAUMA": "LEVEL IV", "HELIPAD": "Y" }, "geometry": { "type": "Polygon", "coordinates": [ [ [ -90.835121, 44.200019 ], [ -90.8948893, 44.209193900000031 ], [ -90.8959991, 44.20938749999997 ], [ -90.924478, 44.232283 ], [ -90.9657913, 44.2727619 ], [ -90.9366042, 44.329838399999964 ], [ -90.9090677, 44.3788957 ], [ -90.8221864, 44.392390400000032 ], [ -90.7814371, 44.376322399999964 ], [ -90.738755943817978, 44.334759993674886 ], [ -90.710228845903757, 44.230358524820957 ], [ -90.834449, 44.2001724 ], [ -90.835121, 44.200019 ] ] ] } },
{ "type": "Feature", "properties": { "OBJECTID": 1994, "ID": "0012854758", "NAME": "MAYO CLINIC HEALTH SYSTEM-OAKRIDGE INC", "ADDRESS": "13025 8TH ST, PO BOX 70", "CITY": "OSSEO", "STATE": "WI", "ZIP": "54758", "ZIP4": "NOT AVAILABLE", "TELEPHONE": "(715) 597-3121", "TYPE": "GENERAL ACUTE CARE", "STATUS": "OPEN", "POPULATION": 18, "COUNTY": "TREMPEALEAU", "COUNTYFIPS": "55121", "COUNTRY": "USA", "LATITUDE": 44.5779668260001, "LONGITUDE": -91.213177016000003, "NAICS_CODE": "622110", "NAICS_DESC": "GENERAL MEDICAL AND SURGICAL HOSPITALS", "SOURCE": "https://www.dhs.wisconsin.gov/guide/hospital.htm", "SOURCEDATE": "2018-08-13T00:00:00.000Z", "VAL_METHOD": "IMAGERY", "VAL_DATE": "2014-03-12T00:00:00.000Z", "WEBSITE": "http://mayoclinichealthsystem.org/locations/osseo", "STATE_ID": "1003", "ALT_NAME": "NOT AVAILABLE", "ST_FIPS": "55", "OWNER": "NON-PROFIT", "TTL_STAFF": -999, "BEDS": 18, "TRAUMA": "LEVEL IV", "HELIPAD": "Y" }, "geometry": { "type": "Polygon", "coordinates": [ [ [ -91.214847, 44.469257 ], [ -91.252762, 44.4861596 ], [ -91.362351, 44.560925 ], [ -91.362406, 44.561895 ], [ -91.3064575, 44.610846 ], [ -91.165691100000018, 44.663680100000022 ], [ -91.140307, 44.632854 ], [ -91.119767900000014, 44.596621 ], [ -91.118949300000011, 44.585346900000019 ], [ -91.119095, 44.567678 ], [ -91.189019, 44.486553 ], [ -91.214847, 44.469257 ] ] ] } },
{ "type": "Feature", "properties": { "OBJECTID": 2023, "ID": "0093950616", "NAME": "FLOYD COUNTY MEMORIAL HOSPITAL", "ADDRESS": "800 11TH ST", "CITY": "CHARLES CITY", "STATE": "IA", "ZIP": "50616", "ZIP4": "NOT AVAILABLE", "TELEPHONE": "(641) 228-6830", "TYPE": "CRITICAL ACCESS", "STATUS": "OPEN", "POPULATION": 25, "COUNTY": "FLOYD", "COUNTYFIPS": "19067", "COUNTRY": "USA", "LATITUDE": 43.051454645, "LONGITUDE": -92.683643714, "NAICS_CODE": "622110", "NAICS_DESC": "GENERAL MEDICAL AND SURGICAL HOSPITALS", "SOURCE": "https://dia-hfd.iowa.gov/DIA_HFD/CTLEntitySearch.do", "SOURCEDATE": "2018-08-09T00:00:00.000Z", "VAL_METHOD": "IMAGERY/OTHER", "VAL_DATE": "2016-04-15T00:00:00.000Z", "WEBSITE": "http://www.fcmc.us.com/", "STATE_ID": "NOT AVAILABLE", "ALT_NAME": "NOT AVAILABLE", "ST_FIPS": "19", "OWNER": "GOVERNMENT - LOCAL", "TTL_STAFF": -999, "BEDS": 25, "TRAUMA": "LEVEL IV", "HELIPAD": "Y" }, "geometry": { "type": "Polygon", "coordinates": [ [ [ -92.672813, 42.936232 ], [ -92.810272, 43.052825 ], [ -92.810227, 43.05926 ], [ -92.810101, 43.067396 ], [ -92.7483442, 43.138093800000021 ], [ -92.746812, 43.138986 ], [ -92.7323557, 43.141519100000039 ], [ -92.653548, 43.133948 ], [ -92.54454, 43.065883 ], [ -92.5570285, 42.965298 ], [ -92.672813, 42.936232 ] ] ] } },
{ "type": "Feature", "properties": { "OBJECTID": 2034, "ID": "0004850501", "NAME": "TRINITY REGIONAL HOSPITAL", "ADDRESS": "802 SOUTH KENYON ROAD", "CITY": "FORT DODGE", "STATE": "IA", "ZIP": "50501", "ZIP4": "NOT AVAILABLE", "TELEPHONE": "(515) 573-3101", "TYPE": "GENERAL ACUTE CARE", "STATUS": "OPEN", "POPULATION": 200, "COUNTY": "WEBSTER", "COUNTYFIPS": "19187", "COUNTRY": "USA", "LATITUDE": 42.492210174999997, "LONGITUDE": -94.192179572000001, "NAICS_CODE": "622110", "NAICS_DESC": "GENERAL MEDICAL AND SURGICAL HOSPITALS", "SOURCE": "https://dia-hfd.iowa.gov/DIA_HFD/CTLEntitySearch.do", "SOURCEDATE": "2018-08-09T00:00:00.000Z", "VAL_METHOD": "IMAGERY/OTHER", "VAL_DATE": "2016-04-15T00:00:00.000Z", "WEBSITE": "http://www.unitypoint.org/fortdodge/Default.aspx", "STATE_ID": "NOT AVAILABLE", "ALT_NAME": "NOT AVAILABLE", "ST_FIPS": "19", "OWNER": "NON-PROFIT", "TTL_STAFF": -999, "BEDS": 200, "TRAUMA": "LEVEL III", "HELIPAD": "Y" }, "geometry": { "type": "Polygon", "coordinates": [ [ [ -94.184055, 42.398261 ], [ -94.300358, 42.440123 ], [ -94.3199038, 42.455847399999982 ], [ -94.3050797, 42.516197100000014 ], [ -94.230231, 42.594352 ], [ -94.178141, 42.57248 ], [ -94.1486833, 42.5580004 ], [ -94.089839, 42.501171 ], [ -94.1173765, 42.4501681 ], [ -94.147205, 42.42362 ], [ -94.184055, 42.398261 ] ] ] } },
{ "type": "Feature", "properties": { "OBJECTID": 2035, "ID": "0094650126", "NAME": "HANSEN FAMILY HOSPITAL", "ADDRESS": "920 SOUTH OAK STREET", "CITY": "IOWA FALLS", "STATE": "IA", "ZIP": "50126", "ZIP4": "NOT AVAILABLE", "TELEPHONE": "(641) 648-4631", "TYPE": "CRITICAL ACCESS", "STATUS": "OPEN", "POPULATION": 35, "COUNTY": "HARDIN", "COUNTYFIPS": "19083", "COUNTRY": "USA", "LATITUDE": 42.500695753000102, "LONGITUDE": -93.260686555999897, "NAICS_CODE": "622110", "NAICS_DESC": "GENERAL MEDICAL AND SURGICAL HOSPITALS", "SOURCE": "https://dia-hfd.iowa.gov/DIA_HFD/CTLEntitySearch.do", "SOURCEDATE": "2018-08-09T00:00:00.000Z", "VAL_METHOD": "IMAGERY", "VAL_DATE": "2016-04-15T00:00:00.000Z", "WEBSITE": "http://www.hansenfamilyhospital.com/", "STATE_ID": "NOT AVAILABLE", "ALT_NAME": "NOT AVAILABLE", "ST_FIPS": "19", "OWNER": "NOT AVAILABLE", "TTL_STAFF": -999, "BEDS": 35, "TRAUMA": "NOT AVAILABLE", "HELIPAD": "Y" }, "geometry": { "type": "Polygon", "coordinates": [ [ [ -93.2611237, 42.397469 ], [ -93.3792941, 42.44789549999998 ], [ -93.3749018, 42.5142136 ], [ -93.311302, 42.56457 ], [ -93.2619943, 42.586161800000028 ], [ -93.1997574, 42.55700420000003 ], [ -93.1644825, 42.521843 ], [ -93.1924136, 42.4553692 ], [ -93.2031687, 42.43364960000001 ], [ -93.2044911, 42.431735 ], [ -93.2057913, 42.430768300000032 ], [ -93.251403900000014, 42.397468400000015 ], [ -93.2611237, 42.397469 ] ] ] } },
{ "type": "Feature", "properties": { "OBJECTID": 2302, "ID": "0001650536", "NAME": "PALO ALTO COUNTY HOSPITAL", "ADDRESS": "3201 1ST STREET", "CITY": "EMMETSBURG", "STATE": "IA", "ZIP": "50536", "ZIP4": "NOT AVAILABLE", "TELEPHONE": "(712) 852-5500", "TYPE": "GENERAL ACUTE CARE", "STATUS": "OPEN", "POPULATION": 47, "COUNTY": "PALO ALTO", "COUNTYFIPS": "19147", "COUNTRY": "USA", "LATITUDE": 43.120193797000098, "LONGITUDE": -94.691241293000004, "NAICS_CODE": "622110", "NAICS_DESC": "GENERAL MEDICAL AND SURGICAL HOSPITALS", "SOURCE": "https://dia-hfd.iowa.gov/DIA_HFD/CTLEntitySearch.do", "SOURCEDATE": "2018-08-09T00:00:00.000Z", "VAL_METHOD": "IMAGERY/OTHER", "VAL_DATE": "2016-04-18T00:00:00.000Z", "WEBSITE": "http://www.pachs.com", "STATE_ID": "NOT AVAILABLE", "ALT_NAME": "NOT AVAILABLE", "ST_FIPS": "19", "OWNER": "GOVERNMENT - LOCAL", "TTL_STAFF": -999, "BEDS": 47, "TRAUMA": "LEVEL IV", "HELIPAD": "Y" }, "geometry": { "type": "Polygon", "coordinates": [ [ [ -94.678736, 43.024173 ], [ -94.737829, 43.067458 ], [ -94.757734, 43.083093 ], [ -94.797047, 43.126406 ], [ -94.773518, 43.156317 ], [ -94.757571, 43.169173 ], [ -94.678817, 43.212614 ], [ -94.560393, 43.111956 ], [ -94.678736, 43.024173 ] ] ] } },
{ "type": "Feature", "properties": { "OBJECTID": 2766, "ID": "0001154768", "NAME": "OUR LADY OF VICTORY HSPTL", "ADDRESS": "1120 PINE ST", "CITY": "STANLEY", "STATE": "WI", "ZIP": "54768", "ZIP4": "NOT AVAILABLE", "TELEPHONE": "(715) 644-5571", "TYPE": "GENERAL ACUTE CARE", "STATUS": "OPEN", "POPULATION": 24, "COUNTY": "CLARK", "COUNTYFIPS": "55019", "COUNTRY": "USA", "LATITUDE": 44.953582087000001, "LONGITUDE": -90.918899754999998, "NAICS_CODE": "622110", "NAICS_DESC": "GENERAL MEDICAL AND SURGICAL HOSPITALS", "SOURCE": "https://www.dhs.wisconsin.gov/guide/hospital.htm", "SOURCEDATE": "2018-08-13T00:00:00.000Z", "VAL_METHOD": "IMAGERY", "VAL_DATE": "2014-02-10T00:00:00.000Z", "WEBSITE": "http://www.ministryhealth.org", "STATE_ID": "1013", "ALT_NAME": "NOT AVAILABLE", "ST_FIPS": "55", "OWNER": "NON-PROFIT", "TTL_STAFF": -999, "BEDS": 24, "TRAUMA": "LEVEL IV", "HELIPAD": "Y" }, "geometry": { "type": "Polygon", "coordinates": [ [ [ -90.942599, 44.879213 ], [ -91.066356, 44.929982 ], [ -91.0660171, 44.936080799999985 ], [ -91.0660024, 44.9363112 ], [ -91.065153, 44.944357 ], [ -90.984148, 45.002207 ], [ -90.933327, 45.031101 ], [ -90.739911, 44.952011 ], [ -90.739902, 44.951773 ], [ -90.800395, 44.929838 ], [ -90.942599, 44.879213 ] ] ] } },
{ "type": "Feature", "properties": { "OBJECTID": 2776, "ID": "0008854660", "NAME": "TOMAH MEM HSPTL", "ADDRESS": "321 BUTTS AVE", "CITY": "TOMAH", "STATE": "WI", "ZIP": "54660", "ZIP4": "NOT AVAILABLE", "TELEPHONE": "(608) 372-2181", "TYPE": "GENERAL ACUTE CARE", "STATUS": "OPEN", "POPULATION": 25, "COUNTY": "MONROE", "COUNTYFIPS": "55081", "COUNTRY": "USA", "LATITUDE": 43.984000736, "LONGITUDE": -90.5153532799999, "NAICS_CODE": "622110", "NAICS_DESC": "GENERAL MEDICAL AND SURGICAL HOSPITALS", "SOURCE": "https://www.dhs.wisconsin.gov/guide/hospital.htm", "SOURCEDATE": "2018-08-13T00:00:00.000Z", "VAL_METHOD": "IMAGERY", "VAL_DATE": "2014-03-12T00:00:00.000Z", "WEBSITE": "http://www.tomahhospital.org", "STATE_ID": "1023", "ALT_NAME": "NOT AVAILABLE", "ST_FIPS": "55", "OWNER": "NON-PROFIT", "TTL_STAFF": -999, "BEDS": 25, "TRAUMA": "LEVEL IV", "HELIPAD": "Y" }, "geometry": { "type": "Polygon", "coordinates": [ [ [ -90.481635188801548, 43.887938488640934 ], [ -90.546307068262053, 43.899263042229542 ], [ -90.616995158317408, 43.938668295982808 ], [ -90.623717343812089, 44.008472474748515 ], [ -90.526459603571624, 44.073021502192297 ], [ -90.505331534134172, 44.082192290044603 ], [ -90.412902, 44.033688699999956 ], [ -90.3722379, 43.965666300000038 ], [ -90.3724142, 43.963448 ], [ -90.3769044, 43.958606400000015 ], [ -90.481635188801548, 43.887938488640934 ] ] ] } },
{ "type": "Feature", "properties": { "OBJECTID": 2786, "ID": "0012654451", "NAME": "MEMORIAL HEALTH CENTER CLINICS", "ADDRESS": "143 S GIBSON ST", "CITY": "MEDFORD", "STATE": "WI", "ZIP": "54451", "ZIP4": "NOT AVAILABLE", "TELEPHONE": "(715) 748-8100", "TYPE": "GENERAL ACUTE CARE", "STATUS": "CLOSED", "POPULATION": 124, "COUNTY": "TAYLOR", "COUNTYFIPS": "55119", "COUNTRY": "USA", "LATITUDE": 45.135088942000003, "LONGITUDE": -90.356140045999993, "NAICS_CODE": "622110", "NAICS_DESC": "GENERAL MEDICAL AND SURGICAL HOSPITALS", "SOURCE": "http://www.dhs.wisconsin.gov/bqaconsumer/healthcare/HospitalCty.pdf", "SOURCEDATE": "2013-07-10T00:00:00.000Z", "VAL_METHOD": "IMAGERY", "VAL_DATE": "2014-03-12T00:00:00.000Z", "WEBSITE": "http://www.memhc.com", "STATE_ID": "1027", "ALT_NAME": "NOT AVAILABLE", "ST_FIPS": "55", "OWNER": "NON-PROFIT", "TTL_STAFF": -999, "BEDS": 124, "TRAUMA": "NOT AVAILABLE", "HELIPAD": "Y" }, "geometry": { "type": "Polygon", "coordinates": [ [ [ -90.3147651, 45.062598699999953 ], [ -90.376003, 45.075746 ], [ -90.494385976584695, 45.130220511403387 ], [ -90.49443307396939, 45.132786410906164 ], [ -90.45386373233552, 45.161497205567336 ], [ -90.3737067, 45.205844499999948 ], [ -90.3088628, 45.22915 ], [ -90.2109848, 45.144175899999986 ], [ -90.304447, 45.070025 ], [ -90.3147651, 45.062598699999953 ] ] ] } },
{ "type": "Feature", "properties": { "OBJECTID": 2802, "ID": "0002150659", "NAME": "MERCY MEDICAL CENTER-NEW HAMPTON", "ADDRESS": "308 NORTH MAPLE AVENUE", "CITY": "NEW HAMPTON", "STATE": "IA", "ZIP": "50659", "ZIP4": "NOT AVAILABLE", "TELEPHONE": "(641) 394-4121", "TYPE": "CRITICAL ACCESS", "STATUS": "OPEN", "POPULATION": 18, "COUNTY": "CHICKASAW", "COUNTYFIPS": "19037", "COUNTRY": "USA", "LATITUDE": 43.062713031999998, "LONGITUDE": -92.321544287999998, "NAICS_CODE": "622110", "NAICS_DESC": "GENERAL MEDICAL AND SURGICAL HOSPITALS", "SOURCE": "https://dia-hfd.iowa.gov/DIA_HFD/CTLEntitySearch.do", "SOURCEDATE": "2018-08-09T00:00:00.000Z", "VAL_METHOD": "IMAGERY", "VAL_DATE": "2016-04-15T00:00:00.000Z", "WEBSITE": "http://www.mercynewhampton.com", "STATE_ID": "NOT AVAILABLE", "ALT_NAME": "NOT AVAILABLE", "ST_FIPS": "19", "OWNER": "NON-PROFIT", "TTL_STAFF": -999, "BEDS": 18, "TRAUMA": "LEVEL IV", "HELIPAD": "Y" }, "geometry": { "type": "Polygon", "coordinates": [ [ [ -92.317709, 42.950756 ], [ -92.436743, 43.034768 ], [ -92.475619, 43.066737 ], [ -92.298741, 43.169207 ], [ -92.19058, 43.074121 ], [ -92.190429, 43.066825 ], [ -92.214135, 43.037419 ], [ -92.290573, 42.965249 ], [ -92.3172935, 42.9507638 ], [ -92.317709, 42.950756 ] ] ] } },
{ "type": "Feature", "properties": { "OBJECTID": 6389, "ID": "0095652172", "NAME": "VETERANS MEMORIAL HOSPITAL", "ADDRESS": "40 1ST STREET SE", "CITY": "WAUKON", "STATE": "IA", "ZIP": "52172", "ZIP4": "NOT AVAILABLE", "TELEPHONE": "(563) 568-3411", "TYPE": "CRITICAL ACCESS", "STATUS": "OPEN", "POPULATION": 25, "COUNTY": "ALLAMAKEE", "COUNTYFIPS": "19005", "COUNTRY": "USA", "LATITUDE": 43.26867508, "LONGITUDE": -91.474110992000007, "NAICS_CODE": "622110", "NAICS_DESC": "GENERAL MEDICAL AND SURGICAL HOSPITALS", "SOURCE": "https://dia-hfd.iowa.gov/DIA_HFD/CTLEntitySearch.do", "SOURCEDATE": "2018-08-09T00:00:00.000Z", "VAL_METHOD": "IMAGERY/OTHER", "VAL_DATE": "2016-04-15T00:00:00.000Z", "WEBSITE": "http://www.vmhospital.com", "STATE_ID": "NOT AVAILABLE", "ALT_NAME": "NOT AVAILABLE", "ST_FIPS": "19", "OWNER": "NOT AVAILABLE", "TTL_STAFF": -999, "BEDS": 25, "TRAUMA": "LEVEL IV", "HELIPAD": "Y" }, "geometry": { "type": "Polygon", "coordinates": [ [ [ -91.456292, 43.184175 ], [ -91.5667125, 43.226376099999968 ], [ -91.5871792, 43.240748 ], [ -91.596761, 43.279968 ], [ -91.5208115, 43.36063360000005 ], [ -91.4422745, 43.353598500000011 ], [ -91.389263600000021, 43.3397096 ], [ -91.3466992, 43.261643 ], [ -91.3993736, 43.2007412 ], [ -91.409447, 43.193277 ], [ -91.456292, 43.184175 ] ] ] } },
{ "type": "Feature", "properties": { "OBJECTID": 6398, "ID": "0003350574", "NAME": "POCAHONTAS COMMUNITY HOSPITAL", "ADDRESS": "606 NORTHWEST 7TH", "CITY": "POCAHONTAS", "STATE": "IA", "ZIP": "50574", "ZIP4": "NOT AVAILABLE", "TELEPHONE": "(712) 335-3501", "TYPE": "CRITICAL ACCESS", "STATUS": "OPEN", "POPULATION": 25, "COUNTY": "POCAHONTAS", "COUNTYFIPS": "19151", "COUNTRY": "USA", "LATITUDE": 42.7410247870001, "LONGITUDE": -94.677875013999895, "NAICS_CODE": "622110", "NAICS_DESC": "GENERAL MEDICAL AND SURGICAL HOSPITALS", "SOURCE": "https://dia-hfd.iowa.gov/DIA_HFD/CTLEntitySearch.do", "SOURCEDATE": "2018-08-09T00:00:00.000Z", "VAL_METHOD": "IMAGERY", "VAL_DATE": "2016-04-18T00:00:00.000Z", "WEBSITE": "http://www.pocahontashospital.org", "STATE_ID": "NOT AVAILABLE", "ALT_NAME": "NOT AVAILABLE", "ST_FIPS": "19", "OWNER": "GOVERNMENT - LOCAL", "TTL_STAFF": -999, "BEDS": 25, "TRAUMA": "LEVEL IV", "HELIPAD": "Y" }, "geometry": { "type": "Polygon", "coordinates": [ [ [ -94.678285, 42.631437 ], [ -94.835801, 42.733163 ], [ -94.703809, 42.832828 ], [ -94.678897, 42.849281 ], [ -94.54124, 42.73277 ], [ -94.678285, 42.631437 ] ] ] } },
{ "type": "Feature", "properties": { "OBJECTID": 6403, "ID": "0092750525", "NAME": "IOWA SPECIALTY HOSPITAL-CLARION", "ADDRESS": "1316 SOUTH MAIN STREET", "CITY": "CLARION", "STATE": "IA", "ZIP": "50525", "ZIP4": "NOT AVAILABLE", "TELEPHONE": "(515) 532-2811", "TYPE": "CRITICAL ACCESS", "STATUS": "OPEN", "POPULATION": 25, "COUNTY": "WRIGHT", "COUNTYFIPS": "19197", "COUNTRY": "USA", "LATITUDE": 42.721400033000101, "LONGITUDE": -93.733247062999993, "NAICS_CODE": "622310", "NAICS_DESC": "SPECIALTY (EXCEPT PSYCHIATRIC AND SUBSTANCE ABUSE) HOSPITALS", "SOURCE": "https://dia-hfd.iowa.gov/DIA_HFD/CTLEntitySearch.do", "SOURCEDATE": "2018-08-09T00:00:00.000Z", "VAL_METHOD": "IMAGERY/OTHER", "VAL_DATE": "2016-04-19T00:00:00.000Z", "WEBSITE": "NOT AVAILABLE", "STATE_ID": "NOT AVAILABLE", "ALT_NAME": "NOT AVAILABLE", "ST_FIPS": "19", "OWNER": "PROPRIETARY", "TTL_STAFF": -999, "BEDS": 25, "TRAUMA": "LEVEL IV", "HELIPAD": "Y" }, "geometry": { "type": "Polygon", "coordinates": [ [ [ -93.735119700000013, 42.62991980000001 ], [ -93.7745535, 42.659146399999983 ], [ -93.8336583, 42.716860399999987 ], [ -93.8337114, 42.746245 ], [ -93.833653, 42.753511200000013 ], [ -93.7546811, 42.7968624 ], [ -93.7147952, 42.79680339999998 ], [ -93.6172286, 42.752017500000036 ], [ -93.6068373, 42.745726 ], [ -93.6065768, 42.7313156 ], [ -93.6369741, 42.695305900000029 ], [ -93.735119700000013, 42.62991980000001 ] ] ] } },
{ "type": "Feature", "properties": { "OBJECTID": 6404, "ID": "0092650421", "NAME": "IOWA SPECIALTY HOSPITAL - BELMOND", "ADDRESS": "403 FIRST STREET SE", "CITY": "BELMOND", "STATE": "IA", "ZIP": "50421", "ZIP4": "NOT AVAILABLE", "TELEPHONE": "(641) 444-3223", "TYPE": "CRITICAL ACCESS", "STATUS": "OPEN", "POPULATION": 22, "COUNTY": "WRIGHT", "COUNTYFIPS": "19197", "COUNTRY": "USA", "LATITUDE": 42.845270661000001, "LONGITUDE": -93.612283485999995, "NAICS_CODE": "622310", "NAICS_DESC": "SPECIALTY (EXCEPT PSYCHIATRIC AND SUBSTANCE ABUSE) HOSPITALS", "SOURCE": "https://dia-hfd.iowa.gov/DIA_HFD/CTLEntitySearch.do", "SOURCEDATE": "2018-08-09T00:00:00.000Z", "VAL_METHOD": "IMAGERY/OTHER", "VAL_DATE": "2016-04-19T00:00:00.000Z", "WEBSITE": "http://www.iowaspecialtyhospital.com/", "STATE_ID": "NOT AVAILABLE", "ALT_NAME": "NOT AVAILABLE", "ST_FIPS": "19", "OWNER": "PROPRIETARY", "TTL_STAFF": -999, "BEDS": 22, "TRAUMA": "LEVEL IV", "HELIPAD": "Y" }, "geometry": { "type": "Polygon", "coordinates": [ [ [ -93.633194, 42.731560400000063 ], [ -93.6834936, 42.7860106 ], [ -93.7343961, 42.863128300000014 ], [ -93.6164118, 42.9664852 ], [ -93.4986414, 42.863144599999956 ], [ -93.5383076, 42.8039036 ], [ -93.5839179, 42.745832200000031 ], [ -93.6154009, 42.731339499999983 ], [ -93.633194, 42.731560400000063 ] ] ] } },
{ "type": "Feature", "properties": { "OBJECTID": 6407, "ID": "0000652101", "NAME": "WINNESHIEK COUNTY MEMORIAL HOSPITAL", "ADDRESS": "901 MONTGOMERY STREET", "CITY": "DECORAH", "STATE": "IA", "ZIP": "52101", "ZIP4": "NOT AVAILABLE", "TELEPHONE": "(563) 382-2911", "TYPE": "CRITICAL ACCESS", "STATUS": "OPEN", "POPULATION": 25, "COUNTY": "WINNESHIEK", "COUNTYFIPS": "19191", "COUNTRY": "USA", "LATITUDE": 43.294645492000001, "LONGITUDE": -91.774273476999994, "NAICS_CODE": "622110", "NAICS_DESC": "GENERAL MEDICAL AND SURGICAL HOSPITALS", "SOURCE": "https://dia-hfd.iowa.gov/DIA_HFD/CTLEntitySearch.do", "SOURCEDATE": "2018-08-09T00:00:00.000Z", "VAL_METHOD": "IMAGERY", "VAL_DATE": "2016-04-19T00:00:00.000Z", "WEBSITE": "http://www.winmedical.org", "STATE_ID": "NOT AVAILABLE", "ALT_NAME": "NOT AVAILABLE", "ST_FIPS": "19", "OWNER": "GOVERNMENT - LOCAL", "TTL_STAFF": -999, "BEDS": 25, "TRAUMA": "LEVEL IV", "HELIPAD": "Y" }, "geometry": { "type": "Polygon", "coordinates": [ [ [ -91.811199, 43.223131 ], [ -91.85731, 43.24094 ], [ -91.903162, 43.284365 ], [ -91.893247, 43.313211 ], [ -91.804729, 43.371135 ], [ -91.7595979, 43.355769300000027 ], [ -91.702719, 43.323457 ], [ -91.684139, 43.291352 ], [ -91.694284, 43.242783 ], [ -91.811199, 43.223131 ] ] ] } },
{ "type": "Feature", "properties": { "OBJECTID": 6469, "ID": "0002050511", "NAME": "KOSSUTH COUNTY HOSPITAL", "ADDRESS": "1515 SOUTH PHILLIPS", "CITY": "ALGONA", "STATE": "IA", "ZIP": "50511", "ZIP4": "NOT AVAILABLE", "TELEPHONE": "(515) 295-2451", "TYPE": "CRITICAL ACCESS", "STATUS": "OPEN", "POPULATION": 25, "COUNTY": "KOSSUTH", "COUNTYFIPS": "19109", "COUNTRY": "USA", "LATITUDE": 43.056565217000099, "LONGITUDE": -94.22581258, "NAICS_CODE": "622110", "NAICS_DESC": "GENERAL MEDICAL AND SURGICAL HOSPITALS", "SOURCE": "https://dia-hfd.iowa.gov/DIA_HFD/CTLEntitySearch.do", "SOURCEDATE": "2018-08-09T00:00:00.000Z", "VAL_METHOD": "IMAGERY/OTHER", "VAL_DATE": "2016-04-15T00:00:00.000Z", "WEBSITE": "http://www.krhc.com", "STATE_ID": "NOT AVAILABLE", "ALT_NAME": "NOT AVAILABLE", "ST_FIPS": "19", "OWNER": "GOVERNMENT - LOCAL", "TTL_STAFF": -999, "BEDS": 25, "TRAUMA": "LEVEL IV", "HELIPAD": "Y" }, "geometry": { "type": "Polygon", "coordinates": [ [ [ -94.227004, 42.94036 ], [ -94.2468282, 42.951540299999962 ], [ -94.285829, 42.994952 ], [ -94.344377, 43.067394 ], [ -94.344353, 43.083084 ], [ -94.236517, 43.175756 ], [ -94.108678, 43.082905 ], [ -94.108735, 43.066689 ], [ -94.148536, 43.009252 ], [ -94.207434, 42.951565 ], [ -94.227004, 42.94036 ] ] ] } },
{ "type": "Feature", "properties": { "OBJECTID": 6513, "ID": "0003550548", "NAME": "HUMBOLDT COUNTY MEMORIAL HOSPITAL", "ADDRESS": "1000 15TH STREET NORTH", "CITY": "HUMBOLDT", "STATE": "IA", "ZIP": "50548", "ZIP4": "NOT AVAILABLE", "TELEPHONE": "(515) 332-4200", "TYPE": "CRITICAL ACCESS", "STATUS": "OPEN", "POPULATION": 49, "COUNTY": "HUMBOLDT", "COUNTYFIPS": "19091", "COUNTRY": "USA", "LATITUDE": 42.732697408999996, "LONGITUDE": -94.232213912000006, "NAICS_CODE": "622110", "NAICS_DESC": "GENERAL MEDICAL AND SURGICAL HOSPITALS", "SOURCE": "https://dia-hfd.iowa.gov/DIA_HFD/CTLEntitySearch.do", "SOURCEDATE": "2018-08-09T00:00:00.000Z", "VAL_METHOD": "IMAGERY/OTHER", "VAL_DATE": "2016-04-15T00:00:00.000Z", "WEBSITE": "http://www.humboldthospital.org", "STATE_ID": "NOT AVAILABLE", "ALT_NAME": "NOT AVAILABLE", "ST_FIPS": "19", "OWNER": "GOVERNMENT - LOCAL", "TTL_STAFF": -999, "BEDS": 49, "TRAUMA": "LEVEL IV", "HELIPAD": "Y" }, "geometry": { "type": "Polygon", "coordinates": [ [ [ -94.227381, 42.623118400000024 ], [ -94.375749, 42.732273 ], [ -94.22728, 42.848612 ], [ -94.090051, 42.735257 ], [ -94.090046, 42.731644 ], [ -94.227381, 42.623118400000024 ] ] ] } },
{ "type": "Feature", "properties": { "OBJECTID": 6533, "ID": "0004550126", "NAME": "ELLSWORTH MUNICIPAL HOSPITAL", "ADDRESS": "110 ROCKSYLVANIA AVENUE", "CITY": "IOWA FALLS", "STATE": "IA", "ZIP": "50126", "ZIP4": "NOT AVAILABLE", "TELEPHONE": "(515) 648-4631", "TYPE": "GENERAL ACUTE CARE", "STATUS": "CLOSED", "POPULATION": 23, "COUNTY": "HARDIN", "COUNTYFIPS": "19083", "COUNTRY": "USA", "LATITUDE": 42.522028466000101, "LONGITUDE": -93.259525745000005, "NAICS_CODE": "622110", "NAICS_DESC": "GENERAL MEDICAL AND SURGICAL HOSPITALS", "SOURCE": "ftp://ftp.igsb.uiowa.edu/gis_library/IA_State/Infrastructure/", "SOURCEDATE": "2012-06-05T00:00:00.000Z", "VAL_METHOD": "IMAGERY/OTHER", "VAL_DATE": "2014-01-07T00:00:00.000Z", "WEBSITE": "http://www.emhia.com", "STATE_ID": "NOT AVAILABLE", "ALT_NAME": "NOT AVAILABLE", "ST_FIPS": "19", "OWNER": "GOVERNMENT - LOCAL", "TTL_STAFF": -999, "BEDS": 23, "TRAUMA": "LEVEL IV", "HELIPAD": "Y" }, "geometry": { "type": "Polygon", "coordinates": [ [ [ -93.2612305, 42.419179699999972 ], [ -93.310049, 42.455389199999956 ], [ -93.3809468, 42.514209700000023 ], [ -93.3826333, 42.5173244 ], [ -93.3826292, 42.521294 ], [ -93.3108249, 42.586674599999959 ], [ -93.2619111, 42.6006868 ], [ -93.2047777, 42.586505900000041 ], [ -93.1641869, 42.556843200000017 ], [ -93.1240822, 42.5224056 ], [ -93.2612305, 42.419179699999972 ] ] ] } },
{ "type": "Feature", "properties": { "OBJECTID": 6561, "ID": "0002552175", "NAME": "PALMER LUTHERAN HEALTH CENTER", "ADDRESS": "112 JEFFERSON", "CITY": "WEST UNION", "STATE": "IA", "ZIP": "52175", "ZIP4": "NOT AVAILABLE", "TELEPHONE": "(563) 422-3876", "TYPE": "CRITICAL ACCESS", "STATUS": "OPEN", "POPULATION": 25, "COUNTY": "FAYETTE", "COUNTYFIPS": "19065", "COUNTRY": "USA", "LATITUDE": 42.968288045000101, "LONGITUDE": -91.810114874999996, "NAICS_CODE": "622110", "NAICS_DESC": "GENERAL MEDICAL AND SURGICAL HOSPITALS", "SOURCE": "https://dia-hfd.iowa.gov/DIA_HFD/CTLEntitySearch.do", "SOURCEDATE": "2018-08-09T00:00:00.000Z", "VAL_METHOD": "IMAGERY/OTHER", "VAL_DATE": "2016-04-15T00:00:00.000Z", "WEBSITE": "http://www.palmerlutheran.org", "STATE_ID": "NOT AVAILABLE", "ALT_NAME": "NOT AVAILABLE", "ST_FIPS": "19", "OWNER": "NON-PROFIT", "TTL_STAFF": -999, "BEDS": 25, "TRAUMA": "LEVEL IV", "HELIPAD": "Y" }, "geometry": { "type": "Polygon", "coordinates": [ [ [ -91.806345, 42.850174 ], [ -91.813127, 42.851056 ], [ -91.95338820000002, 42.950273100000047 ], [ -91.953077, 42.968183 ], [ -91.838773, 43.069519 ], [ -91.7867708, 43.051555800000024 ], [ -91.661481, 42.996623 ], [ -91.685137, 42.954518 ], [ -91.720104, 42.902689 ], [ -91.806345, 42.850174 ] ] ] } },
{ "type": "Feature", "properties": { "OBJECTID": 6569, "ID": "0000750461", "NAME": "MITCHELL COUNTY MEMORIAL HOSPITAL", "ADDRESS": "616 NORTH 8TH STREET", "CITY": "OSAGE", "STATE": "IA", "ZIP": "50461", "ZIP4": "NOT AVAILABLE", "TELEPHONE": "(641) 732-6003", "TYPE": "CRITICAL ACCESS", "STATUS": "OPEN", "POPULATION": 25, "COUNTY": "MITCHELL", "COUNTYFIPS": "19131", "COUNTRY": "USA", "LATITUDE": 43.289528117000003, "LONGITUDE": -92.808440624, "NAICS_CODE": "622110", "NAICS_DESC": "GENERAL MEDICAL AND SURGICAL HOSPITALS", "SOURCE": "https://dia-hfd.iowa.gov/DIA_HFD/CTLEntitySearch.do", "SOURCEDATE": "2018-08-09T00:00:00.000Z", "VAL_METHOD": "IMAGERY/OTHER", "VAL_DATE": "2016-04-18T00:00:00.000Z", "WEBSITE": "http://www.mitchellcohospital-clinics.com", "STATE_ID": "NOT AVAILABLE", "ALT_NAME": "NOT AVAILABLE", "ST_FIPS": "19", "OWNER": "GOVERNMENT - LOCAL", "TTL_STAFF": -999, "BEDS": 25, "TRAUMA": "LEVEL IV", "HELIPAD": "Y" }, "geometry": { "type": "Polygon", "coordinates": [ [ [ -92.810449, 43.21287 ], [ -92.850224, 43.22003 ], [ -92.905248759268133, 43.255186084447118 ], [ -92.945023099675637, 43.284405715874378 ], [ -92.8303364, 43.378242899999968 ], [ -92.8095238, 43.384571 ], [ -92.790714, 43.371173 ], [ -92.6724457, 43.284447300000011 ], [ -92.732397, 43.241826 ], [ -92.7720786, 43.225636200000054 ], [ -92.810449, 43.21287 ] ] ] } },
{ "type": "Feature", "properties": { "OBJECTID": 6593, "ID": "0005350595", "NAME": "VAN DIEST MEDICAL CENTER", "ADDRESS": "2350 HOSPITAL DRIVE", "CITY": "WEBSTER CITY", "STATE": "IA", "ZIP": "50595", "ZIP4": "NOT AVAILABLE", "TELEPHONE": "(515) 832-7700", "TYPE": "CRITICAL ACCESS", "STATUS": "OPEN", "POPULATION": 25, "COUNTY": "HAMILTON", "COUNTYFIPS": "19079", "COUNTRY": "USA", "LATITUDE": 42.459067264000097, "LONGITUDE": -93.823496985999995, "NAICS_CODE": "622110", "NAICS_DESC": "GENERAL MEDICAL AND SURGICAL HOSPITALS", "SOURCE": "https://dia-hfd.iowa.gov/DIA_HFD/CTLEntitySearch.do", "SOURCEDATE": "2018-08-09T00:00:00.000Z", "VAL_METHOD": "IMAGERY", "VAL_DATE": "2016-04-15T00:00:00.000Z", "WEBSITE": "http://www.hamiltonhospital.com", "STATE_ID": "NOT AVAILABLE", "ALT_NAME": "NOT AVAILABLE", "ST_FIPS": "19", "OWNER": "GOVERNMENT - LOCAL", "TTL_STAFF": -999, "BEDS": 25, "TRAUMA": "LEVEL IV", "HELIPAD": "Y" }, "geometry": { "type": "Polygon", "coordinates": [ [ [ -93.8452886, 42.366836899999974 ], [ -93.9908109, 42.449018599999988 ], [ -93.9908025, 42.4492566 ], [ -93.8631588, 42.529537400000052 ], [ -93.8232186, 42.551061 ], [ -93.6470187, 42.448904 ], [ -93.7964501, 42.368863399999952 ], [ -93.8452886, 42.366836899999974 ] ] ] } },
{ "type": "Feature", "properties": { "OBJECTID": 6766, "ID": "0003255987", "NAME": "WINONA HEALTH SERVICES", "ADDRESS": "855 MANKATO AVENUE", "CITY": "WINONA", "STATE": "MN", "ZIP": "55987", "ZIP4": "NOT AVAILABLE", "TELEPHONE": "(507) 474-3328", "TYPE": "GENERAL ACUTE CARE", "STATUS": "OPEN", "POPULATION": 99, "COUNTY": "WINONA", "COUNTYFIPS": "27169", "COUNTRY": "USA", "LATITUDE": 44.033457692000098, "LONGITUDE": -91.622960626999898, "NAICS_CODE": "622110", "NAICS_DESC": "GENERAL MEDICAL AND SURGICAL HOSPITALS", "SOURCE": "http://www.health.state.mn.us/divs/fpc/directory/providerselect.cfm", "SOURCEDATE": "2018-08-09T00:00:00.000Z", "VAL_METHOD": "IMAGERY", "VAL_DATE": "2014-03-12T00:00:00.000Z", "WEBSITE": "http://www.winonahealth.org", "STATE_ID": "701", "ALT_NAME": "NOT AVAILABLE", "ST_FIPS": "27", "OWNER": "NON-PROFIT", "TTL_STAFF": -999, "BEDS": 99, "TRAUMA": "LEVEL IV", "HELIPAD": "Y" }, "geometry": { "type": "Polygon", "coordinates": [ [ [ -91.6749286, 43.947772600000015 ], [ -91.700032600000014, 43.9512123 ], [ -91.7557645, 44.0879052 ], [ -91.7542624, 44.093007200000024 ], [ -91.749027600000019, 44.093887100000011 ], [ -91.68745, 44.08149 ], [ -91.4723741, 44.002227099999949 ], [ -91.4390382, 43.988846199999969 ], [ -91.4391136, 43.988707399999981 ], [ -91.6158768, 43.952216499999977 ], [ -91.6749286, 43.947772600000015 ] ] ] } },
{ "type": "Feature", "properties": { "OBJECTID": 4528, "ID": "0000552136", "NAME": "REGIONAL HEALTH SERVICES OF HOWARD COUNTY", "ADDRESS": "235 EIGHTH AVENUE WEST", "CITY": "CRESCO", "STATE": "IA", "ZIP": "52136", "ZIP4": "NOT AVAILABLE", "TELEPHONE": "(563) 547-2101", "TYPE": "CRITICAL ACCESS", "STATUS": "OPEN", "POPULATION": 19, "COUNTY": "HOWARD", "COUNTYFIPS": "19089", "COUNTRY": "USA", "LATITUDE": 43.381376579000097, "LONGITUDE": -92.117994402999997, "NAICS_CODE": "622110", "NAICS_DESC": "GENERAL MEDICAL AND SURGICAL HOSPITALS", "SOURCE": "https://dia-hfd.iowa.gov/DIA_HFD/CTLEntitySearch.do", "SOURCEDATE": "2018-08-09T00:00:00.000Z", "VAL_METHOD": "IMAGERY", "VAL_DATE": "2016-04-15T00:00:00.000Z", "WEBSITE": "http://www.rhshc.com", "STATE_ID": "NOT AVAILABLE", "ALT_NAME": "NOT AVAILABLE", "ST_FIPS": "19", "OWNER": "GOVERNMENT - LOCAL", "TTL_STAFF": -999, "BEDS": 19, "TRAUMA": "LEVEL IV", "HELIPAD": "Y" }, "geometry": { "type": "Polygon", "coordinates": [ [ [ -92.120647, 43.270145 ], [ -92.160142, 43.299057 ], [ -92.2486116, 43.3708603 ], [ -92.192572, 43.421903 ], [ -92.159916488332229, 43.450498030368209 ], [ -92.129922471728506, 43.472534005411489 ], [ -92.099653402206258, 43.45798798254161 ], [ -92.080030357950719, 43.443476973852654 ], [ -92.058159, 43.426207 ], [ -92.017369, 43.370877 ], [ -92.017427, 43.369406 ], [ -92.038209, 43.335362 ], [ -92.120647, 43.270145 ] ] ] } },
{ "type": "Feature", "properties": { "OBJECTID": 4649, "ID": "0015554449", "NAME": "NORWOOD HLTH CTR", "ADDRESS": "1600 N CHESTNUT AVE", "CITY": "MARSHFIELD", "STATE": "WI", "ZIP": "54449", "ZIP4": "NOT AVAILABLE", "TELEPHONE": "(715) 384-2188", "TYPE": "PSYCHIATRIC", "STATUS": "OPEN", "POPULATION": 16, "COUNTY": "WOOD", "COUNTYFIPS": "55141", "COUNTRY": "USA", "LATITUDE": 44.682344483000101, "LONGITUDE": -90.165800301999994, "NAICS_CODE": "622210", "NAICS_DESC": "PSYCHIATRIC AND SUBSTANCE ABUSE HOSPITALS", "SOURCE": "https://www.dhs.wisconsin.gov/guide/hospital.htm", "SOURCEDATE": "2018-08-13T00:00:00.000Z", "VAL_METHOD": "IMAGERY", "VAL_DATE": "2014-02-10T00:00:00.000Z", "WEBSITE": "http://www.co.wood.wi.us/norwood/index.htm", "STATE_ID": "211", "ALT_NAME": "NOT AVAILABLE", "ST_FIPS": "55", "OWNER": "GOVERNMENT - LOCAL", "TTL_STAFF": -999, "BEDS": 16, "TRAUMA": "NOT AVAILABLE", "HELIPAD": "N" }, "geometry": { "type": "Polygon", "coordinates": [ [ [ -90.1808604, 44.5838497 ], [ -90.1982074, 44.59823709999997 ], [ -90.28951, 44.677742 ], [ -90.2638882, 44.733115199999965 ], [ -90.2615757, 44.737207599999984 ], [ -90.170576, 44.779015 ], [ -90.0793845, 44.757327900000014 ], [ -90.055717, 44.743104 ], [ -90.045403, 44.6702364 ], [ -90.0799384, 44.6251095 ], [ -90.1404985, 44.583651 ], [ -90.1808604, 44.5838497 ] ] ] } },
{ "type": "Feature", "properties": { "OBJECTID": 4726, "ID": "0150554451", "NAME": "ASPIRUS MEDFORD HOSPITAL & CLINICS, INC", "ADDRESS": "135 S GIBSON ST", "CITY": "MEDFORD", "STATE": "WI", "ZIP": "54451", "ZIP4": "NOT AVAILABLE", "TELEPHONE": "(715) 748-8100", "TYPE": "CRITICAL ACCESS", "STATUS": "OPEN", "POPULATION": 25, "COUNTY": "TAYLOR", "COUNTYFIPS": "55119", "COUNTRY": "USA", "LATITUDE": 45.135115769000002, "LONGITUDE": -90.356071119000006, "NAICS_CODE": "622110", "NAICS_DESC": "GENERAL MEDICAL AND SURGICAL HOSPITALS", "SOURCE": "https://www.dhs.wisconsin.gov/guide/hospital.htm", "SOURCEDATE": "2018-08-13T00:00:00.000Z", "VAL_METHOD": "IMAGERY/OTHER", "VAL_DATE": "2015-03-27T00:00:00.000Z", "WEBSITE": "NOT AVAILABLE", "STATE_ID": "NOT AVAILABLE", "ALT_NAME": "NOT AVAILABLE", "ST_FIPS": "55", "OWNER": "NOT AVAILABLE", "TTL_STAFF": -999, "BEDS": 25, "TRAUMA": "LEVEL III", "HELIPAD": "Y" }, "geometry": { "type": "Polygon", "coordinates": [ [ [ -90.3147651, 45.062598699999953 ], [ -90.376003, 45.075746 ], [ -90.494385976584695, 45.130220511403387 ], [ -90.49443307396939, 45.132786410906164 ], [ -90.45386373233552, 45.161497205567336 ], [ -90.3737067, 45.205844499999948 ], [ -90.3088628, 45.22915 ], [ -90.2109848, 45.144175899999986 ], [ -90.304447, 45.070025 ], [ -90.3147651, 45.062598699999953 ] ] ] } },
{ "type": "Feature", "properties": { "OBJECTID": 4931, "ID": "0005354601", "NAME": "GUNDERSEN LUTH MED CTR", "ADDRESS": "1910 SOUTH AVE", "CITY": "LA CROSSE", "STATE": "WI", "ZIP": "54601", "ZIP4": "NOT AVAILABLE", "TELEPHONE": "(608) 782-7300", "TYPE": "GENERAL ACUTE CARE", "STATUS": "OPEN", "POPULATION": 325, "COUNTY": "LA CROSSE", "COUNTYFIPS": "55063", "COUNTRY": "USA", "LATITUDE": 43.794586024000097, "LONGITUDE": -91.246967162999994, "NAICS_CODE": "622110", "NAICS_DESC": "GENERAL MEDICAL AND SURGICAL HOSPITALS", "SOURCE": "https://www.dhs.wisconsin.gov/guide/hospital.htm", "SOURCEDATE": "2018-08-13T00:00:00.000Z", "VAL_METHOD": "IMAGERY", "VAL_DATE": "2014-03-12T00:00:00.000Z", "WEBSITE": "http://www.gundluth.org", "STATE_ID": "23", "ALT_NAME": "NOT AVAILABLE", "ST_FIPS": "55", "OWNER": "NON-PROFIT", "TTL_STAFF": -999, "BEDS": 325, "TRAUMA": "LEVEL II", "HELIPAD": "Y" }, "geometry": { "type": "Polygon", "coordinates": [ [ [ -91.2015188, 43.72003459999997 ], [ -91.2544709, 43.790219400000041 ], [ -91.2594052, 43.797849300000038 ], [ -91.2683039, 43.8145032 ], [ -91.2673999, 43.8501574 ], [ -91.2379405, 43.863305199999985 ], [ -91.2095309, 43.874773 ], [ -91.1897898, 43.873924900000048 ], [ -91.1896912, 43.8738296 ], [ -91.1151529, 43.790361499999975 ], [ -91.179111, 43.724437 ], [ -91.1828516, 43.723274499999974 ], [ -91.2015188, 43.72003459999997 ] ] ] } },
{ "type": "Feature", "properties": { "OBJECTID": 4932, "ID": "0005454601", "NAME": "MAYO CLINIC HLTH SYSTEM- FRANCISCAN MED CTR", "ADDRESS": "700 WEST AVENUE SOUTH", "CITY": "LA CROSSE", "STATE": "WI", "ZIP": "54601", "ZIP4": "NOT AVAILABLE", "TELEPHONE": "(608) 785-0940", "TYPE": "GENERAL ACUTE CARE", "STATUS": "OPEN", "POPULATION": 331, "COUNTY": "LA CROSSE", "COUNTYFIPS": "55063", "COUNTRY": "USA", "LATITUDE": 43.803947932, "LONGITUDE": -91.240304033000001, "NAICS_CODE": "622110", "NAICS_DESC": "GENERAL MEDICAL AND SURGICAL HOSPITALS", "SOURCE": "https://www.dhs.wisconsin.gov/guide/hospital.htm", "SOURCEDATE": "2018-08-13T00:00:00.000Z", "VAL_METHOD": "IMAGERY", "VAL_DATE": "2014-03-12T00:00:00.000Z", "WEBSITE": "http://www.franciscanskemp.org", "STATE_ID": "24", "ALT_NAME": "NOT AVAILABLE", "ST_FIPS": "55", "OWNER": "NON-PROFIT", "TTL_STAFF": -999, "BEDS": 331, "TRAUMA": "LEVEL III", "HELIPAD": "Y" }, "geometry": { "type": "Polygon", "coordinates": [ [ [ -91.200526, 43.724578 ], [ -91.2544709, 43.790219400000041 ], [ -91.2594052, 43.797849300000038 ], [ -91.2683039, 43.8145032 ], [ -91.268717, 43.854392699999956 ], [ -91.213151400000015, 43.888142599999966 ], [ -91.1796149, 43.880492599999961 ], [ -91.1785453, 43.8794556 ], [ -91.1784552, 43.879354300000024 ], [ -91.1777334, 43.878478700000031 ], [ -91.1151529, 43.790361499999975 ], [ -91.187499, 43.725445100000044 ], [ -91.200526, 43.724578 ] ] ] } },
{ "type": "Feature", "properties": { "OBJECTID": 42, "ID": "0150754656", "NAME": "MAYO CLINIC HLTH SYSTM FRANCISCAN HLTHCARE SPARTA", "ADDRESS": "310 W MAIN ST", "CITY": "SPARTA", "STATE": "WI", "ZIP": "54656", "ZIP4": "NOT AVAILABLE", "TELEPHONE": "(608) 269-2132", "TYPE": "CRITICAL ACCESS", "STATUS": "OPEN", "POPULATION": 25, "COUNTY": "MONROE", "COUNTYFIPS": "55081", "COUNTRY": "USA", "LATITUDE": 43.944225964000097, "LONGITUDE": -90.814383593999906, "NAICS_CODE": "622110", "NAICS_DESC": "GENERAL MEDICAL AND SURGICAL HOSPITALS", "SOURCE": "https://www.dhs.wisconsin.gov/guide/hospital.htm", "SOURCEDATE": "2018-08-13T00:00:00.000Z", "VAL_METHOD": "IMAGERY/OTHER", "VAL_DATE": "2015-03-27T00:00:00.000Z", "WEBSITE": "NOT AVAILABLE", "STATE_ID": "NOT AVAILABLE", "ALT_NAME": "NOT AVAILABLE", "ST_FIPS": "55", "OWNER": "NOT AVAILABLE", "TTL_STAFF": -999, "BEDS": 25, "TRAUMA": "LEVEL IV", "HELIPAD": "Y" }, "geometry": { "type": "Polygon", "coordinates": [ [ [ -90.8117334, 43.8382888 ], [ -90.8394855, 43.85096019999996 ], [ -90.8410851, 43.85178640000008 ], [ -90.9139252, 43.926276099999967 ], [ -90.9113446, 43.949890599999989 ], [ -90.90449, 43.973415 ], [ -90.8775947, 44.0285592 ], [ -90.862848, 44.0504336 ], [ -90.8620234, 44.050387 ], [ -90.709367316583084, 44.007170668822035 ], [ -90.669971927434418, 43.940453045115127 ], [ -90.719365160959867, 43.872242862697199 ], [ -90.7883143, 43.844532599999965 ], [ -90.8117334, 43.8382888 ] ] ] } },
{ "type": "Feature", "properties": { "OBJECTID": 59, "ID": "0015954660", "NAME": "VA MEDICAL CENTER - TOMAH", "ADDRESS": "500 E VETERANS ST", "CITY": "TOMAH", "STATE": "WI", "ZIP": "54660", "ZIP4": "NOT AVAILABLE", "TELEPHONE": "(608) 372-3971", "TYPE": "MILITARY", "STATUS": "OPEN", "POPULATION": -999, "COUNTY": "MONROE", "COUNTYFIPS": "55081", "COUNTRY": "USA", "LATITUDE": 44.00308068, "LONGITUDE": -90.493319013999994, "NAICS_CODE": "622110", "NAICS_DESC": "GENERAL MEDICAL AND SURGICAL HOSPITALS", "SOURCE": "https://www.va.gov/directory/guide/allstate.asp", "SOURCEDATE": "2018-09-26T00:00:00.000Z", "VAL_METHOD": "IMAGERY/OTHER", "VAL_DATE": "2015-05-29T00:00:00.000Z", "WEBSITE": "http://www.tomah.va.gov/", "STATE_ID": "NOT AVAILABLE", "ALT_NAME": "NOT AVAILABLE", "ST_FIPS": "55", "OWNER": "GOVERNMENT - FEDERAL", "TTL_STAFF": -999, "BEDS": -999, "TRAUMA": "NOT AVAILABLE", "HELIPAD": "Y" }, "geometry": { "type": "Polygon", "coordinates": [ [ [ -90.488942270198422, 43.914525045848045 ], [ -90.547739257142979, 43.924266803855758 ], [ -90.54783845716284, 43.924295303999756 ], [ -90.581580890850134, 43.940360271150595 ], [ -90.602775674838057, 44.014851053239809 ], [ -90.533543193939963, 44.124469033775732 ], [ -90.531502093400093, 44.124521732504327 ], [ -90.4124471, 44.052978200000027 ], [ -90.3792953, 44.028303900000012 ], [ -90.3490242, 43.949249899999963 ], [ -90.488942270198422, 43.914525045848045 ] ] ] } },
{ "type": "Feature", "properties": { "OBJECTID": 135, "ID": "0012754773", "NAME": "TRI COUNTY MEM HSPTL", "ADDRESS": "18601 LINCOLN ST PO BOX 65", "CITY": "WHITEHALL", "STATE": "WI", "ZIP": "54773", "ZIP4": "NOT AVAILABLE", "TELEPHONE": "(715) 538-4361", "TYPE": "GENERAL ACUTE CARE", "STATUS": "OPEN", "POPULATION": 25, "COUNTY": "TREMPEALEAU", "COUNTYFIPS": "55121", "COUNTRY": "USA", "LATITUDE": 44.364326252000097, "LONGITUDE": -91.318749501, "NAICS_CODE": "622110", "NAICS_DESC": "GENERAL MEDICAL AND SURGICAL HOSPITALS", "SOURCE": "https://www.dhs.wisconsin.gov/guide/hospital.htm", "SOURCEDATE": "2018-08-13T00:00:00.000Z", "VAL_METHOD": "IMAGERY", "VAL_DATE": "2014-02-10T00:00:00.000Z", "WEBSITE": "http://www.tricountymemorial.org/index.html", "STATE_ID": "1019", "ALT_NAME": "NOT AVAILABLE", "ST_FIPS": "55", "OWNER": "NON-PROFIT", "TTL_STAFF": -999, "BEDS": 25, "TRAUMA": "NOT AVAILABLE", "HELIPAD": "N" }, "geometry": { "type": "Polygon", "coordinates": [ [ [ -91.24645, 44.267803 ], [ -91.299418, 44.271991 ], [ -91.341375, 44.281139 ], [ -91.442874, 44.343688 ], [ -91.44196, 44.348739 ], [ -91.427333, 44.388395 ], [ -91.425537, 44.39213 ], [ -91.353331, 44.433883 ], [ -91.304677, 44.453761 ], [ -91.303323, 44.454266 ], [ -91.302038, 44.454741 ], [ -91.217378, 44.444866 ], [ -91.189822, 44.433622 ], [ -91.188501, 44.422514 ], [ -91.207942, 44.342293 ], [ -91.221531, 44.294582 ], [ -91.237802, 44.26934 ], [ -91.24645, 44.267803 ] ] ] } },
{ "type": "Feature", "properties": { "OBJECTID": 136, "ID": "0013154665", "NAME": "VERNON MEM HSPTL", "ADDRESS": "507 SOUTH MAIN ST", "CITY": "VIROQUA", "STATE": "WI", "ZIP": "54665", "ZIP4": "NOT AVAILABLE", "TELEPHONE": "(608) 637-2101", "TYPE": "GENERAL ACUTE CARE", "STATUS": "OPEN", "POPULATION": 25, "COUNTY": "VERNON", "COUNTYFIPS": "55123", "COUNTRY": "USA", "LATITUDE": 43.551673973000099, "LONGITUDE": -90.888391278, "NAICS_CODE": "622110", "NAICS_DESC": "GENERAL MEDICAL AND SURGICAL HOSPITALS", "SOURCE": "https://www.dhs.wisconsin.gov/guide/hospital.htm", "SOURCEDATE": "2018-08-13T00:00:00.000Z", "VAL_METHOD": "IMAGERY", "VAL_DATE": "2014-02-10T00:00:00.000Z", "WEBSITE": "http://www.vmh.org", "STATE_ID": "1053", "ALT_NAME": "NOT AVAILABLE", "ST_FIPS": "55", "OWNER": "NON-PROFIT", "TTL_STAFF": -999, "BEDS": 25, "TRAUMA": "LEVEL IV", "HELIPAD": "N" }, "geometry": { "type": "Polygon", "coordinates": [ [ [ -90.799363741151637, 43.456644001181253 ], [ -90.93286843146771, 43.46617506887177 ], [ -91.032792, 43.560763 ], [ -90.962002, 43.614219 ], [ -90.955123, 43.6181 ], [ -90.861992, 43.651449 ], [ -90.858982, 43.65229 ], [ -90.858238, 43.652057 ], [ -90.8575177, 43.651728 ], [ -90.75632638917385, 43.562166470429801 ], [ -90.756097390264358, 43.561868469639442 ], [ -90.754234400196879, 43.55897046247528 ], [ -90.762933141519326, 43.527000621748435 ], [ -90.799363741151637, 43.456644001181253 ] ] ] } },
{ "type": "Feature", "properties": { "OBJECTID": 5425, "ID": "0095250401", "NAME": "MERCY MEDICAL CENTER-NORTH IOWA", "ADDRESS": "1000 FOURTH STREET SW", "CITY": "MASON CITY", "STATE": "IA", "ZIP": "50401", "ZIP4": "NOT AVAILABLE", "TELEPHONE": "(641) 428-7000", "TYPE": "GENERAL ACUTE CARE", "STATUS": "OPEN", "POPULATION": 346, "COUNTY": "CERRO GORDO", "COUNTYFIPS": "19033", "COUNTRY": "USA", "LATITUDE": 43.150075581000102, "LONGITUDE": -93.216719308999998, "NAICS_CODE": "622110", "NAICS_DESC": "GENERAL MEDICAL AND SURGICAL HOSPITALS", "SOURCE": "https://dia-hfd.iowa.gov/DIA_HFD/CTLEntitySearch.do", "SOURCEDATE": "2018-08-09T00:00:00.000Z", "VAL_METHOD": "IMAGERY/OTHER", "VAL_DATE": "2016-04-14T00:00:00.000Z", "WEBSITE": "http://www.mercynorthiowa.com", "STATE_ID": "NOT AVAILABLE", "ALT_NAME": "NOT AVAILABLE", "ST_FIPS": "19", "OWNER": "NOT AVAILABLE", "TTL_STAFF": -999, "BEDS": 346, "TRAUMA": "LEVEL II", "HELIPAD": "Y" }, "geometry": { "type": "Polygon", "coordinates": [ [ [ -93.2027018, 43.052267900000039 ], [ -93.3312918, 43.102662 ], [ -93.3737372, 43.14404650000003 ], [ -93.300293, 43.198636 ], [ -93.210501, 43.2274349 ], [ -93.1230708, 43.183728599999981 ], [ -93.083238, 43.148130299999977 ], [ -93.1156318, 43.114125 ], [ -93.2013292, 43.0522625 ], [ -93.2027018, 43.052267900000039 ] ] ] } },
{ "type": "Feature", "properties": { "OBJECTID": 5438, "ID": "0094550423", "NAME": "HANCOCK COUNTY HEALTH SYSTEM", "ADDRESS": "532 1ST ST NW", "CITY": "BRITT", "STATE": "IA", "ZIP": "50423", "ZIP4": "NOT AVAILABLE", "TELEPHONE": "(641) 843-5000", "TYPE": "CRITICAL ACCESS", "STATUS": "OPEN", "POPULATION": 25, "COUNTY": "HANCOCK", "COUNTYFIPS": "19081", "COUNTRY": "USA", "LATITUDE": 43.098214029000097, "LONGITUDE": -93.808195258999902, "NAICS_CODE": "622110", "NAICS_DESC": "GENERAL MEDICAL AND SURGICAL HOSPITALS", "SOURCE": "https://dia-hfd.iowa.gov/DIA_HFD/CTLEntitySearch.do", "SOURCEDATE": "2018-08-09T00:00:00.000Z", "VAL_METHOD": "IMAGERY/OTHER", "VAL_DATE": "2016-04-15T00:00:00.000Z", "WEBSITE": "http://www.trusthchs.com/hancock-county-health-system", "STATE_ID": "NOT AVAILABLE", "ALT_NAME": "NOT AVAILABLE", "ST_FIPS": "19", "OWNER": "GOVERNMENT - LOCAL", "TTL_STAFF": -999, "BEDS": 25, "TRAUMA": "LEVEL IV", "HELIPAD": "Y" }, "geometry": { "type": "Polygon", "coordinates": [ [ [ -93.7930794, 43.00952540000003 ], [ -93.9506038, 43.0971465 ], [ -93.9112111, 43.12624 ], [ -93.7928496, 43.183781799999963 ], [ -93.6757922, 43.1124127 ], [ -93.665909400000018, 43.105107799999956 ], [ -93.7930794, 43.00952540000003 ] ] ] } },
{ "type": "Feature", "properties": { "OBJECTID": 3998, "ID": "0003450441", "NAME": "FRANKLIN GENERAL HOSPITAL", "ADDRESS": "1720 CENTRAL AVENUE EAST, PO BOX 417", "CITY": "HAMPTON", "STATE": "IA", "ZIP": "50441", "ZIP4": "NOT AVAILABLE", "TELEPHONE": "(641) 456-5000", "TYPE": "CRITICAL ACCESS", "STATUS": "OPEN", "POPULATION": 25, "COUNTY": "FRANKLIN", "COUNTYFIPS": "19069", "COUNTRY": "USA", "LATITUDE": 42.743562556000001, "LONGITUDE": -93.185579575000006, "NAICS_CODE": "622110", "NAICS_DESC": "GENERAL MEDICAL AND SURGICAL HOSPITALS", "SOURCE": "https://dia-hfd.iowa.gov/DIA_HFD/CTLEntitySearch.do", "SOURCEDATE": "2018-08-09T00:00:00.000Z", "VAL_METHOD": "IMAGERY", "VAL_DATE": "2016-04-15T00:00:00.000Z", "WEBSITE": "http://www.franklingeneral.com", "STATE_ID": "NOT AVAILABLE", "ALT_NAME": "NOT AVAILABLE", "ST_FIPS": "19", "OWNER": "GOVERNMENT - LOCAL", "TTL_STAFF": -999, "BEDS": 25, "TRAUMA": "LEVEL IV", "HELIPAD": "Y" }, "geometry": { "type": "Polygon", "coordinates": [ [ [ -93.2033813, 42.650700199999918 ], [ -93.320750800000013, 42.745382800000058 ], [ -93.2023662, 42.833546899999959 ], [ -93.025888101496633, 42.745125501214766 ], [ -93.1296147, 42.677299299999952 ], [ -93.2033813, 42.650700199999918 ] ] ] } }
]
}
