{
"type": "FeatureCollection",
"crs": { "type": "name", "properties": { "name": "urn:ogc:def:crs:OGC:1.3:CRS84" } },
"features": [
{ "type": "Feature", "properties": { "OBJECTID": 1031, "ID": "0011527962", "NAME": "WASHINGTON COUNTY HOSPITAL", "ADDRESS": "958 U S HIGHWAY 64 EAST", "CITY": "PLYMOUTH", "STATE": "NC", "ZIP": "27962", "ZIP4": "NOT AVAILABLE", "TELEPHONE": "(252) 793-4135", "TYPE": "GENERAL ACUTE CARE", "STATUS": "OPEN", "POPULATION": 49, "COUNTY": "WASHINGTON", "COUNTYFIPS": "37187", "COUNTRY": "USA", "LATITUDE": 35.862782083000099, "LONGITUDE": -76.729283680999998, "NAICS_CODE": "622110", "NAICS_DESC": "GENERAL MEDICAL AND SURGICAL HOSPITALS", "SOURCE": "https://www2.ncdhhs.gov/dhsr/reports.htm", "SOURCEDATE": "2018-08-10T00:00:00.000Z", "VAL_METHOD": "IMAGERY/OTHER", "VAL_DATE": "2014-02-11T00:00:00.000Z", "WEBSITE": "wch.hmccah.com/?", "STATE_ID": "NOT AVAILABLE", "ALT_NAME": "NOT AVAILABLE", "ST_FIPS": "37", "OWNER": "GOVERNMENT - LOCAL", "TTL_STAFF": -999, "BEDS": 49, "TRAUMA": "NOT AVAILABLE", "HELIPAD": "N" }, "geometry": { "type": "Polygon", "coordinates": [ [ [ -76.7969788, 35.7676109 ], [ -76.782161, 35.833832 ], [ -76.774632, 35.853709199999976 ], [ -76.7228215, 35.914906100000017 ], [ -76.630946, 35.923929 ], [ -76.609398, 35.901313 ], [ -76.6064574, 35.88909 ], [ -76.6049532, 35.868604600000019 ], [ -76.607884900000016, 35.8631317 ], [ -76.704431, 35.775708 ], [ -76.7969788, 35.7676109 ] ] ] } },
{ "type": "Feature", "properties": { "OBJECTID": 1184, "ID": "0002427906", "NAME": "SENTARA ALBEMARLE MEDICAL CENTER", "ADDRESS": "1144 NORTH ROAD STREET", "CITY": "ELIZABETH CITY", "STATE": "NC", "ZIP": "27906", "ZIP4": "NOT AVAILABLE", "TELEPHONE": "(252) 384-4600", "TYPE": "GENERAL ACUTE CARE", "STATUS": "OPEN", "POPULATION": 182, "COUNTY": "PASQUOTANK", "COUNTYFIPS": "37139", "COUNTRY": "USA", "LATITUDE": 36.323596314, "LONGITUDE": -76.217933328999905, "NAICS_CODE": "622110", "NAICS_DESC": "GENERAL MEDICAL AND SURGICAL HOSPITALS", "SOURCE": "https://www2.ncdhhs.gov/dhsr/reports.htm", "SOURCEDATE": "2018-08-10T00:00:00.000Z", "VAL_METHOD": "IMAGERY/OTHER", "VAL_DATE": "2014-02-10T00:00:00.000Z", "WEBSITE": "http://www.sentara.com/albemarle-north-carolina/default.aspx", "STATE_ID": "NOT AVAILABLE", "ALT_NAME": "ALBEMARLE HOSPITAL", "ST_FIPS": "37", "OWNER": "NON-PROFIT", "TTL_STAFF": -999, "BEDS": 182, "TRAUMA": "NOT AVAILABLE", "HELIPAD": "Y" }, "geometry": { "type": "Polygon", "coordinates": [ [ [ -76.252113, 36.234431 ], [ -76.3080176, 36.255474700000036 ], [ -76.316241, 36.269224 ], [ -76.320585, 36.389151 ], [ -76.3203983, 36.389253099999962 ], [ -76.2680422, 36.372344299999966 ], [ -76.217033, 36.340312 ], [ -76.1820476, 36.27445240000003 ], [ -76.17311, 36.250916 ], [ -76.1732784, 36.2437828 ], [ -76.252113, 36.234431 ] ] ] } },
{ "type": "Feature", "properties": { "OBJECTID": 1192, "ID": "0001627874", "NAME": "OUR COMMUNITY HOSPITAL", "ADDRESS": "921 JUNIOR HIGH ROAD", "CITY": "SCOTLAND NECK", "STATE": "NC", "ZIP": "27874", "ZIP4": "NOT AVAILABLE", "TELEPHONE": "(252) 826-4144", "TYPE": "GENERAL ACUTE CARE", "STATUS": "OPEN", "POPULATION": 100, "COUNTY": "HALIFAX", "COUNTYFIPS": "37083", "COUNTRY": "USA", "LATITUDE": 36.129142144000099, "LONGITUDE": -77.429718658, "NAICS_CODE": "622110", "NAICS_DESC": "GENERAL MEDICAL AND SURGICAL HOSPITALS", "SOURCE": "https://www2.ncdhhs.gov/dhsr/reports.htm", "SOURCEDATE": "2018-08-10T00:00:00.000Z", "VAL_METHOD": "IMAGERY/OTHER", "VAL_DATE": "2014-02-10T00:00:00.000Z", "WEBSITE": "http://www.och-bltc.org", "STATE_ID": "NOT AVAILABLE", "ALT_NAME": "NOT AVAILABLE", "ST_FIPS": "37", "OWNER": "NON-PROFIT", "TTL_STAFF": -999, "BEDS": 100, "TRAUMA": "NOT AVAILABLE", "HELIPAD": "Y" }, "geometry": { "type": "Polygon", "coordinates": [ [ [ -77.493714, 36.050622 ], [ -77.543238, 36.151964 ], [ -77.547019, 36.211044 ], [ -77.3828383, 36.209667499999988 ], [ -77.34461, 36.091264 ], [ -77.3393073, 36.0646376 ], [ -77.413538, 36.049444 ], [ -77.493714, 36.050622 ] ] ] } },
{ "type": "Feature", "properties": { "OBJECTID": 1196, "ID": "0009627910", "NAME": "VIDANT ROANOKE-CHOWAN HOSPITAL", "ADDRESS": "500 SOUTH ACADEMY STREET", "CITY": "AHOSKIE", "STATE": "NC", "ZIP": "27910", "ZIP4": "NOT AVAILABLE", "TELEPHONE": "(252) 209-3000", "TYPE": "GENERAL ACUTE CARE", "STATUS": "OPEN", "POPULATION": 114, "COUNTY": "HERTFORD", "COUNTYFIPS": "37091", "COUNTRY": "USA", "LATITUDE": 36.285431303000102, "LONGITUDE": -76.9952349819999, "NAICS_CODE": "622110", "NAICS_DESC": "GENERAL MEDICAL AND SURGICAL HOSPITALS", "SOURCE": "https://www2.ncdhhs.gov/dhsr/reports.htm", "SOURCEDATE": "2018-08-10T00:00:00.000Z", "VAL_METHOD": "IMAGERY/OTHER", "VAL_DATE": "2014-02-10T00:00:00.000Z", "WEBSITE": "https://www.vidanthealth.com/roanokechowan/dynamic-detail.aspx?id=449", "STATE_ID": "NOT AVAILABLE", "ALT_NAME": "NOT AVAILABLE", "ST_FIPS": "37", "OWNER": "NON-PROFIT", "TTL_STAFF": -999, "BEDS": 114, "TRAUMA": "NOT AVAILABLE", "HELIPAD": "N" }, "geometry": { "type": "Polygon", "coordinates": [ [ [ -77.0928991, 36.2378352 ], [ -77.103457600000013, 36.243510599999986 ], [ -77.0938033, 36.306187800000011 ], [ -77.0244873, 36.3693794 ], [ -76.9485865, 36.3716659 ], [ -76.8854053, 36.27808510000002 ], [ -76.9153626, 36.2179172 ], [ -76.9426103, 36.2169229 ], [ -77.0928991, 36.2378352 ] ] ] } },
{ "type": "Feature", "properties": { "OBJECTID": 1747, "ID": "0016123225", "NAME": "HUNTER HOLMES MCGUIRE VA MEDICAL CENTER", "ADDRESS": "1201 BROAD ROCK BLVD", "CITY": "RICHMOND", "STATE": "VA", "ZIP": "23225", "ZIP4": "NOT AVAILABLE", "TELEPHONE": "(804) 675-5000", "TYPE": "GENERAL ACUTE CARE", "STATUS": "OPEN", "POPULATION": -999, "COUNTY": "RICHMOND CITY", "COUNTYFIPS": "51760", "COUNTRY": "USA", "LATITUDE": 37.498074287000101, "LONGITUDE": -77.467684882, "NAICS_CODE": "622110", "NAICS_DESC": "GENERAL MEDICAL AND SURGICAL HOSPITALS", "SOURCE": "https://www.va.gov/directory/guide/allstate.asp", "SOURCEDATE": "2018-09-26T00:00:00.000Z", "VAL_METHOD": "IMAGERY/OTHER", "VAL_DATE": "2015-05-29T00:00:00.000Z", "WEBSITE": "http://www.richmond.va.gov/", "STATE_ID": "NOT AVAILABLE", "ALT_NAME": "NOT AVAILABLE", "ST_FIPS": "51", "OWNER": "GOVERNMENT - FEDERAL", "TTL_STAFF": -999, "BEDS": -999, "TRAUMA": "NOT AVAILABLE", "HELIPAD": "Y" }, "geometry": { "type": "Polygon", "coordinates": [ [ [ -77.439842, 37.429127 ], [ -77.473103, 37.434654 ], [ -77.551173, 37.482524 ], [ -77.561897, 37.489768 ], [ -77.567394, 37.496001 ], [ -77.5691554, 37.498231800000028 ], [ -77.5383957, 37.543 ], [ -77.4823607, 37.5656212 ], [ -77.4594114, 37.573744 ], [ -77.445107600000014, 37.5720792 ], [ -77.4286578, 37.566623 ], [ -77.408378, 37.558796 ], [ -77.40821, 37.558728 ], [ -77.390426, 37.543943 ], [ -77.394897, 37.524975399999981 ], [ -77.4232088, 37.441811699999974 ], [ -77.439842, 37.429127 ] ] ] } },
{ "type": "Feature", "properties": { "OBJECTID": 2198, "ID": "0003127889", "NAME": "VIDANT BEAUFORT HOSPITAL", "ADDRESS": "628 EAST TWELFTH ST", "CITY": "WASHINGTON", "STATE": "NC", "ZIP": "27889", "ZIP4": "NOT AVAILABLE", "TELEPHONE": "(252) 975-4100", "TYPE": "GENERAL ACUTE CARE", "STATUS": "OPEN", "POPULATION": 142, "COUNTY": "BEAUFORT", "COUNTYFIPS": "37013", "COUNTRY": "USA", "LATITUDE": 35.549221908000099, "LONGITUDE": -77.037838049000001, "NAICS_CODE": "622110", "NAICS_DESC": "GENERAL MEDICAL AND SURGICAL HOSPITALS", "SOURCE": "https://www2.ncdhhs.gov/dhsr/reports.htm", "SOURCEDATE": "2018-08-10T00:00:00.000Z", "VAL_METHOD": "IMAGERY/OTHER", "VAL_DATE": "2013-10-01T00:00:00.000Z", "WEBSITE": "https://www.vidanthealth.com/beaufort/", "STATE_ID": "NOT AVAILABLE", "ALT_NAME": "BEAUFORT COUNTY HOSPITAL", "ST_FIPS": "37", "OWNER": "NON-PROFIT", "TTL_STAFF": -999, "BEDS": 142, "TRAUMA": "NOT AVAILABLE", "HELIPAD": "N" }, "geometry": { "type": "Polygon", "coordinates": [ [ [ -77.1079729, 35.489132800000014 ], [ -77.1081795, 35.489182799999988 ], [ -77.129584400000013, 35.521213800000019 ], [ -77.134363, 35.6036925 ], [ -77.134428, 35.60733 ], [ -77.1132871, 35.6317109 ], [ -77.0703362, 35.651408500000059 ], [ -77.0293351, 35.6594784 ], [ -76.9346184, 35.575074699999981 ], [ -76.921505, 35.550079199999978 ], [ -76.9239414, 35.518454099999971 ], [ -76.959905, 35.491558 ], [ -76.960499, 35.491291 ], [ -76.9615399, 35.490969499999984 ], [ -76.9761495, 35.488469500000022 ], [ -76.9774026, 35.488368500000036 ], [ -77.0727837, 35.4875527 ], [ -77.1079729, 35.489132800000014 ] ] ] } },
{ "type": "Feature", "properties": { "OBJECTID": 2203, "ID": "0007427870", "NAME": "HALIFAX REGIONAL MEDICAL CENTER", "ADDRESS": "250 SMITH CHURCH ROAD", "CITY": "ROANOKE RAPIDS", "STATE": "NC", "ZIP": "27870", "ZIP4": "NOT AVAILABLE", "TELEPHONE": "(252) 535-8011", "TYPE": "GENERAL ACUTE CARE", "STATUS": "OPEN", "POPULATION": 206, "COUNTY": "HALIFAX", "COUNTYFIPS": "37083", "COUNTRY": "USA", "LATITUDE": 36.4320062090001, "LONGITUDE": -77.646414115, "NAICS_CODE": "622110", "NAICS_DESC": "GENERAL MEDICAL AND SURGICAL HOSPITALS", "SOURCE": "https://www2.ncdhhs.gov/dhsr/reports.htm", "SOURCEDATE": "2018-08-10T00:00:00.000Z", "VAL_METHOD": "IMAGERY", "VAL_DATE": "2014-02-10T00:00:00.000Z", "WEBSITE": "http://www.halifaxmedicalcenter.org", "STATE_ID": "NOT AVAILABLE", "ALT_NAME": "NOT AVAILABLE", "ST_FIPS": "37", "OWNER": "NON-PROFIT", "TTL_STAFF": -999, "BEDS": 206, "TRAUMA": "NOT AVAILABLE", "HELIPAD": "Y" }, "geometry": { "type": "Polygon", "coordinates": [ [ [ -77.600954, 36.332977 ], [ -77.6697495, 36.348635800000032 ], [ -77.7694899, 36.394337799999967 ], [ -77.75016, 36.445414 ], [ -77.736517, 36.457354 ], [ -77.728635, 36.462782 ], [ -77.707751, 36.476675 ], [ -77.705269, 36.478047 ], [ -77.69723, 36.478477 ], [ -77.645721, 36.480758 ], [ -77.576839, 36.422773 ], [ -77.600954, 36.332977 ] ] ] } },
{ "type": "Feature", "properties": { "OBJECTID": 2206, "ID": "0004928557", "NAME": "CARTERET GENERAL HOSPITAL", "ADDRESS": "3500 ARENDELL STREET", "CITY": "MOREHEAD CITY", "STATE": "NC", "ZIP": "28557", "ZIP4": "NOT AVAILABLE", "TELEPHONE": "(252) 808-6000", "TYPE": "GENERAL ACUTE CARE", "STATUS": "OPEN", "POPULATION": 135, "COUNTY": "CARTERET", "COUNTYFIPS": "37031", "COUNTRY": "USA", "LATITUDE": 34.726209498000102, "LONGITUDE": -76.755041171000002, "NAICS_CODE": "622110", "NAICS_DESC": "GENERAL MEDICAL AND SURGICAL HOSPITALS", "SOURCE": "https://www2.ncdhhs.gov/dhsr/reports.htm", "SOURCEDATE": "2018-08-10T00:00:00.000Z", "VAL_METHOD": "IMAGERY/OTHER", "VAL_DATE": "2013-09-30T00:00:00.000Z", "WEBSITE": "http://www.ccgh.org", "STATE_ID": "NOT AVAILABLE", "ALT_NAME": "NOT AVAILABLE", "ST_FIPS": "37", "OWNER": "GOVERNMENT - LOCAL", "TTL_STAFF": -999, "BEDS": 135, "TRAUMA": "NOT AVAILABLE", "HELIPAD": "N" }, "geometry": { "type": "Polygon", "coordinates": [ [ [ -76.8166921, 34.6955672 ], [ -76.898595, 34.728977 ], [ -76.8719808, 34.777378399999968 ], [ -76.859501, 34.786755 ], [ -76.725934, 34.761141 ], [ -76.724635, 34.760794 ], [ -76.6523369, 34.7370268 ], [ -76.6496797, 34.735338700000014 ], [ -76.6478205, 34.726859499999982 ], [ -76.6557051, 34.716778699999949 ], [ -76.6777252, 34.6969575 ], [ -76.700956, 34.695201 ], [ -76.8166921, 34.6955672 ] ] ] } },
{ "type": "Feature", "properties": { "OBJECTID": 2210, "ID": "0009327810", "NAME": "PUNGO DISTRICT HOSPITAL CORPORATION", "ADDRESS": "202 EAST WATER ST", "CITY": "BELHAVEN", "STATE": "NC", "ZIP": "27810", "ZIP4": "NOT AVAILABLE", "TELEPHONE": "(252) 943-2111", "TYPE": "GENERAL ACUTE CARE", "STATUS": "CLOSED", "POPULATION": 49, "COUNTY": "BEAUFORT", "COUNTYFIPS": "37013", "COUNTRY": "USA", "LATITUDE": 35.537850370999998, "LONGITUDE": -76.623319124000005, "NAICS_CODE": "622110", "NAICS_DESC": "GENERAL MEDICAL AND SURGICAL HOSPITALS", "SOURCE": "https://www2.ncdhhs.gov/dhsr/data/hllist.pdf", "SOURCEDATE": "2012-07-03T00:00:00.000Z", "VAL_METHOD": "IMAGERY/OTHER", "VAL_DATE": "2014-02-10T00:00:00.000Z", "WEBSITE": "http://www.vidanthealth.com/vidant/dynamic-detail.aspx?id=11781", "STATE_ID": "NOT AVAILABLE", "ALT_NAME": "NOT AVAILABLE", "ST_FIPS": "37", "OWNER": "NON-PROFIT", "TTL_STAFF": -999, "BEDS": 49, "TRAUMA": "NOT AVAILABLE", "HELIPAD": "Y" }, "geometry": { "type": "Polygon", "coordinates": [ [ [ -76.6748291, 35.467937 ], [ -76.6783531, 35.4702891 ], [ -76.7272933, 35.529813599999969 ], [ -76.7274802, 35.533283199999978 ], [ -76.6899155, 35.62342910000001 ], [ -76.5005316, 35.571990300000031 ], [ -76.499298, 35.568292 ], [ -76.5447971, 35.533567599999976 ], [ -76.6507677, 35.471556 ], [ -76.6748291, 35.467937 ] ] ] } },
{ "type": "Feature", "properties": { "OBJECTID": 2215, "ID": "0005728561", "NAME": "CAROLINA EAST HEALTH SYSTEM", "ADDRESS": "2000 NEUSE BLVD", "CITY": "NEW BERN", "STATE": "NC", "ZIP": "28561", "ZIP4": "NOT AVAILABLE", "TELEPHONE": "(252) 633-8640", "TYPE": "GENERAL ACUTE CARE", "STATUS": "OPEN", "POPULATION": 350, "COUNTY": "CRAVEN", "COUNTYFIPS": "37049", "COUNTRY": "USA", "LATITUDE": 35.113401928000002, "LONGITUDE": -77.065942891999995, "NAICS_CODE": "622110", "NAICS_DESC": "GENERAL MEDICAL AND SURGICAL HOSPITALS", "SOURCE": "https://www2.ncdhhs.gov/dhsr/reports.htm", "SOURCEDATE": "2018-08-10T00:00:00.000Z", "VAL_METHOD": "IMAGERY/OTHER", "VAL_DATE": "2014-02-10T00:00:00.000Z", "WEBSITE": "http://www.carolinaeasthealth.com/", "STATE_ID": "NOT AVAILABLE", "ALT_NAME": "NOT AVAILABLE", "ST_FIPS": "37", "OWNER": "GOVERNMENT - DISTRICT/AUTHORITY", "TTL_STAFF": -999, "BEDS": 350, "TRAUMA": "NOT AVAILABLE", "HELIPAD": "Y" }, "geometry": { "type": "Polygon", "coordinates": [ [ [ -77.144793, 35.064637 ], [ -77.1806804, 35.070928800000011 ], [ -77.1807849, 35.071056699999986 ], [ -77.221129, 35.153345 ], [ -77.131971, 35.193523 ], [ -76.990202, 35.13514 ], [ -77.0124181, 35.0471516 ], [ -77.0125899, 35.0471062 ], [ -77.144793, 35.064637 ] ] ] } },
{ "type": "Feature", "properties": { "OBJECTID": 2436, "ID": "0146222401", "NAME": "HEALTHSOUTH REHABILIATION HOSPITAL OF FREDERICKSBURG", "ADDRESS": "300 PARK HILL DRIVE", "CITY": "FREDERICKSBURG", "STATE": "VA", "ZIP": "22401", "ZIP4": "NOT AVAILABLE", "TELEPHONE": "(540) 368-7325", "TYPE": "REHABILITATION", "STATUS": "OPEN", "POPULATION": 52, "COUNTY": "FREDERICKSBURG", "COUNTYFIPS": "51630", "COUNTRY": "USA", "LATITUDE": 38.313240397000101, "LONGITUDE": -77.486259891000003, "NAICS_CODE": "622310", "NAICS_DESC": "REHABILITATION HOSPITALS (EXCEPT ALCOHOLISM, DRUG ADDICTION)", "SOURCE": "http://www.vhi.org", "SOURCEDATE": "2018-08-09T00:00:00.000Z", "VAL_METHOD": "IMAGERY/OTHER", "VAL_DATE": "2015-03-26T00:00:00.000Z", "WEBSITE": "www.fredericksburgrehabhospital.com", "STATE_ID": "NOT AVAILABLE", "ALT_NAME": "NOT AVAILABLE", "ST_FIPS": "51", "OWNER": "PROPRIETARY", "TTL_STAFF": -999, "BEDS": 52, "TRAUMA": "NOT AVAILABLE", "HELIPAD": "N" }, "geometry": { "type": "Polygon", "coordinates": [ [ [ -77.539369, 38.252163 ], [ -77.573731, 38.274406 ], [ -77.584549700000011, 38.293766700000042 ], [ -77.5428738, 38.381818599999988 ], [ -77.542746, 38.381923 ], [ -77.431285, 38.396443 ], [ -77.428848, 38.396324 ], [ -77.428104, 38.395252 ], [ -77.379226, 38.319266 ], [ -77.37552, 38.300515 ], [ -77.4003, 38.258814 ], [ -77.4262045, 38.253090899999954 ], [ -77.4987056, 38.249688299999974 ], [ -77.533503, 38.251322 ], [ -77.539369, 38.252163 ] ] ] } },
{ "type": "Feature", "properties": { "OBJECTID": 2444, "ID": "0019323805", "NAME": "POPLAR SPRINGS HOSPITAL", "ADDRESS": "350 POPLAR DRIVE", "CITY": "PETERSBURG", "STATE": "VA", "ZIP": "23805", "ZIP4": "NOT AVAILABLE", "TELEPHONE": "(804) 733-6874", "TYPE": "PSYCHIATRIC", "STATUS": "OPEN", "POPULATION": 208, "COUNTY": "PETERSBURG", "COUNTYFIPS": "51730", "COUNTRY": "USA", "LATITUDE": 37.187335227000098, "LONGITUDE": -77.359396641000004, "NAICS_CODE": "622210", "NAICS_DESC": "PSYCHIATRIC AND SUBSTANCE ABUSE HOSPITALS", "SOURCE": "http://www.vhi.org", "SOURCEDATE": "2018-08-09T00:00:00.000Z", "VAL_METHOD": "IMAGERY/OTHER", "VAL_DATE": "2017-03-07T00:00:00.000Z", "WEBSITE": "www.poplarsprings.com", "STATE_ID": "NOT AVAILABLE", "ALT_NAME": "NOT AVAILABLE", "ST_FIPS": "51", "OWNER": "PROPRIETARY", "TTL_STAFF": -999, "BEDS": 208, "TRAUMA": "NOT AVAILABLE", "HELIPAD": "N" }, "geometry": { "type": "Polygon", "coordinates": [ [ [ -77.360495, 37.078141 ], [ -77.360973, 37.078345 ], [ -77.370715, 37.086053 ], [ -77.445552, 37.196985 ], [ -77.445568, 37.217084 ], [ -77.4174756, 37.232724 ], [ -77.4045147, 37.237621799999985 ], [ -77.317792, 37.252287 ], [ -77.300695, 37.240981 ], [ -77.27219, 37.220267 ], [ -77.269472, 37.185004 ], [ -77.2749332, 37.155729799999975 ], [ -77.352654, 37.077812 ], [ -77.360495, 37.078141 ] ] ] } },
{ "type": "Feature", "properties": { "OBJECTID": 2459, "ID": "0014423188", "NAME": "SENTARA WILLIAMSBURG REGIONAL MEDICAL CENTER", "ADDRESS": "100 SENTARA CIRCLE", "CITY": "WILLIAMSBURG", "STATE": "VA", "ZIP": "23188", "ZIP4": "NOT AVAILABLE", "TELEPHONE": "(757) 984-6000", "TYPE": "GENERAL ACUTE CARE", "STATUS": "OPEN", "POPULATION": 145, "COUNTY": "YORK", "COUNTYFIPS": "51199", "COUNTRY": "USA", "LATITUDE": 37.336320978000103, "LONGITUDE": -76.740891796, "NAICS_CODE": "622110", "NAICS_DESC": "GENERAL MEDICAL AND SURGICAL HOSPITALS", "SOURCE": "http://www.vhi.org", "SOURCEDATE": "2018-08-09T00:00:00.000Z", "VAL_METHOD": "IMAGERY", "VAL_DATE": "2014-02-10T00:00:00.000Z", "WEBSITE": "http://www.sentara.com/HospitalsFacilities/Hospitals/Williamsburg/Pages/williamsburgregionalmedical.aspx", "STATE_ID": "NOT AVAILABLE", "ALT_NAME": "NOT AVAILABLE", "ST_FIPS": "51", "OWNER": "NON-PROFIT", "TTL_STAFF": -999, "BEDS": 145, "TRAUMA": "NOT AVAILABLE", "HELIPAD": "Y" }, "geometry": { "type": "Polygon", "coordinates": [ [ [ -76.763467, 37.249279 ], [ -76.768166, 37.250588 ], [ -76.7886653, 37.2631269 ], [ -76.807334, 37.275206 ], [ -76.833935, 37.321693 ], [ -76.838674, 37.348947 ], [ -76.832407, 37.382723 ], [ -76.814655, 37.407817 ], [ -76.8086292, 37.410548399999975 ], [ -76.80195040000001, 37.411220200000038 ], [ -76.743087, 37.41534 ], [ -76.742188, 37.415065 ], [ -76.6897751, 37.36200220000002 ], [ -76.6872928, 37.358044299999968 ], [ -76.6801618, 37.3218924 ], [ -76.6786879, 37.312672900000017 ], [ -76.6814538, 37.3006411 ], [ -76.7297543, 37.253684299999968 ], [ -76.763467, 37.249279 ] ] ] } },
{ "type": "Feature", "properties": { "OBJECTID": 2460, "ID": "0012923502", "NAME": "LAKE TAYLOR TRANSITIONAL CARE HOSPITAL", "ADDRESS": "1309 KEMPSVILLE ROAD", "CITY": "NORFOLK", "STATE": "VA", "ZIP": "23502", "ZIP4": "NOT AVAILABLE", "TELEPHONE": "(757) 461-5000", "TYPE": "LONG TERM CARE", "STATUS": "OPEN", "POPULATION": 104, "COUNTY": "NORFOLK", "COUNTYFIPS": "51710", "COUNTRY": "USA", "LATITUDE": 36.867130358000097, "LONGITUDE": -76.206237684000001, "NAICS_CODE": "622310", "NAICS_DESC": "SPECIALTY (EXCEPT PSYCHIATRIC AND SUBSTANCE ABUSE) HOSPITALS", "SOURCE": "http://www.vhi.org", "SOURCEDATE": "2018-08-09T00:00:00.000Z", "VAL_METHOD": "IMAGERY", "VAL_DATE": "2014-02-10T00:00:00.000Z", "WEBSITE": "www.laketaylor.org", "STATE_ID": "NOT AVAILABLE", "ALT_NAME": "NOT AVAILABLE", "ST_FIPS": "51", "OWNER": "GOVERNMENT - DISTRICT/AUTHORITY", "TTL_STAFF": -999, "BEDS": 104, "TRAUMA": "NOT AVAILABLE", "HELIPAD": "Y" }, "geometry": { "type": "Polygon", "coordinates": [ [ [ -76.1747021, 36.797123799999973 ], [ -76.273545, 36.81719 ], [ -76.274886, 36.817729 ], [ -76.287138, 36.823965 ], [ -76.3051563, 36.8561498 ], [ -76.309231, 36.865663 ], [ -76.309638, 36.866772 ], [ -76.309587, 36.870071 ], [ -76.286409, 36.926875600000024 ], [ -76.257785, 36.943812 ], [ -76.242996, 36.949051 ], [ -76.135514, 36.920376 ], [ -76.099584, 36.909338 ], [ -76.0967991, 36.907899399999984 ], [ -76.096443300000018, 36.83684550000001 ], [ -76.117572, 36.817077 ], [ -76.132893800000019, 36.804174199999984 ], [ -76.1330543, 36.804110099999988 ], [ -76.1747021, 36.797123799999973 ] ] ] } },
{ "type": "Feature", "properties": { "OBJECTID": 2461, "ID": "0011123220", "NAME": "HENRICO DOCTORS' HOSPITAL - RETREAT", "ADDRESS": "2621 GROVE AVENUE", "CITY": "RICHMOND", "STATE": "VA", "ZIP": "23220", "ZIP4": "NOT AVAILABLE", "TELEPHONE": "(804) 254-5100", "TYPE": "GENERAL ACUTE CARE", "STATUS": "OPEN", "POPULATION": 227, "COUNTY": "RICHMOND CITY", "COUNTYFIPS": "51760", "COUNTRY": "USA", "LATITUDE": 37.553912977000003, "LONGITUDE": -77.473118538999998, "NAICS_CODE": "622110", "NAICS_DESC": "GENERAL MEDICAL AND SURGICAL HOSPITALS", "SOURCE": "http://www.vhi.org", "SOURCEDATE": "2018-08-09T00:00:00.000Z", "VAL_METHOD": "IMAGERY", "VAL_DATE": "2014-02-10T00:00:00.000Z", "WEBSITE": "http://hcavirginia.com/locations/retreat-doctors-hospital/index.dot", "STATE_ID": "NOT AVAILABLE", "ALT_NAME": "RETREAT DOCTORS HOSPITAL", "ST_FIPS": "51", "OWNER": "PROPRIETARY", "TTL_STAFF": -999, "BEDS": 227, "TRAUMA": "NOT AVAILABLE", "HELIPAD": "N" }, "geometry": { "type": "Polygon", "coordinates": [ [ [ -77.42745810000001, 37.462138599999982 ], [ -77.5105825, 37.486590799999959 ], [ -77.5294225, 37.5005604 ], [ -77.564897, 37.531006 ], [ -77.5677023, 37.5347858 ], [ -77.5677464, 37.534892100000022 ], [ -77.5679625, 37.550651500000029 ], [ -77.556274, 37.593016 ], [ -77.5462638, 37.620629799999989 ], [ -77.5094703, 37.636507100000017 ], [ -77.4503838, 37.657725900000024 ], [ -77.429016, 37.637028 ], [ -77.4254706, 37.6334737 ], [ -77.386249, 37.579796 ], [ -77.381258, 37.57193 ], [ -77.380485, 37.56939 ], [ -77.374237, 37.541269 ], [ -77.38954, 37.511234 ], [ -77.42745810000001, 37.462138599999982 ] ] ] } },
{ "type": "Feature", "properties": { "OBJECTID": 2464, "ID": "0014922560", "NAME": "RIVERSIDE TAPPAHANNOCK HOSPITAL", "ADDRESS": "618 HOSPITAL ROAD", "CITY": "TAPPAHANNOCK", "STATE": "VA", "ZIP": "22560", "ZIP4": "NOT AVAILABLE", "TELEPHONE": "(804) 443-3310", "TYPE": "GENERAL ACUTE CARE", "STATUS": "OPEN", "POPULATION": 67, "COUNTY": "ESSEX", "COUNTYFIPS": "51057", "COUNTRY": "USA", "LATITUDE": 37.901245981000002, "LONGITUDE": -76.878875816999894, "NAICS_CODE": "622110", "NAICS_DESC": "GENERAL MEDICAL AND SURGICAL HOSPITALS", "SOURCE": "http://www.vhi.org", "SOURCEDATE": "2018-08-09T00:00:00.000Z", "VAL_METHOD": "IMAGERY", "VAL_DATE": "2014-02-10T00:00:00.000Z", "WEBSITE": "www.riverside-online.com/rth", "STATE_ID": "NOT AVAILABLE", "ALT_NAME": "NOT AVAILABLE", "ST_FIPS": "51", "OWNER": "NON-PROFIT", "TTL_STAFF": -999, "BEDS": 67, "TRAUMA": "NOT AVAILABLE", "HELIPAD": "Y" }, "geometry": { "type": "Polygon", "coordinates": [ [ [ -76.943897, 37.823649 ], [ -76.9475753, 37.8285736 ], [ -76.94789, 37.829095 ], [ -76.971577, 37.896892 ], [ -76.915714, 37.966121 ], [ -76.896453, 37.963847 ], [ -76.8420099, 37.939940799999988 ], [ -76.798207, 37.895093 ], [ -76.795058, 37.890505 ], [ -76.78472, 37.873979 ], [ -76.7791877, 37.804814600000029 ], [ -76.7792787, 37.804620099999951 ], [ -76.943897, 37.823649 ] ] ] } },
{ "type": "Feature", "properties": { "OBJECTID": 2465, "ID": "0019922401", "NAME": "COMMONWEALTH CENTER FOR CHILDREN AND ADOLESCENTS", "ADDRESS": "1355 RICHMOND RD", "CITY": "STAUNTON", "STATE": "VA", "ZIP": "22401", "ZIP4": "9124", "TELEPHONE": "(540) 332-2100", "TYPE": "PSYCHIATRIC", "STATUS": "OPEN", "POPULATION": -999, "COUNTY": "STAUNTON", "COUNTYFIPS": "51790", "COUNTRY": "USA", "LATITUDE": 38.131845814000002, "LONGITUDE": -79.035330519, "NAICS_CODE": "622210", "NAICS_DESC": "PSYCHIATRIC AND SUBSTANCE ABUSE HOSPITALS", "SOURCE": "http://www.vhi.org", "SOURCEDATE": "2018-08-09T00:00:00.000Z", "VAL_METHOD": "IMAGERY/OTHER", "VAL_DATE": "2017-03-09T00:00:00.000Z", "WEBSITE": "http://www.ccca.dbhds.virginia.gov/", "STATE_ID": "NOT AVAILABLE", "ALT_NAME": "NOT AVAILABLE", "ST_FIPS": "51", "OWNER": "GOVERNMENT - STATE", "TTL_STAFF": -999, "BEDS": -999, "TRAUMA": "NOT AVAILABLE", "HELIPAD": "N" }, "geometry": { "type": "Polygon", "coordinates": [ [ [ -79.142843, 38.015154 ], [ -79.1456828, 38.033823900000044 ], [ -79.14736, 38.153449 ], [ -79.139048, 38.159334 ], [ -79.125318, 38.168191 ], [ -79.0984271, 38.182785700000025 ], [ -78.952434, 38.252904 ], [ -78.922495, 38.150487 ], [ -78.922404, 38.079501 ], [ -78.951593, 38.052947 ], [ -78.98852, 38.045535 ], [ -79.142843, 38.015154 ] ] ] } },
{ "type": "Feature", "properties": { "OBJECTID": 2466, "ID": "0020223922", "NAME": "PIEDMONT GERIATRIC HOSPITAL", "ADDRESS": "5001 E. PATRICK HENRY HIGHWAY", "CITY": "BURKEVILLE", "STATE": "VA", "ZIP": "23922", "ZIP4": "0427", "TELEPHONE": "(434) 767-4401", "TYPE": "PSYCHIATRIC", "STATUS": "OPEN", "POPULATION": 123, "COUNTY": "NOTTOWAY", "COUNTYFIPS": "51135", "COUNTRY": "USA", "LATITUDE": 37.192304201000098, "LONGITUDE": -78.175096380999904, "NAICS_CODE": "622210", "NAICS_DESC": "PSYCHIATRIC AND SUBSTANCE ABUSE HOSPITALS", "SOURCE": "http://www.vhi.org", "SOURCEDATE": "2018-08-09T00:00:00.000Z", "VAL_METHOD": "IMAGERY/OTHER", "VAL_DATE": "2017-03-09T00:00:00.000Z", "WEBSITE": "http://www.pgh.dbhds.virginia.gov/", "STATE_ID": "NOT AVAILABLE", "ALT_NAME": "NOT AVAILABLE", "ST_FIPS": "51", "OWNER": "GOVERNMENT - STATE", "TTL_STAFF": -999, "BEDS": 123, "TRAUMA": "NOT AVAILABLE", "HELIPAD": "N" }, "geometry": { "type": "Polygon", "coordinates": [ [ [ -78.189693, 37.117215 ], [ -78.311812, 37.135668 ], [ -78.278443, 37.256123 ], [ -78.278223, 37.256263 ], [ -78.114571, 37.296408 ], [ -78.082684, 37.303765 ], [ -78.074167, 37.222321 ], [ -78.079299, 37.157984 ], [ -78.0829318, 37.137608400000019 ], [ -78.189693, 37.117215 ] ] ] } },
{ "type": "Feature", "properties": { "OBJECTID": 2561, "ID": "0000427892", "NAME": "MARTIN GENERAL HOSPITAL", "ADDRESS": "310 SOUTH MCCASKEY ROAD", "CITY": "WILLIAMSTON", "STATE": "NC", "ZIP": "27892", "ZIP4": "NOT AVAILABLE", "TELEPHONE": "(252) 809-6179", "TYPE": "GENERAL ACUTE CARE", "STATUS": "OPEN", "POPULATION": 49, "COUNTY": "MARTIN", "COUNTYFIPS": "37117", "COUNTRY": "USA", "LATITUDE": 35.839790694999998, "LONGITUDE": -77.072254, "NAICS_CODE": "622110", "NAICS_DESC": "GENERAL MEDICAL AND SURGICAL HOSPITALS", "SOURCE": "https://www2.ncdhhs.gov/dhsr/reports.htm", "SOURCEDATE": "2018-08-10T00:00:00.000Z", "VAL_METHOD": "IMAGERY", "VAL_DATE": "2014-02-10T00:00:00.000Z", "WEBSITE": "http://www.martingeneral.com", "STATE_ID": "NOT AVAILABLE", "ALT_NAME": "NOT AVAILABLE", "ST_FIPS": "37", "OWNER": "PROPRIETARY", "TTL_STAFF": -999, "BEDS": 49, "TRAUMA": "NOT AVAILABLE", "HELIPAD": "Y" }, "geometry": { "type": "Polygon", "coordinates": [ [ [ -77.0786897, 35.7493719 ], [ -77.1732322, 35.793122600000011 ], [ -77.2132915, 35.827129500000041 ], [ -77.2120107, 35.844118400000021 ], [ -77.2005775, 35.8528478 ], [ -77.1544586, 35.884964 ], [ -77.108166, 35.881193 ], [ -77.095845, 35.877346 ], [ -77.0448357, 35.8613104 ], [ -76.9407618, 35.807382399999959 ], [ -76.940715, 35.8072273 ], [ -76.9407372, 35.8068056 ], [ -77.0295003, 35.7577667 ], [ -77.0759207, 35.749397600000016 ], [ -77.0786897, 35.7493719 ] ] ] } },
{ "type": "Feature", "properties": { "OBJECTID": 6198, "ID": "0019423666", "NAME": "RIVERSIDE BEHAVIORAL HEALTH CENTER", "ADDRESS": "2244 EXECUTIVE DRIVE", "CITY": "HAMPTON", "STATE": "VA", "ZIP": "23666", "ZIP4": "NOT AVAILABLE", "TELEPHONE": "(757) 827-1001", "TYPE": "PSYCHIATRIC", "STATUS": "CLOSED", "POPULATION": 127, "COUNTY": "HAMPTON", "COUNTYFIPS": "51650", "COUNTRY": "USA", "LATITUDE": 37.053627855000101, "LONGITUDE": -76.395711141999996, "NAICS_CODE": "622210", "NAICS_DESC": "HOSPITALS, PSYCHIATRIC (EXCEPT CONVALESCENT)", "SOURCE": "http://www.vhi.org", "SOURCEDATE": "2017-03-06T00:00:00.000Z", "VAL_METHOD": "IMAGERY", "VAL_DATE": "2017-03-07T00:00:00.000Z", "WEBSITE": "www.riverside-online.com/rbhc", "STATE_ID": "NOT AVAILABLE", "ALT_NAME": "NOT AVAILABLE", "ST_FIPS": "51", "OWNER": "NON-PROFIT", "TTL_STAFF": -999, "BEDS": 127, "TRAUMA": "NOT AVAILABLE", "HELIPAD": "N" }, "geometry": { "type": "Polygon", "coordinates": [ [ [ -76.4148888, 36.965834 ], [ -76.433715800000016, 36.974819299999979 ], [ -76.469907, 37.03214 ], [ -76.465385, 37.099293 ], [ -76.463934, 37.10055 ], [ -76.461693, 37.100835 ], [ -76.3933623, 37.10846160000002 ], [ -76.324589, 37.069012899999954 ], [ -76.3148745, 37.0620982 ], [ -76.3139636, 37.061431700000014 ], [ -76.3084947, 37.057079499999958 ], [ -76.2987989, 37.041701899999985 ], [ -76.3150117, 37.018575300000016 ], [ -76.3185109, 37.0142511 ], [ -76.4148888, 36.965834 ] ] ] } },
{ "type": "Feature", "properties": { "OBJECTID": 6214, "ID": "0001622701", "NAME": "UVA CULPEPER HOSPITAL", "ADDRESS": "501 SUNSET LANE", "CITY": "CULPEPER", "STATE": "VA", "ZIP": "22701", "ZIP4": "NOT AVAILABLE", "TELEPHONE": "(540) 829-4100", "TYPE": "GENERAL ACUTE CARE", "STATUS": "OPEN", "POPULATION": 70, "COUNTY": "CULPEPER", "COUNTYFIPS": "51047", "COUNTRY": "USA", "LATITUDE": 38.4552311670001, "LONGITUDE": -78.013344564999997, "NAICS_CODE": "622110", "NAICS_DESC": "GENERAL MEDICAL AND SURGICAL HOSPITALS", "SOURCE": "http://www.vhi.org", "SOURCEDATE": "2018-08-09T00:00:00.000Z", "VAL_METHOD": "IMAGERY", "VAL_DATE": "2014-03-12T00:00:00.000Z", "WEBSITE": "www.culpeperhospital.com", "STATE_ID": "NOT AVAILABLE", "ALT_NAME": "CULPEPER REGIONAL HOSPITAL", "ST_FIPS": "51", "OWNER": "NON-PROFIT", "TTL_STAFF": -999, "BEDS": 70, "TRAUMA": "NOT AVAILABLE", "HELIPAD": "Y" }, "geometry": { "type": "Polygon", "coordinates": [ [ [ -78.10482, 38.365425 ], [ -78.153442, 38.461827 ], [ -78.131419, 38.482811 ], [ -78.128022, 38.485243 ], [ -78.071592, 38.514914 ], [ -77.979883, 38.532943 ], [ -77.894738, 38.504838 ], [ -77.890579, 38.500968 ], [ -77.8759947, 38.443285200000034 ], [ -77.8761057, 38.443173400000028 ], [ -77.987314, 38.378843 ], [ -78.10482, 38.365425 ] ] ] } },
{ "type": "Feature", "properties": { "OBJECTID": 6216, "ID": "0001422554", "NAME": "STAFFORD HOSPITAL", "ADDRESS": "101 HOSPITAL CENTER BOULEVARD", "CITY": "STAFFORD", "STATE": "VA", "ZIP": "22554", "ZIP4": "NOT AVAILABLE", "TELEPHONE": "(540) 741-9050", "TYPE": "GENERAL ACUTE CARE", "STATUS": "OPEN", "POPULATION": 100, "COUNTY": "STAFFORD", "COUNTYFIPS": "51179", "COUNTRY": "USA", "LATITUDE": 38.415256974000002, "LONGITUDE": -77.407207716999906, "NAICS_CODE": "622110", "NAICS_DESC": "GENERAL MEDICAL AND SURGICAL HOSPITALS", "SOURCE": "http://www.vhi.org", "SOURCEDATE": "2018-08-09T00:00:00.000Z", "VAL_METHOD": "IMAGERY", "VAL_DATE": "2014-02-10T00:00:00.000Z", "WEBSITE": "http://www.marywashingtonhealthcare.com/stafford-hospital", "STATE_ID": "NOT AVAILABLE", "ALT_NAME": "NOT AVAILABLE", "ST_FIPS": "51", "OWNER": "NON-PROFIT", "TTL_STAFF": -999, "BEDS": 100, "TRAUMA": "NOT AVAILABLE", "HELIPAD": "Y" }, "geometry": { "type": "Polygon", "coordinates": [ [ [ -77.4689526, 38.323378300000037 ], [ -77.4911497, 38.330265399999988 ], [ -77.507599, 38.339692 ], [ -77.512303, 38.355893 ], [ -77.5006313, 38.4646668 ], [ -77.4739251, 38.4791779 ], [ -77.369612, 38.524747 ], [ -77.3642383, 38.526626899999975 ], [ -77.358322, 38.523099900000012 ], [ -77.3566726, 38.5220159 ], [ -77.3563151, 38.521039 ], [ -77.336768, 38.398467 ], [ -77.3370503, 38.3735502 ], [ -77.3970672, 38.345196200000025 ], [ -77.4689526, 38.323378300000037 ] ] ] } },
{ "type": "Feature", "properties": { "OBJECTID": 6221, "ID": "0008823116", "NAME": "BON SECOURS MEMORIAL REGIONAL MEDICAL CENTER", "ADDRESS": "8260 ATLEE ROAD", "CITY": "MECHANICSVILLE", "STATE": "VA", "ZIP": "23116", "ZIP4": "NOT AVAILABLE", "TELEPHONE": "(804) 764-6000", "TYPE": "GENERAL ACUTE CARE", "STATUS": "OPEN", "POPULATION": 225, "COUNTY": "HANOVER", "COUNTYFIPS": "51085", "COUNTRY": "USA", "LATITUDE": 37.628954496000098, "LONGITUDE": -77.385960384000001, "NAICS_CODE": "622110", "NAICS_DESC": "GENERAL MEDICAL AND SURGICAL HOSPITALS", "SOURCE": "http://www.vhi.org", "SOURCEDATE": "2018-08-09T00:00:00.000Z", "VAL_METHOD": "IMAGERY", "VAL_DATE": "2014-02-10T00:00:00.000Z", "WEBSITE": "http://richmond.bonsecours.com/find-a-facility-memorial-regional-medical-center.html", "STATE_ID": "NOT AVAILABLE", "ALT_NAME": "NOT AVAILABLE", "ST_FIPS": "51", "OWNER": "NON-PROFIT", "TTL_STAFF": -999, "BEDS": 225, "TRAUMA": "NOT AVAILABLE", "HELIPAD": "Y" }, "geometry": { "type": "Polygon", "coordinates": [ [ [ -77.339976100000015, 37.575152499999987 ], [ -77.396821, 37.605087399999967 ], [ -77.406264, 37.611847700000013 ], [ -77.461869, 37.681840299999983 ], [ -77.4598508, 37.6872455 ], [ -77.443454, 37.705186 ], [ -77.401466, 37.719067 ], [ -77.360318, 37.732155 ], [ -77.3024946, 37.677408400000026 ], [ -77.286141, 37.644455 ], [ -77.291654400000013, 37.5831888 ], [ -77.308219, 37.57652 ], [ -77.320976, 37.572802 ], [ -77.339976100000015, 37.575152499999987 ] ] ] } },
{ "type": "Feature", "properties": { "OBJECTID": 6222, "ID": "0010223230", "NAME": "VIBRA HOSPITAL OF RICHMOND LLC", "ADDRESS": "2220 EDWARD HOLLAND DRIVE", "CITY": "RICHMOND", "STATE": "VA", "ZIP": "23230", "ZIP4": "NOT AVAILABLE", "TELEPHONE": "(804) 678-7000", "TYPE": "LONG TERM CARE", "STATUS": "OPEN", "POPULATION": 60, "COUNTY": "HENRICO", "COUNTYFIPS": "51087", "COUNTRY": "USA", "LATITUDE": 37.5906260450001, "LONGITUDE": -77.490732808000004, "NAICS_CODE": "622310", "NAICS_DESC": "SPECIALTY (EXCEPT PSYCHIATRIC AND SUBSTANCE ABUSE) HOSPITALS", "SOURCE": "http://www.vhi.org", "SOURCEDATE": "2018-08-09T00:00:00.000Z", "VAL_METHOD": "IMAGERY/OTHER", "VAL_DATE": "2014-02-10T00:00:00.000Z", "WEBSITE": "www.vibrahealthcare.com", "STATE_ID": "NOT AVAILABLE", "ALT_NAME": "KINDRED HOSPITAL RICHMOND", "ST_FIPS": "51", "OWNER": "PROPRIETARY", "TTL_STAFF": -999, "BEDS": 60, "TRAUMA": "NOT AVAILABLE", "HELIPAD": "N" }, "geometry": { "type": "Polygon", "coordinates": [ [ [ -77.511931700000019, 37.516005899999975 ], [ -77.518163, 37.518583099999972 ], [ -77.583707, 37.572899 ], [ -77.599064, 37.59117 ], [ -77.6033619, 37.596637400000056 ], [ -77.6151753, 37.652145500000032 ], [ -77.5974866, 37.662671800000048 ], [ -77.588356, 37.667855 ], [ -77.5416277, 37.6860584 ], [ -77.536471, 37.685675 ], [ -77.491097, 37.676223 ], [ -77.4603634, 37.664965400000021 ], [ -77.4277478, 37.644930499999973 ], [ -77.4242311, 37.640362599999953 ], [ -77.393667, 37.580354 ], [ -77.392376, 37.576181 ], [ -77.4187287, 37.530229 ], [ -77.4264436, 37.518144100000029 ], [ -77.4976856, 37.515977799999952 ], [ -77.511931700000019, 37.516005899999975 ] ] ] } },
{ "type": "Feature", "properties": { "OBJECTID": 6230, "ID": "0011723970", "NAME": "VCU HEALTH COMMUNITY MEMORIAL HEALTHCENTER", "ADDRESS": "125 BUENA VISTA CIRCLE", "CITY": "SOUTH HILL", "STATE": "VA", "ZIP": "23970", "ZIP4": "NOT AVAILABLE", "TELEPHONE": "(434) 447-3150", "TYPE": "GENERAL ACUTE CARE", "STATUS": "OPEN", "POPULATION": 99, "COUNTY": "MECKLENBURG", "COUNTYFIPS": "51117", "COUNTRY": "USA", "LATITUDE": 36.733600936000101, "LONGITUDE": -78.133448384999994, "NAICS_CODE": "622110", "NAICS_DESC": "GENERAL MEDICAL AND SURGICAL HOSPITALS", "SOURCE": "http://www.vhi.org", "SOURCEDATE": "2018-08-09T00:00:00.000Z", "VAL_METHOD": "IMAGERY", "VAL_DATE": "2014-02-10T00:00:00.000Z", "WEBSITE": "www.cmh-sh.org", "STATE_ID": "NOT AVAILABLE", "ALT_NAME": "COMMUNITY MEMORIAL HEALTHCENTER", "ST_FIPS": "51", "OWNER": "NON-PROFIT", "TTL_STAFF": -999, "BEDS": 99, "TRAUMA": "NOT AVAILABLE", "HELIPAD": "N" }, "geometry": { "type": "Polygon", "coordinates": [ [ [ -78.167189897669957, 36.673332901025447 ], [ -78.20612383070322, 36.684123803659617 ], [ -78.206555931059839, 36.684246903709465 ], [ -78.206514009324238, 36.774274956772054 ], [ -78.162368998103361, 36.781088952305808 ], [ -78.117545487496898, 36.787377348379529 ], [ -78.104002984387819, 36.787784947133844 ], [ -78.087775980271346, 36.780559944583608 ], [ -78.069257975107917, 36.77107894116164 ], [ -78.056512971159265, 36.763152938339474 ], [ -78.033525886966771, 36.706113926495114 ], [ -78.0801868618138, 36.678522916161761 ], [ -78.154641892171043, 36.673964903349571 ], [ -78.167189897669957, 36.673332901025447 ] ] ] } },
{ "type": "Feature", "properties": { "OBJECTID": 6234, "ID": "0015923851", "NAME": "SOUTHAMPTON MEMORIAL HOSPITAL", "ADDRESS": "100 FAIRVIEW DRIVE", "CITY": "FRANKLIN", "STATE": "VA", "ZIP": "23851", "ZIP4": "NOT AVAILABLE", "TELEPHONE": "(757) 569-6100", "TYPE": "GENERAL ACUTE CARE", "STATUS": "OPEN", "POPULATION": 90, "COUNTY": "FRANKLIN CITY", "COUNTYFIPS": "51620", "COUNTRY": "USA", "LATITUDE": 36.691542979000097, "LONGITUDE": -76.937503734000003, "NAICS_CODE": "622110", "NAICS_DESC": "GENERAL MEDICAL AND SURGICAL HOSPITALS", "SOURCE": "http://www.vhi.org", "SOURCEDATE": "2018-08-09T00:00:00.000Z", "VAL_METHOD": "IMAGERY", "VAL_DATE": "2014-02-10T00:00:00.000Z", "WEBSITE": "http://www.smhfranklin.com/pages/home.aspx", "STATE_ID": "NOT AVAILABLE", "ALT_NAME": "NOT AVAILABLE", "ST_FIPS": "51", "OWNER": "PROPRIETARY", "TTL_STAFF": -999, "BEDS": 90, "TRAUMA": "NOT AVAILABLE", "HELIPAD": "N" }, "geometry": { "type": "Polygon", "coordinates": [ [ [ -76.981108555298448, 36.629079745089413 ], [ -77.034711733024437, 36.672586801385023 ], [ -77.052414841361767, 36.706726878729363 ], [ -76.987362943138038, 36.749462979508678 ], [ -76.926389967902267, 36.777975996896828 ], [ -76.924233967762135, 36.77384299717226 ], [ -76.916842005512564, 36.733778775525444 ], [ -76.898615515655081, 36.631533859058891 ], [ -76.899159514432725, 36.631133857853484 ], [ -76.930243519230146, 36.627471811126178 ], [ -76.981108555298448, 36.629079745089413 ] ] ] } },
{ "type": "Feature", "properties": { "OBJECTID": 6236, "ID": "0147423456", "NAME": "SENTARA PRINCESS ANNE HOSPITAL", "ADDRESS": "2025 GLENN MITCHELL DRIVE", "CITY": "VIRGINIA BEACH", "STATE": "VA", "ZIP": "23456", "ZIP4": "NOT AVAILABLE", "TELEPHONE": "(757) 507-1520", "TYPE": "GENERAL ACUTE CARE", "STATUS": "OPEN", "POPULATION": 160, "COUNTY": "VIRGINIA BEACH", "COUNTYFIPS": "51810", "COUNTRY": "USA", "LATITUDE": 36.7752182300001, "LONGITUDE": -76.098018291999907, "NAICS_CODE": "622110", "NAICS_DESC": "GENERAL MEDICAL AND SURGICAL HOSPITALS", "SOURCE": "http://www.vhi.org", "SOURCEDATE": "2018-08-09T00:00:00.000Z", "VAL_METHOD": "IMAGERY/OTHER", "VAL_DATE": "2015-03-26T00:00:00.000Z", "WEBSITE": "www.sentara.com/HospitalsFacilities/Hospitals/princess-anne/Pages/princess-anne.aspx", "STATE_ID": "NOT AVAILABLE", "ALT_NAME": "NOT AVAILABLE", "ST_FIPS": "51", "OWNER": "NON-PROFIT", "TTL_STAFF": -999, "BEDS": 160, "TRAUMA": "NOT AVAILABLE", "HELIPAD": "Y" }, "geometry": { "type": "Polygon", "coordinates": [ [ [ -76.046562787594908, 36.703862792929669 ], [ -76.1000819, 36.718143400000045 ], [ -76.188815, 36.760367 ], [ -76.2040992, 36.7703462 ], [ -76.2047947, 36.7712136 ], [ -76.214282, 36.808057 ], [ -76.216772, 36.817922 ], [ -76.216734700000018, 36.818066899999955 ], [ -76.1898436, 36.840889100000041 ], [ -76.1844422, 36.8443811 ], [ -76.132408, 36.862404 ], [ -76.132124, 36.862464 ], [ -76.0879746, 36.85937790000002 ], [ -76.0475525, 36.8478937 ], [ -76.039776, 36.843657 ], [ -75.990879399999983, 36.7943518 ], [ -75.9841395, 36.7855748 ], [ -75.9823503, 36.754380300000015 ], [ -76.046562787594908, 36.703862792929669 ] ] ] } },
{ "type": "Feature", "properties": { "OBJECTID": 6237, "ID": "0000000124", "NAME": "CENTRAL STATE HOSPITAL", "ADDRESS": "26317 WEST WASHINGTON STREET", "CITY": "PETERSBURG", "STATE": "VA", "ZIP": "23803", "ZIP4": "0030", "TELEPHONE": "(804) 524-7000", "TYPE": "PSYCHIATRIC", "STATUS": "OPEN", "POPULATION": -999, "COUNTY": "DINWIDDIE", "COUNTYFIPS": "51053", "COUNTRY": "USA", "LATITUDE": 37.207429051000098, "LONGITUDE": -77.451220425000002, "NAICS_CODE": "622210", "NAICS_DESC": "PSYCHIATRIC AND SUBSTANCE ABUSE HOSPITALS", "SOURCE": "http://www.vhi.org", "SOURCEDATE": "2018-08-09T00:00:00.000Z", "VAL_METHOD": "IMAGERY", "VAL_DATE": "2015-05-23T00:00:00.000Z", "WEBSITE": "http://www.csh.dbhds.virginia.gov/contact.html", "STATE_ID": "NOT AVAILABLE", "ALT_NAME": "NOT AVAILABLE", "ST_FIPS": "51", "OWNER": "GOVERNMENT - STATE", "TTL_STAFF": -999, "BEDS": -999, "TRAUMA": "NOT AVAILABLE", "HELIPAD": "N" }, "geometry": { "type": "Polygon", "coordinates": [ [ [ -77.546875, 37.099139 ], [ -77.575659, 37.193676 ], [ -77.569775, 37.205441 ], [ -77.527722, 37.218822 ], [ -77.4763066, 37.225585699999975 ], [ -77.4499038, 37.219017400000013 ], [ -77.4472918, 37.216673800000038 ], [ -77.421944, 37.179508 ], [ -77.420994, 37.173453 ], [ -77.425967, 37.157948 ], [ -77.437759, 37.142032 ], [ -77.546875, 37.099139 ] ] ] } },
{ "type": "Feature", "properties": { "OBJECTID": 6239, "ID": "0020023188", "NAME": "EASTERN STATE HOSPITAL", "ADDRESS": "4601 IRONBOUND ROAD", "CITY": "WILLIAMSBURG", "STATE": "VA", "ZIP": "23188", "ZIP4": "2652", "TELEPHONE": "(757) 253-5161", "TYPE": "PSYCHIATRIC", "STATUS": "OPEN", "POPULATION": 300, "COUNTY": "JAMES CITY", "COUNTYFIPS": "51670", "COUNTRY": "USA", "LATITUDE": 37.289822803000099, "LONGITUDE": -76.735991651999896, "NAICS_CODE": "622210", "NAICS_DESC": "PSYCHIATRIC AND SUBSTANCE ABUSE HOSPITALS", "SOURCE": "http://www.vhi.org", "SOURCEDATE": "2018-08-09T00:00:00.000Z", "VAL_METHOD": "IMAGERY/OTHER", "VAL_DATE": "2017-03-09T00:00:00.000Z", "WEBSITE": "http://www.esh.dbhds.virginia.gov/", "STATE_ID": "NOT AVAILABLE", "ALT_NAME": "NOT AVAILABLE", "ST_FIPS": "51", "OWNER": "GOVERNMENT - STATE", "TTL_STAFF": -999, "BEDS": 300, "TRAUMA": "NOT AVAILABLE", "HELIPAD": "N" }, "geometry": { "type": "Polygon", "coordinates": [ [ [ -76.7825184, 37.227611700000026 ], [ -76.828554, 37.254182 ], [ -76.819195, 37.297133 ], [ -76.810733, 37.331033 ], [ -76.78901, 37.377316 ], [ -76.76576, 37.385062 ], [ -76.7631053, 37.3846055 ], [ -76.715293, 37.367101 ], [ -76.707584, 37.363118 ], [ -76.681866, 37.308397299999989 ], [ -76.6779758, 37.278449599999973 ], [ -76.6825011, 37.247063800000014 ], [ -76.7545317, 37.226751899999975 ], [ -76.759145, 37.225484 ], [ -76.7825184, 37.227611700000026 ] ] ] } },
{ "type": "Feature", "properties": { "OBJECTID": 6418, "ID": "0009723805", "NAME": "SOUTHSIDE REGIONAL MEDICAL CENTER", "ADDRESS": "200 MEDICAL PARK BOULEVARD", "CITY": "PETERSBURG", "STATE": "VA", "ZIP": "23805", "ZIP4": "NOT AVAILABLE", "TELEPHONE": "(804) 765-5000", "TYPE": "GENERAL ACUTE CARE", "STATUS": "OPEN", "POPULATION": 300, "COUNTY": "PETERSBURG", "COUNTYFIPS": "51730", "COUNTRY": "USA", "LATITUDE": 37.182493024000102, "LONGITUDE": -77.359253872999901, "NAICS_CODE": "622110", "NAICS_DESC": "GENERAL MEDICAL AND SURGICAL HOSPITALS", "SOURCE": "http://www.vhi.org", "SOURCEDATE": "2018-08-09T00:00:00.000Z", "VAL_METHOD": "IMAGERY", "VAL_DATE": "2013-11-11T00:00:00.000Z", "WEBSITE": "www.srmconline.com", "STATE_ID": "NOT AVAILABLE", "ALT_NAME": "NOT AVAILABLE", "ST_FIPS": "51", "OWNER": "PROPRIETARY", "TTL_STAFF": -999, "BEDS": 300, "TRAUMA": "LEVEL III", "HELIPAD": "Y" }, "geometry": { "type": "Polygon", "coordinates": [ [ [ -77.360495, 37.078141 ], [ -77.360973, 37.078345 ], [ -77.370715, 37.086053 ], [ -77.442594, 37.1971519 ], [ -77.4326885, 37.219710800000023 ], [ -77.426258, 37.22603 ], [ -77.4236841, 37.228546199999968 ], [ -77.4174756, 37.232724 ], [ -77.4045147, 37.237621799999985 ], [ -77.3695857, 37.24336959999998 ], [ -77.310485, 37.231877 ], [ -77.289435, 37.225514 ], [ -77.286666, 37.220927 ], [ -77.277102, 37.186597 ], [ -77.28507, 37.162262 ], [ -77.352654, 37.077812 ], [ -77.360495, 37.078141 ] ] ] } },
{ "type": "Feature", "properties": { "OBJECTID": 6783, "ID": "0010123229", "NAME": "HENRICO DOCTORS' HOSPITAL", "ADDRESS": "1602 SKIPWITH ROAD", "CITY": "RICHMOND", "STATE": "VA", "ZIP": "23229", "ZIP4": "NOT AVAILABLE", "TELEPHONE": "(804) 289-4500", "TYPE": "GENERAL ACUTE CARE", "STATUS": "OPEN", "POPULATION": 340, "COUNTY": "HENRICO", "COUNTYFIPS": "51087", "COUNTRY": "USA", "LATITUDE": 37.6043794180001, "LONGITUDE": -77.539885666000004, "NAICS_CODE": "622110", "NAICS_DESC": "GENERAL MEDICAL AND SURGICAL HOSPITALS", "SOURCE": "http://www.vhi.org", "SOURCEDATE": "2018-08-09T00:00:00.000Z", "VAL_METHOD": "IMAGERY", "VAL_DATE": "2014-02-10T00:00:00.000Z", "WEBSITE": "http://henricodoctors.com/", "STATE_ID": "NOT AVAILABLE", "ALT_NAME": "HENRICO DOCTORS HOSPITAL MAIN CAMPUS (FOREST)", "ST_FIPS": "51", "OWNER": "PROPRIETARY", "TTL_STAFF": -999, "BEDS": 340, "TRAUMA": "LEVEL II", "HELIPAD": "Y" }, "geometry": { "type": "Polygon", "coordinates": [ [ [ -77.4928127, 37.5414191 ], [ -77.618844, 37.569432 ], [ -77.623968, 37.572124 ], [ -77.638621, 37.613233 ], [ -77.638434, 37.615102 ], [ -77.6329466, 37.658510900000024 ], [ -77.6328436, 37.658658599999939 ], [ -77.58964, 37.6853 ], [ -77.5362287, 37.686156600000039 ], [ -77.517769, 37.684501 ], [ -77.488247, 37.674688 ], [ -77.4824937, 37.672104799999978 ], [ -77.4783248, 37.6694025 ], [ -77.4443456, 37.640295700000046 ], [ -77.4365021, 37.6294468 ], [ -77.446141, 37.578144599999952 ], [ -77.4492079, 37.57229430000001 ], [ -77.4584363, 37.555420900000044 ], [ -77.4596694, 37.5538385 ], [ -77.4600146, 37.553504499999988 ], [ -77.4609168, 37.5527495 ], [ -77.4652416, 37.5503382 ], [ -77.4727057, 37.547561 ], [ -77.4928127, 37.5414191 ] ] ] } },
{ "type": "Feature", "properties": { "OBJECTID": 6794, "ID": "0019723454", "NAME": "VIRGINIA BEACH PSYCHIATRIC CENTER", "ADDRESS": "1100 FIRST COLONIAL ROAD", "CITY": "VIRGINIA BEACH", "STATE": "VA", "ZIP": "23454", "ZIP4": "NOT AVAILABLE", "TELEPHONE": "(757) 496-6000", "TYPE": "PSYCHIATRIC", "STATUS": "OPEN", "POPULATION": 100, "COUNTY": "VIRGINIA BEACH", "COUNTYFIPS": "51810", "COUNTRY": "USA", "LATITUDE": 36.866239230000097, "LONGITUDE": -76.028373576000007, "NAICS_CODE": "622210", "NAICS_DESC": "PSYCHIATRIC AND SUBSTANCE ABUSE HOSPITALS", "SOURCE": "http://www.vhi.org", "SOURCEDATE": "2018-08-09T00:00:00.000Z", "VAL_METHOD": "IMAGERY/OTHER", "VAL_DATE": "2017-03-07T00:00:00.000Z", "WEBSITE": "www.vbpcweb.com", "STATE_ID": "NOT AVAILABLE", "ALT_NAME": "NOT AVAILABLE", "ST_FIPS": "51", "OWNER": "PROPRIETARY", "TTL_STAFF": -999, "BEDS": 100, "TRAUMA": "NOT AVAILABLE", "HELIPAD": "N" }, "geometry": { "type": "Polygon", "coordinates": [ [ [ -76.068035, 36.787784200000033 ], [ -76.068259600000019, 36.787828200000021 ], [ -76.087726, 36.796274 ], [ -76.088112, 36.796505 ], [ -76.143163, 36.834569 ], [ -76.1245134, 36.904738799999961 ], [ -76.1240923, 36.905462200000017 ], [ -76.116714, 36.911081 ], [ -76.115315, 36.91205 ], [ -76.113554, 36.912891 ], [ -76.033881399999984, 36.930398500000031 ], [ -76.0286468, 36.9307972 ], [ -76.0258097, 36.9302986 ], [ -75.990539, 36.902097 ], [ -75.990174, 36.9011 ], [ -75.9893787, 36.8988404 ], [ -75.975417, 36.852927 ], [ -75.9722692, 36.839660799999976 ], [ -75.9705797, 36.831875600000018 ], [ -75.9681424, 36.8201578 ], [ -75.968706200000014, 36.818342200000018 ], [ -75.984915, 36.792635 ], [ -75.9931017, 36.785819600000046 ], [ -76.001973, 36.780658 ], [ -76.068035, 36.787784200000033 ] ] ] } },
{ "type": "Feature", "properties": { "OBJECTID": 6877, "ID": "0013623185", "NAME": "DOCTORS DIAGNOSTIC CENTER- WILLIAMSBURG", "ADDRESS": "120 KINGS WAY", "CITY": "WILLIAMSBURG", "STATE": "VA", "ZIP": "23185", "ZIP4": "NOT AVAILABLE", "TELEPHONE": "(757) 645-3130", "TYPE": "GENERAL ACUTE CARE", "STATUS": "CLOSED", "POPULATION": -999, "COUNTY": "JAMES CITY", "COUNTYFIPS": "51095", "COUNTRY": "USA", "LATITUDE": 37.255512821000003, "LONGITUDE": -76.740597839000003, "NAICS_CODE": "622110", "NAICS_DESC": "GENERAL MEDICAL AND SURGICAL HOSPITALS", "SOURCE": "http://www.vdh.virginia.gov/OLC/acutecare/hospitals.htm", "SOURCEDATE": "2016-08-16T00:00:00.000Z", "VAL_METHOD": "IMAGERY", "VAL_DATE": "2014-02-10T00:00:00.000Z", "WEBSITE": "http://www.riversideonline.com/facilities/outpatient-centers.cfm", "STATE_ID": "NOT AVAILABLE", "ALT_NAME": "NOT AVAILABLE", "ST_FIPS": "51", "OWNER": "NON-PROFIT", "TTL_STAFF": -999, "BEDS": -999, "TRAUMA": "NOT AVAILABLE", "HELIPAD": "N" }, "geometry": { "type": "Polygon", "coordinates": [ [ [ -76.770986, 37.209171 ], [ -76.791355100000018, 37.2202054 ], [ -76.844115, 37.253362 ], [ -76.822189600000016, 37.287598100000054 ], [ -76.766999, 37.364273 ], [ -76.727983, 37.353463 ], [ -76.6779758, 37.278449599999973 ], [ -76.679522, 37.243249 ], [ -76.741312, 37.214245 ], [ -76.770986, 37.209171 ] ] ] } },
{ "type": "Feature", "properties": { "OBJECTID": 6878, "ID": "0010723901", "NAME": "CENTRA SOUTHSIDE COMMUNITY HOSPITAL", "ADDRESS": "800 OAK STREET", "CITY": "FARMVILLE", "STATE": "VA", "ZIP": "23901", "ZIP4": "NOT AVAILABLE", "TELEPHONE": "(434) 392-8811", "TYPE": "GENERAL ACUTE CARE", "STATUS": "OPEN", "POPULATION": 116, "COUNTY": "PRINCE EDWARD", "COUNTYFIPS": "51147", "COUNTRY": "USA", "LATITUDE": 37.302679544999997, "LONGITUDE": -78.404315888, "NAICS_CODE": "622110", "NAICS_DESC": "GENERAL MEDICAL AND SURGICAL HOSPITALS", "SOURCE": "http://www.vhi.org", "SOURCEDATE": "2018-08-09T00:00:00.000Z", "VAL_METHOD": "IMAGERY", "VAL_DATE": "2014-02-10T00:00:00.000Z", "WEBSITE": "http://centrasouthside.com/", "STATE_ID": "NOT AVAILABLE", "ALT_NAME": "SOUTHSIDE COMMUNITY HOSPITAL, INC.", "ST_FIPS": "51", "OWNER": "NON-PROFIT", "TTL_STAFF": -999, "BEDS": 116, "TRAUMA": "NOT AVAILABLE", "HELIPAD": "Y" }, "geometry": { "type": "Polygon", "coordinates": [ [ [ -78.459268, 37.231152 ], [ -78.537002, 37.303697 ], [ -78.537069, 37.304032 ], [ -78.4715484, 37.340621800000022 ], [ -78.343799, 37.312122 ], [ -78.282309, 37.27307 ], [ -78.281381, 37.259896 ], [ -78.28162, 37.259784 ], [ -78.3872816, 37.232072300000034 ], [ -78.3906378, 37.231589599999978 ], [ -78.442766, 37.230021 ], [ -78.459268, 37.231152 ] ] ] } },
{ "type": "Feature", "properties": { "OBJECTID": 6879, "ID": "0002222908", "NAME": "UNIVERSITY OF VIRGINIA MEDICAL CENTER", "ADDRESS": "1215 LEE STREET", "CITY": "CHARLOTTESVILLE", "STATE": "VA", "ZIP": "22906", "ZIP4": "NOT AVAILABLE", "TELEPHONE": "(434) 924-0210", "TYPE": "GENERAL ACUTE CARE", "STATUS": "OPEN", "POPULATION": 614, "COUNTY": "CHARLOTTESVILLE", "COUNTYFIPS": "51540", "COUNTRY": "USA", "LATITUDE": 38.031339796000097, "LONGITUDE": -78.498687078000003, "NAICS_CODE": "622110", "NAICS_DESC": "GENERAL MEDICAL AND SURGICAL HOSPITALS", "SOURCE": "http://www.vhi.org", "SOURCEDATE": "2018-08-09T00:00:00.000Z", "VAL_METHOD": "IMAGERY", "VAL_DATE": "2014-03-12T00:00:00.000Z", "WEBSITE": "www.med.virginia.edu", "STATE_ID": "NOT AVAILABLE", "ALT_NAME": "NOT AVAILABLE", "ST_FIPS": "51", "OWNER": "GOVERNMENT - STATE", "TTL_STAFF": -999, "BEDS": 614, "TRAUMA": "LEVEL I", "HELIPAD": "Y" }, "geometry": { "type": "Polygon", "coordinates": [ [ [ -78.597946, 37.980033 ], [ -78.5981169, 37.98017950000002 ], [ -78.621762, 38.035052 ], [ -78.506729, 38.086302 ], [ -78.48993, 38.093041 ], [ -78.4675287, 38.098867399999989 ], [ -78.462231, 38.099765 ], [ -78.44806, 38.071595 ], [ -78.4561475, 38.0213214 ], [ -78.4798534, 38.003392300000023 ], [ -78.4819659, 38.001887900000014 ], [ -78.53297360000002, 37.991850499999963 ], [ -78.597946, 37.980033 ] ] ] } },
{ "type": "Feature", "properties": { "OBJECTID": 6880, "ID": "0002322903", "NAME": "UVA HEALTHSOUTH REHABILITATION HOSPITAL", "ADDRESS": "515 RAY C. HUNT DRIVE", "CITY": "CHARLOTTESVILLE", "STATE": "VA", "ZIP": "22903", "ZIP4": "NOT AVAILABLE", "TELEPHONE": "(434) 244-2000", "TYPE": "REHABILITATION", "STATUS": "OPEN", "POPULATION": 50, "COUNTY": "ALBEMARLE", "COUNTYFIPS": "51003", "COUNTRY": "USA", "LATITUDE": 38.024923651000101, "LONGITUDE": -78.525074785999905, "NAICS_CODE": "622310", "NAICS_DESC": "REHABILITATION HOSPITALS (EXCEPT ALCOHOLISM, DRUG ADDICTION)", "SOURCE": "http://www.vhi.org", "SOURCEDATE": "2018-08-09T00:00:00.000Z", "VAL_METHOD": "IMAGERY", "VAL_DATE": "2014-02-10T00:00:00.000Z", "WEBSITE": "http://www.healthsystem.virginia.edu/internet/healthsouthrehab/", "STATE_ID": "NOT AVAILABLE", "ALT_NAME": "NOT AVAILABLE", "ST_FIPS": "51", "OWNER": "PROPRIETARY", "TTL_STAFF": -999, "BEDS": 50, "TRAUMA": "NOT AVAILABLE", "HELIPAD": "N" }, "geometry": { "type": "Polygon", "coordinates": [ [ [ -78.656068, 37.959867 ], [ -78.6562646, 37.9600862 ], [ -78.6516901, 38.020951 ], [ -78.620035, 38.067245 ], [ -78.543825, 38.096692 ], [ -78.539949, 38.098021 ], [ -78.460241, 38.102618 ], [ -78.460009, 38.102564 ], [ -78.412418, 38.027749 ], [ -78.4149924, 38.017665 ], [ -78.443001, 37.989478500000018 ], [ -78.557931, 37.961458 ], [ -78.656068, 37.959867 ] ] ] } },
{ "type": "Feature", "properties": { "OBJECTID": 6882, "ID": "0001322408", "NAME": "SPOTSYLVANIA REGIONAL MEDICAL CENTER", "ADDRESS": "4600 SPOTSYLVANIA PARKWAY", "CITY": "FREDERICKSBURG", "STATE": "VA", "ZIP": "22408", "ZIP4": "NOT AVAILABLE", "TELEPHONE": "(540) 498-4000", "TYPE": "GENERAL ACUTE CARE", "STATUS": "OPEN", "POPULATION": 100, "COUNTY": "SPOTSYLVANIA", "COUNTYFIPS": "51177", "COUNTRY": "USA", "LATITUDE": 38.21751607, "LONGITUDE": -77.495951358999903, "NAICS_CODE": "622110", "NAICS_DESC": "GENERAL MEDICAL AND SURGICAL HOSPITALS", "SOURCE": "http://www.vhi.org", "SOURCEDATE": "2018-08-09T00:00:00.000Z", "VAL_METHOD": "IMAGERY", "VAL_DATE": "2014-02-10T00:00:00.000Z", "WEBSITE": "http://www.spotsrmc.com/", "STATE_ID": "NOT AVAILABLE", "ALT_NAME": "NOT AVAILABLE", "ST_FIPS": "51", "OWNER": "PROPRIETARY", "TTL_STAFF": -999, "BEDS": 100, "TRAUMA": "NOT AVAILABLE", "HELIPAD": "Y" }, "geometry": { "type": "Polygon", "coordinates": [ [ [ -77.521975, 38.154727 ], [ -77.5537051, 38.1827246 ], [ -77.553887, 38.182927 ], [ -77.568007, 38.227659 ], [ -77.560039, 38.241282 ], [ -77.538863600000013, 38.268371200000011 ], [ -77.509855, 38.277052 ], [ -77.4933981, 38.277418500000053 ], [ -77.478985, 38.273535 ], [ -77.4251456, 38.251720300000024 ], [ -77.394975, 38.239265 ], [ -77.394363, 38.238431 ], [ -77.4026468, 38.213657500000039 ], [ -77.4192973, 38.1991986 ], [ -77.516909, 38.154574 ], [ -77.521975, 38.154727 ] ] ] } },
{ "type": "Feature", "properties": { "OBJECTID": 6884, "ID": "0014623707", "NAME": "BON SECOURS MARYVIEW MEDICAL CENTER", "ADDRESS": "3636 HIGH STREET", "CITY": "PORTSMOUTH", "STATE": "VA", "ZIP": "23707", "ZIP4": "NOT AVAILABLE", "TELEPHONE": "(757) 398-2200", "TYPE": "GENERAL ACUTE CARE", "STATUS": "OPEN", "POPULATION": 346, "COUNTY": "PORTSMOUTH", "COUNTYFIPS": "51740", "COUNTRY": "USA", "LATITUDE": 36.836636360999996, "LONGITUDE": -76.347431873999895, "NAICS_CODE": "622110", "NAICS_DESC": "GENERAL MEDICAL AND SURGICAL HOSPITALS", "SOURCE": "http://www.vhi.org", "SOURCEDATE": "2018-08-09T00:00:00.000Z", "VAL_METHOD": "IMAGERY", "VAL_DATE": "2014-02-10T00:00:00.000Z", "WEBSITE": "http://www.bonsecourshamptonroads.com/find-a-facility-maryview-medical-center.html", "STATE_ID": "NOT AVAILABLE", "ALT_NAME": "NOT AVAILABLE", "ST_FIPS": "51", "OWNER": "NON-PROFIT", "TTL_STAFF": -999, "BEDS": 346, "TRAUMA": "NOT AVAILABLE", "HELIPAD": "Y" }, "geometry": { "type": "Polygon", "coordinates": [ [ [ -76.3224779, 36.764882099999966 ], [ -76.4212087, 36.783736400000024 ], [ -76.4246899, 36.785816199999985 ], [ -76.4499292, 36.8627952 ], [ -76.429144, 36.886995 ], [ -76.403539, 36.896618 ], [ -76.395366, 36.895755 ], [ -76.3882606, 36.893804200000027 ], [ -76.3825763, 36.8913984 ], [ -76.3609432, 36.88031340000002 ], [ -76.3057952, 36.847738599999985 ], [ -76.2966374, 36.839253699999979 ], [ -76.2884356, 36.808557600000015 ], [ -76.315373, 36.773144 ], [ -76.3224779, 36.764882099999966 ] ] ] } },
{ "type": "Feature", "properties": { "OBJECTID": 6888, "ID": "0012723507", "NAME": "CHILDREN'S HOSPITAL OF THE KINGS DAUGHTERS", "ADDRESS": "601 CHILDRENS LANE", "CITY": "NORFOLK", "STATE": "VA", "ZIP": "23507", "ZIP4": "NOT AVAILABLE", "TELEPHONE": "(757) 668-7000", "TYPE": "CHILDREN", "STATUS": "OPEN", "POPULATION": 206, "COUNTY": "NORFOLK", "COUNTYFIPS": "51710", "COUNTRY": "USA", "LATITUDE": 36.862520743000097, "LONGITUDE": -76.301676227000002, "NAICS_CODE": "622110", "NAICS_DESC": "CHILDREN'S HOSPITALS, GENERAL", "SOURCE": "http://www.vhi.org", "SOURCEDATE": "2018-08-09T00:00:00.000Z", "VAL_METHOD": "IMAGERY", "VAL_DATE": "2014-03-12T00:00:00.000Z", "WEBSITE": "www.chkd.org", "STATE_ID": "NOT AVAILABLE", "ALT_NAME": "NOT AVAILABLE", "ST_FIPS": "51", "OWNER": "NON-PROFIT", "TTL_STAFF": -999, "BEDS": 206, "TRAUMA": "LEVEL I", "HELIPAD": "Y" }, "geometry": { "type": "Polygon", "coordinates": [ [ [ -76.274526, 36.771254 ], [ -76.281751, 36.775524 ], [ -76.2937627, 36.784556699999989 ], [ -76.2947375, 36.786475300000042 ], [ -76.316566400000013, 36.886517599999969 ], [ -76.3203271, 36.922629600000036 ], [ -76.320201, 36.937312 ], [ -76.3184026, 36.9377008 ], [ -76.2588689, 36.946291 ], [ -76.2112, 36.903368 ], [ -76.2066642, 36.8977941 ], [ -76.1789134, 36.8455727 ], [ -76.179161, 36.843621 ], [ -76.274526, 36.771254 ] ] ] } },
{ "type": "Feature", "properties": { "OBJECTID": 6889, "ID": "0013223507", "NAME": "SENTARA NORFOLK GENERAL HOSPITAL", "ADDRESS": "600 GRESHAM DRIVE", "CITY": "NORFOLK", "STATE": "VA", "ZIP": "23507", "ZIP4": "NOT AVAILABLE", "TELEPHONE": "(757) 388-3000", "TYPE": "GENERAL ACUTE CARE", "STATUS": "OPEN", "POPULATION": 543, "COUNTY": "NORFOLK", "COUNTYFIPS": "51710", "COUNTRY": "USA", "LATITUDE": 36.862179869000002, "LONGITUDE": -76.302844164000007, "NAICS_CODE": "622110", "NAICS_DESC": "GENERAL MEDICAL AND SURGICAL HOSPITALS", "SOURCE": "http://www.vhi.org", "SOURCEDATE": "2018-08-09T00:00:00.000Z", "VAL_METHOD": "IMAGERY", "VAL_DATE": "2014-03-12T00:00:00.000Z", "WEBSITE": "http://www.sentara.com/HospitalsFacilities/Hospitals/NorfolkGeneral/Pages/norfolkgeneral.aspx", "STATE_ID": "NOT AVAILABLE", "ALT_NAME": "NOT AVAILABLE", "ST_FIPS": "51", "OWNER": "NON-PROFIT", "TTL_STAFF": -999, "BEDS": 543, "TRAUMA": "LEVEL I", "HELIPAD": "Y" }, "geometry": { "type": "Polygon", "coordinates": [ [ [ -76.274526, 36.771254 ], [ -76.286151, 36.776774 ], [ -76.2937627, 36.784556699999989 ], [ -76.2947375, 36.786475300000042 ], [ -76.316566400000013, 36.886517599999969 ], [ -76.3203271, 36.922629600000036 ], [ -76.319031099999989, 36.937384399999956 ], [ -76.3184026, 36.9377008 ], [ -76.259466, 36.944882 ], [ -76.259297, 36.944845 ], [ -76.2101426, 36.898860200000037 ], [ -76.192195700000013, 36.8777489 ], [ -76.1794129, 36.849685099999974 ], [ -76.176812, 36.8427 ], [ -76.274526, 36.771254 ] ] ] } },
{ "type": "Feature", "properties": { "OBJECTID": 6891, "ID": "0010823223", "NAME": "BON SECOURS RICHMOND COMMUNITY HOSPITAL", "ADDRESS": "1500 NORTH 28TH STREET", "CITY": "RICHMOND", "STATE": "VA", "ZIP": "23223", "ZIP4": "NOT AVAILABLE", "TELEPHONE": "(804) 225-1700", "TYPE": "GENERAL ACUTE CARE", "STATUS": "OPEN", "POPULATION": 104, "COUNTY": "RICHMOND CITY", "COUNTYFIPS": "51760", "COUNTRY": "USA", "LATITUDE": 37.540166042000102, "LONGITUDE": -77.406939843999993, "NAICS_CODE": "622110", "NAICS_DESC": "GENERAL MEDICAL AND SURGICAL HOSPITALS", "SOURCE": "http://www.vhi.org", "SOURCEDATE": "2018-08-09T00:00:00.000Z", "VAL_METHOD": "IMAGERY", "VAL_DATE": "2014-02-10T00:00:00.000Z", "WEBSITE": "http://richmond.bonsecours.com/find-a-facility-richmond-community-hospital.html", "STATE_ID": "NOT AVAILABLE", "ALT_NAME": "NOT AVAILABLE", "ST_FIPS": "51", "OWNER": "NON-PROFIT", "TTL_STAFF": -999, "BEDS": 104, "TRAUMA": "NOT AVAILABLE", "HELIPAD": "N" }, "geometry": { "type": "Polygon", "coordinates": [ [ [ -77.426776, 37.456337799999972 ], [ -77.47221110000001, 37.4905114 ], [ -77.5204303, 37.530471600000027 ], [ -77.5189692, 37.5379215 ], [ -77.4912658, 37.59745659999998 ], [ -77.4897988, 37.5985103 ], [ -77.4550348, 37.605579 ], [ -77.427171, 37.60353 ], [ -77.424782, 37.603005 ], [ -77.3367521, 37.575783799999968 ], [ -77.27077, 37.552045 ], [ -77.2698708, 37.521088400000011 ], [ -77.2698874, 37.519925100000044 ], [ -77.2756307, 37.510156099999982 ], [ -77.275905, 37.50980230000004 ], [ -77.3114174, 37.479989900000014 ], [ -77.338489, 37.472714 ], [ -77.3623573, 37.467795 ], [ -77.426776, 37.456337799999972 ] ] ] } },
{ "type": "Feature", "properties": { "OBJECTID": 6892, "ID": "0011023225", "NAME": "CJW MEDICAL CENTER CHIPPENHAM CAMPUS", "ADDRESS": "7101 JAHNKE ROAD", "CITY": "RICHMOND", "STATE": "VA", "ZIP": "23225", "ZIP4": "NOT AVAILABLE", "TELEPHONE": "(804) 320-3910", "TYPE": "GENERAL ACUTE CARE", "STATUS": "OPEN", "POPULATION": 466, "COUNTY": "RICHMOND CITY", "COUNTYFIPS": "51760", "COUNTRY": "USA", "LATITUDE": 37.513898183000002, "LONGITUDE": -77.526393886999998, "NAICS_CODE": "622110", "NAICS_DESC": "GENERAL MEDICAL AND SURGICAL HOSPITALS", "SOURCE": "http://www.vhi.org", "SOURCEDATE": "2018-08-09T00:00:00.000Z", "VAL_METHOD": "IMAGERY", "VAL_DATE": "2013-11-12T00:00:00.000Z", "WEBSITE": "http://chippenhammed.com/", "STATE_ID": "NOT AVAILABLE", "ALT_NAME": "NOT AVAILABLE", "ST_FIPS": "51", "OWNER": "PROPRIETARY", "TTL_STAFF": -999, "BEDS": 466, "TRAUMA": "LEVEL II", "HELIPAD": "Y" }, "geometry": { "type": "Polygon", "coordinates": [ [ [ -77.501882, 37.4136489 ], [ -77.582428, 37.434854 ], [ -77.582637, 37.434916 ], [ -77.587275, 37.436316 ], [ -77.6545571, 37.460599600000016 ], [ -77.6545723, 37.46082 ], [ -77.654463, 37.46135 ], [ -77.6411843, 37.5026024 ], [ -77.62731, 37.528622 ], [ -77.5955609, 37.5543106 ], [ -77.4945589, 37.580305 ], [ -77.4918637, 37.580375899999964 ], [ -77.4748817, 37.5775644 ], [ -77.4633775, 37.574836500000025 ], [ -77.426775, 37.539902199999986 ], [ -77.4266636, 37.539034 ], [ -77.4232088, 37.441811699999974 ], [ -77.4549186, 37.4199041 ], [ -77.46807, 37.414664 ], [ -77.501882, 37.4136489 ] ] ] } },
{ "type": "Feature", "properties": { "OBJECTID": 6893, "ID": "0011423298", "NAME": "VCU HEALTH SYSTEM", "ADDRESS": "1200 E BROAD S", "CITY": "RICHMOND", "STATE": "VA", "ZIP": "23219", "ZIP4": "NOT AVAILABLE", "TELEPHONE": "(804) 828-3815", "TYPE": "GENERAL ACUTE CARE", "STATUS": "OPEN", "POPULATION": 779, "COUNTY": "RICHMOND CITY", "COUNTYFIPS": "51760", "COUNTRY": "USA", "LATITUDE": 37.539924072000098, "LONGITUDE": -77.429524271999995, "NAICS_CODE": "622110", "NAICS_DESC": "GENERAL MEDICAL AND SURGICAL HOSPITALS", "SOURCE": "http://www.vhi.org", "SOURCEDATE": "2018-08-09T00:00:00.000Z", "VAL_METHOD": "IMAGERY", "VAL_DATE": "2014-02-10T00:00:00.000Z", "WEBSITE": "http://www.vcuhealth.org/", "STATE_ID": "NOT AVAILABLE", "ALT_NAME": "NOT AVAILABLE", "ST_FIPS": "51", "OWNER": "GOVERNMENT - DISTRICT/AUTHORITY", "TTL_STAFF": -999, "BEDS": 779, "TRAUMA": "LEVEL I", "HELIPAD": "Y" }, "geometry": { "type": "Polygon", "coordinates": [ [ [ -77.426565200000013, 37.451676300000045 ], [ -77.4831607, 37.470101800000052 ], [ -77.5144207, 37.5034692 ], [ -77.5399362, 37.536001399999989 ], [ -77.5399752, 37.5434968 ], [ -77.524681, 37.606867 ], [ -77.5200989, 37.6119671 ], [ -77.5031394, 37.622283900000014 ], [ -77.451662, 37.6362977 ], [ -77.4363408, 37.626818900000039 ], [ -77.353803, 37.569364900000011 ], [ -77.3294891, 37.551180100000053 ], [ -77.317056, 37.539297 ], [ -77.3169748, 37.5392175 ], [ -77.317293800000016, 37.534291699999976 ], [ -77.3184875, 37.523464599999976 ], [ -77.3560446, 37.481894300000022 ], [ -77.384066, 37.466802 ], [ -77.426565200000013, 37.451676300000045 ] ] ] } },
{ "type": "Feature", "properties": { "OBJECTID": 6895, "ID": "0013423602", "NAME": "BON SECOURS MARY IMMACULATE HOSPITAL", "ADDRESS": "2 BERNARDINE DRIVE", "CITY": "NEWPORT NEWS", "STATE": "VA", "ZIP": "23602", "ZIP4": "NOT AVAILABLE", "TELEPHONE": "(757) 886-6200", "TYPE": "GENERAL ACUTE CARE", "STATUS": "OPEN", "POPULATION": 110, "COUNTY": "NEWPORT NEWS", "COUNTYFIPS": "51700", "COUNTRY": "USA", "LATITUDE": 37.144472623000098, "LONGITUDE": -76.511671925000002, "NAICS_CODE": "622110", "NAICS_DESC": "GENERAL MEDICAL AND SURGICAL HOSPITALS", "SOURCE": "http://www.vhi.org", "SOURCEDATE": "2018-08-09T00:00:00.000Z", "VAL_METHOD": "IMAGERY", "VAL_DATE": "2014-02-10T00:00:00.000Z", "WEBSITE": "http://www.bonsecourshamptonroads.com/find-a-facility-mary-immaculate-hospital.html", "STATE_ID": "NOT AVAILABLE", "ALT_NAME": "NOT AVAILABLE", "ST_FIPS": "51", "OWNER": "NON-PROFIT", "TTL_STAFF": -999, "BEDS": 110, "TRAUMA": "NOT AVAILABLE", "HELIPAD": "Y" }, "geometry": { "type": "Polygon", "coordinates": [ [ [ -76.482424, 37.05682 ], [ -76.4880804, 37.058490699999957 ], [ -76.507646, 37.065481 ], [ -76.5104347, 37.067404 ], [ -76.537178, 37.085975 ], [ -76.5388512, 37.08737330000001 ], [ -76.581885, 37.137236 ], [ -76.5936518, 37.175961299999948 ], [ -76.5913705, 37.213210199999985 ], [ -76.563606, 37.2226 ], [ -76.5626782, 37.2219217 ], [ -76.5172068, 37.1787592 ], [ -76.447835, 37.095224 ], [ -76.4496184, 37.078711 ], [ -76.462546, 37.05418 ], [ -76.462697, 37.054123 ], [ -76.482424, 37.05682 ] ] ] } },
{ "type": "Feature", "properties": { "OBJECTID": 6896, "ID": "0014123601", "NAME": "RIVERSIDE REGIONAL MEDICAL CENTER", "ADDRESS": "500 J. CLYDE MORRIS BLVD", "CITY": "NEWPORT NEWS", "STATE": "VA", "ZIP": "23601", "ZIP4": "NOT AVAILABLE", "TELEPHONE": "(757) 594-2000", "TYPE": "GENERAL ACUTE CARE", "STATUS": "OPEN", "POPULATION": 577, "COUNTY": "NEWPORT NEWS", "COUNTYFIPS": "51700", "COUNTRY": "USA", "LATITUDE": 37.064243456, "LONGITUDE": -76.483034281000002, "NAICS_CODE": "622110", "NAICS_DESC": "GENERAL MEDICAL AND SURGICAL HOSPITALS", "SOURCE": "http://www.vhi.org", "SOURCEDATE": "2018-08-09T00:00:00.000Z", "VAL_METHOD": "IMAGERY", "VAL_DATE": "2014-02-10T00:00:00.000Z", "WEBSITE": "www.riverside-online.com/rrmc", "STATE_ID": "NOT AVAILABLE", "ALT_NAME": "NOT AVAILABLE", "ST_FIPS": "51", "OWNER": "NON-PROFIT", "TTL_STAFF": -999, "BEDS": 577, "TRAUMA": "LEVEL II", "HELIPAD": "Y" }, "geometry": { "type": "Polygon", "coordinates": [ [ [ -76.440438, 36.997659 ], [ -76.518407, 37.057025 ], [ -76.520408, 37.058839 ], [ -76.526156, 37.064204 ], [ -76.5553537, 37.1072498 ], [ -76.5583573, 37.112273600000016 ], [ -76.5591375, 37.135666900000011 ], [ -76.5516883, 37.14635150000003 ], [ -76.55097, 37.146683300000021 ], [ -76.514774, 37.144398 ], [ -76.514645, 37.14433 ], [ -76.4213257, 37.0903529 ], [ -76.42836, 37.017279 ], [ -76.430283, 37.007269 ], [ -76.432124, 36.999176 ], [ -76.440438, 36.997659 ] ] ] } },
{ "type": "Feature", "properties": { "OBJECTID": 6897, "ID": "0015223455", "NAME": "SENTARA BAYSIDE HOSPITAL", "ADDRESS": "800 INDEPENDENCE BOULEVARD", "CITY": "VIRGINIA BEACH", "STATE": "VA", "ZIP": "23455", "ZIP4": "NOT AVAILABLE", "TELEPHONE": "(757) 363-6100", "TYPE": "GENERAL ACUTE CARE", "STATUS": "CLOSED", "POPULATION": 158, "COUNTY": "VIRGINIA BEACH", "COUNTYFIPS": "51810", "COUNTRY": "USA", "LATITUDE": 36.867810604000098, "LONGITUDE": -76.131477477999994, "NAICS_CODE": "622110", "NAICS_DESC": "GENERAL MEDICAL AND SURGICAL HOSPITALS", "SOURCE": "http://www.vdh.virginia.gov/OLC/acutecare/hospitals.htm", "SOURCEDATE": "2016-08-16T00:00:00.000Z", "VAL_METHOD": "IMAGERY", "VAL_DATE": "2014-02-10T00:00:00.000Z", "WEBSITE": "http://www.sentara.com/HospitalsFacilities/Hospitals/Bayside/Pages/baysidehospital.aspx", "STATE_ID": "NOT AVAILABLE", "ALT_NAME": "NOT AVAILABLE", "ST_FIPS": "51", "OWNER": "NON-PROFIT", "TTL_STAFF": -999, "BEDS": 158, "TRAUMA": "NOT AVAILABLE", "HELIPAD": "Y" }, "geometry": { "type": "Polygon", "coordinates": [ [ [ -76.120827500000019, 36.781664199999973 ], [ -76.175923, 36.792694 ], [ -76.176796, 36.793156 ], [ -76.177322, 36.793533 ], [ -76.215721, 36.835751 ], [ -76.232336, 36.855801 ], [ -76.232376, 36.855946 ], [ -76.2332727, 36.878150299999987 ], [ -76.2330996, 36.891164599999968 ], [ -76.2323824, 36.8938626 ], [ -76.1134337, 36.964328100000024 ], [ -76.057031, 36.915698 ], [ -76.056951, 36.915598 ], [ -76.0458156, 36.83662240000001 ], [ -76.08432, 36.79629 ], [ -76.096953, 36.788902 ], [ -76.108203, 36.782388 ], [ -76.120827500000019, 36.781664199999973 ] ] ] } },
{ "type": "Feature", "properties": { "OBJECTID": 6898, "ID": "0015323454", "NAME": "SENTARA VIRGINIA BEACH GENERAL HOSPITAL", "ADDRESS": "1060 FIRST COLONIAL ROAD", "CITY": "VIRGINIA BEACH", "STATE": "VA", "ZIP": "23454", "ZIP4": "NOT AVAILABLE", "TELEPHONE": "(757) 395-8000", "TYPE": "GENERAL ACUTE CARE", "STATUS": "OPEN", "POPULATION": 282, "COUNTY": "VIRGINIA BEACH", "COUNTYFIPS": "51810", "COUNTRY": "USA", "LATITUDE": 36.864573607000104, "LONGITUDE": -76.026493801999905, "NAICS_CODE": "622110", "NAICS_DESC": "GENERAL MEDICAL AND SURGICAL HOSPITALS", "SOURCE": "http://www.vhi.org", "SOURCEDATE": "2018-08-09T00:00:00.000Z", "VAL_METHOD": "IMAGERY", "VAL_DATE": "2014-03-12T00:00:00.000Z", "WEBSITE": "http://www.sentara.com/HospitalsFacilities/Hospitals/BeachGeneral/Pages/virginiabeach.aspx", "STATE_ID": "NOT AVAILABLE", "ALT_NAME": "NOT AVAILABLE", "ST_FIPS": "51", "OWNER": "NON-PROFIT", "TTL_STAFF": -999, "BEDS": 282, "TRAUMA": "LEVEL III", "HELIPAD": "Y" }, "geometry": { "type": "Polygon", "coordinates": [ [ [ -76.068035, 36.787784200000033 ], [ -76.068259600000019, 36.787828200000021 ], [ -76.089237, 36.79522 ], [ -76.138518, 36.830526 ], [ -76.143163, 36.834569 ], [ -76.1226185, 36.9051241 ], [ -76.116714, 36.911081 ], [ -76.115315, 36.91205 ], [ -76.033881399999984, 36.930398500000031 ], [ -76.0286468, 36.9307972 ], [ -76.0258097, 36.9302986 ], [ -75.991081, 36.904139 ], [ -75.9893787, 36.8988404 ], [ -75.975417, 36.852927 ], [ -75.9722692, 36.839660799999976 ], [ -75.9705797, 36.831875600000018 ], [ -75.9681424, 36.8201578 ], [ -75.969442900000018, 36.8124231 ], [ -75.9902738, 36.7857057 ], [ -76.002703, 36.779157 ], [ -76.068035, 36.787784200000033 ] ] ] } },
{ "type": "Feature", "properties": { "OBJECTID": 6900, "ID": "0001222401", "NAME": "MARY WASHINGTON HOSPITAL", "ADDRESS": "1001 SAM PERRY BOULEVARD", "CITY": "FREDERICKSBURG", "STATE": "VA", "ZIP": "22401", "ZIP4": "NOT AVAILABLE", "TELEPHONE": "(540) 741-1100", "TYPE": "GENERAL ACUTE CARE", "STATUS": "OPEN", "POPULATION": 420, "COUNTY": "FREDERICKSBURG", "COUNTYFIPS": "51630", "COUNTRY": "USA", "LATITUDE": 38.311521888000101, "LONGITUDE": -77.483228600999993, "NAICS_CODE": "622110", "NAICS_DESC": "GENERAL MEDICAL AND SURGICAL HOSPITALS", "SOURCE": "http://www.vhi.org", "SOURCEDATE": "2018-08-09T00:00:00.000Z", "VAL_METHOD": "IMAGERY/OTHER", "VAL_DATE": "2014-02-10T00:00:00.000Z", "WEBSITE": "http://www.marywashingtonhealthcare.com/", "STATE_ID": "NOT AVAILABLE", "ALT_NAME": "NOT AVAILABLE", "ST_FIPS": "51", "OWNER": "NON-PROFIT", "TTL_STAFF": -999, "BEDS": 420, "TRAUMA": "LEVEL II", "HELIPAD": "Y" }, "geometry": { "type": "Polygon", "coordinates": [ [ [ -77.539369, 38.252163 ], [ -77.573731, 38.274406 ], [ -77.584549700000011, 38.293766700000042 ], [ -77.5428738, 38.381818599999988 ], [ -77.542746, 38.381923 ], [ -77.431285, 38.396443 ], [ -77.428848, 38.396324 ], [ -77.428104, 38.395252 ], [ -77.379226, 38.319266 ], [ -77.37552, 38.300515 ], [ -77.4003, 38.258814 ], [ -77.4262045, 38.253090899999954 ], [ -77.4987056, 38.249688299999974 ], [ -77.533503, 38.251322 ], [ -77.539369, 38.252163 ] ] ] } },
{ "type": "Feature", "properties": { "OBJECTID": 6901, "ID": "0009523860", "NAME": "JOHN RANDOLPH MEDICAL CENTER", "ADDRESS": "411 WEST RANDOLPH ROAD", "CITY": "HOPEWELL", "STATE": "VA", "ZIP": "23860", "ZIP4": "NOT AVAILABLE", "TELEPHONE": "(804) 541-1600", "TYPE": "GENERAL ACUTE CARE", "STATUS": "OPEN", "POPULATION": 147, "COUNTY": "HOPEWELL", "COUNTYFIPS": "51670", "COUNTRY": "USA", "LATITUDE": 37.308037771000002, "LONGITUDE": -77.291263872999906, "NAICS_CODE": "622110", "NAICS_DESC": "GENERAL MEDICAL AND SURGICAL HOSPITALS", "SOURCE": "http://www.vhi.org", "SOURCEDATE": "2018-08-09T00:00:00.000Z", "VAL_METHOD": "IMAGERY", "VAL_DATE": "2014-02-10T00:00:00.000Z", "WEBSITE": "www.johnrandolphmed.com", "STATE_ID": "NOT AVAILABLE", "ALT_NAME": "NOT AVAILABLE", "ST_FIPS": "51", "OWNER": "PROPRIETARY", "TTL_STAFF": -999, "BEDS": 147, "TRAUMA": "NOT AVAILABLE", "HELIPAD": "Y" }, "geometry": { "type": "Polygon", "coordinates": [ [ [ -77.3081058, 37.2255411 ], [ -77.3093491, 37.226757700000029 ], [ -77.381478, 37.305582 ], [ -77.396712, 37.353795100000021 ], [ -77.3553054, 37.369737900000032 ], [ -77.3240986, 37.377424299999966 ], [ -77.3222269, 37.3777975 ], [ -77.317276, 37.3764866 ], [ -77.3163234, 37.376103699999973 ], [ -77.2696435, 37.347083199999972 ], [ -77.260032, 37.297924 ], [ -77.262084, 37.290529 ], [ -77.3081058, 37.2255411 ] ] ] } },
{ "type": "Feature", "properties": { "OBJECTID": 6903, "ID": "0015023061", "NAME": "RIVERSIDE WALTER REED HOSPITAL", "ADDRESS": "7519 HOSPITAL DRIVE", "CITY": "GLOUCESTER", "STATE": "VA", "ZIP": "23061", "ZIP4": "NOT AVAILABLE", "TELEPHONE": "(804) 693-8800", "TYPE": "GENERAL ACUTE CARE", "STATUS": "OPEN", "POPULATION": 67, "COUNTY": "GLOUCESTER", "COUNTYFIPS": "51073", "COUNTRY": "USA", "LATITUDE": 37.419816579, "LONGITUDE": -76.541775783999995, "NAICS_CODE": "622110", "NAICS_DESC": "GENERAL MEDICAL AND SURGICAL HOSPITALS", "SOURCE": "http://www.vhi.org", "SOURCEDATE": "2018-08-09T00:00:00.000Z", "VAL_METHOD": "IMAGERY", "VAL_DATE": "2014-02-10T00:00:00.000Z", "WEBSITE": "www.riverside-online.com/rwrh", "STATE_ID": "NOT AVAILABLE", "ALT_NAME": "NOT AVAILABLE", "ST_FIPS": "51", "OWNER": "NON-PROFIT", "TTL_STAFF": -999, "BEDS": 67, "TRAUMA": "NOT AVAILABLE", "HELIPAD": "Y" }, "geometry": { "type": "Polygon", "coordinates": [ [ [ -76.512283, 37.300911 ], [ -76.598786, 37.355305 ], [ -76.630515, 37.397062 ], [ -76.655743, 37.43705 ], [ -76.653819, 37.469694 ], [ -76.647851, 37.500786 ], [ -76.630330700000016, 37.517977500000022 ], [ -76.5376952, 37.494450899999968 ], [ -76.468503, 37.457616 ], [ -76.462985, 37.447335 ], [ -76.454518, 37.428776 ], [ -76.4539017, 37.421210599999966 ], [ -76.453966, 37.419768 ], [ -76.461835, 37.386704 ], [ -76.4838822, 37.339993600000014 ], [ -76.4996706, 37.317867 ], [ -76.512283, 37.300911 ] ] ] } },
{ "type": "Feature", "properties": { "OBJECTID": 6908, "ID": "0015823434", "NAME": "SENTARA OBICI HOSPITAL", "ADDRESS": "2800 GODWIN BOULEVARD", "CITY": "SUFFOLK", "STATE": "VA", "ZIP": "23434", "ZIP4": "NOT AVAILABLE", "TELEPHONE": "(757) 934-4000", "TYPE": "GENERAL ACUTE CARE", "STATUS": "OPEN", "POPULATION": 150, "COUNTY": "SUFFOLK", "COUNTYFIPS": "51800", "COUNTRY": "USA", "LATITUDE": 36.773314677000002, "LONGITUDE": -76.581111175000004, "NAICS_CODE": "622110", "NAICS_DESC": "GENERAL MEDICAL AND SURGICAL HOSPITALS", "SOURCE": "http://www.vhi.org", "SOURCEDATE": "2018-08-09T00:00:00.000Z", "VAL_METHOD": "IMAGERY", "VAL_DATE": "2014-02-10T00:00:00.000Z", "WEBSITE": "http://www.sentara.com/HospitalsFacilities/Hospitals/Obici/Pages/obici.aspx", "STATE_ID": "NOT AVAILABLE", "ALT_NAME": "NOT AVAILABLE", "ST_FIPS": "51", "OWNER": "NON-PROFIT", "TTL_STAFF": -999, "BEDS": 150, "TRAUMA": "NOT AVAILABLE", "HELIPAD": "Y" }, "geometry": { "type": "Polygon", "coordinates": [ [ [ -76.61335665063153, 36.681169833202006 ], [ -76.657330721137797, 36.693440921946177 ], [ -76.692317777037928, 36.703438978392256 ], [ -76.692375777635917, 36.703555978568431 ], [ -76.705615816479806, 36.796368223743926 ], [ -76.703926016649717, 36.799040123253071 ], [ -76.5817757, 36.8796493 ], [ -76.50176, 36.810212 ], [ -76.48487500719682, 36.763827972044638 ], [ -76.61335665063153, 36.681169833202006 ] ] ] } },
{ "type": "Feature", "properties": { "OBJECTID": 6926, "ID": "0019523185", "NAME": "RIVERSIDE DOCTORS' HOSPITAL WILLIAMSBURG", "ADDRESS": "1500 COMMONWEALTH AVENUE", "CITY": "WILLIAMSBURG", "STATE": "VA", "ZIP": "23185", "ZIP4": "NOT AVAILABLE", "TELEPHONE": "(757) 585-2200", "TYPE": "GENERAL ACUTE CARE", "STATUS": "OPEN", "POPULATION": 40, "COUNTY": "WILLIAMSBURG", "COUNTYFIPS": "51830", "COUNTRY": "USA", "LATITUDE": 37.250895477, "LONGITUDE": -76.668381197000002, "NAICS_CODE": "622110", "NAICS_DESC": "GENERAL MEDICAL AND SURGICAL HOSPITALS", "SOURCE": "http://www.vhi.org", "SOURCEDATE": "2018-08-09T00:00:00.000Z", "VAL_METHOD": "IMAGERY/OTHER", "VAL_DATE": "2017-03-07T00:00:00.000Z", "WEBSITE": "www.riversideonline.com/rdhw", "STATE_ID": "NOT AVAILABLE", "ALT_NAME": "NOT AVAILABLE", "ST_FIPS": "51", "OWNER": "NON-PROFIT", "TTL_STAFF": -999, "BEDS": 40, "TRAUMA": "NOT AVAILABLE", "HELIPAD": "Y" }, "geometry": { "type": "Polygon", "coordinates": [ [ [ -76.684611, 37.223872 ], [ -76.693202, 37.227847 ], [ -76.7052688, 37.235625500000026 ], [ -76.7323107, 37.253480500000023 ], [ -76.7336018, 37.2552006 ], [ -76.735236, 37.257383699999963 ], [ -76.7316822, 37.352572800000011 ], [ -76.727342, 37.353836 ], [ -76.591267, 37.286364 ], [ -76.586523699999987, 37.2829325 ], [ -76.591220800000016, 37.21319920000002 ], [ -76.593241, 37.213367 ], [ -76.641987300000011, 37.21765470000004 ], [ -76.684611, 37.223872 ] ] ] } },
{ "type": "Feature", "properties": { "OBJECTID": 6927, "ID": "0008523235", "NAME": "CJW MEDICAL CENTER JOHNSTON WILLIS CAMPUS", "ADDRESS": "1401 JOHNSTON-WILLIS DRIVE", "CITY": "RICHMOND", "STATE": "VA", "ZIP": "23235", "ZIP4": "NOT AVAILABLE", "TELEPHONE": "(804) 330-2000", "TYPE": "GENERAL ACUTE CARE", "STATUS": "OPEN", "POPULATION": 292, "COUNTY": "CHESTERFIELD", "COUNTYFIPS": "51041", "COUNTRY": "USA", "LATITUDE": 37.510688283, "LONGITUDE": -77.594941144000003, "NAICS_CODE": "622110", "NAICS_DESC": "GENERAL MEDICAL AND SURGICAL HOSPITALS", "SOURCE": "http://www.vhi.org", "SOURCEDATE": "2018-08-09T00:00:00.000Z", "VAL_METHOD": "IMAGERY", "VAL_DATE": "2014-02-10T00:00:00.000Z", "WEBSITE": "http://chippenhammed.com/", "STATE_ID": "NOT AVAILABLE", "ALT_NAME": "NOT AVAILABLE", "ST_FIPS": "51", "OWNER": "PROPRIETARY", "TTL_STAFF": -999, "BEDS": 292, "TRAUMA": "LEVEL III", "HELIPAD": "Y" }, "geometry": { "type": "Polygon", "coordinates": [ [ [ -77.5818289, 37.4237684 ], [ -77.664831, 37.457788 ], [ -77.727486, 37.504427 ], [ -77.726793, 37.505746 ], [ -77.668528, 37.552044 ], [ -77.6646511, 37.554451400000026 ], [ -77.657173200000017, 37.55819119999996 ], [ -77.543519500000016, 37.564063200000014 ], [ -77.5338097, 37.559101499999983 ], [ -77.504151, 37.5288508 ], [ -77.4869756, 37.5109152 ], [ -77.485305, 37.509103799999984 ], [ -77.4866434, 37.49368130000002 ], [ -77.4961394, 37.458783099999977 ], [ -77.5818289, 37.4237684 ] ] ] } },
{ "type": "Feature", "properties": { "OBJECTID": 6942, "ID": "0009823226", "NAME": "BON SECOURS ST. MARYS HOSPITAL", "ADDRESS": "5801 BREMO ROAD", "CITY": "RICHMOND", "STATE": "VA", "ZIP": "23226", "ZIP4": "NOT AVAILABLE", "TELEPHONE": "(804) 285-2010", "TYPE": "GENERAL ACUTE CARE", "STATUS": "OPEN", "POPULATION": 391, "COUNTY": "HENRICO", "COUNTYFIPS": "51087", "COUNTRY": "USA", "LATITUDE": 37.583614582000102, "LONGITUDE": -77.512299624999997, "NAICS_CODE": "622110", "NAICS_DESC": "GENERAL MEDICAL AND SURGICAL HOSPITALS", "SOURCE": "http://www.vhi.org", "SOURCEDATE": "2018-08-09T00:00:00.000Z", "VAL_METHOD": "IMAGERY", "VAL_DATE": "2014-02-10T00:00:00.000Z", "WEBSITE": "http://richmond.bonsecours.com/find-a-facility-st-marys-hospital.", "STATE_ID": "NOT AVAILABLE", "ALT_NAME": "NOT AVAILABLE", "ST_FIPS": "51", "OWNER": "NON-PROFIT", "TTL_STAFF": -999, "BEDS": 391, "TRAUMA": "NOT AVAILABLE", "HELIPAD": "N" }, "geometry": { "type": "Polygon", "coordinates": [ [ [ -77.5138736, 37.513753399999949 ], [ -77.5227222, 37.515696100000035 ], [ -77.611307, 37.574515 ], [ -77.6185989, 37.587551300000015 ], [ -77.623095, 37.597681899999984 ], [ -77.624496, 37.603184 ], [ -77.6119247, 37.651303599999984 ], [ -77.6118296, 37.6514702 ], [ -77.5974866, 37.662671800000048 ], [ -77.588356, 37.667855 ], [ -77.539620199999987, 37.677330699999963 ], [ -77.518764, 37.671016 ], [ -77.517212, 37.670533 ], [ -77.4903838, 37.6588522 ], [ -77.4485385, 37.637058600000017 ], [ -77.440333, 37.6295 ], [ -77.4179012, 37.585429599999969 ], [ -77.4153746, 37.568262599999969 ], [ -77.4224997, 37.535267200000042 ], [ -77.4264436, 37.518144100000029 ], [ -77.4970856, 37.512773599999981 ], [ -77.5138736, 37.513753399999949 ] ] ] } },
{ "type": "Feature", "properties": { "OBJECTID": 4099, "ID": "0012823507", "NAME": "HOSPITAL FOR EXTENDED RECOVERY", "ADDRESS": "600 GRESHAM DRIVE, SUITE 700", "CITY": "NORFOLK", "STATE": "VA", "ZIP": "23507", "ZIP4": "NOT AVAILABLE", "TELEPHONE": "(757) 668-1700", "TYPE": "LONG TERM CARE", "STATUS": "OPEN", "POPULATION": 35, "COUNTY": "NORFOLK", "COUNTYFIPS": "51710", "COUNTRY": "USA", "LATITUDE": 36.862781057000099, "LONGITUDE": -76.304145193999901, "NAICS_CODE": "622310", "NAICS_DESC": "SPECIALTY (EXCEPT PSYCHIATRIC AND SUBSTANCE ABUSE) HOSPITALS", "SOURCE": "http://www.vhi.org", "SOURCEDATE": "2018-08-09T00:00:00.000Z", "VAL_METHOD": "IMAGERY", "VAL_DATE": "2014-03-12T00:00:00.000Z", "WEBSITE": "http://www.sentara.com/HospitalsFacilities/Hospitals/NorfolkGeneral/Pages/hospital_for_extended_recovery.aspx", "STATE_ID": "NOT AVAILABLE", "ALT_NAME": "NOT AVAILABLE", "ST_FIPS": "51", "OWNER": "NON-PROFIT", "TTL_STAFF": -999, "BEDS": 35, "TRAUMA": "NOT AVAILABLE", "HELIPAD": "Y" }, "geometry": { "type": "Polygon", "coordinates": [ [ [ -76.279662, 36.774661 ], [ -76.280853, 36.77538 ], [ -76.2937627, 36.784556699999989 ], [ -76.2947375, 36.786475300000042 ], [ -76.316566400000013, 36.886517599999969 ], [ -76.3203271, 36.922629600000036 ], [ -76.3183742, 36.935364400000019 ], [ -76.3182552, 36.936075399999972 ], [ -76.266446, 36.943643 ], [ -76.259734, 36.943517 ], [ -76.2101426, 36.898860200000037 ], [ -76.1966738, 36.87521739999994 ], [ -76.1828212, 36.8455107 ], [ -76.1824155, 36.843773399999982 ], [ -76.279662, 36.774661 ] ] ] } },
{ "type": "Feature", "properties": { "OBJECTID": 4253, "ID": "0013128533", "NAME": "NAVAL HEALTH CLINIC CHERRY POINT", "ADDRESS": "BEAUFORT ROAD, BUILDING 4385", "CITY": "CHERRY POINT", "STATE": "NC", "ZIP": "28533", "ZIP4": "NOT AVAILABLE", "TELEPHONE": "(252) 466-0266", "TYPE": "GENERAL ACUTE CARE", "STATUS": "OPEN", "POPULATION": -999, "COUNTY": "CRAVEN", "COUNTYFIPS": "37049", "COUNTRY": "USA", "LATITUDE": 34.895165534999997, "LONGITUDE": -76.908676396000004, "NAICS_CODE": "622110", "NAICS_DESC": "GENERAL MEDICAL AND SURGICAL HOSPITALS", "SOURCE": "https://www2.ncdhhs.gov/dhsr/reports.htm", "SOURCEDATE": "2018-08-10T00:00:00.000Z", "VAL_METHOD": "IMAGERY", "VAL_DATE": "2013-10-02T00:00:00.000Z", "WEBSITE": "http://www.med.navy.mil/sites/cpoint/Pages/default.aspx", "STATE_ID": "NOT AVAILABLE", "ALT_NAME": "NOT AVAILABLE", "ST_FIPS": "37", "OWNER": "GOVERNMENT - DISTRICT/AUTHORITY", "TTL_STAFF": -999, "BEDS": -999, "TRAUMA": "NOT AVAILABLE", "HELIPAD": "N" }, "geometry": { "type": "Polygon", "coordinates": [ [ [ -76.9387385, 34.826909 ], [ -76.96781780000002, 34.8448992 ], [ -76.9717544, 34.857601799999962 ], [ -76.97302, 34.86395 ], [ -76.9561366, 34.962565899999959 ], [ -76.9559359, 34.96276060000001 ], [ -76.866855, 34.946469 ], [ -76.863874, 34.945442 ], [ -76.858487, 34.942644 ], [ -76.854607, 34.939554 ], [ -76.825704, 34.883006 ], [ -76.823745, 34.874131 ], [ -76.833492, 34.858339 ], [ -76.9387385, 34.826909 ] ] ] } },
{ "type": "Feature", "properties": { "OBJECTID": 4267, "ID": "0008623114", "NAME": "SHELTERING ARMS HOSPITAL SOUTH", "ADDRESS": "13700 ST. FRANCIS BOULEVARD, SUITE 400", "CITY": "MIDLOTHIAN", "STATE": "VA", "ZIP": "23114", "ZIP4": "NOT AVAILABLE", "TELEPHONE": "(804) 764-5290", "TYPE": "REHABILITATION", "STATUS": "OPEN", "POPULATION": 28, "COUNTY": "CHESTERFIELD", "COUNTYFIPS": "51041", "COUNTRY": "USA", "LATITUDE": 37.466808150000098, "LONGITUDE": -77.658967587000006, "NAICS_CODE": "622310", "NAICS_DESC": "REHABILITATION HOSPITALS (EXCEPT ALCOHOLISM, DRUG ADDICTION)", "SOURCE": "http://www.vhi.org", "SOURCEDATE": "2018-08-09T00:00:00.000Z", "VAL_METHOD": "IMAGERY", "VAL_DATE": "2014-02-10T00:00:00.000Z", "WEBSITE": "http://www.shelteringarms.com/", "STATE_ID": "NOT AVAILABLE", "ALT_NAME": "NOT AVAILABLE", "ST_FIPS": "51", "OWNER": "NON-PROFIT", "TTL_STAFF": -999, "BEDS": 28, "TRAUMA": "NOT AVAILABLE", "HELIPAD": "N" }, "geometry": { "type": "Polygon", "coordinates": [ [ [ -77.674565, 37.389182 ], [ -77.730859, 37.409186600000012 ], [ -77.743882899999988, 37.453602900000028 ], [ -77.7444957, 37.504468599999988 ], [ -77.743423, 37.507605 ], [ -77.7354356, 37.512535299999989 ], [ -77.6762771, 37.546672800000032 ], [ -77.5338936, 37.518354899999984 ], [ -77.5318268, 37.517681100000026 ], [ -77.5317318, 37.517627499999968 ], [ -77.5310925, 37.517028799999977 ], [ -77.5278268, 37.500848500000025 ], [ -77.555816, 37.411177 ], [ -77.5588336, 37.408110799999967 ], [ -77.5644813, 37.4063857 ], [ -77.576797, 37.403132 ], [ -77.655359, 37.38926 ], [ -77.674565, 37.389182 ] ] ] } },
{ "type": "Feature", "properties": { "OBJECTID": 4459, "ID": "0147322801", "NAME": "SENTARA RMH MEDICAL CENTER", "ADDRESS": "2010 HEALTH CAMPUS DRIVE", "CITY": "HARRISONBURG", "STATE": "VA", "ZIP": "22801", "ZIP4": "NOT AVAILABLE", "TELEPHONE": "(540) 689-1000", "TYPE": "GENERAL ACUTE CARE", "STATUS": "OPEN", "POPULATION": 238, "COUNTY": "ROCKINGHAM", "COUNTYFIPS": "51165", "COUNTRY": "USA", "LATITUDE": 38.404786757000103, "LONGITUDE": -78.855472973999994, "NAICS_CODE": "622110", "NAICS_DESC": "GENERAL MEDICAL AND SURGICAL HOSPITALS", "SOURCE": "http://www.vhi.org", "SOURCEDATE": "2018-08-09T00:00:00.000Z", "VAL_METHOD": "IMAGERY/OTHER", "VAL_DATE": "2015-03-26T00:00:00.000Z", "WEBSITE": "www.rmhonline.com", "STATE_ID": "NOT AVAILABLE", "ALT_NAME": "ROCKINGHAM MEMORIAL HOSPITAL", "ST_FIPS": "51", "OWNER": "NON-PROFIT", "TTL_STAFF": -999, "BEDS": 238, "TRAUMA": "NOT AVAILABLE", "HELIPAD": "Y" }, "geometry": { "type": "Polygon", "coordinates": [ [ [ -78.879243, 38.318431 ], [ -78.936424, 38.366931 ], [ -78.9394659, 38.386388599999947 ], [ -78.939385, 38.38681 ], [ -78.914944, 38.438319 ], [ -78.892575, 38.473904 ], [ -78.87419, 38.484737 ], [ -78.871816, 38.486021 ], [ -78.871099, 38.486398 ], [ -78.870577, 38.486433 ], [ -78.8703408, 38.48643 ], [ -78.820269, 38.479083 ], [ -78.72617, 38.376901 ], [ -78.725832, 38.375775 ], [ -78.725928, 38.373388 ], [ -78.732619, 38.36836 ], [ -78.778165, 38.34378 ], [ -78.816568, 38.326156 ], [ -78.879243, 38.318431 ] ] ] } },
{ "type": "Feature", "properties": { "OBJECTID": 277, "ID": "0000522835", "NAME": "PAGE MEMORIAL HOSPITAL", "ADDRESS": "200 MEMORIAL DRIVE", "CITY": "LURAY", "STATE": "VA", "ZIP": "22835", "ZIP4": "NOT AVAILABLE", "TELEPHONE": "(540) 743-4560", "TYPE": "CRITICAL ACCESS", "STATUS": "OPEN", "POPULATION": 25, "COUNTY": "PAGE", "COUNTYFIPS": "51139", "COUNTRY": "USA", "LATITUDE": 38.662284174, "LONGITUDE": -78.468656144999997, "NAICS_CODE": "622110", "NAICS_DESC": "GENERAL MEDICAL AND SURGICAL HOSPITALS", "SOURCE": "http://www.vhi.org", "SOURCEDATE": "2018-08-09T00:00:00.000Z", "VAL_METHOD": "IMAGERY", "VAL_DATE": "2014-02-10T00:00:00.000Z", "WEBSITE": "http://www.valleyhealthlink.com/page", "STATE_ID": "NOT AVAILABLE", "ALT_NAME": "NOT AVAILABLE", "ST_FIPS": "51", "OWNER": "NON-PROFIT", "TTL_STAFF": -999, "BEDS": 25, "TRAUMA": "NOT AVAILABLE", "HELIPAD": "Y" }, "geometry": { "type": "Polygon", "coordinates": [ [ [ -78.482759, 38.579785 ], [ -78.583751, 38.610984 ], [ -78.582573, 38.634225 ], [ -78.513257, 38.708764 ], [ -78.506882, 38.714195 ], [ -78.492878, 38.721779 ], [ -78.398348, 38.760353 ], [ -78.356159, 38.665737 ], [ -78.35536, 38.663664 ], [ -78.353586, 38.650941 ], [ -78.353799, 38.650673 ], [ -78.377707, 38.630842 ], [ -78.420257, 38.599758 ], [ -78.482759, 38.579785 ] ] ] } },
{ "type": "Feature", "properties": { "OBJECTID": 848, "ID": "0000000016", "NAME": "NAVAL MEDICAL CENTER PORTSMOUTH", "ADDRESS": "620 JOHN PAUL JONES CIRCLE", "CITY": "PORTSMOUTH", "STATE": "VA", "ZIP": "23708", "ZIP4": "NOT AVAILABLE", "TELEPHONE": "NOT AVAILABLE", "TYPE": "MILITARY", "STATUS": "OPEN", "POPULATION": -999, "COUNTY": "PORTSMOUTH", "COUNTYFIPS": "51740", "COUNTRY": "USA", "LATITUDE": 36.845413927000003, "LONGITUDE": -76.305767911000004, "NAICS_CODE": "622110", "NAICS_DESC": "GENERAL MEDICAL AND SURGICAL HOSPITALS", "SOURCE": "http://www.vhi.org", "SOURCEDATE": "2018-08-09T00:00:00.000Z", "VAL_METHOD": "IMAGERY/OTHER", "VAL_DATE": "2015-07-29T00:00:00.000Z", "WEBSITE": "http://www.med.navy.mil/sites/NMCP2/Pages/Default.aspx", "STATE_ID": "NOT AVAILABLE", "ALT_NAME": "NOT AVAILABLE", "ST_FIPS": "51", "OWNER": "GOVERNMENT - FEDERAL", "TTL_STAFF": -999, "BEDS": -999, "TRAUMA": "NOT AVAILABLE", "HELIPAD": "Y" }, "geometry": { "type": "Polygon", "coordinates": [ [ [ -76.323346, 36.763895 ], [ -76.344286, 36.767469 ], [ -76.406837, 36.789788 ], [ -76.405912, 36.87253 ], [ -76.405811, 36.874102 ], [ -76.3834087, 36.886637199999988 ], [ -76.3057952, 36.847738599999985 ], [ -76.2966374, 36.839253699999979 ], [ -76.2884356, 36.808557600000015 ], [ -76.312086, 36.7731 ], [ -76.32091, 36.765482 ], [ -76.323346, 36.763895 ] ] ] } },
{ "type": "Feature", "properties": { "OBJECTID": 7016, "ID": "0012323666", "NAME": "SENTARA CAREPLEX HOSPITAL", "ADDRESS": "3000 COLISEUM DRIVE", "CITY": "HAMPTON", "STATE": "VA", "ZIP": "23666", "ZIP4": "NOT AVAILABLE", "TELEPHONE": "(757) 736-1000", "TYPE": "GENERAL ACUTE CARE", "STATUS": "OPEN", "POPULATION": 200, "COUNTY": "HAMPTON", "COUNTYFIPS": "51650", "COUNTRY": "USA", "LATITUDE": 37.057292224999998, "LONGITUDE": -76.39033356, "NAICS_CODE": "622110", "NAICS_DESC": "GENERAL MEDICAL AND SURGICAL HOSPITALS", "SOURCE": "http://www.vhi.org", "SOURCEDATE": "2018-08-09T00:00:00.000Z", "VAL_METHOD": "IMAGERY", "VAL_DATE": "2014-02-10T00:00:00.000Z", "WEBSITE": "http://www.sentara.com/HospitalsFacilities/Hospitals/CarePlex/Pages/careplex.aspx", "STATE_ID": "NOT AVAILABLE", "ALT_NAME": "NOT AVAILABLE", "ST_FIPS": "51", "OWNER": "NON-PROFIT", "TTL_STAFF": -999, "BEDS": 200, "TRAUMA": "NOT AVAILABLE", "HELIPAD": "Y" }, "geometry": { "type": "Polygon", "coordinates": [ [ [ -76.4168933, 36.969504900000011 ], [ -76.432139, 36.977047 ], [ -76.4345112, 36.980874900000011 ], [ -76.435699, 36.982797 ], [ -76.463817, 37.028953 ], [ -76.46693, 37.101027 ], [ -76.462667, 37.101776 ], [ -76.4615423, 37.101922600000044 ], [ -76.3933623, 37.10846160000002 ], [ -76.3173331, 37.0714516 ], [ -76.3004677, 37.0595048 ], [ -76.2932348, 37.043037499999947 ], [ -76.2928799, 37.041020400000015 ], [ -76.2929534, 37.0408758 ], [ -76.3113998, 37.0071126 ], [ -76.312269, 37.005797 ], [ -76.4168933, 36.969504900000011 ] ] ] } },
{ "type": "Feature", "properties": { "OBJECTID": 7018, "ID": "0000122939", "NAME": "AUGUSTA MEDICAL CENTER", "ADDRESS": "78 MEDICAL CENTER DRIVE", "CITY": "FISHERSVILLE", "STATE": "VA", "ZIP": "22939", "ZIP4": "NOT AVAILABLE", "TELEPHONE": "(540) 332-4000", "TYPE": "GENERAL ACUTE CARE", "STATUS": "OPEN", "POPULATION": 255, "COUNTY": "AUGUSTA", "COUNTYFIPS": "51015", "COUNTRY": "USA", "LATITUDE": 38.094524405000101, "LONGITUDE": -78.986837327000003, "NAICS_CODE": "622110", "NAICS_DESC": "GENERAL MEDICAL AND SURGICAL HOSPITALS", "SOURCE": "http://www.vhi.org", "SOURCEDATE": "2018-08-09T00:00:00.000Z", "VAL_METHOD": "IMAGERY", "VAL_DATE": "2014-02-10T00:00:00.000Z", "WEBSITE": "www.augustahealth.com", "STATE_ID": "NOT AVAILABLE", "ALT_NAME": "NOT AVAILABLE", "ST_FIPS": "51", "OWNER": "NON-PROFIT", "TTL_STAFF": -999, "BEDS": 255, "TRAUMA": "NOT AVAILABLE", "HELIPAD": "Y" }, "geometry": { "type": "Polygon", "coordinates": [ [ [ -79.031466, 38.011421 ], [ -79.0342354, 38.01259850000001 ], [ -79.059591, 38.029019 ], [ -79.0800626, 38.0474163 ], [ -79.090941, 38.073876 ], [ -79.093554700000013, 38.132471499999959 ], [ -79.0789336, 38.1500122 ], [ -79.0735781, 38.155994300000039 ], [ -78.9973685, 38.188814700000037 ], [ -78.9414346, 38.160564900000018 ], [ -78.922495, 38.150487 ], [ -78.900835, 38.129473 ], [ -78.893302, 38.111605 ], [ -78.8871634, 38.085654099999985 ], [ -78.88919, 38.069890899999955 ], [ -78.9071877, 38.045704 ], [ -78.9072689, 38.045608300000019 ], [ -78.944401, 38.028289 ], [ -79.031466, 38.011421 ] ] ] } },
{ "type": "Feature", "properties": { "OBJECTID": 7434, "ID": "0145323116", "NAME": "SHELTERING ARMS REHABILITATION HOSPITAL", "ADDRESS": "8254 ATLEE ROAD", "CITY": "MECHANICSVILLE", "STATE": "VA", "ZIP": "23116", "ZIP4": "NOT AVAILABLE", "TELEPHONE": "(804) 342-4320", "TYPE": "REHABILITATION", "STATUS": "OPEN", "POPULATION": 40, "COUNTY": "HANOVER", "COUNTYFIPS": "51085", "COUNTRY": "USA", "LATITUDE": 37.627671329000101, "LONGITUDE": -77.387132247999901, "NAICS_CODE": "622310", "NAICS_DESC": "REHABILITATION HOSPITALS (EXCEPT ALCOHOLISM, DRUG ADDICTION)", "SOURCE": "http://www.vhi.org", "SOURCEDATE": "2018-08-09T00:00:00.000Z", "VAL_METHOD": "IMAGERY/OTHER", "VAL_DATE": "2015-03-26T00:00:00.000Z", "WEBSITE": "NOT AVAILABLE", "STATE_ID": "NOT AVAILABLE", "ALT_NAME": "NOT AVAILABLE", "ST_FIPS": "51", "OWNER": "NOT AVAILABLE", "TTL_STAFF": -999, "BEDS": 40, "TRAUMA": "NOT AVAILABLE", "HELIPAD": "Y" }, "geometry": { "type": "Polygon", "coordinates": [ [ [ -77.339976100000015, 37.575152499999987 ], [ -77.396821, 37.605087399999967 ], [ -77.406264, 37.611847700000013 ], [ -77.456376, 37.6807641 ], [ -77.4598297, 37.687067899999967 ], [ -77.4598508, 37.6872455 ], [ -77.443454, 37.705186 ], [ -77.360318, 37.732155 ], [ -77.3079721, 37.676694 ], [ -77.277022, 37.642213 ], [ -77.2869168, 37.5848661 ], [ -77.2871128, 37.584745699999978 ], [ -77.295554, 37.579905 ], [ -77.320976, 37.572802 ], [ -77.339976100000015, 37.575152499999987 ] ] ] } },
{ "type": "Feature", "properties": { "OBJECTID": 5089, "ID": "0010827959", "NAME": "THE OUTER BANKS HOSPITAL", "ADDRESS": "4800 SOUTH CROATAN HIGHWAY", "CITY": "NAGS HEAD", "STATE": "NC", "ZIP": "27959", "ZIP4": "NOT AVAILABLE", "TELEPHONE": "(252) 449-4500", "TYPE": "GENERAL ACUTE CARE", "STATUS": "OPEN", "POPULATION": 21, "COUNTY": "DARE", "COUNTYFIPS": "37055", "COUNTRY": "USA", "LATITUDE": 35.939836499000101, "LONGITUDE": -75.61764914, "NAICS_CODE": "622110", "NAICS_DESC": "GENERAL MEDICAL AND SURGICAL HOSPITALS", "SOURCE": "https://www2.ncdhhs.gov/dhsr/reports.htm", "SOURCEDATE": "2018-08-10T00:00:00.000Z", "VAL_METHOD": "IMAGERY/OTHER", "VAL_DATE": "2014-02-10T00:00:00.000Z", "WEBSITE": "http://www.theouterbankshospital.com", "STATE_ID": "NOT AVAILABLE", "ALT_NAME": "NOT AVAILABLE", "ST_FIPS": "37", "OWNER": "NON-PROFIT", "TTL_STAFF": -999, "BEDS": 21, "TRAUMA": "NOT AVAILABLE", "HELIPAD": "Y" }, "geometry": { "type": "Polygon", "coordinates": [ [ [ -75.5667358, 35.8445143 ], [ -75.659602, 35.880379 ], [ -75.6667238, 35.887456700000051 ], [ -75.6667723, 35.887516100000013 ], [ -75.669275, 35.895293 ], [ -75.669724, 35.897373 ], [ -75.679789, 36.012293 ], [ -75.678837, 36.026811 ], [ -75.674225, 36.036046 ], [ -75.669603200000012, 36.034521099999964 ], [ -75.6624508, 36.0245212 ], [ -75.6492483, 36.003669199999983 ], [ -75.6432592, 35.9932196 ], [ -75.580782, 35.881531 ], [ -75.578393, 35.876928 ], [ -75.5769461, 35.8738799 ], [ -75.5650812, 35.846602800000035 ], [ -75.5667358, 35.8445143 ] ] ] } },
{ "type": "Feature", "properties": { "OBJECTID": 5090, "ID": "0001528541", "NAME": "ONSLOW MEMORIAL HOSPITAL", "ADDRESS": "317 WESTERN BOULEVARD", "CITY": "JACKSONVILLE", "STATE": "NC", "ZIP": "28541", "ZIP4": "NOT AVAILABLE", "TELEPHONE": "(910) 577-2345", "TYPE": "GENERAL ACUTE CARE", "STATUS": "OPEN", "POPULATION": 162, "COUNTY": "ONSLOW", "COUNTYFIPS": "37133", "COUNTRY": "USA", "LATITUDE": 34.762759328000101, "LONGITUDE": -77.384986818000002, "NAICS_CODE": "622110", "NAICS_DESC": "GENERAL MEDICAL AND SURGICAL HOSPITALS", "SOURCE": "https://www2.ncdhhs.gov/dhsr/reports.htm", "SOURCEDATE": "2018-08-10T00:00:00.000Z", "VAL_METHOD": "IMAGERY/OTHER", "VAL_DATE": "2014-02-10T00:00:00.000Z", "WEBSITE": "http://www.onslow.org", "STATE_ID": "NOT AVAILABLE", "ALT_NAME": "NOT AVAILABLE", "ST_FIPS": "37", "OWNER": "GOVERNMENT - DISTRICT/AUTHORITY", "TTL_STAFF": -999, "BEDS": 162, "TRAUMA": "NOT AVAILABLE", "HELIPAD": "Y" }, "geometry": { "type": "Polygon", "coordinates": [ [ [ -77.34432, 34.680714400000014 ], [ -77.4808811, 34.713382199999977 ], [ -77.486915, 34.756255 ], [ -77.486152700000019, 34.761474200000059 ], [ -77.4615641, 34.829296199999973 ], [ -77.46065, 34.831316100000052 ], [ -77.3422184, 34.83782979999998 ], [ -77.3094994, 34.830114399999978 ], [ -77.3093617, 34.8299585 ], [ -77.2900222, 34.7840675 ], [ -77.2824912, 34.707340100000032 ], [ -77.2825807, 34.707087699999974 ], [ -77.3314315, 34.679575 ], [ -77.34432, 34.680714400000014 ] ] ] } },
{ "type": "Feature", "properties": { "OBJECTID": 5092, "ID": "0000000013", "NAME": "NAVAL HOSPITAL CAMP LEJEUNE", "ADDRESS": "100 BREWSTER BLVD", "CITY": "CAMP LEJEUNE", "STATE": "NC", "ZIP": "28547", "ZIP4": "NOT AVAILABLE", "TELEPHONE": "(910) 450-4300", "TYPE": "MILITARY", "STATUS": "OPEN", "POPULATION": -999, "COUNTY": "ONSLOW", "COUNTYFIPS": "37133", "COUNTRY": "USA", "LATITUDE": 34.723066246000002, "LONGITUDE": -77.358052055000002, "NAICS_CODE": "622110", "NAICS_DESC": "GENERAL MEDICAL AND SURGICAL HOSPITALS", "SOURCE": "http://www.tricare.mil/mtf", "SOURCEDATE": "2019-04-02T00:00:00.000Z", "VAL_METHOD": "IMAGERY/OTHER", "VAL_DATE": "2015-07-25T00:00:00.000Z", "WEBSITE": "http://www.med.navy.mil/sites/nhcl/Pages/default.aspx", "STATE_ID": "NOT AVAILABLE", "ALT_NAME": "NOT AVAILABLE", "ST_FIPS": "37", "OWNER": "GOVERNMENT - FEDERAL", "TTL_STAFF": -999, "BEDS": -999, "TRAUMA": "LEVEL III", "HELIPAD": "Y" }, "geometry": { "type": "Polygon", "coordinates": [ [ [ -77.3442016, 34.6559214 ], [ -77.3535191, 34.659596900000025 ], [ -77.3712099, 34.6765812 ], [ -77.4139166, 34.720627 ], [ -77.4151431, 34.722364700000064 ], [ -77.4322178, 34.749091299999961 ], [ -77.432927100000015, 34.751064699999979 ], [ -77.432522300000016, 34.7535891 ], [ -77.3974523, 34.782393 ], [ -77.3842223, 34.781143499999985 ], [ -77.3664469, 34.775665799999985 ], [ -77.3139758, 34.7504976 ], [ -77.2714521, 34.708145 ], [ -77.2713563, 34.707904199999959 ], [ -77.2966329, 34.668128200000027 ], [ -77.3107851, 34.651541499999979 ], [ -77.317376, 34.65233760000001 ], [ -77.3326947, 34.654301300000014 ], [ -77.3442016, 34.6559214 ] ] ] } },
{ "type": "Feature", "properties": { "OBJECTID": 5206, "ID": "0147922908", "NAME": "UVA TRANSITIONAL CARE HOSPITAL", "ADDRESS": "2965 IVY ROAD", "CITY": "CHARLOTTESVILLE", "STATE": "VA", "ZIP": "22908", "ZIP4": "NOT AVAILABLE", "TELEPHONE": "(434) 924-8245", "TYPE": "LONG TERM CARE", "STATUS": "OPEN", "POPULATION": 40, "COUNTY": "ALBEMARLE", "COUNTYFIPS": "51003", "COUNTRY": "USA", "LATITUDE": 38.0515001220001, "LONGITUDE": -78.549715335000002, "NAICS_CODE": "622310", "NAICS_DESC": "SPECIALTY (EXCEPT PSYCHIATRIC AND SUBSTANCE ABUSE) HOSPITALS", "SOURCE": "http://www.vhi.org", "SOURCEDATE": "2018-08-09T00:00:00.000Z", "VAL_METHOD": "IMAGERY/OTHER", "VAL_DATE": "2015-03-26T00:00:00.000Z", "WEBSITE": "http://uvahealth.com/services/transitional-care-hospital/referrals", "STATE_ID": "NOT AVAILABLE", "ALT_NAME": "NOT AVAILABLE", "ST_FIPS": "51", "OWNER": "NON-PROFIT", "TTL_STAFF": -999, "BEDS": 40, "TRAUMA": "NOT AVAILABLE", "HELIPAD": "N" }, "geometry": { "type": "Polygon", "coordinates": [ [ [ -78.592376, 37.98382 ], [ -78.592545, 37.983951 ], [ -78.67374, 38.051611 ], [ -78.649268, 38.076684 ], [ -78.598753, 38.095633 ], [ -78.562266, 38.103824 ], [ -78.549861, 38.104993 ], [ -78.464655, 38.097094 ], [ -78.464463, 38.096962 ], [ -78.4630139, 38.089307299999987 ], [ -78.456228, 38.039408 ], [ -78.456491, 38.03763 ], [ -78.4798534, 38.003392300000023 ], [ -78.4819659, 38.001887900000014 ], [ -78.53297360000002, 37.991850499999963 ], [ -78.591702, 37.98382 ], [ -78.592376, 37.98382 ] ] ] } },
{ "type": "Feature", "properties": { "OBJECTID": 5211, "ID": "0020522402", "NAME": "WESTERN STATE HOSPITAL", "ADDRESS": "103 VALLEY CENTER DRIVE", "CITY": "STAUNTON", "STATE": "VA", "ZIP": "22402", "ZIP4": "2500", "TELEPHONE": "(540) 332-8000", "TYPE": "PSYCHIATRIC", "STATUS": "OPEN", "POPULATION": -999, "COUNTY": "STAUNTON", "COUNTYFIPS": "51790", "COUNTRY": "USA", "LATITUDE": 38.142443933000003, "LONGITUDE": -79.027406913999997, "NAICS_CODE": "622210", "NAICS_DESC": "PSYCHIATRIC AND SUBSTANCE ABUSE HOSPITALS", "SOURCE": "http://www.vhi.org", "SOURCEDATE": "2018-08-09T00:00:00.000Z", "VAL_METHOD": "IMAGERY/OTHER", "VAL_DATE": "2017-03-09T00:00:00.000Z", "WEBSITE": "http://www.wsh.dbhds.virginia.gov/", "STATE_ID": "NOT AVAILABLE", "ALT_NAME": "NOT AVAILABLE", "ST_FIPS": "51", "OWNER": "GOVERNMENT - STATE", "TTL_STAFF": -999, "BEDS": -999, "TRAUMA": "NOT AVAILABLE", "HELIPAD": "N" }, "geometry": { "type": "Polygon", "coordinates": [ [ [ -79.068882, 38.054309 ], [ -79.114207, 38.061618 ], [ -79.116659, 38.073037 ], [ -79.122681, 38.166538 ], [ -79.0984271, 38.182785700000025 ], [ -79.08229, 38.188384 ], [ -79.015304, 38.205305 ], [ -79.003449, 38.207431 ], [ -78.970719, 38.182662 ], [ -78.950511, 38.162679 ], [ -78.945236, 38.088828 ], [ -78.968095, 38.068379 ], [ -78.999794, 38.06357 ], [ -79.068882, 38.054309 ] ] ] } },
{ "type": "Feature", "properties": { "OBJECTID": 5222, "ID": "0014223607", "NAME": "RIVERSIDE REHABILITATION INSTITUTE", "ADDRESS": "245 CHESAPEAKE AVENUE", "CITY": "NEWPORT NEWS", "STATE": "VA", "ZIP": "23607", "ZIP4": "NOT AVAILABLE", "TELEPHONE": "(757) 928-8000", "TYPE": "REHABILITATION", "STATUS": "OPEN", "POPULATION": 50, "COUNTY": "NEWPORT NEWS", "COUNTYFIPS": "51700", "COUNTRY": "USA", "LATITUDE": 36.986181291000001, "LONGITUDE": -76.392787448999997, "NAICS_CODE": "622310", "NAICS_DESC": "REHABILITATION HOSPITALS (EXCEPT ALCOHOLISM, DRUG ADDICTION)", "SOURCE": "http://www.vhi.org", "SOURCEDATE": "2018-08-09T00:00:00.000Z", "VAL_METHOD": "IMAGERY/OTHER", "VAL_DATE": "2014-02-10T00:00:00.000Z", "WEBSITE": "http://www.riversideonline.com/rri/index.cfm", "STATE_ID": "NOT AVAILABLE", "ALT_NAME": "NOT AVAILABLE", "ST_FIPS": "51", "OWNER": "NON-PROFIT", "TTL_STAFF": -999, "BEDS": 50, "TRAUMA": "NOT AVAILABLE", "HELIPAD": "N" }, "geometry": { "type": "Polygon", "coordinates": [ [ [ -76.4115382, 36.964317200000011 ], [ -76.4148888, 36.965834 ], [ -76.433715800000016, 36.974819299999979 ], [ -76.463279, 37.028123300000026 ], [ -76.463273500000014, 37.028521799999986 ], [ -76.463033, 37.032831 ], [ -76.4601626, 37.048118 ], [ -76.3953617, 37.0816964 ], [ -76.3472988, 37.0597358 ], [ -76.3335248, 37.052613100000045 ], [ -76.326683800000012, 37.041852299999967 ], [ -76.3263746, 37.041257500000015 ], [ -76.3191349, 37.025939899999976 ], [ -76.3187849, 37.0228583 ], [ -76.319136200000017, 37.017277199999974 ], [ -76.323901, 37.01419309999995 ], [ -76.4115382, 36.964317200000011 ] ] ] } },
{ "type": "Feature", "properties": { "OBJECTID": 5231, "ID": "0012523667", "NAME": "HAMPTON VA MEDICAL CENTER", "ADDRESS": "100 EMANCIPATION DRIVE", "CITY": "HAMPTON", "STATE": "VA", "ZIP": "23667", "ZIP4": "NOT AVAILABLE", "TELEPHONE": "(757) 722-9961", "TYPE": "MILITARY", "STATUS": "OPEN", "POPULATION": 485, "COUNTY": "HAMPTON", "COUNTYFIPS": "51650", "COUNTRY": "USA", "LATITUDE": 37.015358187000103, "LONGITUDE": -76.332256856999905, "NAICS_CODE": "622110", "NAICS_DESC": "GENERAL MEDICAL AND SURGICAL HOSPITALS", "SOURCE": "http://www.vhi.org", "SOURCEDATE": "2018-08-09T00:00:00.000Z", "VAL_METHOD": "IMAGERY", "VAL_DATE": "2014-02-10T00:00:00.000Z", "WEBSITE": "http://www.hampton.va.gov/", "STATE_ID": "NOT AVAILABLE", "ALT_NAME": "NOT AVAILABLE", "ST_FIPS": "51", "OWNER": "GOVERNMENT - FEDERAL", "TTL_STAFF": -999, "BEDS": 485, "TRAUMA": "NOT AVAILABLE", "HELIPAD": "N" }, "geometry": { "type": "Polygon", "coordinates": [ [ [ -76.421149, 36.975161 ], [ -76.433918, 36.983513 ], [ -76.4347078, 36.984798299999987 ], [ -76.4332693, 37.061536199999971 ], [ -76.3966793, 37.086638100000016 ], [ -76.3950975, 37.086584 ], [ -76.2961108, 37.081904800000025 ], [ -76.2943457, 37.081269300000017 ], [ -76.289605, 37.075379699999971 ], [ -76.287872, 37.070827 ], [ -76.2835423, 37.056984800000023 ], [ -76.3018062, 37.008439799999984 ], [ -76.3040855, 37.003529600000014 ], [ -76.3057085, 37.001673 ], [ -76.421149, 36.975161 ] ] ] } },
{ "type": "Feature", "properties": { "OBJECTID": 3165, "ID": "0010323294", "NAME": "HENRICO DOCTORS' HOSPITAL - PARHAM", "ADDRESS": "7700 EAST PARHAM ROAD", "CITY": "RICHMOND", "STATE": "VA", "ZIP": "23294", "ZIP4": "NOT AVAILABLE", "TELEPHONE": "(804) 747-5600", "TYPE": "GENERAL ACUTE CARE", "STATUS": "OPEN", "POPULATION": 200, "COUNTY": "HENRICO", "COUNTYFIPS": "51087", "COUNTRY": "USA", "LATITUDE": 37.631710049, "LONGITUDE": -77.52602103, "NAICS_CODE": "622110", "NAICS_DESC": "GENERAL MEDICAL AND SURGICAL HOSPITALS", "SOURCE": "http://www.vhi.org", "SOURCEDATE": "2018-08-09T00:00:00.000Z", "VAL_METHOD": "IMAGERY", "VAL_DATE": "2014-02-10T00:00:00.000Z", "WEBSITE": "http://parhamdoctors.com/", "STATE_ID": "NOT AVAILABLE", "ALT_NAME": "PARHAM DOCTORS HOSPITAL", "ST_FIPS": "51", "OWNER": "PROPRIETARY", "TTL_STAFF": -999, "BEDS": 200, "TRAUMA": "NOT AVAILABLE", "HELIPAD": "N" }, "geometry": { "type": "Polygon", "coordinates": [ [ [ -77.585595, 37.565252 ], [ -77.592876, 37.567741 ], [ -77.611307, 37.574515 ], [ -77.612763, 37.575448 ], [ -77.6325765, 37.6132882 ], [ -77.654971, 37.6640102 ], [ -77.6238841, 37.684941899999984 ], [ -77.607516, 37.695266 ], [ -77.601446, 37.695936100000026 ], [ -77.595978, 37.696196 ], [ -77.515291100000013, 37.697648799999961 ], [ -77.4967336, 37.6967756 ], [ -77.4910182, 37.694273499999987 ], [ -77.4613665, 37.6785828 ], [ -77.452972, 37.671636 ], [ -77.4277478, 37.644930499999973 ], [ -77.4242311, 37.640362599999953 ], [ -77.424183, 37.640179599999968 ], [ -77.4233991, 37.633756200000029 ], [ -77.422529, 37.624612 ], [ -77.42546, 37.617424 ], [ -77.469821, 37.5594876 ], [ -77.4908567, 37.5530011 ], [ -77.585595, 37.565252 ] ] ] } },
{ "type": "Feature", "properties": { "OBJECTID": 3191, "ID": "0011923320", "NAME": "CHESAPEAKE REGIONAL MEDICAL CENTER", "ADDRESS": "736 BATTLEFIELD BOULEVARD NORTH", "CITY": "CHESAPEAKE", "STATE": "VA", "ZIP": "23327", "ZIP4": "NOT AVAILABLE", "TELEPHONE": "(757) 312-8120", "TYPE": "GENERAL ACUTE CARE", "STATUS": "OPEN", "POPULATION": 310, "COUNTY": "CHESAPEAKE", "COUNTYFIPS": "51550", "COUNTRY": "USA", "LATITUDE": 36.745509251999998, "LONGITUDE": -76.246039466, "NAICS_CODE": "622110", "NAICS_DESC": "GENERAL MEDICAL AND SURGICAL HOSPITALS", "SOURCE": "http://www.vhi.org", "SOURCEDATE": "2018-08-09T00:00:00.000Z", "VAL_METHOD": "IMAGERY", "VAL_DATE": "2014-02-10T00:00:00.000Z", "WEBSITE": "http://www.chesapeakeregional.com", "STATE_ID": "NOT AVAILABLE", "ALT_NAME": "NOT AVAILABLE", "ST_FIPS": "51", "OWNER": "GOVERNMENT - DISTRICT/AUTHORITY", "TTL_STAFF": -999, "BEDS": 310, "TRAUMA": "NOT AVAILABLE", "HELIPAD": "Y" }, "geometry": { "type": "Polygon", "coordinates": [ [ [ -76.235956993932348, 36.643398680760882 ], [ -76.266119729233978, 36.654075174402351 ], [ -76.343978040061899, 36.700783638211135 ], [ -76.345710643887728, 36.701989248236323 ], [ -76.358158328791134, 36.723978812908449 ], [ -76.358791935893137, 36.725726025485578 ], [ -76.362215085515544, 36.737730310803926 ], [ -76.363698322105975, 36.746410271719078 ], [ -76.363086037322674, 36.754296997288947 ], [ -76.36193, 36.768194 ], [ -76.285898, 36.836058 ], [ -76.28139, 36.83683 ], [ -76.255973, 36.836253 ], [ -76.210351399999979, 36.828350199999981 ], [ -76.147144, 36.753939 ], [ -76.15933390617154, 36.715592775489519 ], [ -76.191597766619225, 36.675437428327115 ], [ -76.216953079159737, 36.645427336260433 ], [ -76.217217078788565, 36.645242634165321 ], [ -76.235956993932348, 36.643398680760882 ] ] ] } },
{ "type": "Feature", "properties": { "OBJECTID": 3193, "ID": "0001922911", "NAME": "MARTHA JEFFERSON HOSPITAL", "ADDRESS": "500 MARTHA JEFFERSON DR.", "CITY": "CHARLOTTESVILLE", "STATE": "VA", "ZIP": "22911", "ZIP4": "NOT AVAILABLE", "TELEPHONE": "(434) 982-7000", "TYPE": "GENERAL ACUTE CARE", "STATUS": "OPEN", "POPULATION": 176, "COUNTY": "ALBEMARLE", "COUNTYFIPS": "51003", "COUNTRY": "USA", "LATITUDE": 38.022581181000099, "LONGITUDE": -78.444389615999995, "NAICS_CODE": "622110", "NAICS_DESC": "GENERAL MEDICAL AND SURGICAL HOSPITALS", "SOURCE": "http://www.vhi.org", "SOURCEDATE": "2018-08-09T00:00:00.000Z", "VAL_METHOD": "IMAGERY/OTHER", "VAL_DATE": "2014-02-10T00:00:00.000Z", "WEBSITE": "www.marthajefferson.org", "STATE_ID": "NOT AVAILABLE", "ALT_NAME": "NOT AVAILABLE", "ST_FIPS": "51", "OWNER": "NON-PROFIT", "TTL_STAFF": -999, "BEDS": 176, "TRAUMA": "NOT AVAILABLE", "HELIPAD": "N" }, "geometry": { "type": "Polygon", "coordinates": [ [ [ -78.519001, 37.963531 ], [ -78.546516900000015, 37.976847100000015 ], [ -78.596275, 38.031495 ], [ -78.409953, 38.08866 ], [ -78.391151, 38.091467 ], [ -78.332375, 38.042774 ], [ -78.326475, 38.006494 ], [ -78.324569, 37.9860022 ], [ -78.328893, 37.980986 ], [ -78.335935, 37.973111 ], [ -78.519001, 37.963531 ] ] ] } },
{ "type": "Feature", "properties": { "OBJECTID": 3194, "ID": "0002422903", "NAME": "UVA KLUGE CHILDRENS REHABILITATION CENTER", "ADDRESS": "2270 IVY ROAD", "CITY": "CHARLOTTESVILLE", "STATE": "VA", "ZIP": "22901", "ZIP4": "NOT AVAILABLE", "TELEPHONE": "(434) 924-5161", "TYPE": "CHILDREN", "STATUS": "CLOSED", "POPULATION": 19, "COUNTY": "ALBEMARLE", "COUNTYFIPS": "51003", "COUNTRY": "USA", "LATITUDE": 38.045266479000098, "LONGITUDE": -78.520604197999901, "NAICS_CODE": "622110", "NAICS_DESC": "CHILDREN'S HOSPITALS, GENERAL", "SOURCE": "http://www.vdh.virginia.gov/OLC/acutecare/hospitals.htm", "SOURCEDATE": "2016-08-16T00:00:00.000Z", "VAL_METHOD": "IMAGERY/OTHER", "VAL_DATE": "2014-02-10T00:00:00.000Z", "WEBSITE": "http://www.healthsystem.virginia.edu/internet/pediatrics/kcrc/", "STATE_ID": "NOT AVAILABLE", "ALT_NAME": "NOT AVAILABLE", "ST_FIPS": "51", "OWNER": "PROPRIETARY", "TTL_STAFF": -999, "BEDS": 19, "TRAUMA": "NOT AVAILABLE", "HELIPAD": "N" }, "geometry": { "type": "Polygon", "coordinates": [ [ [ -78.620004, 37.966712 ], [ -78.649892, 38.060639 ], [ -78.6488079, 38.062060399999979 ], [ -78.564305, 38.10333 ], [ -78.562266, 38.103824 ], [ -78.549861, 38.104993 ], [ -78.4521671, 38.113992200000013 ], [ -78.450663, 38.11366 ], [ -78.4251699, 38.02114659999998 ], [ -78.4289793, 38.0187017 ], [ -78.4291702, 38.018606699999957 ], [ -78.490313, 37.991081 ], [ -78.5386, 37.979398 ], [ -78.61589, 37.966817 ], [ -78.620004, 37.966712 ] ] ] } },
{ "type": "Feature", "properties": { "OBJECTID": 3195, "ID": "0014523188", "NAME": "VERNON M. GEDDY JR. OUTPATIENT CENTER", "ADDRESS": "6601 MOORETOWN ROAD", "CITY": "WILLIAMSBURG", "STATE": "VA", "ZIP": "23188", "ZIP4": "NOT AVAILABLE", "TELEPHONE": "(757) 345-4310", "TYPE": "GENERAL ACUTE CARE", "STATUS": "CLOSED", "POPULATION": -999, "COUNTY": "YORK", "COUNTYFIPS": "51199", "COUNTRY": "USA", "LATITUDE": 37.337459612000004, "LONGITUDE": -76.7415956789999, "NAICS_CODE": "622110", "NAICS_DESC": "GENERAL MEDICAL AND SURGICAL HOSPITALS", "SOURCE": "http://www.vdh.virginia.gov/OLC/acutecare/hospitals.htm", "SOURCEDATE": "2016-08-16T00:00:00.000Z", "VAL_METHOD": "IMAGERY", "VAL_DATE": "2014-03-12T00:00:00.000Z", "WEBSITE": "http://www.sentara.com/HospitalsFacilities/Hospitals/Williamsburg/Williamsburg/Pages/geddyoutpatientcenter.aspx", "STATE_ID": "NOT AVAILABLE", "ALT_NAME": "NOT AVAILABLE", "ST_FIPS": "51", "OWNER": "NOT AVAILABLE", "TTL_STAFF": -999, "BEDS": -999, "TRAUMA": "NOT AVAILABLE", "HELIPAD": "Y" }, "geometry": { "type": "Polygon", "coordinates": [ [ [ -76.76547, 37.256662 ], [ -76.819195, 37.297133 ], [ -76.833935, 37.321693 ], [ -76.826165, 37.382055 ], [ -76.8091395, 37.404526300000029 ], [ -76.8052149, 37.406189099999985 ], [ -76.800265, 37.406459 ], [ -76.745589, 37.407962 ], [ -76.6608428, 37.354489299999976 ], [ -76.6459259, 37.257179499999957 ], [ -76.747244, 37.254557 ], [ -76.76547, 37.256662 ] ] ] } },
{ "type": "Feature", "properties": { "OBJECTID": 3201, "ID": "0012623505", "NAME": "BON SECOURS DEPAUL MEDICAL CENTER", "ADDRESS": "150 KINGSLEY LANE", "CITY": "NORFOLK", "STATE": "VA", "ZIP": "23505", "ZIP4": "NOT AVAILABLE", "TELEPHONE": "(757) 889-5000", "TYPE": "GENERAL ACUTE CARE", "STATUS": "OPEN", "POPULATION": 180, "COUNTY": "NORFOLK", "COUNTYFIPS": "51710", "COUNTRY": "USA", "LATITUDE": 36.89948466, "LONGITUDE": -76.281620145999995, "NAICS_CODE": "622110", "NAICS_DESC": "GENERAL MEDICAL AND SURGICAL HOSPITALS", "SOURCE": "http://www.vhi.org", "SOURCEDATE": "2018-08-09T00:00:00.000Z", "VAL_METHOD": "IMAGERY", "VAL_DATE": "2014-02-10T00:00:00.000Z", "WEBSITE": "http://www.bonsecourshamptonroads.com/find-a-facility-depaul-medical-center.html", "STATE_ID": "NOT AVAILABLE", "ALT_NAME": "NOT AVAILABLE", "ST_FIPS": "51", "OWNER": "NON-PROFIT", "TTL_STAFF": -999, "BEDS": 180, "TRAUMA": "NOT AVAILABLE", "HELIPAD": "Y" }, "geometry": { "type": "Polygon", "coordinates": [ [ [ -76.2787106, 36.815380500000025 ], [ -76.287138, 36.823965 ], [ -76.3100842, 36.864307399999987 ], [ -76.316566400000013, 36.886517599999969 ], [ -76.3285608, 36.945632900000035 ], [ -76.3286547, 36.946762599999985 ], [ -76.3282847, 36.949387499999986 ], [ -76.3278715, 36.9512882 ], [ -76.325119, 36.959276799999984 ], [ -76.296357, 36.96834 ], [ -76.284034, 36.968174 ], [ -76.2812136, 36.967894 ], [ -76.2716, 36.965657 ], [ -76.267351, 36.963866 ], [ -76.1919031, 36.929656 ], [ -76.1900425, 36.9284413 ], [ -76.1832755, 36.918808200000022 ], [ -76.176049, 36.887418 ], [ -76.1765412, 36.8831555 ], [ -76.177933, 36.87999 ], [ -76.19045610000002, 36.854976200000024 ], [ -76.1965417, 36.8442304 ], [ -76.2787106, 36.815380500000025 ] ] ] } },
{ "type": "Feature", "properties": { "OBJECTID": 3202, "ID": "0013123502", "NAME": "SENTARA LEIGH HOSPITAL", "ADDRESS": "830 KEMPSVILLE ROAD", "CITY": "NORFOLK", "STATE": "VA", "ZIP": "23502", "ZIP4": "NOT AVAILABLE", "TELEPHONE": "(757) 261-6000", "TYPE": "GENERAL ACUTE CARE", "STATUS": "OPEN", "POPULATION": 250, "COUNTY": "NORFOLK", "COUNTYFIPS": "51710", "COUNTRY": "USA", "LATITUDE": 36.850842670000098, "LONGITUDE": -76.189629472999997, "NAICS_CODE": "622110", "NAICS_DESC": "GENERAL MEDICAL AND SURGICAL HOSPITALS", "SOURCE": "http://www.vhi.org", "SOURCEDATE": "2018-08-09T00:00:00.000Z", "VAL_METHOD": "IMAGERY", "VAL_DATE": "2014-02-10T00:00:00.000Z", "WEBSITE": "http://www.sentara.com/HospitalsFacilities/Hospitals/Leigh/Pages/leigh.aspx", "STATE_ID": "NOT AVAILABLE", "ALT_NAME": "NOT AVAILABLE", "ST_FIPS": "51", "OWNER": "NON-PROFIT", "TTL_STAFF": -999, "BEDS": 250, "TRAUMA": "NOT AVAILABLE", "HELIPAD": "Y" }, "geometry": { "type": "Polygon", "coordinates": [ [ [ -76.1962022, 36.778568099999987 ], [ -76.285717, 36.826965 ], [ -76.290564, 36.831811200000033 ], [ -76.3015122, 36.855777099999969 ], [ -76.302227800000011, 36.8604892 ], [ -76.302313, 36.867398 ], [ -76.2750326, 36.919570199999967 ], [ -76.2700079, 36.9237895 ], [ -76.2445379, 36.933797199999951 ], [ -76.2443244, 36.933818100000011 ], [ -76.1311236, 36.9132789 ], [ -76.116733, 36.906162 ], [ -76.0563736, 36.838075500000031 ], [ -76.106811, 36.785675 ], [ -76.10771, 36.784758 ], [ -76.181748, 36.777453 ], [ -76.1962022, 36.778568099999987 ] ] ] } },
{ "type": "Feature", "properties": { "OBJECTID": 3203, "ID": "0010923220", "NAME": "CHILDREN'S HOSPITAL OF RICHMOND AT VCU (BROOK ROAD)", "ADDRESS": "2924 BROOK ROAD", "CITY": "RICHMOND", "STATE": "VA", "ZIP": "23220", "ZIP4": "NOT AVAILABLE", "TELEPHONE": "(804) 321-7470", "TYPE": "CHILDREN", "STATUS": "CLOSED", "POPULATION": 36, "COUNTY": "RICHMOND CITY", "COUNTYFIPS": "51760", "COUNTRY": "USA", "LATITUDE": 37.570901335000002, "LONGITUDE": -77.45083318, "NAICS_CODE": "622110", "NAICS_DESC": "CHILDREN'S HOSPITALS, GENERAL", "SOURCE": "http://www.vdh.virginia.gov/OLC/acutecare/hospitals.htm", "SOURCEDATE": "2016-08-16T00:00:00.000Z", "VAL_METHOD": "IMAGERY/OTHER", "VAL_DATE": "2014-02-10T00:00:00.000Z", "WEBSITE": "www.childrenshosp-richmond.org", "STATE_ID": "NOT AVAILABLE", "ALT_NAME": "NOT AVAILABLE", "ST_FIPS": "51", "OWNER": "NON-PROFIT", "TTL_STAFF": -999, "BEDS": 36, "TRAUMA": "NOT AVAILABLE", "HELIPAD": "N" }, "geometry": { "type": "Polygon", "coordinates": [ [ [ -77.4280704, 37.468788300000028 ], [ -77.4928802, 37.507737 ], [ -77.5285723, 37.529717 ], [ -77.5741069, 37.6351531 ], [ -77.5210519, 37.652165799999977 ], [ -77.4607189, 37.6660577 ], [ -77.4604977, 37.666068099999983 ], [ -77.4277478, 37.644930499999973 ], [ -77.3531175, 37.568607200000017 ], [ -77.365401, 37.537286 ], [ -77.388332, 37.509188 ], [ -77.4280704, 37.468788300000028 ] ] ] } },
{ "type": "Feature", "properties": { "OBJECTID": 3205, "ID": "0013723607", "NAME": "HAMPTON ROADS SPECIALTY HOSPITAL", "ADDRESS": "245 CHESAPEAKE AVENUE", "CITY": "NEWPORT NEWS", "STATE": "VA", "ZIP": "23607", "ZIP4": "NOT AVAILABLE", "TELEPHONE": "(757) 534-5000", "TYPE": "LONG TERM CARE", "STATUS": "OPEN", "POPULATION": 25, "COUNTY": "NEWPORT NEWS", "COUNTYFIPS": "51700", "COUNTRY": "USA", "LATITUDE": 36.986092370000101, "LONGITUDE": -76.392940515000006, "NAICS_CODE": "622310", "NAICS_DESC": "SPECIALTY (EXCEPT PSYCHIATRIC AND SUBSTANCE ABUSE) HOSPITALS", "SOURCE": "http://www.vhi.org", "SOURCEDATE": "2018-08-09T00:00:00.000Z", "VAL_METHOD": "IMAGERY/OTHER", "VAL_DATE": "2014-02-10T00:00:00.000Z", "WEBSITE": "http://www.hamptonroadsspecialtyhospital.com/", "STATE_ID": "NOT AVAILABLE", "ALT_NAME": "NOT AVAILABLE", "ST_FIPS": "51", "OWNER": "NON-PROFIT", "TTL_STAFF": -999, "BEDS": 25, "TRAUMA": "NOT AVAILABLE", "HELIPAD": "N" }, "geometry": { "type": "Polygon", "coordinates": [ [ [ -76.4115382, 36.964317200000011 ], [ -76.4148888, 36.965834 ], [ -76.433715800000016, 36.974819299999979 ], [ -76.463279, 37.028123300000026 ], [ -76.463273500000014, 37.028521799999986 ], [ -76.463033, 37.032831 ], [ -76.4601626, 37.048118 ], [ -76.3953617, 37.0816964 ], [ -76.3472988, 37.0597358 ], [ -76.3335248, 37.052613100000045 ], [ -76.326683800000012, 37.041852299999967 ], [ -76.3263746, 37.041257500000015 ], [ -76.3191349, 37.025939899999976 ], [ -76.3187849, 37.0228583 ], [ -76.319136200000017, 37.017277199999974 ], [ -76.323901, 37.01419309999995 ], [ -76.4115382, 36.964317200000011 ] ] ] } },
{ "type": "Feature", "properties": { "OBJECTID": 3209, "ID": "0015623435", "NAME": "BON SECOURS HEALTH CENTER AT HARBOUR VIEW", "ADDRESS": "5818 HARBOUR VIEW BOULEVARD", "CITY": "SUFFOLK", "STATE": "VA", "ZIP": "23435", "ZIP4": "NOT AVAILABLE", "TELEPHONE": "(757) 673-5800", "TYPE": "GENERAL ACUTE CARE", "STATUS": "OPEN", "POPULATION": -999, "COUNTY": "SUFFOLK", "COUNTYFIPS": "51800", "COUNTRY": "USA", "LATITUDE": 36.868572646000104, "LONGITUDE": -76.441899217, "NAICS_CODE": "622110", "NAICS_DESC": "GENERAL MEDICAL AND SURGICAL HOSPITALS", "SOURCE": "http://www.vhi.org", "SOURCEDATE": "2018-08-09T00:00:00.000Z", "VAL_METHOD": "IMAGERY", "VAL_DATE": "2014-02-10T00:00:00.000Z", "WEBSITE": "http://www.bonsecourshamptonroads.com/find-a-facility-harbour-view-health-center.html", "STATE_ID": "NOT AVAILABLE", "ALT_NAME": "NOT AVAILABLE", "ST_FIPS": "51", "OWNER": "NON-PROFIT", "TTL_STAFF": -999, "BEDS": -999, "TRAUMA": "NOT AVAILABLE", "HELIPAD": "N" }, "geometry": { "type": "Polygon", "coordinates": [ [ [ -76.429694, 36.781828 ], [ -76.508558, 36.820518 ], [ -76.513329, 36.823384 ], [ -76.526413, 36.836407 ], [ -76.516287, 36.89143 ], [ -76.514941, 36.895545 ], [ -76.5068316, 36.91640940000002 ], [ -76.490691, 36.913977 ], [ -76.395366, 36.895755 ], [ -76.3882606, 36.893804200000027 ], [ -76.3825763, 36.8913984 ], [ -76.3609432, 36.88031340000002 ], [ -76.3264799, 36.8489897 ], [ -76.3283582, 36.837483299999988 ], [ -76.412501, 36.785428 ], [ -76.429694, 36.781828 ] ] ] } },
{ "type": "Feature", "properties": { "OBJECTID": 3210, "ID": "0015723434", "NAME": "LAKEVIEW MEDICAL CENTER", "ADDRESS": "2000 MEADE PARKWAY", "CITY": "SUFFOLK", "STATE": "VA", "ZIP": "23434", "ZIP4": "NOT AVAILABLE", "TELEPHONE": "(757) 539-0250", "TYPE": "GENERAL ACUTE CARE", "STATUS": "OPEN", "POPULATION": -999, "COUNTY": "SUFFOLK", "COUNTYFIPS": "51800", "COUNTRY": "USA", "LATITUDE": 36.760549060000102, "LONGITUDE": -76.594560203, "NAICS_CODE": "622110", "NAICS_DESC": "GENERAL MEDICAL AND SURGICAL HOSPITALS", "SOURCE": "http://www.vhi.org", "SOURCEDATE": "2018-08-09T00:00:00.000Z", "VAL_METHOD": "IMAGERY", "VAL_DATE": "2014-02-10T00:00:00.000Z", "WEBSITE": "http://www.lakeviewmed.org/index.cfm/fuseaction/site.physicians/action/dtl/phys/99842375.cfm", "STATE_ID": "NOT AVAILABLE", "ALT_NAME": "LAKEVIEW MEDICAL CENTER", "ST_FIPS": "51", "OWNER": "NOT AVAILABLE", "TTL_STAFF": -999, "BEDS": -999, "TRAUMA": "NOT AVAILABLE", "HELIPAD": "N" }, "geometry": { "type": "Polygon", "coordinates": [ [ [ -76.619116635779676, 36.67809983522892 ], [ -76.664808700514342, 36.689159925836357 ], [ -76.70054675764429, 36.699353984765793 ], [ -76.700930767050252, 36.701213986674325 ], [ -76.717903016994157, 36.797403026502543 ], [ -76.71752001734805, 36.802002026152692 ], [ -76.716490017683356, 36.806597025668374 ], [ -76.5870962, 36.8562127 ], [ -76.584106, 36.856523 ], [ -76.504927, 36.808553 ], [ -76.48487500719682, 36.763827972044638 ], [ -76.610025631581664, 36.677613819181524 ], [ -76.619116635779676, 36.67809983522892 ] ] ] } },
{ "type": "Feature", "properties": { "OBJECTID": 3212, "ID": "0009623847", "NAME": "SOUTHERN VIRGINIA REGIONAL MEDICAL CENTER", "ADDRESS": "727 NORTH MAIN STREET", "CITY": "EMPORIA", "STATE": "VA", "ZIP": "23847", "ZIP4": "NOT AVAILABLE", "TELEPHONE": "(434) 348-4400", "TYPE": "GENERAL ACUTE CARE", "STATUS": "OPEN", "POPULATION": 80, "COUNTY": "EMPORIA", "COUNTYFIPS": "51595", "COUNTRY": "USA", "LATITUDE": 36.701576035000102, "LONGITUDE": -77.537683067000003, "NAICS_CODE": "622110", "NAICS_DESC": "GENERAL MEDICAL AND SURGICAL HOSPITALS", "SOURCE": "http://www.vhi.org", "SOURCEDATE": "2018-08-09T00:00:00.000Z", "VAL_METHOD": "IMAGERY/OTHER", "VAL_DATE": "2014-02-10T00:00:00.000Z", "WEBSITE": "http://www.svrmc.com", "STATE_ID": "NOT AVAILABLE", "ALT_NAME": "NOT AVAILABLE", "ST_FIPS": "51", "OWNER": "PROPRIETARY", "TTL_STAFF": -999, "BEDS": 80, "TRAUMA": "NOT AVAILABLE", "HELIPAD": "Y" }, "geometry": { "type": "Polygon", "coordinates": [ [ [ -77.548432016043293, 36.671665332757236 ], [ -77.553012011628653, 36.673323384253941 ], [ -77.641780576456213, 36.740204615431928 ], [ -77.646148282164276, 36.751916084839166 ], [ -77.645249682308972, 36.752271781929331 ], [ -77.57150799211864, 36.768928176006575 ], [ -77.451205017850626, 36.713409875602665 ], [ -77.399476006752764, 36.684331775255075 ], [ -77.400186007027031, 36.683486772324919 ], [ -77.42216501697601, 36.679647759155664 ], [ -77.480579046203587, 36.675480745296632 ], [ -77.548432016043293, 36.671665332757236 ] ] ] } },
{ "type": "Feature", "properties": { "OBJECTID": 3218, "ID": "0147123188", "NAME": "THE PAVILION AT WILLIAMSBURG PLACE", "ADDRESS": "5483 MOORETOWN ROAD", "CITY": "WILLIAMSBURG", "STATE": "VA", "ZIP": "23188", "ZIP4": "NOT AVAILABLE", "TELEPHONE": "(757) 565-0106", "TYPE": "PSYCHIATRIC", "STATUS": "OPEN", "POPULATION": 57, "COUNTY": "JAMES CITY", "COUNTYFIPS": "51095", "COUNTRY": "USA", "LATITUDE": 37.314861604999997, "LONGITUDE": -76.731887351999902, "NAICS_CODE": "622210", "NAICS_DESC": "PSYCHIATRIC AND SUBSTANCE ABUSE HOSPITALS", "SOURCE": "http://www.vhi.org", "SOURCEDATE": "2018-08-09T00:00:00.000Z", "VAL_METHOD": "IMAGERY/OTHER", "VAL_DATE": "2015-03-26T00:00:00.000Z", "WEBSITE": "www.pavilionwp.com", "STATE_ID": "NOT AVAILABLE", "ALT_NAME": "NOT AVAILABLE", "ST_FIPS": "51", "OWNER": "PROPRIETARY", "TTL_STAFF": -999, "BEDS": 57, "TRAUMA": "NOT AVAILABLE", "HELIPAD": "N" }, "geometry": { "type": "Polygon", "coordinates": [ [ [ -76.762798, 37.239422 ], [ -76.776801, 37.248511 ], [ -76.7966587, 37.262755500000019 ], [ -76.819195, 37.297133 ], [ -76.817029, 37.354254 ], [ -76.806173, 37.381928 ], [ -76.782127, 37.395996 ], [ -76.753121, 37.396995 ], [ -76.7513, 37.396236 ], [ -76.693358100000012, 37.364449 ], [ -76.6897751, 37.36200220000002 ], [ -76.6872928, 37.358044299999968 ], [ -76.6395273, 37.264690799999961 ], [ -76.633829, 37.240582299999978 ], [ -76.762798, 37.239422 ] ] ] } },
{ "type": "Feature", "properties": { "OBJECTID": 3219, "ID": "0019123502", "NAME": "KEMPSVILLE CENTER FOR BEHAVIORAL HEALTH", "ADDRESS": "860 KEMPSVILLE ROAD", "CITY": "NORFOLK", "STATE": "VA", "ZIP": "23502", "ZIP4": "NOT AVAILABLE", "TELEPHONE": "(757) 461-4565", "TYPE": "PSYCHIATRIC", "STATUS": "OPEN", "POPULATION": 82, "COUNTY": "NORFOLK", "COUNTYFIPS": "51710", "COUNTRY": "USA", "LATITUDE": 36.853088881000097, "LONGITUDE": -76.189458152, "NAICS_CODE": "622210", "NAICS_DESC": "PSYCHIATRIC AND SUBSTANCE ABUSE HOSPITALS", "SOURCE": "http://www.vhi.org", "SOURCEDATE": "2018-08-09T00:00:00.000Z", "VAL_METHOD": "IMAGERY/OTHER", "VAL_DATE": "2017-03-07T00:00:00.000Z", "WEBSITE": "www.kempsvillecbh.com", "STATE_ID": "NOT AVAILABLE", "ALT_NAME": "NOT AVAILABLE", "ST_FIPS": "51", "OWNER": "PROPRIETARY", "TTL_STAFF": -999, "BEDS": 82, "TRAUMA": "NOT AVAILABLE", "HELIPAD": "Y" }, "geometry": { "type": "Polygon", "coordinates": [ [ [ -76.181886, 36.788393 ], [ -76.184471, 36.788978 ], [ -76.287193, 36.838962 ], [ -76.293854, 36.84685 ], [ -76.288449, 36.861045 ], [ -76.259918, 36.90954 ], [ -76.256301, 36.912439 ], [ -76.2518598, 36.915693799999978 ], [ -76.242493, 36.922002 ], [ -76.211672, 36.919381 ], [ -76.203162, 36.918643 ], [ -76.1538864, 36.90692050000002 ], [ -76.136918, 36.900811 ], [ -76.116359, 36.87638 ], [ -76.09094, 36.841537 ], [ -76.089913, 36.838126 ], [ -76.089086, 36.833849 ], [ -76.091413, 36.829466 ], [ -76.09322, 36.827304 ], [ -76.104727, 36.813945 ], [ -76.123834, 36.796113 ], [ -76.125643, 36.795315 ], [ -76.126336, 36.795164 ], [ -76.163985, 36.789672 ], [ -76.181886, 36.788393 ] ] ] } },
{ "type": "Feature", "properties": { "OBJECTID": 3222, "ID": "0008423114", "NAME": "BON SECOURS ST. FRANCIS MEDICAL CENTER", "ADDRESS": "13710 ST. FRANCIS BOULEVARD", "CITY": "MIDLOTHIAN", "STATE": "VA", "ZIP": "23114", "ZIP4": "NOT AVAILABLE", "TELEPHONE": "(804) 594-7300", "TYPE": "GENERAL ACUTE CARE", "STATUS": "OPEN", "POPULATION": 130, "COUNTY": "CHESTERFIELD", "COUNTYFIPS": "51041", "COUNTRY": "USA", "LATITUDE": 37.466694605999997, "LONGITUDE": -77.658639514000001, "NAICS_CODE": "622110", "NAICS_DESC": "GENERAL MEDICAL AND SURGICAL HOSPITALS", "SOURCE": "http://www.vhi.org", "SOURCEDATE": "2018-08-09T00:00:00.000Z", "VAL_METHOD": "IMAGERY", "VAL_DATE": "2014-02-10T00:00:00.000Z", "WEBSITE": "http://richmond.bonsecours.com/find-a-facility-st-francis-medical-center.html", "STATE_ID": "NOT AVAILABLE", "ALT_NAME": "NOT AVAILABLE", "ST_FIPS": "51", "OWNER": "NON-PROFIT", "TTL_STAFF": -999, "BEDS": 130, "TRAUMA": "NOT AVAILABLE", "HELIPAD": "N" }, "geometry": { "type": "Polygon", "coordinates": [ [ [ -77.674565, 37.389182 ], [ -77.7276041, 37.4077066 ], [ -77.730859, 37.409186600000012 ], [ -77.7313028, 37.409847300000038 ], [ -77.743882899999988, 37.453602900000028 ], [ -77.7444957, 37.504468599999988 ], [ -77.743423, 37.507605 ], [ -77.739262, 37.514705 ], [ -77.6762771, 37.546672800000032 ], [ -77.5338936, 37.518354899999984 ], [ -77.5318268, 37.517681100000026 ], [ -77.5317318, 37.517627499999968 ], [ -77.5310925, 37.517028799999977 ], [ -77.5267967, 37.501028400000031 ], [ -77.555816, 37.411177 ], [ -77.5588336, 37.408110799999967 ], [ -77.5644813, 37.4063857 ], [ -77.576797, 37.403132 ], [ -77.655359, 37.38926 ], [ -77.674565, 37.389182 ] ] ] } },
{ "type": "Feature", "properties": { "OBJECTID": 3228, "ID": "0010023226", "NAME": "HEALTHSOUTH REHABILITATION HOSPITAL OF VIRGINIA", "ADDRESS": "5700 FITZHUGH AVENUE", "CITY": "RICHMOND", "STATE": "VA", "ZIP": "23226", "ZIP4": "NOT AVAILABLE", "TELEPHONE": "(804) 288-5700", "TYPE": "REHABILITATION", "STATUS": "OPEN", "POPULATION": 40, "COUNTY": "HENRICO", "COUNTYFIPS": "51087", "COUNTRY": "USA", "LATITUDE": 37.585943981000099, "LONGITUDE": -77.506712641999997, "NAICS_CODE": "622310", "NAICS_DESC": "REHABILITATION HOSPITALS (EXCEPT ALCOHOLISM, DRUG ADDICTION)", "SOURCE": "http://www.vhi.org", "SOURCEDATE": "2018-08-09T00:00:00.000Z", "VAL_METHOD": "IMAGERY/OTHER", "VAL_DATE": "2014-02-10T00:00:00.000Z", "WEBSITE": "http://www.healthsouthrichmond.com/", "STATE_ID": "NOT AVAILABLE", "ALT_NAME": "NOT AVAILABLE", "ST_FIPS": "51", "OWNER": "PROPRIETARY", "TTL_STAFF": -999, "BEDS": 40, "TRAUMA": "NOT AVAILABLE", "HELIPAD": "N" }, "geometry": { "type": "Polygon", "coordinates": [ [ [ -77.5203229, 37.516931 ], [ -77.610738, 37.575361 ], [ -77.62164, 37.594752 ], [ -77.623095, 37.597681899999984 ], [ -77.6230883, 37.5977871 ], [ -77.6151753, 37.652145500000032 ], [ -77.5974866, 37.662671800000048 ], [ -77.588356, 37.667855 ], [ -77.5402577, 37.680879800000035 ], [ -77.4864037, 37.663385099999978 ], [ -77.4365021, 37.6294468 ], [ -77.416148, 37.585333 ], [ -77.414999400000013, 37.57025920000001 ], [ -77.4153746, 37.568262599999969 ], [ -77.4264436, 37.518144100000029 ], [ -77.498844, 37.514526900000014 ], [ -77.5000288, 37.514519199999981 ], [ -77.511239, 37.515553700000048 ], [ -77.5203229, 37.516931 ] ] ] } },
{ "type": "Feature", "properties": { "OBJECTID": 3266, "ID": "0000422801", "NAME": "ROCKINGHAM MEMORIAL HOSPITAL", "ADDRESS": "235 CANTRELL AVENUE", "CITY": "HARRISONBURG", "STATE": "VA", "ZIP": "22801", "ZIP4": "NOT AVAILABLE", "TELEPHONE": "(540) 689-1000", "TYPE": "GENERAL ACUTE CARE", "STATUS": "CLOSED", "POPULATION": 270, "COUNTY": "HARRISONBURG", "COUNTYFIPS": "51660", "COUNTRY": "USA", "LATITUDE": 38.439895191000097, "LONGITUDE": -78.871306069, "NAICS_CODE": "622110", "NAICS_DESC": "GENERAL MEDICAL AND SURGICAL HOSPITALS", "SOURCE": "http://www.vdh.virginia.gov/OLC/acutecare/hospitals.htm", "SOURCEDATE": "2016-08-16T00:00:00.000Z", "VAL_METHOD": "IMAGERY", "VAL_DATE": "2014-02-10T00:00:00.000Z", "WEBSITE": "www.rmhonline.com", "STATE_ID": "NOT AVAILABLE", "ALT_NAME": "NOT AVAILABLE", "ST_FIPS": "51", "OWNER": "NON-PROFIT", "TTL_STAFF": -999, "BEDS": 270, "TRAUMA": "NOT AVAILABLE", "HELIPAD": "N" }, "geometry": { "type": "Polygon", "coordinates": [ [ [ -78.934787, 38.384045 ], [ -78.93699, 38.384757 ], [ -78.9394659, 38.386388599999947 ], [ -78.957254, 38.399341 ], [ -78.96283, 38.408583 ], [ -78.944915, 38.476975 ], [ -78.935702, 38.502993 ], [ -78.880034, 38.530916 ], [ -78.851941, 38.535474 ], [ -78.785282, 38.519023 ], [ -78.780028, 38.510452 ], [ -78.828407, 38.420143 ], [ -78.894807, 38.393213 ], [ -78.900197, 38.391086 ], [ -78.934787, 38.384045 ] ] ] } },
{ "type": "Feature", "properties": { "OBJECTID": 3509, "ID": "0003227983", "NAME": "VIDANT BERTIE HOSPITAL", "ADDRESS": "1403 SOUTH KING STREET", "CITY": "WINDSOR", "STATE": "NC", "ZIP": "27983", "ZIP4": "NOT AVAILABLE", "TELEPHONE": "(252) 794-6600", "TYPE": "GENERAL ACUTE CARE", "STATUS": "OPEN", "POPULATION": 6, "COUNTY": "BERTIE", "COUNTYFIPS": "37015", "COUNTRY": "USA", "LATITUDE": 35.988647545, "LONGITUDE": -76.928249488999896, "NAICS_CODE": "622110", "NAICS_DESC": "GENERAL MEDICAL AND SURGICAL HOSPITALS", "SOURCE": "https://www2.ncdhhs.gov/dhsr/reports.htm", "SOURCEDATE": "2018-08-10T00:00:00.000Z", "VAL_METHOD": "IMAGERY/OTHER", "VAL_DATE": "2014-02-10T00:00:00.000Z", "WEBSITE": "https://www.vidanthealth.com/bertie/dynamic-detail.aspx?id=381", "STATE_ID": "NOT AVAILABLE", "ALT_NAME": "BERTIE MEMORIAL HOSPITAL", "ST_FIPS": "37", "OWNER": "NON-PROFIT", "TTL_STAFF": -999, "BEDS": 6, "TRAUMA": "NOT AVAILABLE", "HELIPAD": "Y" }, "geometry": { "type": "Polygon", "coordinates": [ [ [ -77.0060612, 35.9247075 ], [ -77.0204292, 35.986728799999987 ], [ -77.016936, 36.035636300000029 ], [ -76.9724958, 36.06178180000002 ], [ -76.86656090000001, 36.063569799999968 ], [ -76.8122345, 36.024934600000023 ], [ -76.8140194, 35.9399521 ], [ -77.0060612, 35.9247075 ] ] ] } },
{ "type": "Feature", "properties": { "OBJECTID": 3511, "ID": "0005427932", "NAME": "VIDANT CHOWAN HOSPITAL", "ADDRESS": "211 VIRGINIA ROAD", "CITY": "EDENTON", "STATE": "NC", "ZIP": "27932", "ZIP4": "NOT AVAILABLE", "TELEPHONE": "(252) 482-8451", "TYPE": "GENERAL ACUTE CARE", "STATUS": "OPEN", "POPULATION": 89, "COUNTY": "CHOWAN", "COUNTYFIPS": "37041", "COUNTRY": "USA", "LATITUDE": 36.069979282000098, "LONGITUDE": -76.611203527000001, "NAICS_CODE": "622110", "NAICS_DESC": "GENERAL MEDICAL AND SURGICAL HOSPITALS", "SOURCE": "https://www2.ncdhhs.gov/dhsr/reports.htm", "SOURCEDATE": "2018-08-10T00:00:00.000Z", "VAL_METHOD": "IMAGERY/OTHER", "VAL_DATE": "2014-02-10T00:00:00.000Z", "WEBSITE": "http://www.vidanthealth.com", "STATE_ID": "NOT AVAILABLE", "ALT_NAME": "CHOWAN HOSPITAL", "ST_FIPS": "37", "OWNER": "NON-PROFIT", "TTL_STAFF": -999, "BEDS": 89, "TRAUMA": "NOT AVAILABLE", "HELIPAD": "Y" }, "geometry": { "type": "Polygon", "coordinates": [ [ [ -76.58001, 36.011528 ], [ -76.6807674, 36.0511711 ], [ -76.6827394, 36.054168300000015 ], [ -76.6882664, 36.063920299999971 ], [ -76.6865485, 36.100430399999979 ], [ -76.6829249, 36.162892699999986 ], [ -76.654746500000016, 36.161398299999973 ], [ -76.523631, 36.094014 ], [ -76.5102859, 36.030675400000014 ], [ -76.512046, 36.027505 ], [ -76.5250444, 36.016967100000024 ], [ -76.5540559, 36.012177100000081 ], [ -76.5723437, 36.010416800000044 ], [ -76.58001, 36.011528 ] ] ] } },
{ "type": "Feature", "properties": { "OBJECTID": 3745, "ID": "0000000125", "NAME": "BON SECOURS ST FRANCIS WATKINS CENTRE", "ADDRESS": "601 WATKINS CENTRE PKWY", "CITY": "MIDLOTHIAN", "STATE": "VA", "ZIP": "23113", "ZIP4": "NOT AVAILABLE", "TELEPHONE": "(804) 594-7950", "TYPE": "GENERAL ACUTE CARE", "STATUS": "OPEN", "POPULATION": 16, "COUNTY": "CHESTERFIELD", "COUNTYFIPS": "51041", "COUNTRY": "USA", "LATITUDE": 37.510190153000103, "LONGITUDE": -77.696234945, "NAICS_CODE": "622110", "NAICS_DESC": "GENERAL MEDICAL AND SURGICAL HOSPITALS", "SOURCE": "http://www.vhi.org", "SOURCEDATE": "2018-08-09T00:00:00.000Z", "VAL_METHOD": "IMAGERY", "VAL_DATE": "2015-05-23T00:00:00.000Z", "WEBSITE": "http://richmond.bonsecours.com/find-a-facility-st-francis-watkins-centre.html", "STATE_ID": "NOT AVAILABLE", "ALT_NAME": "NOT AVAILABLE", "ST_FIPS": "51", "OWNER": "NON-PROFIT", "TTL_STAFF": -999, "BEDS": 16, "TRAUMA": "NOT AVAILABLE", "HELIPAD": "N" }, "geometry": { "type": "Polygon", "coordinates": [ [ [ -77.647723, 37.410887 ], [ -77.7194894, 37.43013490000002 ], [ -77.802844, 37.48044 ], [ -77.8513041, 37.529077499999978 ], [ -77.851226, 37.529297 ], [ -77.793704, 37.544716 ], [ -77.729255, 37.557959 ], [ -77.6691245, 37.554600700000016 ], [ -77.6392118, 37.547317199999974 ], [ -77.5921694, 37.534094100000019 ], [ -77.589811, 37.533374 ], [ -77.57567, 37.515935 ], [ -77.5656043, 37.498666400000026 ], [ -77.5639554, 37.49581950000001 ], [ -77.586753, 37.46128 ], [ -77.619112, 37.413268 ], [ -77.647723, 37.410887 ] ] ] } },
{ "type": "Feature", "properties": { "OBJECTID": 3803, "ID": "0008923124", "NAME": "CUMBERLAND HOSPITAL FOR CHILDREN AND ADOLESCENTS", "ADDRESS": "9407 CUMBERLAND ROAD", "CITY": "NEW KENT", "STATE": "VA", "ZIP": "23124", "ZIP4": "NOT AVAILABLE", "TELEPHONE": "(804) 966-2240", "TYPE": "CHILDREN", "STATUS": "OPEN", "POPULATION": 110, "COUNTY": "NEW KENT", "COUNTYFIPS": "51127", "COUNTRY": "USA", "LATITUDE": 37.546359960000103, "LONGITUDE": -76.9785405169999, "NAICS_CODE": "622110", "NAICS_DESC": "CHILDREN'S HOSPITALS, GENERAL", "SOURCE": "http://www.vhi.org", "SOURCEDATE": "2018-08-09T00:00:00.000Z", "VAL_METHOD": "IMAGERY/OTHER", "VAL_DATE": "2019-04-16T00:00:00.000Z", "WEBSITE": "http://cumberlandhospital.com/", "STATE_ID": "NOT AVAILABLE", "ALT_NAME": "NOT AVAILABLE", "ST_FIPS": "51", "OWNER": "PROPRIETARY", "TTL_STAFF": -999, "BEDS": 110, "TRAUMA": "NOT AVAILABLE", "HELIPAD": "N" }, "geometry": { "type": "Polygon", "coordinates": [ [ [ -76.9329485, 37.476044299999984 ], [ -77.0240559, 37.4941791 ], [ -77.0300791, 37.5064247 ], [ -77.0388042, 37.525679100000012 ], [ -77.037162800000019, 37.528627700000051 ], [ -77.0131423, 37.542076100000017 ], [ -76.9786357, 37.545727 ], [ -76.9382713, 37.5373136 ], [ -76.8908477, 37.50263 ], [ -76.9329485, 37.476044299999984 ] ] ] } },
{ "type": "Feature", "properties": { "OBJECTID": 3824, "ID": "0009423805", "NAME": "HEALTHSOUTH REHABILITATION HOSPITAL OF PETERSBURG", "ADDRESS": "95 PINE HILL BOULEVARD", "CITY": "PETERSBURG", "STATE": "VA", "ZIP": "23805", "ZIP4": "NOT AVAILABLE", "TELEPHONE": "(804) 504-8100", "TYPE": "REHABILITATION", "STATUS": "OPEN", "POPULATION": 64, "COUNTY": "PETERSBURG", "COUNTYFIPS": "51730", "COUNTRY": "USA", "LATITUDE": 37.184669307999997, "LONGITUDE": -77.364060191999997, "NAICS_CODE": "622310", "NAICS_DESC": "REHABILITATION HOSPITALS (EXCEPT ALCOHOLISM, DRUG ADDICTION)", "SOURCE": "http://www.vhi.org", "SOURCEDATE": "2018-08-09T00:00:00.000Z", "VAL_METHOD": "IMAGERY/OTHER", "VAL_DATE": "2019-04-16T00:00:00.000Z", "WEBSITE": "http://www.healthsouthpetersburg.com/", "STATE_ID": "NOT AVAILABLE", "ALT_NAME": "NOT AVAILABLE", "ST_FIPS": "51", "OWNER": "PROPRIETARY", "TTL_STAFF": -999, "BEDS": 64, "TRAUMA": "NOT AVAILABLE", "HELIPAD": "N" }, "geometry": { "type": "Polygon", "coordinates": [ [ [ -77.360973, 37.078345 ], [ -77.445552, 37.196985 ], [ -77.447505, 37.21662 ], [ -77.445513, 37.219401 ], [ -77.4174756, 37.232724 ], [ -77.4045147, 37.237621799999985 ], [ -77.3695857, 37.24336959999998 ], [ -77.352704, 37.245812 ], [ -77.3475466, 37.246510500000021 ], [ -77.302765, 37.237075 ], [ -77.287234, 37.228198 ], [ -77.276783, 37.215503 ], [ -77.277102, 37.186597 ], [ -77.28507, 37.162262 ], [ -77.352654, 37.077812 ], [ -77.360973, 37.078345 ] ] ] } },
{ "type": "Feature", "properties": { "OBJECTID": 3829, "ID": "0013923604", "NAME": "MCDONALD ARMY COMMUNITY HOSPITAL", "ADDRESS": "576 JEFFERSON AVENUE", "CITY": "FORT EUSTIS", "STATE": "VA", "ZIP": "23604", "ZIP4": "NOT AVAILABLE", "TELEPHONE": "(757) 314-7500", "TYPE": "MILITARY", "STATUS": "OPEN", "POPULATION": 30, "COUNTY": "NEWPORT NEWS", "COUNTYFIPS": "51700", "COUNTRY": "USA", "LATITUDE": 37.161954312, "LONGITUDE": -76.573226260999903, "NAICS_CODE": "622110", "NAICS_DESC": "GENERAL MEDICAL AND SURGICAL HOSPITALS", "SOURCE": "http://www.vhi.org", "SOURCEDATE": "2018-08-09T00:00:00.000Z", "VAL_METHOD": "IMAGERY/OTHER", "VAL_DATE": "2019-04-16T00:00:00.000Z", "WEBSITE": "http://mcdonald.narmc.amedd.army.mil/default.aspx", "STATE_ID": "NOT AVAILABLE", "ALT_NAME": "NOT AVAILABLE", "ST_FIPS": "51", "OWNER": "GOVERNMENT - FEDERAL", "TTL_STAFF": -999, "BEDS": 30, "TRAUMA": "NOT AVAILABLE", "HELIPAD": "N" }, "geometry": { "type": "Polygon", "coordinates": [ [ [ -76.5858839, 37.1498094 ], [ -76.5747707, 37.16812879999997 ], [ -76.570887, 37.166070199999972 ], [ -76.5674742, 37.1614801 ], [ -76.5666452, 37.159321500000033 ], [ -76.5858839, 37.1498094 ] ] ] } },
{ "type": "Feature", "properties": { "OBJECTID": 3932, "ID": "0177928546", "NAME": "BRYNN MARR HOSPITAL", "ADDRESS": "192 VILLAGE DR", "CITY": "JACKSONVILLE", "STATE": "NC", "ZIP": "28546", "ZIP4": "NOT AVAILABLE", "TELEPHONE": "(910) 577-1400", "TYPE": "PSYCHIATRIC", "STATUS": "OPEN", "POPULATION": -999, "COUNTY": "ONSLOW", "COUNTYFIPS": "37133", "COUNTRY": "USA", "LATITUDE": 34.746335098000003, "LONGITUDE": -77.374386318999896, "NAICS_CODE": "622210", "NAICS_DESC": "PSYCHIATRIC AND SUBSTANCE ABUSE HOSPITALS", "SOURCE": "https://www2.ncdhhs.gov/dhsr/reports.htm", "SOURCEDATE": "2018-08-10T00:00:00.000Z", "VAL_METHOD": "IMAGERY/OTHER", "VAL_DATE": "2019-05-09T00:00:00.000Z", "WEBSITE": "https://www.brynnmarr.org/", "STATE_ID": "MHH0190", "ALT_NAME": "NOT AVAILABLE", "ST_FIPS": "37", "OWNER": "PROPRIETARY", "TTL_STAFF": -999, "BEDS": -999, "TRAUMA": "NOT AVAILABLE", "HELIPAD": "N" }, "geometry": { "type": "Polygon", "coordinates": [ [ [ -77.3289189, 34.6665469 ], [ -77.3315067, 34.667053 ], [ -77.3398133, 34.6690935 ], [ -77.4805486, 34.713232300000016 ], [ -77.4808811, 34.713382199999977 ], [ -77.487017, 34.75519 ], [ -77.486915, 34.756255 ], [ -77.486152700000019, 34.761474200000059 ], [ -77.4528862, 34.81 ], [ -77.4294772, 34.821786 ], [ -77.3456478, 34.8301464 ], [ -77.3192363, 34.823419300000033 ], [ -77.3190984, 34.823289199999977 ], [ -77.2554456, 34.712068200000012 ], [ -77.3205836, 34.666260900000054 ], [ -77.3289189, 34.6665469 ] ] ] } }
]
}
