{
"type": "FeatureCollection",
"crs": { "type": "name", "properties": { "name": "urn:ogc:def:crs:OGC:1.3:CRS84" } },
"features": [
{ "type": "Feature", "properties": { "OBJECTID": 1099, "ID": "0014148198", "NAME": "FOREST HEALTH MEDICAL CENTER", "ADDRESS": "135 S PROSPECT ST", "CITY": "YPSILANTI", "STATE": "MI", "ZIP": "48198", "ZIP4": "NOT AVAILABLE", "TELEPHONE": "NOT AVAILABLE", "TYPE": "GENERAL ACUTE CARE", "STATUS": "OPEN", "POPULATION": 68, "COUNTY": "WASHTENAW", "COUNTYFIPS": "26161", "COUNTRY": "USA", "LATITUDE": 42.237571063000097, "LONGITUDE": -83.600647596000002, "NAICS_CODE": "622110", "NAICS_DESC": "GENERAL MEDICAL AND SURGICAL HOSPITALS", "SOURCE": "https://w2.lara.state.mi.us/VAL/License/Search", "SOURCEDATE": "2018-08-09T00:00:00.000Z", "VAL_METHOD": "IMAGERY", "VAL_DATE": "2014-01-30T00:00:00.000Z", "WEBSITE": "http://www.fhmc-mi.com/", "STATE_ID": "NOT AVAILABLE", "ALT_NAME": "NOT AVAILABLE", "ST_FIPS": "26", "OWNER": "PROPRIETARY", "TTL_STAFF": -999, "BEDS": 68, "TRAUMA": "NOT AVAILABLE", "HELIPAD": "N" }, "geometry": { "type": "Polygon", "coordinates": [ [ [ -83.6843851, 42.161092200000013 ], [ -83.728174, 42.189803 ], [ -83.767464, 42.242247 ], [ -83.7694485, 42.250220900000024 ], [ -83.6153164, 42.326648 ], [ -83.605992, 42.32472 ], [ -83.5352282, 42.308649399999965 ], [ -83.526267, 42.306358 ], [ -83.506142, 42.299905899999985 ], [ -83.476519, 42.289847 ], [ -83.4515027, 42.277777900000025 ], [ -83.471569, 42.248829 ], [ -83.512027, 42.203902399999976 ], [ -83.5521611, 42.181395099999982 ], [ -83.6008658, 42.157249499999985 ], [ -83.6843851, 42.161092200000013 ] ] ] } },
{ "type": "Feature", "properties": { "OBJECTID": 2094, "ID": "0006949221", "NAME": "PROMEDICA BIXBY HOSPITAL", "ADDRESS": "818 RIVERSIDE AVENUE", "CITY": "ADRIAN", "STATE": "MI", "ZIP": "49221", "ZIP4": "NOT AVAILABLE", "TELEPHONE": "NOT AVAILABLE", "TYPE": "GENERAL ACUTE CARE", "STATUS": "OPEN", "POPULATION": 88, "COUNTY": "LENAWEE", "COUNTYFIPS": "26091", "COUNTRY": "USA", "LATITUDE": 41.913664335000099, "LONGITUDE": -84.049104022999998, "NAICS_CODE": "622110", "NAICS_DESC": "GENERAL MEDICAL AND SURGICAL HOSPITALS", "SOURCE": "https://w2.lara.state.mi.us/VAL/License/Search", "SOURCEDATE": "2018-08-09T00:00:00.000Z", "VAL_METHOD": "IMAGERY", "VAL_DATE": "2014-03-12T00:00:00.000Z", "WEBSITE": "http://www.promedica.org", "STATE_ID": "NOT AVAILABLE", "ALT_NAME": "NOT AVAILABLE", "ST_FIPS": "26", "OWNER": "NON-PROFIT", "TTL_STAFF": -999, "BEDS": 88, "TRAUMA": "NOT AVAILABLE", "HELIPAD": "Y" }, "geometry": { "type": "Polygon", "coordinates": [ [ [ -84.04166, 41.824024 ], [ -84.0885232, 41.858794400000015 ], [ -84.163368, 41.914671 ], [ -84.151528, 41.929354 ], [ -84.130016, 41.94245 ], [ -84.004617, 41.991092 ], [ -83.9633246, 41.9573351 ], [ -83.955015, 41.948931 ], [ -83.9629877, 41.885258200000017 ], [ -83.979247, 41.869148 ], [ -84.04166, 41.824024 ] ] ] } },
{ "type": "Feature", "properties": { "OBJECTID": 2099, "ID": "0009848033", "NAME": "STRAITH HOSPITAL FOR SPECIAL SURGERY", "ADDRESS": "23901 LAHSER", "CITY": "SOUTHFIELD", "STATE": "MI", "ZIP": "48033", "ZIP4": "NOT AVAILABLE", "TELEPHONE": "NOT AVAILABLE", "TYPE": "GENERAL ACUTE CARE", "STATUS": "OPEN", "POPULATION": 34, "COUNTY": "OAKLAND", "COUNTYFIPS": "26125", "COUNTRY": "USA", "LATITUDE": 42.464632758999997, "LONGITUDE": -83.261355155000004, "NAICS_CODE": "622110", "NAICS_DESC": "GENERAL MEDICAL AND SURGICAL HOSPITALS", "SOURCE": "https://w2.lara.state.mi.us/VAL/License/Search", "SOURCEDATE": "2018-08-09T00:00:00.000Z", "VAL_METHOD": "IMAGERY", "VAL_DATE": "2014-02-10T00:00:00.000Z", "WEBSITE": "http://straith.org/", "STATE_ID": "NOT AVAILABLE", "ALT_NAME": "NOT AVAILABLE", "ST_FIPS": "26", "OWNER": "NON-PROFIT", "TTL_STAFF": -999, "BEDS": 34, "TRAUMA": "NOT AVAILABLE", "HELIPAD": "N" }, "geometry": { "type": "Polygon", "coordinates": [ [ [ -83.2758609, 42.37049 ], [ -83.3058993, 42.38500430000002 ], [ -83.42644, 42.489009500000016 ], [ -83.360727, 42.542945699999983 ], [ -83.3413585, 42.549767700000046 ], [ -83.28953, 42.566767 ], [ -83.2810612, 42.568635099999973 ], [ -83.27785, 42.568599 ], [ -83.222156, 42.542885 ], [ -83.094639, 42.476788 ], [ -83.1543754, 42.404676400000035 ], [ -83.1563895, 42.4025404 ], [ -83.159573, 42.400241 ], [ -83.2189754, 42.3791209 ], [ -83.2758609, 42.37049 ] ] ] } },
{ "type": "Feature", "properties": { "OBJECTID": 2100, "ID": "0010348307", "NAME": "ASCENSION CRITTENTON HOSPITAL MEDICAL CENTER", "ADDRESS": "1101 W UNIVERSITY DRIVE", "CITY": "ROCHESTER", "STATE": "MI", "ZIP": "48307", "ZIP4": "NOT AVAILABLE", "TELEPHONE": "NOT AVAILABLE", "TYPE": "GENERAL ACUTE CARE", "STATUS": "OPEN", "POPULATION": 254, "COUNTY": "OAKLAND", "COUNTYFIPS": "26125", "COUNTRY": "USA", "LATITUDE": 42.679815045000097, "LONGITUDE": -83.149513371999902, "NAICS_CODE": "622110", "NAICS_DESC": "GENERAL MEDICAL AND SURGICAL HOSPITALS", "SOURCE": "https://w2.lara.state.mi.us/VAL/License/Search", "SOURCEDATE": "2018-08-09T00:00:00.000Z", "VAL_METHOD": "IMAGERY", "VAL_DATE": "2014-02-10T00:00:00.000Z", "WEBSITE": "http://www.crittenton.com", "STATE_ID": "NOT AVAILABLE", "ALT_NAME": "NOT AVAILABLE", "ST_FIPS": "26", "OWNER": "NON-PROFIT", "TTL_STAFF": -999, "BEDS": 254, "TRAUMA": "NOT AVAILABLE", "HELIPAD": "Y" }, "geometry": { "type": "Polygon", "coordinates": [ [ [ -83.128863, 42.587528 ], [ -83.149017699999987, 42.59146 ], [ -83.149824200000012, 42.59164940000003 ], [ -83.249477400000018, 42.6419435 ], [ -83.267888, 42.663413 ], [ -83.273573, 42.677653100000015 ], [ -83.2403921, 42.708701 ], [ -83.219656, 42.724196200000023 ], [ -83.1969011, 42.740421099999985 ], [ -83.137702, 42.769721 ], [ -83.0687915, 42.712706399999981 ], [ -83.0577086, 42.697997900000011 ], [ -83.0540805, 42.683678899999983 ], [ -83.054055, 42.682297 ], [ -83.0616161, 42.6244153 ], [ -83.128863, 42.587528 ] ] ] } },
{ "type": "Feature", "properties": { "OBJECTID": 2101, "ID": "0010848075", "NAME": "OAKLAND REGIONAL HOSPITAL", "ADDRESS": "22401 FOSTER WINTER DRIVE", "CITY": "SOUTHFIELD", "STATE": "MI", "ZIP": "48075", "ZIP4": "NOT AVAILABLE", "TELEPHONE": "NOT AVAILABLE", "TYPE": "GENERAL ACUTE CARE", "STATUS": "OPEN", "POPULATION": 45, "COUNTY": "OAKLAND", "COUNTYFIPS": "26125", "COUNTRY": "USA", "LATITUDE": 42.457493331000101, "LONGITUDE": -83.203196831999904, "NAICS_CODE": "622110", "NAICS_DESC": "GENERAL MEDICAL AND SURGICAL HOSPITALS", "SOURCE": "https://w2.lara.state.mi.us/VAL/License/Search", "SOURCEDATE": "2018-08-09T00:00:00.000Z", "VAL_METHOD": "IMAGERY", "VAL_DATE": "2014-01-30T00:00:00.000Z", "WEBSITE": "http://www.oaklandregionalhospital.com", "STATE_ID": "NOT AVAILABLE", "ALT_NAME": "NOT AVAILABLE", "ST_FIPS": "26", "OWNER": "PROPRIETARY", "TTL_STAFF": -999, "BEDS": 45, "TRAUMA": "NOT AVAILABLE", "HELIPAD": "Y" }, "geometry": { "type": "Polygon", "coordinates": [ [ [ -83.2164503, 42.352267 ], [ -83.3239652, 42.441868400000018 ], [ -83.3617072, 42.496075400000016 ], [ -83.35871370000001, 42.4998835 ], [ -83.3366822, 42.517122800000067 ], [ -83.284568, 42.536812 ], [ -83.210536, 42.545461 ], [ -83.1146018, 42.5339254 ], [ -83.0494126, 42.487287600000023 ], [ -83.0947718, 42.3823782 ], [ -83.095246, 42.382112 ], [ -83.144327, 42.370023800000013 ], [ -83.2164503, 42.352267 ] ] ] } },
{ "type": "Feature", "properties": { "OBJECTID": 2108, "ID": "0013748726", "NAME": "HILLS & DALES GENERAL HOSPITAL", "ADDRESS": "4675 HILL STREET", "CITY": "CASS CITY", "STATE": "MI", "ZIP": "48726", "ZIP4": "NOT AVAILABLE", "TELEPHONE": "NOT AVAILABLE", "TYPE": "GENERAL ACUTE CARE", "STATUS": "OPEN", "POPULATION": 25, "COUNTY": "TUSCOLA", "COUNTYFIPS": "26157", "COUNTRY": "USA", "LATITUDE": 43.604180424, "LONGITUDE": -83.182603924999995, "NAICS_CODE": "622110", "NAICS_DESC": "GENERAL MEDICAL AND SURGICAL HOSPITALS", "SOURCE": "https://w2.lara.state.mi.us/VAL/License/Search", "SOURCEDATE": "2018-08-09T00:00:00.000Z", "VAL_METHOD": "IMAGERY", "VAL_DATE": "2014-02-10T00:00:00.000Z", "WEBSITE": "http://www.hdghmi.org", "STATE_ID": "NOT AVAILABLE", "ALT_NAME": "NOT AVAILABLE", "ST_FIPS": "26", "OWNER": "NON-PROFIT", "TTL_STAFF": -999, "BEDS": 25, "TRAUMA": "NOT AVAILABLE", "HELIPAD": "Y" }, "geometry": { "type": "Polygon", "coordinates": [ [ [ -83.1706352, 43.528440399999987 ], [ -83.292229, 43.57712 ], [ -83.292841, 43.598473 ], [ -83.196304, 43.658488 ], [ -83.176503, 43.658811 ], [ -83.097242, 43.632031 ], [ -83.086963, 43.617897 ], [ -83.076844, 43.603685 ], [ -83.076737, 43.596431 ], [ -83.096426, 43.574123 ], [ -83.1706352, 43.528440399999987 ] ] ] } },
{ "type": "Feature", "properties": { "OBJECTID": 2109, "ID": "0014248106", "NAME": "ST JOSEPH MERCY HOSPITAL", "ADDRESS": "5301 E HURON RIVER DR", "CITY": "ANN ARBOR", "STATE": "MI", "ZIP": "48106", "ZIP4": "NOT AVAILABLE", "TELEPHONE": "NOT AVAILABLE", "TYPE": "GENERAL ACUTE CARE", "STATUS": "OPEN", "POPULATION": 513, "COUNTY": "WASHTENAW", "COUNTYFIPS": "26161", "COUNTRY": "USA", "LATITUDE": 42.265188033000101, "LONGITUDE": -83.654329952999902, "NAICS_CODE": "622110", "NAICS_DESC": "GENERAL MEDICAL AND SURGICAL HOSPITALS", "SOURCE": "https://w2.lara.state.mi.us/VAL/License/Search", "SOURCEDATE": "2018-08-09T00:00:00.000Z", "VAL_METHOD": "IMAGERY", "VAL_DATE": "2014-03-12T00:00:00.000Z", "WEBSITE": "http://www.stjoesannarbor.org/maple", "STATE_ID": "NOT AVAILABLE", "ALT_NAME": "NOT AVAILABLE", "ST_FIPS": "26", "OWNER": "NON-PROFIT", "TTL_STAFF": -999, "BEDS": 513, "TRAUMA": "LEVEL II", "HELIPAD": "Y" }, "geometry": { "type": "Polygon", "coordinates": [ [ [ -83.684076, 42.152683 ], [ -83.6972285, 42.156886100000015 ], [ -83.7434002, 42.183032599999947 ], [ -83.775895, 42.23648 ], [ -83.7783846, 42.242988899999986 ], [ -83.7511619, 42.30836029999994 ], [ -83.742201, 42.326693 ], [ -83.7087125, 42.3428976 ], [ -83.6626502, 42.362663099999985 ], [ -83.605623, 42.334645 ], [ -83.544203, 42.276894 ], [ -83.5515528, 42.217669799999982 ], [ -83.678482, 42.153163 ], [ -83.684076, 42.152683 ] ] ] } },
{ "type": "Feature", "properties": { "OBJECTID": 2111, "ID": "0014748124", "NAME": "BEAUMONT HOSPITAL DEARBORN", "ADDRESS": "18101 OAKWOOD BLVD", "CITY": "DEARBORN", "STATE": "MI", "ZIP": "48124", "ZIP4": "NOT AVAILABLE", "TELEPHONE": "NOT AVAILABLE", "TYPE": "GENERAL ACUTE CARE", "STATUS": "OPEN", "POPULATION": 632, "COUNTY": "WAYNE", "COUNTYFIPS": "26163", "COUNTRY": "USA", "LATITUDE": 42.290326414, "LONGITUDE": -83.214591893000005, "NAICS_CODE": "622110", "NAICS_DESC": "GENERAL MEDICAL AND SURGICAL HOSPITALS", "SOURCE": "https://w2.lara.state.mi.us/VAL/License/Search", "SOURCEDATE": "2018-08-09T00:00:00.000Z", "VAL_METHOD": "IMAGERY", "VAL_DATE": "2014-03-12T00:00:00.000Z", "WEBSITE": "https://www.oakwood.org/beaumont-hospital-dearborn", "STATE_ID": "NOT AVAILABLE", "ALT_NAME": "OAKWOOD HOSPITAL DEARBORN", "ST_FIPS": "26", "OWNER": "NON-PROFIT", "TTL_STAFF": -999, "BEDS": 632, "TRAUMA": "LEVEL II", "HELIPAD": "Y" }, "geometry": { "type": "Polygon", "coordinates": [ [ [ -83.231624, 42.205957700000027 ], [ -83.2689512, 42.211740500000033 ], [ -83.3273102, 42.224435100000029 ], [ -83.3669135, 42.234121 ], [ -83.354497, 42.253655199999962 ], [ -83.3540789, 42.2542476 ], [ -83.326865, 42.290261 ], [ -83.296869, 42.326484 ], [ -83.2475057, 42.3857588 ], [ -83.21823790000002, 42.403888399999985 ], [ -83.0901804, 42.352923199999985 ], [ -83.093522300000018, 42.340683600000034 ], [ -83.118387, 42.291217 ], [ -83.142474, 42.247781 ], [ -83.1500385, 42.24222460000005 ], [ -83.1814119, 42.222490800000017 ], [ -83.193867, 42.2161 ], [ -83.231624, 42.205957700000027 ] ] ] } },
{ "type": "Feature", "properties": { "OBJECTID": 2112, "ID": "0014848235", "NAME": "SINAI-GRACE HOSPITAL", "ADDRESS": "6071 W OUTER DRIVE", "CITY": "DETROIT", "STATE": "MI", "ZIP": "48235", "ZIP4": "NOT AVAILABLE", "TELEPHONE": "NOT AVAILABLE", "TYPE": "GENERAL ACUTE CARE", "STATUS": "OPEN", "POPULATION": 383, "COUNTY": "WAYNE", "COUNTYFIPS": "26163", "COUNTRY": "USA", "LATITUDE": 42.419118261000101, "LONGITUDE": -83.182024870999996, "NAICS_CODE": "622110", "NAICS_DESC": "GENERAL MEDICAL AND SURGICAL HOSPITALS", "SOURCE": "https://w2.lara.state.mi.us/VAL/License/Search", "SOURCEDATE": "2018-08-09T00:00:00.000Z", "VAL_METHOD": "IMAGERY", "VAL_DATE": "2014-03-12T00:00:00.000Z", "WEBSITE": "http://www.sinaigrace.org", "STATE_ID": "NOT AVAILABLE", "ALT_NAME": "NOT AVAILABLE", "ST_FIPS": "26", "OWNER": "NON-PROFIT", "TTL_STAFF": -999, "BEDS": 383, "TRAUMA": "LEVEL II", "HELIPAD": "Y" }, "geometry": { "type": "Polygon", "coordinates": [ [ [ -83.216221, 42.333264 ], [ -83.283436, 42.38529879999998 ], [ -83.294244, 42.414066 ], [ -83.309796, 42.500507 ], [ -83.3098347, 42.501741599999988 ], [ -83.2854044, 42.5118182 ], [ -83.2251326, 42.51213889999994 ], [ -83.2235394, 42.512107099999987 ], [ -83.223055200000019, 42.5120974 ], [ -83.2190238, 42.510741799999984 ], [ -83.1231725, 42.475969799999966 ], [ -83.041869, 42.422975 ], [ -83.0561278, 42.369536400000023 ], [ -83.0576131, 42.36515 ], [ -83.070606500000011, 42.348612299999978 ], [ -83.093522300000018, 42.340683600000034 ], [ -83.216221, 42.333264 ] ] ] } },
{ "type": "Feature", "properties": { "OBJECTID": 2113, "ID": "0015048230", "NAME": "BEAUMONT HOSPITAL GROSSE POINTE", "ADDRESS": "468 CADIEUX RD", "CITY": "GROSSE POINTE", "STATE": "MI", "ZIP": "48230", "ZIP4": "NOT AVAILABLE", "TELEPHONE": "NOT AVAILABLE", "TYPE": "GENERAL ACUTE CARE", "STATUS": "OPEN", "POPULATION": 250, "COUNTY": "WAYNE", "COUNTYFIPS": "26163", "COUNTRY": "USA", "LATITUDE": 42.384396125000102, "LONGITUDE": -82.914404138999899, "NAICS_CODE": "622110", "NAICS_DESC": "GENERAL MEDICAL AND SURGICAL HOSPITALS", "SOURCE": "https://w2.lara.state.mi.us/VAL/License/Search", "SOURCEDATE": "2018-08-09T00:00:00.000Z", "VAL_METHOD": "IMAGERY", "VAL_DATE": "2014-02-10T00:00:00.000Z", "WEBSITE": "http://www.beaumont.edu/grosse-pointe-hospital-campus", "STATE_ID": "NOT AVAILABLE", "ALT_NAME": "NOT AVAILABLE", "ST_FIPS": "26", "OWNER": "NON-PROFIT", "TTL_STAFF": -999, "BEDS": 250, "TRAUMA": "LEVEL III", "HELIPAD": "N" }, "geometry": { "type": "Polygon", "coordinates": [ [ [ -83.0040428, 42.346311299999982 ], [ -83.0086855, 42.390839 ], [ -82.997504, 42.404909 ], [ -82.971619, 42.43524 ], [ -82.965662, 42.440191 ], [ -82.9306335, 42.456090700000011 ], [ -82.9087375, 42.463932 ], [ -82.8729401, 42.4512047 ], [ -82.8745421, 42.4416866 ], [ -82.876385, 42.433494 ], [ -82.876627, 42.43269 ], [ -82.888135, 42.400043 ], [ -82.888393, 42.399342 ], [ -82.88921, 42.397207 ], [ -82.889486, 42.396515 ], [ -82.88983, 42.39577 ], [ -82.890111, 42.395245 ], [ -82.891111, 42.393611 ], [ -82.8914072, 42.39313460000001 ], [ -82.8917502, 42.392636599999982 ], [ -82.8930737, 42.39081 ], [ -82.8971411, 42.386156499999984 ], [ -82.926542, 42.362678 ], [ -82.9289331, 42.3612634 ], [ -82.9350685, 42.3582763 ], [ -83.0040428, 42.346311299999982 ] ] ] } },
{ "type": "Feature", "properties": { "OBJECTID": 2114, "ID": "0015148201", "NAME": "HARPER UNIVERSITY HOSPITAL", "ADDRESS": "3990 JOHN R STREET", "CITY": "DETROIT", "STATE": "MI", "ZIP": "48201", "ZIP4": "NOT AVAILABLE", "TELEPHONE": "NOT AVAILABLE", "TYPE": "GENERAL ACUTE CARE", "STATUS": "OPEN", "POPULATION": 470, "COUNTY": "WAYNE", "COUNTYFIPS": "26163", "COUNTRY": "USA", "LATITUDE": 42.35178008, "LONGITUDE": -83.0563912759999, "NAICS_CODE": "622110", "NAICS_DESC": "GENERAL MEDICAL AND SURGICAL HOSPITALS", "SOURCE": "https://w2.lara.state.mi.us/VAL/License/Search", "SOURCEDATE": "2018-08-09T00:00:00.000Z", "VAL_METHOD": "IMAGERY/OTHER", "VAL_DATE": "2014-01-27T00:00:00.000Z", "WEBSITE": "http://www.harperhospital.org", "STATE_ID": "NOT AVAILABLE", "ALT_NAME": "NOT AVAILABLE", "ST_FIPS": "26", "OWNER": "PROPRIETARY", "TTL_STAFF": -999, "BEDS": 470, "TRAUMA": "NOT AVAILABLE", "HELIPAD": "N" }, "geometry": { "type": "Polygon", "coordinates": [ [ [ -83.1568123, 42.277161700000022 ], [ -83.158326, 42.278081 ], [ -83.179514, 42.301628 ], [ -83.1806596, 42.3029678 ], [ -83.2110759, 42.378868899999929 ], [ -83.1101571, 42.471639199999963 ], [ -82.9408041, 42.414690399999941 ], [ -82.944127, 42.40685 ], [ -82.985323899999983, 42.335160099999989 ], [ -82.9868204, 42.33458049999998 ], [ -83.0991368, 42.294343600000012 ], [ -83.1568123, 42.277161700000022 ] ] ] } },
{ "type": "Feature", "properties": { "OBJECTID": 2120, "ID": "0000000062", "NAME": "PROVIDENCE - PARK HOSPITAL", "ADDRESS": "47601 GRAND RIVER AVE", "CITY": "NOVI", "STATE": "MI", "ZIP": "48374", "ZIP4": "NOT AVAILABLE", "TELEPHONE": "(248) 465-4210", "TYPE": "GENERAL ACUTE CARE", "STATUS": "OPEN", "POPULATION": 244, "COUNTY": "OAKLAND", "COUNTYFIPS": "26125", "COUNTRY": "USA", "LATITUDE": 42.488660027999998, "LONGITUDE": -83.519245811000005, "NAICS_CODE": "622110", "NAICS_DESC": "GENERAL MEDICAL AND SURGICAL HOSPITALS", "SOURCE": "https://w2.lara.state.mi.us/VAL/License/Search", "SOURCEDATE": "2018-08-09T00:00:00.000Z", "VAL_METHOD": "IMAGERY/OTHER", "VAL_DATE": "2015-05-21T00:00:00.000Z", "WEBSITE": "http://www.stjohnprovidence.org/providence-providence-park/novi", "STATE_ID": "NOT AVAILABLE", "ALT_NAME": "NOT AVAILABLE", "ST_FIPS": "26", "OWNER": "NON-PROFIT", "TTL_STAFF": -999, "BEDS": 244, "TRAUMA": "NOT AVAILABLE", "HELIPAD": "Y" }, "geometry": { "type": "Polygon", "coordinates": [ [ [ -83.5102735, 42.394073 ], [ -83.5810369, 42.43418019999995 ], [ -83.623313, 42.461592 ], [ -83.6699572, 42.4954912 ], [ -83.6712163, 42.496786900000039 ], [ -83.671999, 42.517404 ], [ -83.623778, 42.566889 ], [ -83.6140332, 42.574307099999984 ], [ -83.5054851, 42.570411800000073 ], [ -83.4476828, 42.557455100000034 ], [ -83.4432319, 42.556419699999978 ], [ -83.442399, 42.556161 ], [ -83.3543727, 42.5139249 ], [ -83.309766699999983, 42.4909417 ], [ -83.3335389, 42.44676489999997 ], [ -83.434287400000017, 42.3933709 ], [ -83.5102735, 42.394073 ] ] ] } },
{ "type": "Feature", "properties": { "OBJECTID": 2122, "ID": "0016648234", "NAME": "KINDRED HOSPITAL DETROIT", "ADDRESS": "4777 E OUTER DRIVE", "CITY": "DETROIT", "STATE": "MI", "ZIP": "48234", "ZIP4": "NOT AVAILABLE", "TELEPHONE": "NOT AVAILABLE", "TYPE": "LONG TERM CARE", "STATUS": "OPEN", "POPULATION": 77, "COUNTY": "WAYNE", "COUNTYFIPS": "26163", "COUNTRY": "USA", "LATITUDE": 42.442244455999997, "LONGITUDE": -83.019775209000002, "NAICS_CODE": "622310", "NAICS_DESC": "SPECIALTY (EXCEPT PSYCHIATRIC AND SUBSTANCE ABUSE) HOSPITALS", "SOURCE": "https://w2.lara.state.mi.us/VAL/License/Search", "SOURCEDATE": "2018-08-09T00:00:00.000Z", "VAL_METHOD": "IMAGERY", "VAL_DATE": "2014-02-10T00:00:00.000Z", "WEBSITE": "http://www.kindreddetroit.com/", "STATE_ID": "NOT AVAILABLE", "ALT_NAME": "NOT AVAILABLE", "ST_FIPS": "26", "OWNER": "PROPRIETARY", "TTL_STAFF": -999, "BEDS": 77, "TRAUMA": "NOT AVAILABLE", "HELIPAD": "N" }, "geometry": { "type": "Polygon", "coordinates": [ [ [ -83.0565048, 42.364857200000017 ], [ -83.063111, 42.365892 ], [ -83.1215805, 42.392391400000037 ], [ -83.1316957, 42.405133100000029 ], [ -83.1412727, 42.446406199999949 ], [ -83.1382793, 42.475642299999983 ], [ -83.116556, 42.493688 ], [ -83.047764, 42.536751099999982 ], [ -82.953838, 42.514364 ], [ -82.9216431, 42.4950356 ], [ -82.911005, 42.444347 ], [ -82.962535, 42.375569 ], [ -83.0147454, 42.3666119 ], [ -83.023174, 42.366031 ], [ -83.0565048, 42.364857200000017 ] ] ] } },
{ "type": "Feature", "properties": { "OBJECTID": 2883, "ID": "0007049286", "NAME": "PROMEDICA HERRICK HOSPITAL", "ADDRESS": "500 E POTTAWATAMIE STREET", "CITY": "TECUMSEH", "STATE": "MI", "ZIP": "49286", "ZIP4": "NOT AVAILABLE", "TELEPHONE": "NOT AVAILABLE", "TYPE": "CRITICAL ACCESS", "STATUS": "OPEN", "POPULATION": 25, "COUNTY": "LENAWEE", "COUNTYFIPS": "26091", "COUNTRY": "USA", "LATITUDE": 42.0025910580001, "LONGITUDE": -83.937822392000001, "NAICS_CODE": "622110", "NAICS_DESC": "GENERAL MEDICAL AND SURGICAL HOSPITALS", "SOURCE": "https://w2.lara.state.mi.us/VAL/License/Search", "SOURCEDATE": "2018-08-09T00:00:00.000Z", "VAL_METHOD": "IMAGERY", "VAL_DATE": "2014-03-12T00:00:00.000Z", "WEBSITE": "http://www.promedica.org", "STATE_ID": "NOT AVAILABLE", "ALT_NAME": "HERRICK MEMORIAL HOSPITAL", "ST_FIPS": "26", "OWNER": "NON-PROFIT", "TTL_STAFF": -999, "BEDS": 25, "TRAUMA": "NOT AVAILABLE", "HELIPAD": "Y" }, "geometry": { "type": "Polygon", "coordinates": [ [ [ -83.944612, 41.929011 ], [ -84.004535, 41.952651 ], [ -84.0542068, 42.015633799999947 ], [ -84.0543367, 42.018617299999988 ], [ -84.013072, 42.058677 ], [ -83.971973, 42.073708 ], [ -83.9693261, 42.073266700000012 ], [ -83.964318, 42.07218 ], [ -83.8826023, 42.0516299 ], [ -83.829931, 41.995087 ], [ -83.826896, 41.989041 ], [ -83.826078, 41.987154 ], [ -83.826043, 41.985907 ], [ -83.830401, 41.979996 ], [ -83.915751200000017, 41.934851100000024 ], [ -83.944612, 41.929011 ] ] ] } },
{ "type": "Feature", "properties": { "OBJECTID": 2885, "ID": "0013348471", "NAME": "MCKENZIE MEMORIAL HOSPITAL", "ADDRESS": "120 DELAWARE STREET", "CITY": "SANDUSKY", "STATE": "MI", "ZIP": "48471", "ZIP4": "NOT AVAILABLE", "TELEPHONE": "NOT AVAILABLE", "TYPE": "CRITICAL ACCESS", "STATUS": "OPEN", "POPULATION": 25, "COUNTY": "SANILAC", "COUNTYFIPS": "26151", "COUNTRY": "USA", "LATITUDE": 43.423482327000002, "LONGITUDE": -82.832133444999997, "NAICS_CODE": "622110", "NAICS_DESC": "GENERAL MEDICAL AND SURGICAL HOSPITALS", "SOURCE": "https://w2.lara.state.mi.us/VAL/License/Search", "SOURCEDATE": "2018-08-09T00:00:00.000Z", "VAL_METHOD": "IMAGERY", "VAL_DATE": "2014-02-10T00:00:00.000Z", "WEBSITE": "http://www.mckenziehealth.org", "STATE_ID": "NOT AVAILABLE", "ALT_NAME": "NOT AVAILABLE", "ST_FIPS": "26", "OWNER": "NON-PROFIT", "TTL_STAFF": -999, "BEDS": 25, "TRAUMA": "NOT AVAILABLE", "HELIPAD": "N" }, "geometry": { "type": "Polygon", "coordinates": [ [ [ -82.820215, 43.302051 ], [ -82.969118, 43.417684 ], [ -82.930041, 43.447776 ], [ -82.83299, 43.479633 ], [ -82.831442, 43.479662 ], [ -82.7321434, 43.446513 ], [ -82.7015868, 43.4256684 ], [ -82.820215, 43.302051 ] ] ] } },
{ "type": "Feature", "properties": { "OBJECTID": 2886, "ID": "0013448453", "NAME": "MARLETTE REGIONAL HOSPITAL", "ADDRESS": "2770 MAIN STREET", "CITY": "MARLETTE", "STATE": "MI", "ZIP": "48453", "ZIP4": "NOT AVAILABLE", "TELEPHONE": "NOT AVAILABLE", "TYPE": "CRITICAL ACCESS", "STATUS": "OPEN", "POPULATION": 25, "COUNTY": "SANILAC", "COUNTYFIPS": "26151", "COUNTRY": "USA", "LATITUDE": 43.332719413000099, "LONGITUDE": -83.081021538999906, "NAICS_CODE": "622110", "NAICS_DESC": "GENERAL MEDICAL AND SURGICAL HOSPITALS", "SOURCE": "https://w2.lara.state.mi.us/VAL/License/Search", "SOURCEDATE": "2018-08-09T00:00:00.000Z", "VAL_METHOD": "IMAGERY", "VAL_DATE": "2014-02-10T00:00:00.000Z", "WEBSITE": "http://www.marletteregionalhospital.org", "STATE_ID": "NOT AVAILABLE", "ALT_NAME": "NOT AVAILABLE", "ST_FIPS": "26", "OWNER": "NON-PROFIT", "TTL_STAFF": -999, "BEDS": 25, "TRAUMA": "NOT AVAILABLE", "HELIPAD": "Y" }, "geometry": { "type": "Polygon", "coordinates": [ [ [ -83.078114, 43.2321766 ], [ -83.1804938, 43.315480599999951 ], [ -83.1832651, 43.32572040000003 ], [ -83.164301, 43.347909 ], [ -83.10663, 43.414343 ], [ -83.088009, 43.42905 ], [ -83.067443, 43.415094 ], [ -82.964626, 43.330206 ], [ -83.078114, 43.2321766 ] ] ] } },
{ "type": "Feature", "properties": { "OBJECTID": 2890, "ID": "0008248162", "NAME": "PROMEDICA MONROE REGIONAL HOSPITAL", "ADDRESS": "718 N MACOMB ST", "CITY": "MONROE", "STATE": "MI", "ZIP": "48162", "ZIP4": "NOT AVAILABLE", "TELEPHONE": "NOT AVAILABLE", "TYPE": "GENERAL ACUTE CARE", "STATUS": "OPEN", "POPULATION": 217, "COUNTY": "MONROE", "COUNTYFIPS": "26115", "COUNTRY": "USA", "LATITUDE": 41.924565011, "LONGITUDE": -83.388084901, "NAICS_CODE": "622110", "NAICS_DESC": "GENERAL MEDICAL AND SURGICAL HOSPITALS", "SOURCE": "https://w2.lara.state.mi.us/VAL/License/Search", "SOURCEDATE": "2018-08-09T00:00:00.000Z", "VAL_METHOD": "IMAGERY", "VAL_DATE": "2014-03-12T00:00:00.000Z", "WEBSITE": "https://www.promedica.org/monroe-regional-hospital/Pages/default.aspx", "STATE_ID": "NOT AVAILABLE", "ALT_NAME": "MERCY MEMORIAL HOSPITAL SYSTEM", "ST_FIPS": "26", "OWNER": "NON-PROFIT", "TTL_STAFF": -999, "BEDS": 217, "TRAUMA": "NOT AVAILABLE", "HELIPAD": "Y" }, "geometry": { "type": "Polygon", "coordinates": [ [ [ -83.447023, 41.813516 ], [ -83.502454, 41.914105 ], [ -83.52191, 41.954113 ], [ -83.521113, 41.955599 ], [ -83.406491, 42.0138171 ], [ -83.3843188, 42.02142539999997 ], [ -83.344173, 42.021919 ], [ -83.306248, 42.005889 ], [ -83.3021354, 42.00078989999998 ], [ -83.291423, 41.961656 ], [ -83.295124, 41.94551289999994 ], [ -83.345255, 41.892522 ], [ -83.407145, 41.836391 ], [ -83.447023, 41.813516 ] ] ] } },
{ "type": "Feature", "properties": { "OBJECTID": 2892, "ID": "0006048093", "NAME": "ST JOHN MACOMB-OAKLAND HOSPITAL-MACOMB CENTER", "ADDRESS": "11800 EAST TWELVE MILE ROAD", "CITY": "WARREN", "STATE": "MI", "ZIP": "48093", "ZIP4": "NOT AVAILABLE", "TELEPHONE": "NOT AVAILABLE", "TYPE": "GENERAL ACUTE CARE", "STATUS": "OPEN", "POPULATION": 348, "COUNTY": "MACOMB", "COUNTYFIPS": "26099", "COUNTRY": "USA", "LATITUDE": 42.505813247, "LONGITUDE": -83.004942706999898, "NAICS_CODE": "622110", "NAICS_DESC": "GENERAL MEDICAL AND SURGICAL HOSPITALS", "SOURCE": "https://w2.lara.state.mi.us/VAL/License/Search", "SOURCEDATE": "2018-08-09T00:00:00.000Z", "VAL_METHOD": "IMAGERY/OTHER", "VAL_DATE": "2014-02-10T00:00:00.000Z", "WEBSITE": "http://www.stjohnprovidence.org/macomb", "STATE_ID": "NOT AVAILABLE", "ALT_NAME": "NOT AVAILABLE", "ST_FIPS": "26", "OWNER": "NON-PROFIT", "TTL_STAFF": -999, "BEDS": 348, "TRAUMA": "NOT AVAILABLE", "HELIPAD": "Y" }, "geometry": { "type": "Polygon", "coordinates": [ [ [ -83.0431414, 42.4221229 ], [ -83.043688, 42.422287 ], [ -83.1729173, 42.474850400000022 ], [ -83.1174111, 42.534082 ], [ -83.0840318, 42.564229300000015 ], [ -83.050135, 42.588808 ], [ -83.030334, 42.5935437 ], [ -82.991574, 42.599278 ], [ -82.907695, 42.575253 ], [ -82.8658721, 42.553289899999982 ], [ -82.8814884, 42.474831600000037 ], [ -82.913897, 42.445034 ], [ -82.918559, 42.442738599999927 ], [ -82.9189358, 42.442573400000029 ], [ -82.984948, 42.430492 ], [ -83.0431414, 42.4221229 ] ] ] } },
{ "type": "Feature", "properties": { "OBJECTID": 2893, "ID": "0006648043", "NAME": "HENRY FORD MACOMB HOSPITAL-MT CLEMENS CAMPUS", "ADDRESS": "215 NORTH AVE.", "CITY": "MOUNT CLEMENS", "STATE": "MI", "ZIP": "48043", "ZIP4": "NOT AVAILABLE", "TELEPHONE": "NOT AVAILABLE", "TYPE": "GENERAL ACUTE CARE", "STATUS": "OPEN", "POPULATION": -999, "COUNTY": "MACOMB", "COUNTYFIPS": "26099", "COUNTRY": "USA", "LATITUDE": 42.606864455999997, "LONGITUDE": -82.880906791000001, "NAICS_CODE": "622110", "NAICS_DESC": "GENERAL MEDICAL AND SURGICAL HOSPITALS", "SOURCE": "https://w2.lara.state.mi.us/VAL/License/Search", "SOURCEDATE": "2018-08-09T00:00:00.000Z", "VAL_METHOD": "IMAGERY", "VAL_DATE": "2014-02-10T00:00:00.000Z", "WEBSITE": "https://www.henryford.com/locations/mt-clemens-campus", "STATE_ID": "NOT AVAILABLE", "ALT_NAME": "NOT AVAILABLE", "ST_FIPS": "26", "OWNER": "NON-PROFIT", "TTL_STAFF": -999, "BEDS": -999, "TRAUMA": "NOT AVAILABLE", "HELIPAD": "N" }, "geometry": { "type": "Polygon", "coordinates": [ [ [ -82.9187759, 42.509210599999989 ], [ -82.9206574, 42.5099904 ], [ -82.94652050000002, 42.524095300000042 ], [ -82.988879, 42.56729 ], [ -83.0002791, 42.627250799999977 ], [ -82.9435128, 42.6767608 ], [ -82.879088, 42.712002600000027 ], [ -82.7722064, 42.705937800000015 ], [ -82.7712211, 42.70514170000002 ], [ -82.7759712, 42.657934800000035 ], [ -82.796391, 42.595592500000024 ], [ -82.810462, 42.571405 ], [ -82.875402, 42.525357 ], [ -82.9177684, 42.509211 ], [ -82.9187759, 42.509210599999989 ] ] ] } },
{ "type": "Feature", "properties": { "OBJECTID": 2898, "ID": "0013848723", "NAME": "CARO COMMUNITY HOSPITAL", "ADDRESS": "401 N HOOPER STREET", "CITY": "CARO", "STATE": "MI", "ZIP": "48723", "ZIP4": "NOT AVAILABLE", "TELEPHONE": "NOT AVAILABLE", "TYPE": "GENERAL ACUTE CARE", "STATUS": "OPEN", "POPULATION": 25, "COUNTY": "TUSCOLA", "COUNTYFIPS": "26157", "COUNTRY": "USA", "LATITUDE": 43.493186858999998, "LONGITUDE": -83.408206105999994, "NAICS_CODE": "622110", "NAICS_DESC": "GENERAL MEDICAL AND SURGICAL HOSPITALS", "SOURCE": "https://w2.lara.state.mi.us/VAL/License/Search", "SOURCEDATE": "2018-08-09T00:00:00.000Z", "VAL_METHOD": "IMAGERY", "VAL_DATE": "2014-02-10T00:00:00.000Z", "WEBSITE": "http://www.cch-mi.org", "STATE_ID": "NOT AVAILABLE", "ALT_NAME": "NOT AVAILABLE", "ST_FIPS": "26", "OWNER": "NON-PROFIT", "TTL_STAFF": -999, "BEDS": 25, "TRAUMA": "NOT AVAILABLE", "HELIPAD": "N" }, "geometry": { "type": "Polygon", "coordinates": [ [ [ -83.384178, 43.414697599999961 ], [ -83.444277, 43.422657 ], [ -83.503097, 43.452116 ], [ -83.523017, 43.494755 ], [ -83.464355400000017, 43.538058300000024 ], [ -83.409309, 43.553263 ], [ -83.349996, 43.561139 ], [ -83.321112, 43.554169 ], [ -83.269563, 43.511988 ], [ -83.3075883, 43.4758568 ], [ -83.384178, 43.414697599999961 ] ] ] } },
{ "type": "Feature", "properties": { "OBJECTID": 2899, "ID": "0012748060", "NAME": "LAKE HURON MEDICAL CENTER", "ADDRESS": "2601 ELECTRIC AVENUE", "CITY": "PORT HURON", "STATE": "MI", "ZIP": "48060", "ZIP4": "NOT AVAILABLE", "TELEPHONE": "NOT AVAILABLE", "TYPE": "GENERAL ACUTE CARE", "STATUS": "OPEN", "POPULATION": 144, "COUNTY": "ST. CLAIR", "COUNTYFIPS": "26147", "COUNTRY": "USA", "LATITUDE": 42.955942806000103, "LONGITUDE": -82.433390416999899, "NAICS_CODE": "622110", "NAICS_DESC": "GENERAL MEDICAL AND SURGICAL HOSPITALS", "SOURCE": "https://w2.lara.state.mi.us/VAL/License/Search", "SOURCEDATE": "2018-08-09T00:00:00.000Z", "VAL_METHOD": "IMAGERY", "VAL_DATE": "2014-02-10T00:00:00.000Z", "WEBSITE": "http://www.mercyporthuron.com", "STATE_ID": "NOT AVAILABLE", "ALT_NAME": "NOT AVAILABLE", "ST_FIPS": "26", "OWNER": "NON-PROFIT", "TTL_STAFF": -999, "BEDS": 144, "TRAUMA": "NOT AVAILABLE", "HELIPAD": "Y" }, "geometry": { "type": "Polygon", "coordinates": [ [ [ -82.4874839, 42.876689400000025 ], [ -82.51854, 42.89397 ], [ -82.5977198, 42.982831300000029 ], [ -82.5920713, 42.992016700000015 ], [ -82.588795, 42.993923 ], [ -82.4568244, 43.0416346 ], [ -82.4433079, 43.0368817 ], [ -82.4419302, 43.035781 ], [ -82.426389, 43.015570100000033 ], [ -82.4238699, 43.009086199999985 ], [ -82.422328, 43.004752 ], [ -82.4187417, 42.974507300000056 ], [ -82.422171100000014, 42.96753990000002 ], [ -82.425945, 42.961469 ], [ -82.478425, 42.876938 ], [ -82.4874839, 42.876689400000025 ] ] ] } },
{ "type": "Feature", "properties": { "OBJECTID": 2900, "ID": "0014648154", "NAME": "ST MARY MERCY HOSPITAL", "ADDRESS": "36475 FIVE MILE ROAD", "CITY": "LIVONIA", "STATE": "MI", "ZIP": "48154", "ZIP4": "NOT AVAILABLE", "TELEPHONE": "NOT AVAILABLE", "TYPE": "GENERAL ACUTE CARE", "STATUS": "OPEN", "POPULATION": 273, "COUNTY": "WAYNE", "COUNTYFIPS": "26163", "COUNTRY": "USA", "LATITUDE": 42.393765051000102, "LONGITUDE": -83.40817063, "NAICS_CODE": "622110", "NAICS_DESC": "GENERAL MEDICAL AND SURGICAL HOSPITALS", "SOURCE": "https://w2.lara.state.mi.us/VAL/License/Search", "SOURCEDATE": "2018-08-09T00:00:00.000Z", "VAL_METHOD": "IMAGERY", "VAL_DATE": "2014-02-10T00:00:00.000Z", "WEBSITE": "http://www.stmarymercy.org", "STATE_ID": "NOT AVAILABLE", "ALT_NAME": "NOT AVAILABLE", "ST_FIPS": "26", "OWNER": "NON-PROFIT", "TTL_STAFF": -999, "BEDS": 273, "TRAUMA": "LEVEL II", "HELIPAD": "Y" }, "geometry": { "type": "Polygon", "coordinates": [ [ [ -83.4415113, 42.2756704 ], [ -83.4468172, 42.278178 ], [ -83.5486457, 42.372111 ], [ -83.549667, 42.392609 ], [ -83.4847542, 42.48784179999997 ], [ -83.4787409, 42.4956002 ], [ -83.4538676, 42.510738 ], [ -83.45207, 42.511659200000032 ], [ -83.446647100000021, 42.512563400000012 ], [ -83.436885, 42.511597 ], [ -83.3479856, 42.4574335 ], [ -83.256313, 42.397512399999975 ], [ -83.2503506, 42.393188 ], [ -83.2421432, 42.3861525 ], [ -83.2346784, 42.3788238 ], [ -83.4415113, 42.2756704 ] ] ] } },
{ "type": "Feature", "properties": { "OBJECTID": 2901, "ID": "0015348236", "NAME": "ST JOHN HOSPITAL AND MEDICAL CENTER", "ADDRESS": "22101 MOROSS RD", "CITY": "DETROIT", "STATE": "MI", "ZIP": "48236", "ZIP4": "NOT AVAILABLE", "TELEPHONE": "NOT AVAILABLE", "TYPE": "GENERAL ACUTE CARE", "STATUS": "OPEN", "POPULATION": 673, "COUNTY": "WAYNE", "COUNTYFIPS": "26163", "COUNTRY": "USA", "LATITUDE": 42.419972627000099, "LONGITUDE": -82.914340787, "NAICS_CODE": "622110", "NAICS_DESC": "GENERAL MEDICAL AND SURGICAL HOSPITALS", "SOURCE": "https://w2.lara.state.mi.us/VAL/License/Search", "SOURCEDATE": "2018-08-09T00:00:00.000Z", "VAL_METHOD": "IMAGERY", "VAL_DATE": "2014-02-10T00:00:00.000Z", "WEBSITE": "http://www.stjohn.org", "STATE_ID": "NOT AVAILABLE", "ALT_NAME": "NOT AVAILABLE", "ST_FIPS": "26", "OWNER": "NON-PROFIT", "TTL_STAFF": -999, "BEDS": 673, "TRAUMA": "LEVEL II, LEVEL II PEDIATRIC", "HELIPAD": "Y" }, "geometry": { "type": "Polygon", "coordinates": [ [ [ -83.0507997, 42.372880100000025 ], [ -83.0007141, 42.4492245 ], [ -82.9460822, 42.49484290000003 ], [ -82.9174765, 42.518290499999985 ], [ -82.8863052, 42.4987579 ], [ -82.87075729999998, 42.451366299999982 ], [ -82.876627, 42.43269 ], [ -82.888135, 42.400043 ], [ -82.888393, 42.399342 ], [ -82.88921, 42.397207 ], [ -82.889486, 42.396515 ], [ -82.88983, 42.39577 ], [ -82.890111, 42.395245 ], [ -82.891111, 42.393611 ], [ -82.8914072, 42.39313460000001 ], [ -82.8917502, 42.392636599999982 ], [ -82.8930737, 42.39081 ], [ -82.8971411, 42.386156499999984 ], [ -82.925448, 42.364251 ], [ -83.0197754, 42.370135899999973 ], [ -83.0507997, 42.372880100000025 ] ] ] } },
{ "type": "Feature", "properties": { "OBJECTID": 2902, "ID": "0015548183", "NAME": "BEAUMONT HOSPITAL TRENTON", "ADDRESS": "5450 FORT STREET", "CITY": "TRENTON", "STATE": "MI", "ZIP": "48183", "ZIP4": "NOT AVAILABLE", "TELEPHONE": "NOT AVAILABLE", "TYPE": "GENERAL ACUTE CARE", "STATUS": "OPEN", "POPULATION": 193, "COUNTY": "WAYNE", "COUNTYFIPS": "26163", "COUNTRY": "USA", "LATITUDE": 42.116989967000102, "LONGITUDE": -83.213478131000002, "NAICS_CODE": "622110", "NAICS_DESC": "GENERAL MEDICAL AND SURGICAL HOSPITALS", "SOURCE": "https://w2.lara.state.mi.us/VAL/License/Search", "SOURCEDATE": "2018-08-09T00:00:00.000Z", "VAL_METHOD": "IMAGERY", "VAL_DATE": "2014-02-10T00:00:00.000Z", "WEBSITE": "https://www.oakwood.org/beaumont-hospital-trenton", "STATE_ID": "NOT AVAILABLE", "ALT_NAME": "OAKWOOD SOUTHSHORE MEDICAL CENTER", "ST_FIPS": "26", "OWNER": "NON-PROFIT", "TTL_STAFF": -999, "BEDS": 193, "TRAUMA": "LEVEL II", "HELIPAD": "Y" }, "geometry": { "type": "Polygon", "coordinates": [ [ [ -83.2142402, 42.042562199999978 ], [ -83.254083900000012, 42.063888700000035 ], [ -83.295275, 42.094234 ], [ -83.315914, 42.109955 ], [ -83.324671, 42.117313 ], [ -83.3270693, 42.123227600000043 ], [ -83.272616, 42.197437 ], [ -83.2679814, 42.200322199999967 ], [ -83.2292104, 42.213093 ], [ -83.1805938, 42.2119682 ], [ -83.1649588, 42.199738 ], [ -83.156309, 42.189745 ], [ -83.138654, 42.150949 ], [ -83.138246, 42.137314 ], [ -83.138736, 42.131333 ], [ -83.146915, 42.107044 ], [ -83.18706, 42.051692 ], [ -83.188147, 42.051047 ], [ -83.2142402, 42.042562199999978 ] ] ] } },
{ "type": "Feature", "properties": { "OBJECTID": 2903, "ID": "0015648135", "NAME": "GARDEN CITY HOSPITAL", "ADDRESS": "6245 INKSTER RD", "CITY": "GARDEN CITY", "STATE": "MI", "ZIP": "48135", "ZIP4": "NOT AVAILABLE", "TELEPHONE": "NOT AVAILABLE", "TYPE": "GENERAL ACUTE CARE", "STATUS": "OPEN", "POPULATION": 323, "COUNTY": "WAYNE", "COUNTYFIPS": "26163", "COUNTRY": "USA", "LATITUDE": 42.332135443, "LONGITUDE": -83.314984526000003, "NAICS_CODE": "622110", "NAICS_DESC": "GENERAL MEDICAL AND SURGICAL HOSPITALS", "SOURCE": "https://w2.lara.state.mi.us/VAL/License/Search", "SOURCEDATE": "2018-08-09T00:00:00.000Z", "VAL_METHOD": "IMAGERY", "VAL_DATE": "2014-02-10T00:00:00.000Z", "WEBSITE": "http://www.gchosp.org", "STATE_ID": "NOT AVAILABLE", "ALT_NAME": "NOT AVAILABLE", "ST_FIPS": "26", "OWNER": "NON-PROFIT", "TTL_STAFF": -999, "BEDS": 323, "TRAUMA": "NOT AVAILABLE", "HELIPAD": "Y" }, "geometry": { "type": "Polygon", "coordinates": [ [ [ -83.3080184, 42.239289 ], [ -83.328117, 42.246107 ], [ -83.347934, 42.256751 ], [ -83.36257, 42.267132 ], [ -83.4408292, 42.3232771 ], [ -83.4047175, 42.3819368 ], [ -83.373712, 42.397285 ], [ -83.316019, 42.422782 ], [ -83.276746100000011, 42.409210099999967 ], [ -83.2516946, 42.393159 ], [ -83.2431517, 42.38614 ], [ -83.2346784, 42.3788238 ], [ -83.181864, 42.329372500000041 ], [ -83.2096046, 42.30196609999998 ], [ -83.268243, 42.264294899999989 ], [ -83.3080184, 42.239289 ] ] ] } },
{ "type": "Feature", "properties": { "OBJECTID": 2910, "ID": "0017548236", "NAME": "HENRY FORD MEDICAL CENTER COTTAGE", "ADDRESS": "159 KERCHEVAL AVENUE", "CITY": "GROSSE POINTE FARMS", "STATE": "MI", "ZIP": "48236", "ZIP4": "NOT AVAILABLE", "TELEPHONE": "NOT AVAILABLE", "TYPE": "GENERAL ACUTE CARE", "STATUS": "OPEN", "POPULATION": 4, "COUNTY": "WAYNE", "COUNTYFIPS": "26163", "COUNTRY": "USA", "LATITUDE": 42.396938740000103, "LONGITUDE": -82.902414273000005, "NAICS_CODE": "622110", "NAICS_DESC": "GENERAL MEDICAL AND SURGICAL HOSPITALS", "SOURCE": "https://w2.lara.state.mi.us/VAL/License/Search", "SOURCEDATE": "2018-08-09T00:00:00.000Z", "VAL_METHOD": "IMAGERY", "VAL_DATE": "2016-08-05T00:00:00.000Z", "WEBSITE": "http://www.henryford.com/body.cfm?xyzpdqabc=0&id=47822&action=list&location=6", "STATE_ID": "NOT AVAILABLE", "ALT_NAME": "NOT AVAILABLE", "ST_FIPS": "26", "OWNER": "NON-PROFIT", "TTL_STAFF": -999, "BEDS": 4, "TRAUMA": "NOT AVAILABLE", "HELIPAD": "N" }, "geometry": { "type": "Polygon", "coordinates": [ [ [ -82.9640662, 42.3570004 ], [ -82.971959, 42.358014 ], [ -82.9830593, 42.360011199999988 ], [ -82.9902333, 42.39481779999997 ], [ -82.990208, 42.39797 ], [ -82.968646, 42.436184 ], [ -82.9656, 42.438345 ], [ -82.963218, 42.43997 ], [ -82.9560738, 42.444763400000028 ], [ -82.9460934, 42.451421 ], [ -82.9350381, 42.457754800000011 ], [ -82.9072794, 42.4672746 ], [ -82.884063, 42.463050800000019 ], [ -82.87075729999998, 42.451366299999982 ], [ -82.876627, 42.43269 ], [ -82.888135, 42.400043 ], [ -82.888393, 42.399342 ], [ -82.88921, 42.397207 ], [ -82.889486, 42.396515 ], [ -82.88983, 42.39577 ], [ -82.890111, 42.395245 ], [ -82.891111, 42.393611 ], [ -82.8914072, 42.39313460000001 ], [ -82.8917502, 42.392636599999982 ], [ -82.8930737, 42.39081 ], [ -82.8971411, 42.386156499999984 ], [ -82.926542, 42.362678 ], [ -82.9289331, 42.3612634 ], [ -82.9350685, 42.3582763 ], [ -82.9425953, 42.357062199999987 ], [ -82.9640662, 42.3570004 ] ] ] } },
{ "type": "Feature", "properties": { "OBJECTID": 2912, "ID": "0016448146", "NAME": "VIBRA OF SOUTHEASTERN MICHIGAN", "ADDRESS": "26400 W OUTER DRIVE", "CITY": "LINCOLN PARK", "STATE": "MI", "ZIP": "48146", "ZIP4": "NOT AVAILABLE", "TELEPHONE": "NOT AVAILABLE", "TYPE": "LONG TERM CARE", "STATUS": "OPEN", "POPULATION": 192, "COUNTY": "WAYNE", "COUNTYFIPS": "26163", "COUNTRY": "USA", "LATITUDE": 42.256311789000101, "LONGITUDE": -83.163895338000003, "NAICS_CODE": "622310", "NAICS_DESC": "SPECIALTY (EXCEPT PSYCHIATRIC AND SUBSTANCE ABUSE) HOSPITALS", "SOURCE": "https://w2.lara.state.mi.us/VAL/License/Search", "SOURCEDATE": "2018-08-09T00:00:00.000Z", "VAL_METHOD": "IMAGERY", "VAL_DATE": "2014-02-10T00:00:00.000Z", "WEBSITE": "http://www.vhsemichigan.com/", "STATE_ID": "NOT AVAILABLE", "ALT_NAME": "NOT AVAILABLE", "ST_FIPS": "26", "OWNER": "PROPRIETARY", "TTL_STAFF": -999, "BEDS": 192, "TRAUMA": "NOT AVAILABLE", "HELIPAD": "N" }, "geometry": { "type": "Polygon", "coordinates": [ [ [ -83.2420469, 42.141543900000016 ], [ -83.2583576, 42.153408699999957 ], [ -83.270416, 42.167212 ], [ -83.290905, 42.196927 ], [ -83.3085347, 42.2534469 ], [ -83.3085412, 42.253579899999956 ], [ -83.29443, 42.268569 ], [ -83.270888, 42.288554 ], [ -83.215323, 42.328218 ], [ -83.196055, 42.334627 ], [ -83.1576669, 42.3447906 ], [ -83.0937749, 42.351766400000059 ], [ -83.058015, 42.336874 ], [ -83.057332, 42.328718 ], [ -83.057282, 42.327626 ], [ -83.149514, 42.197335 ], [ -83.1572862, 42.1885239 ], [ -83.157781, 42.188237 ], [ -83.2420469, 42.141543900000016 ] ] ] } },
{ "type": "Feature", "properties": { "OBJECTID": 2913, "ID": "0009548116", "NAME": "BRIGHTON HOSPITAL", "ADDRESS": "12851 E GRAND RIVER", "CITY": "BRIGHTON", "STATE": "MI", "ZIP": "48116", "ZIP4": "NOT AVAILABLE", "TELEPHONE": "NOT AVAILABLE", "TYPE": "REHABILITATION", "STATUS": "OPEN", "POPULATION": 41, "COUNTY": "LIVINGSTON", "COUNTYFIPS": "26093", "COUNTRY": "USA", "LATITUDE": 42.519720028999998, "LONGITUDE": -83.695833412999903, "NAICS_CODE": "622310", "NAICS_DESC": "REHABILITATION HOSPITALS (EXCEPT ALCOHOLISM, DRUG ADDICTION)", "SOURCE": "https://w2.lara.state.mi.us/VAL/License/Search", "SOURCEDATE": "2018-08-09T00:00:00.000Z", "VAL_METHOD": "IMAGERY", "VAL_DATE": "2014-02-10T00:00:00.000Z", "WEBSITE": "http://www.brightonhospital.org", "STATE_ID": "NOT AVAILABLE", "ALT_NAME": "NOT AVAILABLE", "ST_FIPS": "26", "OWNER": "NON-PROFIT", "TTL_STAFF": -999, "BEDS": 41, "TRAUMA": "NOT AVAILABLE", "HELIPAD": "N" }, "geometry": { "type": "Polygon", "coordinates": [ [ [ -83.754969, 42.444508 ], [ -83.771596100000011, 42.463934500000022 ], [ -83.792301, 42.498521500000031 ], [ -83.813156, 42.542086 ], [ -83.8133338, 42.543238399999979 ], [ -83.804871, 42.558157 ], [ -83.799237, 42.564461 ], [ -83.794358, 42.567085 ], [ -83.701083, 42.593663 ], [ -83.6591603, 42.579009599999949 ], [ -83.6561245, 42.575777400000035 ], [ -83.6495763, 42.5683242 ], [ -83.6745974, 42.459335799999984 ], [ -83.6955097, 42.444566900000027 ], [ -83.754969, 42.444508 ] ] ] } },
{ "type": "Feature", "properties": { "OBJECTID": 2914, "ID": "0016848201", "NAME": "REHABILITATION INSTITUTE OF MICHIGAN", "ADDRESS": "261 MACK BLVD", "CITY": "DETROIT", "STATE": "MI", "ZIP": "48201", "ZIP4": "NOT AVAILABLE", "TELEPHONE": "NOT AVAILABLE", "TYPE": "REHABILITATION", "STATUS": "OPEN", "POPULATION": 74, "COUNTY": "WAYNE", "COUNTYFIPS": "26163", "COUNTRY": "USA", "LATITUDE": 42.349710127999998, "LONGITUDE": -83.055602924, "NAICS_CODE": "622310", "NAICS_DESC": "REHABILITATION HOSPITALS (EXCEPT ALCOHOLISM, DRUG ADDICTION)", "SOURCE": "https://w2.lara.state.mi.us/VAL/License/Search", "SOURCEDATE": "2018-08-09T00:00:00.000Z", "VAL_METHOD": "IMAGERY", "VAL_DATE": "2014-01-27T00:00:00.000Z", "WEBSITE": "http://www.rimrehab.org", "STATE_ID": "NOT AVAILABLE", "ALT_NAME": "NOT AVAILABLE", "ST_FIPS": "26", "OWNER": "PROPRIETARY", "TTL_STAFF": -999, "BEDS": 74, "TRAUMA": "NOT AVAILABLE", "HELIPAD": "N" }, "geometry": { "type": "Polygon", "coordinates": [ [ [ -83.161648, 42.274459800000045 ], [ -83.1784428, 42.305423599999976 ], [ -83.182688, 42.382533 ], [ -83.18202, 42.386076 ], [ -83.10729790000002, 42.4647534 ], [ -82.9459956, 42.409733 ], [ -82.946207, 42.40822 ], [ -82.9841039, 42.3354837 ], [ -83.0991368, 42.294343600000012 ], [ -83.161648, 42.274459800000045 ] ] ] } },
{ "type": "Feature", "properties": { "OBJECTID": 2916, "ID": "0006548091", "NAME": "SOUTHEAST MICHIGAN SURGICAL HOSPITAL", "ADDRESS": "21230 DEQUINDRE ROAD", "CITY": "WARREN", "STATE": "MI", "ZIP": "48091", "ZIP4": "NOT AVAILABLE", "TELEPHONE": "NOT AVAILABLE", "TYPE": "SPECIAL", "STATUS": "OPEN", "POPULATION": 20, "COUNTY": "MACOMB", "COUNTYFIPS": "26099", "COUNTRY": "USA", "LATITUDE": 42.451656467000099, "LONGITUDE": -83.081603740999995, "NAICS_CODE": "622310", "NAICS_DESC": "SPECIALTY (EXCEPT PSYCHIATRIC AND SUBSTANCE ABUSE) HOSPITALS", "SOURCE": "https://w2.lara.state.mi.us/VAL/License/Search", "SOURCEDATE": "2018-08-09T00:00:00.000Z", "VAL_METHOD": "IMAGERY/OTHER", "VAL_DATE": "2014-01-30T00:00:00.000Z", "WEBSITE": "http://www.nshinc.com", "STATE_ID": "NOT AVAILABLE", "ALT_NAME": "NOT AVAILABLE", "ST_FIPS": "26", "OWNER": "PROPRIETARY", "TTL_STAFF": -999, "BEDS": 20, "TRAUMA": "NOT AVAILABLE", "HELIPAD": "N" }, "geometry": { "type": "Polygon", "coordinates": [ [ [ -83.0655334, 42.336580800000029 ], [ -83.0989433, 42.348782599999979 ], [ -83.1468291, 42.38086280000001 ], [ -83.1506827, 42.3848977 ], [ -83.166204, 42.402316 ], [ -83.2394232, 42.487052800000043 ], [ -83.2397346, 42.4876754 ], [ -83.1492918, 42.559109200000023 ], [ -83.1278294, 42.569309100000034 ], [ -82.9836053, 42.492735 ], [ -82.9709355, 42.449674800000039 ], [ -82.9709298, 42.449535699999984 ], [ -83.0380128, 42.3368649 ], [ -83.0385666, 42.336616699999972 ], [ -83.0389399, 42.3364683 ], [ -83.041443, 42.336292 ], [ -83.0655334, 42.336580800000029 ] ] ] } },
{ "type": "Feature", "properties": { "OBJECTID": 6413, "ID": "0010448085", "NAME": "BEAUMONT HOSPITAL TROY", "ADDRESS": "44201 DEQUINDRE ROAD", "CITY": "TROY", "STATE": "MI", "ZIP": "48085", "ZIP4": "NOT AVAILABLE", "TELEPHONE": "NOT AVAILABLE", "TYPE": "GENERAL ACUTE CARE", "STATUS": "OPEN", "POPULATION": 520, "COUNTY": "OAKLAND", "COUNTYFIPS": "26125", "COUNTRY": "USA", "LATITUDE": 42.618997975000099, "LONGITUDE": -83.093589961000006, "NAICS_CODE": "622110", "NAICS_DESC": "GENERAL MEDICAL AND SURGICAL HOSPITALS", "SOURCE": "https://w2.lara.state.mi.us/VAL/License/Search", "SOURCEDATE": "2018-08-09T00:00:00.000Z", "VAL_METHOD": "IMAGERY", "VAL_DATE": "2014-02-10T00:00:00.000Z", "WEBSITE": "http://www.beaumont.edu/troy-hospital-campus", "STATE_ID": "NOT AVAILABLE", "ALT_NAME": "NOT AVAILABLE", "ST_FIPS": "26", "OWNER": "NON-PROFIT", "TTL_STAFF": -999, "BEDS": 520, "TRAUMA": "LEVEL II", "HELIPAD": "Y" }, "geometry": { "type": "Polygon", "coordinates": [ [ [ -83.1072547, 42.5369692 ], [ -83.1492918, 42.559109200000023 ], [ -83.2359302, 42.620692300000016 ], [ -83.2696593, 42.645360200000027 ], [ -83.241088, 42.670472199999963 ], [ -83.1942207, 42.684893400000043 ], [ -83.134385, 42.695672 ], [ -83.069457, 42.691663 ], [ -83.0344973, 42.6868947 ], [ -82.9949168, 42.6771376 ], [ -82.9861184, 42.670766 ], [ -82.9414328, 42.6278364 ], [ -82.9893256, 42.576103799999963 ], [ -83.048111, 42.539529 ], [ -83.1072547, 42.5369692 ] ] ] } },
{ "type": "Feature", "properties": { "OBJECTID": 4066, "ID": "0016348180", "NAME": "SELECT SPECIALTY HOSPITAL", "ADDRESS": "10000 TELEGRAPH ROAD, 2ND FLOOR", "CITY": "TAYLOR", "STATE": "MI", "ZIP": "48180", "ZIP4": "NOT AVAILABLE", "TELEPHONE": "NOT AVAILABLE", "TYPE": "LONG TERM CARE", "STATUS": "CLOSED", "POPULATION": 40, "COUNTY": "WAYNE", "COUNTYFIPS": "26163", "COUNTRY": "USA", "LATITUDE": 42.235169201000097, "LONGITUDE": -83.275340168999904, "NAICS_CODE": "622310", "NAICS_DESC": "EXTENDED CARE HOSPITALS (EXCEPT MENTAL, SUBSTANCE ABUSE)", "SOURCE": "http://www.michigan.gov/lara/0,4601,7-154-35299_63294_63302---,00.html", "SOURCEDATE": "2013-05-01T00:00:00.000Z", "VAL_METHOD": "IMAGERY/OTHER", "VAL_DATE": "2019-04-16T00:00:00.000Z", "WEBSITE": "downriver.selectspecialtyhospitals.com", "STATE_ID": "NOT AVAILABLE", "ALT_NAME": "NOT AVAILABLE", "ST_FIPS": "26", "OWNER": "PROPRIETARY", "TTL_STAFF": -999, "BEDS": 40, "TRAUMA": "NOT AVAILABLE", "HELIPAD": "Y" }, "geometry": { "type": "Polygon", "coordinates": [ [ [ -83.2704578, 42.129977 ], [ -83.405077500000019, 42.223792200000013 ], [ -83.38408, 42.252056 ], [ -83.2728729, 42.3361315 ], [ -83.1636869, 42.322401399999983 ], [ -83.1699249, 42.248095 ], [ -83.173812699999985, 42.213832 ], [ -83.20583, 42.16802 ], [ -83.2339909, 42.1401159 ], [ -83.2416005, 42.133054700000031 ], [ -83.2704578, 42.129977 ] ] ] } },
{ "type": "Feature", "properties": { "OBJECTID": 4084, "ID": "0015948201", "NAME": "DETROIT RECEIVING HOSPITAL & UNIV HEALTH CENTER", "ADDRESS": "4201 ST ANTOINE ST, 3M", "CITY": "DETROIT", "STATE": "MI", "ZIP": "48201", "ZIP4": "NOT AVAILABLE", "TELEPHONE": "NOT AVAILABLE", "TYPE": "GENERAL ACUTE CARE", "STATUS": "OPEN", "POPULATION": 273, "COUNTY": "WAYNE", "COUNTYFIPS": "26163", "COUNTRY": "USA", "LATITUDE": 42.353435861000001, "LONGITUDE": -83.054490936999997, "NAICS_CODE": "622110", "NAICS_DESC": "GENERAL MEDICAL AND SURGICAL HOSPITALS", "SOURCE": "https://w2.lara.state.mi.us/VAL/License/Search", "SOURCEDATE": "2018-08-09T00:00:00.000Z", "VAL_METHOD": "IMAGERY", "VAL_DATE": "2014-01-30T00:00:00.000Z", "WEBSITE": "http://www.dmc.org", "STATE_ID": "NOT AVAILABLE", "ALT_NAME": "NOT AVAILABLE", "ST_FIPS": "26", "OWNER": "PROPRIETARY", "TTL_STAFF": -999, "BEDS": 273, "TRAUMA": "LEVEL I", "HELIPAD": "Y" }, "geometry": { "type": "Polygon", "coordinates": [ [ [ -83.1568123, 42.277161700000022 ], [ -83.1576458, 42.278455 ], [ -83.174382, 42.31432 ], [ -83.182688, 42.382533 ], [ -83.1105212, 42.47446 ], [ -83.1072443, 42.4768139 ], [ -82.9340018, 42.4188879 ], [ -82.9354414, 42.416392300000012 ], [ -82.9841039, 42.3354837 ], [ -83.0991368, 42.294343600000012 ], [ -83.1568123, 42.277161700000022 ] ] ] } },
{ "type": "Feature", "properties": { "OBJECTID": 4085, "ID": "0017948236", "NAME": "SELECT SPECIALTY HOSPITAL - GROSSE POINTE", "ADDRESS": "22101 MOROSS RD, 6TH FLOOR", "CITY": "DETROIT", "STATE": "MI", "ZIP": "48236", "ZIP4": "NOT AVAILABLE", "TELEPHONE": "NOT AVAILABLE", "TYPE": "LONG TERM CARE", "STATUS": "OPEN", "POPULATION": 30, "COUNTY": "WAYNE", "COUNTYFIPS": "26163", "COUNTRY": "USA", "LATITUDE": 42.420171287000102, "LONGITUDE": -82.915286085999995, "NAICS_CODE": "622310", "NAICS_DESC": "SPECIALTY (EXCEPT PSYCHIATRIC AND SUBSTANCE ABUSE) HOSPITALS", "SOURCE": "https://w2.lara.state.mi.us/VAL/License/Search", "SOURCEDATE": "2018-08-09T00:00:00.000Z", "VAL_METHOD": "IMAGERY/OTHER", "VAL_DATE": "2016-08-08T00:00:00.000Z", "WEBSITE": "http://grossepointe.selectspecialtyhospitals.com/", "STATE_ID": "NOT AVAILABLE", "ALT_NAME": "NOT AVAILABLE", "ST_FIPS": "26", "OWNER": "PROPRIETARY", "TTL_STAFF": -999, "BEDS": 30, "TRAUMA": "NOT AVAILABLE", "HELIPAD": "Y" }, "geometry": { "type": "Polygon", "coordinates": [ [ [ -83.0507997, 42.372880100000025 ], [ -83.0007141, 42.4492245 ], [ -82.9460822, 42.49484290000003 ], [ -82.9174765, 42.518290499999985 ], [ -82.8863052, 42.4987579 ], [ -82.87075729999998, 42.451366299999982 ], [ -82.876627, 42.43269 ], [ -82.888135, 42.400043 ], [ -82.888393, 42.399342 ], [ -82.88921, 42.397207 ], [ -82.889486, 42.396515 ], [ -82.88983, 42.39577 ], [ -82.890111, 42.395245 ], [ -82.891111, 42.393611 ], [ -82.8914072, 42.39313460000001 ], [ -82.8917502, 42.392636599999982 ], [ -82.8930737, 42.39081 ], [ -82.8971411, 42.386156499999984 ], [ -82.925448, 42.364251 ], [ -83.0197754, 42.370135899999973 ], [ -83.0507997, 42.372880100000025 ] ] ] } },
{ "type": "Feature", "properties": { "OBJECTID": 4086, "ID": "0018148201", "NAME": "VIBRA HOSPITAL OF SOUTHEASTERN MICHIGAN-DMC CAMPUS", "ADDRESS": "261 MACK AVENUE, 7TH FLOOR", "CITY": "DETROIT", "STATE": "MI", "ZIP": "48201", "ZIP4": "NOT AVAILABLE", "TELEPHONE": "NOT AVAILABLE", "TYPE": "LONG TERM CARE", "STATUS": "OPEN", "POPULATION": 28, "COUNTY": "WAYNE", "COUNTYFIPS": "26163", "COUNTRY": "USA", "LATITUDE": 42.349453146000002, "LONGITUDE": -83.056102611, "NAICS_CODE": "622310", "NAICS_DESC": "SPECIALTY (EXCEPT PSYCHIATRIC AND SUBSTANCE ABUSE) HOSPITALS", "SOURCE": "https://w2.lara.state.mi.us/VAL/License/Search", "SOURCEDATE": "2018-08-09T00:00:00.000Z", "VAL_METHOD": "IMAGERY/OTHER", "VAL_DATE": "2016-08-09T00:00:00.000Z", "WEBSITE": "http://www.vhsemichigan.com/locations/dmc.aspx", "STATE_ID": "NOT AVAILABLE", "ALT_NAME": "NOT AVAILABLE", "ST_FIPS": "26", "OWNER": "PROPRIETARY", "TTL_STAFF": -999, "BEDS": 28, "TRAUMA": "NOT AVAILABLE", "HELIPAD": "N" }, "geometry": { "type": "Polygon", "coordinates": [ [ [ -83.161648, 42.274459800000045 ], [ -83.1806596, 42.3029678 ], [ -83.1935386, 42.379437600000038 ], [ -83.1662787, 42.410926600000025 ], [ -83.10729790000002, 42.4647534 ], [ -82.944363, 42.410962 ], [ -82.946039, 42.406148 ], [ -82.9841039, 42.3354837 ], [ -83.0991368, 42.294343600000012 ], [ -83.1548297, 42.276000899999985 ], [ -83.161648, 42.274459800000045 ] ] ] } },
{ "type": "Feature", "properties": { "OBJECTID": 4087, "ID": "0018248180", "NAME": "VIBRA HOSPITAL OF SOUTHEASTERN MI - TAYLOR CAMPUS", "ADDRESS": "10000 TELEGRAPH ROAD, 2ND FLOOR", "CITY": "TAYLOR", "STATE": "MI", "ZIP": "48180", "ZIP4": "NOT AVAILABLE", "TELEPHONE": "NOT AVAILABLE", "TYPE": "LONG TERM CARE", "STATUS": "OPEN", "POPULATION": 40, "COUNTY": "WAYNE", "COUNTYFIPS": "26163", "COUNTRY": "USA", "LATITUDE": 42.234776292, "LONGITUDE": -83.277090226, "NAICS_CODE": "622310", "NAICS_DESC": "SPECIALTY (EXCEPT PSYCHIATRIC AND SUBSTANCE ABUSE) HOSPITALS", "SOURCE": "https://w2.lara.state.mi.us/VAL/License/Search", "SOURCEDATE": "2018-08-09T00:00:00.000Z", "VAL_METHOD": "IMAGERY/OTHER", "VAL_DATE": "2016-08-09T00:00:00.000Z", "WEBSITE": "http://www.vhsemichigan.com/locations/taylor_campus.aspx", "STATE_ID": "NOT AVAILABLE", "ALT_NAME": "NOT AVAILABLE", "ST_FIPS": "26", "OWNER": "PROPRIETARY", "TTL_STAFF": -999, "BEDS": 40, "TRAUMA": "NOT AVAILABLE", "HELIPAD": "Y" }, "geometry": { "type": "Polygon", "coordinates": [ [ [ -83.2420469, 42.141543900000016 ], [ -83.2661401, 42.145318600000024 ], [ -83.325196, 42.171995 ], [ -83.421711, 42.221041 ], [ -83.4182287, 42.228583 ], [ -83.389736, 42.259136 ], [ -83.3494894, 42.2855137 ], [ -83.329724, 42.297642 ], [ -83.310732, 42.308788 ], [ -83.2726197, 42.330885100000025 ], [ -83.1697093, 42.314958899999979 ], [ -83.1761896, 42.249978 ], [ -83.190541, 42.213691 ], [ -83.22034, 42.169757 ], [ -83.2420469, 42.141543900000016 ] ] ] } },
{ "type": "Feature", "properties": { "OBJECTID": 4104, "ID": "0014448109", "NAME": "UNIVERSITY OF MICHIGAN HEALTH SYSTEM", "ADDRESS": "1500 E MEDICAL CENTER DRIVE, SPC 5474", "CITY": "ANN ARBOR", "STATE": "MI", "ZIP": "48109", "ZIP4": "NOT AVAILABLE", "TELEPHONE": "NOT AVAILABLE", "TYPE": "GENERAL ACUTE CARE", "STATUS": "OPEN", "POPULATION": 1000, "COUNTY": "WASHTENAW", "COUNTYFIPS": "26161", "COUNTRY": "USA", "LATITUDE": 42.283191746999996, "LONGITUDE": -83.728707795999995, "NAICS_CODE": "622110", "NAICS_DESC": "GENERAL MEDICAL AND SURGICAL HOSPITALS", "SOURCE": "https://w2.lara.state.mi.us/VAL/License/Search", "SOURCEDATE": "2018-08-09T00:00:00.000Z", "VAL_METHOD": "IMAGERY/OTHER", "VAL_DATE": "2014-03-12T00:00:00.000Z", "WEBSITE": "http://www.med.umich.edu", "STATE_ID": "NOT AVAILABLE", "ALT_NAME": "NOT AVAILABLE", "ST_FIPS": "26", "OWNER": "NON-PROFIT", "TTL_STAFF": -999, "BEDS": 1000, "TRAUMA": "LEVEL I", "HELIPAD": "Y" }, "geometry": { "type": "Polygon", "coordinates": [ [ [ -83.6997818, 42.193933 ], [ -83.7780272, 42.2095419 ], [ -83.797462, 42.219204 ], [ -83.8774365, 42.298650500000036 ], [ -83.8780884, 42.300184 ], [ -83.8780889, 42.300322599999973 ], [ -83.763269, 42.397527 ], [ -83.6277345, 42.328503700000049 ], [ -83.6233105, 42.2447922 ], [ -83.6453689, 42.224097099999945 ], [ -83.677031, 42.202716700000018 ], [ -83.679386, 42.20129 ], [ -83.6989334, 42.193946600000011 ], [ -83.6997818, 42.193933 ] ] ] } },
{ "type": "Feature", "properties": { "OBJECTID": 4189, "ID": "0017648342", "NAME": "PIONEER SPECIALTY HOSPITAL", "ADDRESS": "50 NORTH PERRY, 6TH FLOOR", "CITY": "PONTIAC", "STATE": "MI", "ZIP": "48342", "ZIP4": "NOT AVAILABLE", "TELEPHONE": "NOT AVAILABLE", "TYPE": "LONG TERM CARE", "STATUS": "OPEN", "POPULATION": 30, "COUNTY": "OAKLAND", "COUNTYFIPS": "26125", "COUNTRY": "USA", "LATITUDE": 42.638427405000101, "LONGITUDE": -83.290990332000007, "NAICS_CODE": "622310", "NAICS_DESC": "SPECIALTY (EXCEPT PSYCHIATRIC AND SUBSTANCE ABUSE) HOSPITALS", "SOURCE": "https://w2.lara.state.mi.us/VAL/License/Search", "SOURCEDATE": "2018-08-09T00:00:00.000Z", "VAL_METHOD": "IMAGERY/OTHER", "VAL_DATE": "2016-08-08T00:00:00.000Z", "WEBSITE": "http://www.pioneerspecialtyhospital.com/?id=contact", "STATE_ID": "NOT AVAILABLE", "ALT_NAME": "NOT AVAILABLE", "ST_FIPS": "26", "OWNER": "PROPRIETARY", "TTL_STAFF": -999, "BEDS": 30, "TRAUMA": "NOT AVAILABLE", "HELIPAD": "N" }, "geometry": { "type": "Polygon", "coordinates": [ [ [ -83.286210200000014, 42.55165310000001 ], [ -83.33975, 42.566314 ], [ -83.359608, 42.583098 ], [ -83.3737052, 42.597611299999976 ], [ -83.397308, 42.623558 ], [ -83.416949, 42.659576 ], [ -83.401768, 42.689233 ], [ -83.3927535, 42.696201500000043 ], [ -83.392351, 42.696471599999981 ], [ -83.3086255, 42.72164069999998 ], [ -83.286421, 42.724645 ], [ -83.2437509, 42.728393300000036 ], [ -83.234747, 42.723255 ], [ -83.0990662, 42.625266100000026 ], [ -83.168243099999984, 42.5827662 ], [ -83.218858, 42.554011 ], [ -83.286210200000014, 42.55165310000001 ] ] ] } },
{ "type": "Feature", "properties": { "OBJECTID": 4190, "ID": "0017948192", "NAME": "SELECT SPECIALTY HOSPITAL - WYANDOTTE, LLC", "ADDRESS": "2333 BIDDLE AVE, 8TH FLOOR", "CITY": "WYANDOTTE", "STATE": "MI", "ZIP": "48192", "ZIP4": "NOT AVAILABLE", "TELEPHONE": "NOT AVAILABLE", "TYPE": "LONG TERM CARE", "STATUS": "OPEN", "POPULATION": 35, "COUNTY": "WAYNE", "COUNTYFIPS": "26163", "COUNTRY": "USA", "LATITUDE": 42.2101206150001, "LONGITUDE": -83.147920031999902, "NAICS_CODE": "622310", "NAICS_DESC": "SPECIALTY (EXCEPT PSYCHIATRIC AND SUBSTANCE ABUSE) HOSPITALS", "SOURCE": "https://w2.lara.state.mi.us/VAL/License/Search", "SOURCEDATE": "2018-08-09T00:00:00.000Z", "VAL_METHOD": "IMAGERY/OTHER", "VAL_DATE": "2016-08-08T00:00:00.000Z", "WEBSITE": "http://downriver.selectspecialtyhospitals.com/", "STATE_ID": "NOT AVAILABLE", "ALT_NAME": "NOT AVAILABLE", "ST_FIPS": "26", "OWNER": "PROPRIETARY", "TTL_STAFF": -999, "BEDS": 35, "TRAUMA": "NOT AVAILABLE", "HELIPAD": "Y" }, "geometry": { "type": "Polygon", "coordinates": [ [ [ -83.1950631, 42.1354691 ], [ -83.2439814, 42.164826199999986 ], [ -83.264048, 42.197653 ], [ -83.263336, 42.212117 ], [ -83.21182, 42.260638 ], [ -83.188711, 42.271323 ], [ -83.183073, 42.273557 ], [ -83.1505554, 42.281881200000029 ], [ -83.1312534, 42.283244900000035 ], [ -83.127596, 42.28186 ], [ -83.124712, 42.270523 ], [ -83.138654, 42.150949 ], [ -83.157603, 42.138134 ], [ -83.1950631, 42.1354691 ] ] ] } },
{ "type": "Feature", "properties": { "OBJECTID": 4231, "ID": "0007248043", "NAME": "SELECT SPECIALTY HOSPITAL - MACOMB COUNTY", "ADDRESS": "215 NORTH AVE, SUITE 200", "CITY": "MOUNT CLEMENS", "STATE": "MI", "ZIP": "48043", "ZIP4": "NOT AVAILABLE", "TELEPHONE": "NOT AVAILABLE", "TYPE": "LONG TERM CARE", "STATUS": "OPEN", "POPULATION": 30, "COUNTY": "MACOMB", "COUNTYFIPS": "26099", "COUNTRY": "USA", "LATITUDE": 42.606449855999998, "LONGITUDE": -82.881855133000002, "NAICS_CODE": "622310", "NAICS_DESC": "SPECIALTY (EXCEPT PSYCHIATRIC AND SUBSTANCE ABUSE) HOSPITALS", "SOURCE": "https://w2.lara.state.mi.us/VAL/License/Search", "SOURCEDATE": "2018-08-09T00:00:00.000Z", "VAL_METHOD": "IMAGERY", "VAL_DATE": "2014-02-10T00:00:00.000Z", "WEBSITE": "http://www.selectspecialtyhospitals.com/company/locations/macomb .aspx", "STATE_ID": "NOT AVAILABLE", "ALT_NAME": "NOT AVAILABLE", "ST_FIPS": "26", "OWNER": "PROPRIETARY", "TTL_STAFF": -999, "BEDS": 30, "TRAUMA": "NOT AVAILABLE", "HELIPAD": "N" }, "geometry": { "type": "Polygon", "coordinates": [ [ [ -82.918272, 42.505941 ], [ -82.94652050000002, 42.524095300000042 ], [ -82.9912485, 42.5671603 ], [ -82.9965296, 42.6273484 ], [ -82.993099500000014, 42.6308974 ], [ -82.964067900000018, 42.656668 ], [ -82.879088, 42.712002600000027 ], [ -82.7722064, 42.705937800000015 ], [ -82.7746217, 42.675556799999974 ], [ -82.7929273, 42.595713500000038 ], [ -82.810462, 42.571405 ], [ -82.872707, 42.525703 ], [ -82.918272, 42.505941 ] ] ] } },
{ "type": "Feature", "properties": { "OBJECTID": 4257, "ID": "0016548235", "NAME": "SELECT SPECIALTY HOSPITAL - NORTHWEST DETROIT", "ADDRESS": "6071 WEST OUTER DRIVE, 7TH FLOOR", "CITY": "DETROIT", "STATE": "MI", "ZIP": "48235", "ZIP4": "NOT AVAILABLE", "TELEPHONE": "NOT AVAILABLE", "TYPE": "LONG TERM CARE", "STATUS": "OPEN", "POPULATION": 36, "COUNTY": "WAYNE", "COUNTYFIPS": "26163", "COUNTRY": "USA", "LATITUDE": 42.419195465000001, "LONGITUDE": -83.183184748000002, "NAICS_CODE": "622310", "NAICS_DESC": "SPECIALTY (EXCEPT PSYCHIATRIC AND SUBSTANCE ABUSE) HOSPITALS", "SOURCE": "https://w2.lara.state.mi.us/VAL/License/Search", "SOURCEDATE": "2018-08-09T00:00:00.000Z", "VAL_METHOD": "IMAGERY/OTHER", "VAL_DATE": "2019-04-16T00:00:00.000Z", "WEBSITE": "http://www.selectspecialtyhospitals.com/company/locations/northwe stdetroit.aspx", "STATE_ID": "NOT AVAILABLE", "ALT_NAME": "NOT AVAILABLE", "ST_FIPS": "26", "OWNER": "PROPRIETARY", "TTL_STAFF": -999, "BEDS": 36, "TRAUMA": "NOT AVAILABLE", "HELIPAD": "Y" }, "geometry": { "type": "Polygon", "coordinates": [ [ [ -83.216239, 42.332222 ], [ -83.2167763, 42.332523 ], [ -83.2867195, 42.385218 ], [ -83.294244, 42.414066 ], [ -83.3084295, 42.500543 ], [ -83.2853444, 42.5105722 ], [ -83.2251326, 42.51213889999994 ], [ -83.2235394, 42.512107099999987 ], [ -83.223055200000019, 42.5120974 ], [ -83.1231725, 42.475969799999966 ], [ -83.042707899999982, 42.42266530000002 ], [ -83.0594006, 42.3677178 ], [ -83.070606500000011, 42.348612299999978 ], [ -83.095453, 42.343947 ], [ -83.216239, 42.332222 ] ] ] } },
{ "type": "Feature", "properties": { "OBJECTID": 4276, "ID": "0001348532", "NAME": "SELECT SPECIALTY HOSPITAL - FLINT", "ADDRESS": "401 S BALLENGER, 5TH FLOOR", "CITY": "FLINT", "STATE": "MI", "ZIP": "48532", "ZIP4": "NOT AVAILABLE", "TELEPHONE": "NOT AVAILABLE", "TYPE": "LONG TERM CARE", "STATUS": "OPEN", "POPULATION": 26, "COUNTY": "GENESEE", "COUNTYFIPS": "26049", "COUNTRY": "USA", "LATITUDE": 43.014439146000001, "LONGITUDE": -83.732879249000007, "NAICS_CODE": "622310", "NAICS_DESC": "SPECIALTY (EXCEPT PSYCHIATRIC AND SUBSTANCE ABUSE) HOSPITALS", "SOURCE": "https://w2.lara.state.mi.us/VAL/License/Search", "SOURCEDATE": "2018-08-09T00:00:00.000Z", "VAL_METHOD": "IMAGERY", "VAL_DATE": "2014-02-10T00:00:00.000Z", "WEBSITE": "http://www.selectspecialtyhospitals.com/company/locations/flint.aspx", "STATE_ID": "NOT AVAILABLE", "ALT_NAME": "NOT AVAILABLE", "ST_FIPS": "26", "OWNER": "PROPRIETARY", "TTL_STAFF": -999, "BEDS": 26, "TRAUMA": "NOT AVAILABLE", "HELIPAD": "Y" }, "geometry": { "type": "Polygon", "coordinates": [ [ [ -83.726067, 42.913131 ], [ -83.734294, 42.914579 ], [ -83.830732700000013, 42.957232 ], [ -83.8609326, 43.0006823 ], [ -83.860937, 43.000782 ], [ -83.8609752, 43.002106900000015 ], [ -83.8304279, 43.063205499999981 ], [ -83.763278, 43.120407 ], [ -83.689076400000019, 43.096621 ], [ -83.650926, 43.067363 ], [ -83.590017, 43.01953 ], [ -83.590231, 43.011075 ], [ -83.663265, 42.910497 ], [ -83.726067, 42.913131 ] ] ] } },
{ "type": "Feature", "properties": { "OBJECTID": 4277, "ID": "0011148341", "NAME": "SELECT SPECIALTY HOSPITAL - PONTIAC", "ADDRESS": "44405 WOODWARD AVENUE, 8TH FLOOR", "CITY": "PONTIAC", "STATE": "MI", "ZIP": "48341", "ZIP4": "NOT AVAILABLE", "TELEPHONE": "NOT AVAILABLE", "TYPE": "LONG TERM CARE", "STATUS": "OPEN", "POPULATION": 30, "COUNTY": "OAKLAND", "COUNTYFIPS": "26125", "COUNTRY": "USA", "LATITUDE": 42.614037764000003, "LONGITUDE": -83.276815802000002, "NAICS_CODE": "622310", "NAICS_DESC": "SPECIALTY (EXCEPT PSYCHIATRIC AND SUBSTANCE ABUSE) HOSPITALS", "SOURCE": "https://w2.lara.state.mi.us/VAL/License/Search", "SOURCEDATE": "2018-08-09T00:00:00.000Z", "VAL_METHOD": "IMAGERY", "VAL_DATE": "2014-02-10T00:00:00.000Z", "WEBSITE": "http://www.selectspecialtyhospitals.com/company/locations/pontiac. aspx", "STATE_ID": "NOT AVAILABLE", "ALT_NAME": "NOT AVAILABLE", "ST_FIPS": "26", "OWNER": "PROPRIETARY", "TTL_STAFF": -999, "BEDS": 30, "TRAUMA": "NOT AVAILABLE", "HELIPAD": "Y" }, "geometry": { "type": "Polygon", "coordinates": [ [ [ -83.285947, 42.51554 ], [ -83.319974, 42.543963 ], [ -83.359608, 42.583098 ], [ -83.3708776, 42.6389047 ], [ -83.36707, 42.649299 ], [ -83.350418, 42.675429 ], [ -83.333854, 42.679333 ], [ -83.30355830000002, 42.685946099999981 ], [ -83.253235, 42.694378 ], [ -83.2420256, 42.6958762 ], [ -83.17108, 42.652226700000035 ], [ -83.1582867, 42.6440518 ], [ -83.144749, 42.606579 ], [ -83.1435739, 42.591715299999947 ], [ -83.1537497, 42.562200699999984 ], [ -83.1976237, 42.529489599999977 ], [ -83.285947, 42.51554 ] ] ] } },
{ "type": "Feature", "properties": { "OBJECTID": 4281, "ID": "0014548197", "NAME": "SELECT SPECIALTY HOSPITAL - ANN ARBOR", "ADDRESS": "5301 E HURON RIVER DR, 7TH FL", "CITY": "YPSILANTI", "STATE": "MI", "ZIP": "48197", "ZIP4": "NOT AVAILABLE", "TELEPHONE": "NOT AVAILABLE", "TYPE": "LONG TERM CARE", "STATUS": "OPEN", "POPULATION": 36, "COUNTY": "WASHTENAW", "COUNTYFIPS": "26161", "COUNTRY": "USA", "LATITUDE": 42.2638963630001, "LONGITUDE": -83.655421067999995, "NAICS_CODE": "622310", "NAICS_DESC": "SPECIALTY (EXCEPT PSYCHIATRIC AND SUBSTANCE ABUSE) HOSPITALS", "SOURCE": "https://w2.lara.state.mi.us/VAL/License/Search", "SOURCEDATE": "2018-08-09T00:00:00.000Z", "VAL_METHOD": "IMAGERY/OTHER", "VAL_DATE": "2019-04-16T00:00:00.000Z", "WEBSITE": "http://www.selectspecialtyhospitals.com/company/locations/annarbo r.aspx", "STATE_ID": "NOT AVAILABLE", "ALT_NAME": "NOT AVAILABLE", "ST_FIPS": "26", "OWNER": "PROPRIETARY", "TTL_STAFF": -999, "BEDS": 36, "TRAUMA": "NOT AVAILABLE", "HELIPAD": "Y" }, "geometry": { "type": "Polygon", "coordinates": [ [ [ -83.684076, 42.152683 ], [ -83.6972285, 42.156886100000015 ], [ -83.7434002, 42.183032599999947 ], [ -83.775895, 42.23648 ], [ -83.7783846, 42.242988899999986 ], [ -83.7511619, 42.30836029999994 ], [ -83.742201, 42.326693 ], [ -83.7087125, 42.3428976 ], [ -83.6626502, 42.362663099999985 ], [ -83.605623, 42.334645 ], [ -83.544203, 42.276894 ], [ -83.5515528, 42.217669799999982 ], [ -83.678482, 42.153163 ], [ -83.684076, 42.152683 ] ] ] } },
{ "type": "Feature", "properties": { "OBJECTID": 246, "ID": "0010048071", "NAME": "DMC SURGERY HOSPITAL", "ADDRESS": "30671 STEPHENSON HIGHWAY", "CITY": "MADISON HEIGHTS", "STATE": "MI", "ZIP": "48071", "ZIP4": "NOT AVAILABLE", "TELEPHONE": "NOT AVAILABLE", "TYPE": "GENERAL ACUTE CARE", "STATUS": "OPEN", "POPULATION": 36, "COUNTY": "OAKLAND", "COUNTYFIPS": "26125", "COUNTRY": "USA", "LATITUDE": 42.517887537, "LONGITUDE": -83.120107266999995, "NAICS_CODE": "622110", "NAICS_DESC": "GENERAL MEDICAL AND SURGICAL HOSPITALS", "SOURCE": "https://w2.lara.state.mi.us/VAL/License/Search", "SOURCEDATE": "2018-08-09T00:00:00.000Z", "VAL_METHOD": "IMAGERY", "VAL_DATE": "2019-05-09T00:00:00.000Z", "WEBSITE": "www.dmcsurgeryhospital.org", "STATE_ID": "NOT AVAILABLE", "ALT_NAME": "NOT AVAILABLE", "ST_FIPS": "26", "OWNER": "NON-PROFIT", "TTL_STAFF": -999, "BEDS": 36, "TRAUMA": "NOT AVAILABLE", "HELIPAD": "N" }, "geometry": { "type": "Polygon", "coordinates": [ [ [ -83.0636895, 42.378774400000019 ], [ -83.1061874, 42.393193600000011 ], [ -83.1121167, 42.396744600000012 ], [ -83.220673, 42.463374 ], [ -83.2572183, 42.485939300000034 ], [ -83.2096693, 42.6070361 ], [ -83.1697032, 42.617356200000046 ], [ -83.1327006, 42.61946 ], [ -83.130424, 42.619538 ], [ -83.127638200000021, 42.61808880000001 ], [ -83.1083455, 42.607414100000042 ], [ -83.0493522, 42.571711200000017 ], [ -83.009561, 42.534427 ], [ -82.9789939, 42.492788100000027 ], [ -83.0636895, 42.378774400000019 ] ] ] } },
{ "type": "Feature", "properties": { "OBJECTID": 251, "ID": "0013248427", "NAME": "DECKERVILLE COMMUNITY HOSPITAL", "ADDRESS": "3559 PINE ST", "CITY": "DECKERVILLE", "STATE": "MI", "ZIP": "48427", "ZIP4": "NOT AVAILABLE", "TELEPHONE": "NOT AVAILABLE", "TYPE": "GENERAL ACUTE CARE", "STATUS": "OPEN", "POPULATION": 15, "COUNTY": "SANILAC", "COUNTYFIPS": "26151", "COUNTRY": "USA", "LATITUDE": 43.528119210000099, "LONGITUDE": -82.734249152000004, "NAICS_CODE": "622110", "NAICS_DESC": "GENERAL MEDICAL AND SURGICAL HOSPITALS", "SOURCE": "https://w2.lara.state.mi.us/VAL/License/Search", "SOURCEDATE": "2018-08-09T00:00:00.000Z", "VAL_METHOD": "IMAGERY", "VAL_DATE": "2014-02-10T00:00:00.000Z", "WEBSITE": "http://www.deckervillehosp.org", "STATE_ID": "NOT AVAILABLE", "ALT_NAME": "NOT AVAILABLE", "ST_FIPS": "26", "OWNER": "NON-PROFIT", "TTL_STAFF": -999, "BEDS": 15, "TRAUMA": "NOT AVAILABLE", "HELIPAD": "N" }, "geometry": { "type": "Polygon", "coordinates": [ [ [ -82.731905, 43.439234 ], [ -82.839376, 43.523839 ], [ -82.831819, 43.531222 ], [ -82.737373, 43.61446 ], [ -82.6154652, 43.5305628 ], [ -82.673729, 43.484766 ], [ -82.731905, 43.439234 ] ] ] } },
{ "type": "Feature", "properties": { "OBJECTID": 252, "ID": "0014948202", "NAME": "HENRY FORD HOSPITAL", "ADDRESS": "2799 W GRAND BLVD", "CITY": "DETROIT", "STATE": "MI", "ZIP": "48202", "ZIP4": "NOT AVAILABLE", "TELEPHONE": "NOT AVAILABLE", "TYPE": "GENERAL ACUTE CARE", "STATUS": "OPEN", "POPULATION": 877, "COUNTY": "WAYNE", "COUNTYFIPS": "26163", "COUNTRY": "USA", "LATITUDE": 42.367686783000103, "LONGITUDE": -83.08472312000001, "NAICS_CODE": "622110", "NAICS_DESC": "GENERAL MEDICAL AND SURGICAL HOSPITALS", "SOURCE": "https://w2.lara.state.mi.us/VAL/License/Search", "SOURCEDATE": "2018-08-09T00:00:00.000Z", "VAL_METHOD": "IMAGERY", "VAL_DATE": "2014-03-12T00:00:00.000Z", "WEBSITE": "http://www.henryfordhealth.org", "STATE_ID": "NOT AVAILABLE", "ALT_NAME": "NOT AVAILABLE", "ST_FIPS": "26", "OWNER": "NON-PROFIT", "TTL_STAFF": -999, "BEDS": 877, "TRAUMA": "LEVEL I", "HELIPAD": "Y" }, "geometry": { "type": "Polygon", "coordinates": [ [ [ -83.1568123, 42.277161700000022 ], [ -83.1996097, 42.28159260000001 ], [ -83.20236, 42.287121100000014 ], [ -83.23669, 42.381196 ], [ -83.236717, 42.382444 ], [ -83.200902, 42.443075 ], [ -83.1105212, 42.47446 ], [ -82.9408041, 42.414690399999941 ], [ -82.945033, 42.40461 ], [ -82.958788, 42.385386 ], [ -82.9613604, 42.381822699999987 ], [ -82.96413, 42.378009 ], [ -82.9963942, 42.338989100000049 ], [ -83.0991368, 42.294343600000012 ], [ -83.1568123, 42.277161700000022 ] ] ] } },
{ "type": "Feature", "properties": { "OBJECTID": 5018, "ID": "0011048071", "NAME": "ST JOHN MACOMB-OAKLAND HOSPITAL-OAKLAND CENTER", "ADDRESS": "27351 DEQUINDRE", "CITY": "MADISON HEIGHTS", "STATE": "MI", "ZIP": "48071", "ZIP4": "NOT AVAILABLE", "TELEPHONE": "NOT AVAILABLE", "TYPE": "GENERAL ACUTE CARE", "STATUS": "OPEN", "POPULATION": 133, "COUNTY": "OAKLAND", "COUNTYFIPS": "26125", "COUNTRY": "USA", "LATITUDE": 42.4939160220001, "LONGITUDE": -83.086793724000003, "NAICS_CODE": "622110", "NAICS_DESC": "GENERAL MEDICAL AND SURGICAL HOSPITALS", "SOURCE": "https://w2.lara.state.mi.us/VAL/License/Search", "SOURCEDATE": "2018-08-09T00:00:00.000Z", "VAL_METHOD": "IMAGERY", "VAL_DATE": "2014-02-10T00:00:00.000Z", "WEBSITE": "https://www.stjohnprovidence.org/Oakland/", "STATE_ID": "NOT AVAILABLE", "ALT_NAME": "NOT AVAILABLE", "ST_FIPS": "26", "OWNER": "NON-PROFIT", "TTL_STAFF": -999, "BEDS": 133, "TRAUMA": "NOT AVAILABLE", "HELIPAD": "N" }, "geometry": { "type": "Polygon", "coordinates": [ [ [ -83.0688195, 42.396054500000012 ], [ -83.1014683, 42.401321900000042 ], [ -83.2012091, 42.4583904 ], [ -83.222554, 42.473347 ], [ -83.2384563, 42.487703499999981 ], [ -83.1838088, 42.561443699999948 ], [ -83.167803600000013, 42.574195899999985 ], [ -83.129179, 42.594043 ], [ -83.0497781, 42.580644300000053 ], [ -82.9179314, 42.5040428 ], [ -82.9120333, 42.4953317 ], [ -82.917278, 42.481295800000048 ], [ -83.0688195, 42.396054500000012 ] ] ] } },
{ "type": "Feature", "properties": { "OBJECTID": 5023, "ID": "0012948054", "NAME": "ST JOHN RIVER DISTRICT HOSPITAL", "ADDRESS": "4100 RIVER RD", "CITY": "EAST CHINA", "STATE": "MI", "ZIP": "48054", "ZIP4": "NOT AVAILABLE", "TELEPHONE": "NOT AVAILABLE", "TYPE": "GENERAL ACUTE CARE", "STATUS": "OPEN", "POPULATION": 68, "COUNTY": "ST. CLAIR", "COUNTYFIPS": "26147", "COUNTRY": "USA", "LATITUDE": 42.785363647000104, "LONGITUDE": -82.479201914000001, "NAICS_CODE": "622110", "NAICS_DESC": "GENERAL MEDICAL AND SURGICAL HOSPITALS", "SOURCE": "https://w2.lara.state.mi.us/VAL/License/Search", "SOURCEDATE": "2018-08-09T00:00:00.000Z", "VAL_METHOD": "IMAGERY", "VAL_DATE": "2014-02-10T00:00:00.000Z", "WEBSITE": "http://www.stjohn.org", "STATE_ID": "NOT AVAILABLE", "ALT_NAME": "NOT AVAILABLE", "ST_FIPS": "26", "OWNER": "NON-PROFIT", "TTL_STAFF": -999, "BEDS": 68, "TRAUMA": "NOT AVAILABLE", "HELIPAD": "Y" }, "geometry": { "type": "Polygon", "coordinates": [ [ [ -82.503404, 42.704293 ], [ -82.5090798, 42.709198299999926 ], [ -82.53255710000002, 42.73506430000004 ], [ -82.5515749, 42.756736899999964 ], [ -82.573342, 42.785725 ], [ -82.555934, 42.839221 ], [ -82.4847316, 42.8821337 ], [ -82.4754555, 42.881357400000041 ], [ -82.473649, 42.857073 ], [ -82.473517, 42.854587 ], [ -82.472177, 42.773733 ], [ -82.4751578, 42.7564069 ], [ -82.4898666, 42.718852500000018 ], [ -82.4926455, 42.7144276 ], [ -82.4969496, 42.707969900000016 ], [ -82.5008398, 42.704598 ], [ -82.503404, 42.704293 ] ] ] } },
{ "type": "Feature", "properties": { "OBJECTID": 5026, "ID": "0016048201", "NAME": "HUTZEL WOMEN'S HOSPITAL", "ADDRESS": "3980 JOHN R", "CITY": "DETROIT", "STATE": "MI", "ZIP": "48201", "ZIP4": "NOT AVAILABLE", "TELEPHONE": "NOT AVAILABLE", "TYPE": "GENERAL ACUTE CARE", "STATUS": "OPEN", "POPULATION": 114, "COUNTY": "WAYNE", "COUNTYFIPS": "26163", "COUNTRY": "USA", "LATITUDE": 42.351136918000101, "LONGITUDE": -83.05585797000001, "NAICS_CODE": "622110", "NAICS_DESC": "GENERAL MEDICAL AND SURGICAL HOSPITALS", "SOURCE": "https://w2.lara.state.mi.us/VAL/License/Search", "SOURCEDATE": "2018-08-09T00:00:00.000Z", "VAL_METHOD": "IMAGERY/OTHER", "VAL_DATE": "2014-01-27T00:00:00.000Z", "WEBSITE": "http://www.harperhospital.org", "STATE_ID": "NOT AVAILABLE", "ALT_NAME": "NOT AVAILABLE", "ST_FIPS": "26", "OWNER": "PROPRIETARY", "TTL_STAFF": -999, "BEDS": 114, "TRAUMA": "NOT AVAILABLE", "HELIPAD": "N" }, "geometry": { "type": "Polygon", "coordinates": [ [ [ -83.1568123, 42.277161700000022 ], [ -83.158326, 42.278081 ], [ -83.179514, 42.301628 ], [ -83.1806596, 42.3029678 ], [ -83.2110759, 42.378868899999929 ], [ -83.1101571, 42.471639199999963 ], [ -82.9408041, 42.414690399999941 ], [ -82.944127, 42.40685 ], [ -82.985323899999983, 42.335160099999989 ], [ -82.9868204, 42.33458049999998 ], [ -83.0991368, 42.294343600000012 ], [ -83.1568123, 42.277161700000022 ] ] ] } },
{ "type": "Feature", "properties": { "OBJECTID": 5029, "ID": "0000000060", "NAME": "ST JOSEPH MERCY HOSPITAL-SALINE", "ADDRESS": "400 W RUSSELL ST", "CITY": "SALINE", "STATE": "MI", "ZIP": "48176", "ZIP4": "NOT AVAILABLE", "TELEPHONE": "(734) 429-1500", "TYPE": "GENERAL ACUTE CARE", "STATUS": "CLOSED", "POPULATION": -999, "COUNTY": "WASHTENAW", "COUNTYFIPS": "26161", "COUNTRY": "USA", "LATITUDE": 42.167231623000099, "LONGITUDE": -83.790884571999996, "NAICS_CODE": "622110", "NAICS_DESC": "GENERAL MEDICAL AND SURGICAL HOSPITALS", "SOURCE": "http://www.michigan.gov/lara/", "SOURCEDATE": "2013-05-01T00:00:00.000Z", "VAL_METHOD": "IMAGERY/OTHER", "VAL_DATE": "2015-05-21T00:00:00.000Z", "WEBSITE": "http://www.stjoeshealth.org/saline", "STATE_ID": "NOT AVAILABLE", "ALT_NAME": "NOT AVAILABLE", "ST_FIPS": "26", "OWNER": "NON-PROFIT", "TTL_STAFF": -999, "BEDS": -999, "TRAUMA": "NOT AVAILABLE", "HELIPAD": "Y" }, "geometry": { "type": "Polygon", "coordinates": [ [ [ -83.915800600000011, 42.092575200000034 ], [ -83.931021, 42.158597 ], [ -83.875263, 42.211454 ], [ -83.817901500000019, 42.255167100000051 ], [ -83.798950800000014, 42.261902799999987 ], [ -83.7514077, 42.255080599999985 ], [ -83.6854254, 42.233949799999984 ], [ -83.660344, 42.219678 ], [ -83.6658503, 42.156742099999981 ], [ -83.696174, 42.1276879 ], [ -83.7184274, 42.112671399999989 ], [ -83.733563, 42.103041 ], [ -83.794137, 42.096596 ], [ -83.915800600000011, 42.092575200000034 ] ] ] } },
{ "type": "Feature", "properties": { "OBJECTID": 5435, "ID": "0010248342", "NAME": "MCLAREN OAKLAND", "ADDRESS": "50 NORTH PERRY", "CITY": "PONTIAC", "STATE": "MI", "ZIP": "48342", "ZIP4": "NOT AVAILABLE", "TELEPHONE": "NOT AVAILABLE", "TYPE": "GENERAL ACUTE CARE", "STATUS": "OPEN", "POPULATION": 285, "COUNTY": "OAKLAND", "COUNTYFIPS": "26125", "COUNTRY": "USA", "LATITUDE": 42.6383227090001, "LONGITUDE": -83.291492397999903, "NAICS_CODE": "622110", "NAICS_DESC": "GENERAL MEDICAL AND SURGICAL HOSPITALS", "SOURCE": "https://w2.lara.state.mi.us/VAL/License/Search", "SOURCEDATE": "2018-08-09T00:00:00.000Z", "VAL_METHOD": "IMAGERY", "VAL_DATE": "2014-02-10T00:00:00.000Z", "WEBSITE": "http://www.pohmedical.org", "STATE_ID": "NOT AVAILABLE", "ALT_NAME": "NOT AVAILABLE", "ST_FIPS": "26", "OWNER": "NON-PROFIT", "TTL_STAFF": -999, "BEDS": 285, "TRAUMA": "LEVEL II", "HELIPAD": "N" }, "geometry": { "type": "Polygon", "coordinates": [ [ [ -83.286210200000014, 42.55165310000001 ], [ -83.33975, 42.566314 ], [ -83.359608, 42.583098 ], [ -83.3737052, 42.597611299999976 ], [ -83.397308, 42.623558 ], [ -83.416949, 42.659576 ], [ -83.401768, 42.689233 ], [ -83.3927535, 42.696201500000043 ], [ -83.392351, 42.696471599999981 ], [ -83.3086255, 42.72164069999998 ], [ -83.286421, 42.724645 ], [ -83.2437509, 42.728393300000036 ], [ -83.234747, 42.723255 ], [ -83.0990662, 42.625266100000026 ], [ -83.168243099999984, 42.5827662 ], [ -83.218858, 42.554011 ], [ -83.286210200000014, 42.55165310000001 ] ] ] } },
{ "type": "Feature", "properties": { "OBJECTID": 5594, "ID": "0007248201", "NAME": "JOHN D. DINGELL VA MEDICAL CENTER", "ADDRESS": "4646 JOHN R ST", "CITY": "DETROIT", "STATE": "MI", "ZIP": "48201", "ZIP4": "NOT AVAILABLE", "TELEPHONE": "(313) 576-1000", "TYPE": "MILITARY", "STATUS": "OPEN", "POPULATION": -999, "COUNTY": "WAYNE", "COUNTYFIPS": "26163", "COUNTRY": "USA", "LATITUDE": 42.355722151000101, "LONGITUDE": -83.059198117999998, "NAICS_CODE": "622110", "NAICS_DESC": "GENERAL MEDICAL AND SURGICAL HOSPITALS", "SOURCE": "https://www.va.gov/directory/guide/allstate.asp", "SOURCEDATE": "2018-09-26T00:00:00.000Z", "VAL_METHOD": "IMAGERY/OTHER", "VAL_DATE": "2015-05-20T00:00:00.000Z", "WEBSITE": "http://www.detroit.va.gov/", "STATE_ID": "NOT AVAILABLE", "ALT_NAME": "NOT AVAILABLE", "ST_FIPS": "26", "OWNER": "GOVERNMENT - FEDERAL", "TTL_STAFF": -999, "BEDS": -999, "TRAUMA": "NOT AVAILABLE", "HELIPAD": "Y" }, "geometry": { "type": "Polygon", "coordinates": [ [ [ -83.1312405, 42.290371 ], [ -83.1779306, 42.300389800000019 ], [ -83.179514, 42.301628 ], [ -83.1806596, 42.3029678 ], [ -83.214386, 42.379101 ], [ -83.2144231, 42.3793059 ], [ -83.1127327, 42.480972 ], [ -82.9340018, 42.4188879 ], [ -82.934103, 42.417813 ], [ -82.935214, 42.414269 ], [ -82.9391, 42.407771 ], [ -82.961327, 42.37371 ], [ -82.9881002, 42.3361999 ], [ -83.099637300000012, 42.294779200000029 ], [ -83.1312405, 42.290371 ] ] ] } },
{ "type": "Feature", "properties": { "OBJECTID": 5595, "ID": "0007448105", "NAME": "VA ANN ARBOR HEALTHCARE SYSTEM", "ADDRESS": "2215 FULLER RD", "CITY": "ANN ARBOR", "STATE": "MI", "ZIP": "48105", "ZIP4": "NOT AVAILABLE", "TELEPHONE": "(800) 361-8387", "TYPE": "MILITARY", "STATUS": "OPEN", "POPULATION": -999, "COUNTY": "WASHTENAW", "COUNTYFIPS": "26161", "COUNTRY": "USA", "LATITUDE": 42.286693323000101, "LONGITUDE": -83.714640593999903, "NAICS_CODE": "622110", "NAICS_DESC": "GENERAL MEDICAL AND SURGICAL HOSPITALS", "SOURCE": "https://www.va.gov/directory/guide/allstate.asp", "SOURCEDATE": "2018-09-26T00:00:00.000Z", "VAL_METHOD": "IMAGERY/OTHER", "VAL_DATE": "2015-05-22T00:00:00.000Z", "WEBSITE": "http://www.annarbor.va.gov/", "STATE_ID": "NOT AVAILABLE", "ALT_NAME": "NOT AVAILABLE", "ST_FIPS": "26", "OWNER": "GOVERNMENT - FEDERAL", "TTL_STAFF": -999, "BEDS": -999, "TRAUMA": "NOT AVAILABLE", "HELIPAD": "N" }, "geometry": { "type": "Polygon", "coordinates": [ [ [ -83.698728, 42.186086 ], [ -83.7132828, 42.193021900000033 ], [ -83.785061, 42.228132699999975 ], [ -83.84197020000002, 42.289076200000011 ], [ -83.8431678, 42.293098400000019 ], [ -83.8387942, 42.298465 ], [ -83.762228, 42.379251 ], [ -83.7582096, 42.3816443 ], [ -83.6626502, 42.362663099999985 ], [ -83.6059625, 42.3410795 ], [ -83.5906838, 42.27589159999998 ], [ -83.590655, 42.2751713 ], [ -83.618013, 42.228461 ], [ -83.679253, 42.192918 ], [ -83.698728, 42.186086 ] ] ] } },
{ "type": "Feature", "properties": { "OBJECTID": 5596, "ID": "0016148201", "NAME": "CHILDREN'S HOSPITAL OF MICHIGAN", "ADDRESS": "3901 BEAUBIEN", "CITY": "DETROIT", "STATE": "MI", "ZIP": "48201", "ZIP4": "NOT AVAILABLE", "TELEPHONE": "NOT AVAILABLE", "TYPE": "CHILDREN", "STATUS": "OPEN", "POPULATION": 228, "COUNTY": "WAYNE", "COUNTYFIPS": "26163", "COUNTRY": "USA", "LATITUDE": 42.3514354920001, "LONGITUDE": -83.054749993000001, "NAICS_CODE": "622110", "NAICS_DESC": "CHILDREN'S HOSPITALS, GENERAL", "SOURCE": "https://w2.lara.state.mi.us/VAL/License/Search", "SOURCEDATE": "2018-08-09T00:00:00.000Z", "VAL_METHOD": "IMAGERY/OTHER", "VAL_DATE": "2014-01-30T00:00:00.000Z", "WEBSITE": "http://www.chmkids.org", "STATE_ID": "NOT AVAILABLE", "ALT_NAME": "NOT AVAILABLE", "ST_FIPS": "26", "OWNER": "PROPRIETARY", "TTL_STAFF": -999, "BEDS": 228, "TRAUMA": "LEVEL I PEDIATRIC", "HELIPAD": "N" }, "geometry": { "type": "Polygon", "coordinates": [ [ [ -83.161648, 42.274459800000045 ], [ -83.171644, 42.314852 ], [ -83.182688, 42.382533 ], [ -83.1101571, 42.471639199999963 ], [ -82.936928, 42.416888 ], [ -82.9805072, 42.341518199999989 ], [ -82.9841039, 42.3354837 ], [ -83.0991368, 42.294343600000012 ], [ -83.1548297, 42.276000899999985 ], [ -83.161648, 42.274459800000045 ] ] ] } },
{ "type": "Feature", "properties": { "OBJECTID": 5598, "ID": "0006348043", "NAME": "MCLAREN MACOMB", "ADDRESS": "1000 HARRINGTON BLVD", "CITY": "MOUNT CLEMENS", "STATE": "MI", "ZIP": "48043", "ZIP4": "NOT AVAILABLE", "TELEPHONE": "NOT AVAILABLE", "TYPE": "GENERAL ACUTE CARE", "STATUS": "OPEN", "POPULATION": 288, "COUNTY": "MACOMB", "COUNTYFIPS": "26099", "COUNTRY": "USA", "LATITUDE": 42.587335929000098, "LONGITUDE": -82.89690283, "NAICS_CODE": "622110", "NAICS_DESC": "GENERAL MEDICAL AND SURGICAL HOSPITALS", "SOURCE": "https://w2.lara.state.mi.us/VAL/License/Search", "SOURCEDATE": "2018-08-09T00:00:00.000Z", "VAL_METHOD": "IMAGERY", "VAL_DATE": "2014-02-10T00:00:00.000Z", "WEBSITE": "http://www.mcrmc.org", "STATE_ID": "NOT AVAILABLE", "ALT_NAME": "NOT AVAILABLE", "ST_FIPS": "26", "OWNER": "NON-PROFIT", "TTL_STAFF": -999, "BEDS": 288, "TRAUMA": "LEVEL II", "HELIPAD": "Y" }, "geometry": { "type": "Polygon", "coordinates": [ [ [ -82.9175145, 42.4842356 ], [ -82.9697933, 42.493144199999961 ], [ -83.049453, 42.565275599999964 ], [ -83.0078368, 42.6268887 ], [ -82.947132900000014, 42.680917900000033 ], [ -82.9467806, 42.681135 ], [ -82.853198, 42.68325 ], [ -82.8154199, 42.67745010000003 ], [ -82.80776, 42.648326 ], [ -82.8042835, 42.5953787 ], [ -82.8044795, 42.5925819 ], [ -82.8050321, 42.590546799999956 ], [ -82.810462, 42.571405 ], [ -82.9175145, 42.4842356 ] ] ] } },
{ "type": "Feature", "properties": { "OBJECTID": 5599, "ID": "0007148089", "NAME": "HENRY FORD MACOMB HOSPITAL-WARREN CAMPUS", "ADDRESS": "13355 E TEN MILE ROAD", "CITY": "WARREN", "STATE": "MI", "ZIP": "48089", "ZIP4": "NOT AVAILABLE", "TELEPHONE": "NOT AVAILABLE", "TYPE": "GENERAL ACUTE CARE", "STATUS": "CLOSED", "POPULATION": 203, "COUNTY": "MACOMB", "COUNTYFIPS": "26099", "COUNTRY": "USA", "LATITUDE": 42.479543131000099, "LONGITUDE": -82.9882836, "NAICS_CODE": "622110", "NAICS_DESC": "GENERAL MEDICAL AND SURGICAL HOSPITALS", "SOURCE": "http://www.michigan.gov/lara/0,4601,7-154-35299_63294_63302---,00.html", "SOURCEDATE": "2013-05-01T00:00:00.000Z", "VAL_METHOD": "IMAGERY", "VAL_DATE": "2019-05-09T00:00:00.000Z", "WEBSITE": "https://www.henryford.com/locations/macomb", "STATE_ID": "NOT AVAILABLE", "ALT_NAME": "NOT AVAILABLE", "ST_FIPS": "26", "OWNER": "NON-PROFIT", "TTL_STAFF": -999, "BEDS": 203, "TRAUMA": "NOT AVAILABLE", "HELIPAD": "Y" }, "geometry": { "type": "Polygon", "coordinates": [ [ [ -83.000844, 42.399794 ], [ -83.023191, 42.405811 ], [ -83.050698, 42.419635 ], [ -83.1469267, 42.474781899999947 ], [ -83.1474553, 42.475478400000014 ], [ -83.1471719, 42.4762287 ], [ -83.1469362, 42.476473300000023 ], [ -83.114724, 42.506537699999988 ], [ -83.0537518, 42.5504297 ], [ -83.0516014, 42.5517344 ], [ -83.0483294, 42.553178900000013 ], [ -82.9909641, 42.57778579999998 ], [ -82.9092168, 42.573234599999985 ], [ -82.859157600000017, 42.560572099999973 ], [ -82.877519, 42.4646664 ], [ -82.8807071, 42.45706939999998 ], [ -82.896631, 42.441082 ], [ -82.9169988, 42.429835899999972 ], [ -82.9283958, 42.424214099999936 ], [ -82.974479, 42.40433 ], [ -82.992775, 42.400674 ], [ -83.000844, 42.399794 ] ] ] } },
{ "type": "Feature", "properties": { "OBJECTID": 5600, "ID": "0007648038", "NAME": "HENRY FORD MACOMB HOSPITAL", "ADDRESS": "15855 NINETEEN MILE RD", "CITY": "CLINTON TOWNSHIP", "STATE": "MI", "ZIP": "48038", "ZIP4": "NOT AVAILABLE", "TELEPHONE": "NOT AVAILABLE", "TYPE": "GENERAL ACUTE CARE", "STATUS": "OPEN", "POPULATION": 433, "COUNTY": "MACOMB", "COUNTYFIPS": "26099", "COUNTRY": "USA", "LATITUDE": 42.614875302000002, "LONGITUDE": -82.960677770999993, "NAICS_CODE": "622110", "NAICS_DESC": "GENERAL MEDICAL AND SURGICAL HOSPITALS", "SOURCE": "https://w2.lara.state.mi.us/VAL/License/Search", "SOURCEDATE": "2018-08-09T00:00:00.000Z", "VAL_METHOD": "IMAGERY/OTHER", "VAL_DATE": "2014-02-10T00:00:00.000Z", "WEBSITE": "http://www.henryfordmacomb.com", "STATE_ID": "NOT AVAILABLE", "ALT_NAME": "NOT AVAILABLE", "ST_FIPS": "26", "OWNER": "NON-PROFIT", "TTL_STAFF": -999, "BEDS": 433, "TRAUMA": "LEVEL II", "HELIPAD": "Y" }, "geometry": { "type": "Polygon", "coordinates": [ [ [ -82.9452852, 42.525719 ], [ -82.9692838, 42.52986520000001 ], [ -82.988762, 42.533881 ], [ -82.9943204, 42.537217800000022 ], [ -83.029648, 42.560749 ], [ -83.091551600000017, 42.626504900000057 ], [ -83.033998, 42.672852 ], [ -82.995441700000015, 42.6954877 ], [ -82.9763537, 42.7029195 ], [ -82.9597619, 42.7041623 ], [ -82.95919, 42.7041941 ], [ -82.948808900000017, 42.7031439 ], [ -82.846305, 42.658308 ], [ -82.8324457, 42.6454736 ], [ -82.8221852, 42.632107 ], [ -82.8222362, 42.630955900000018 ], [ -82.8229277, 42.629888700000052 ], [ -82.8612431, 42.579542700000019 ], [ -82.8716552, 42.567450899999955 ], [ -82.872007, 42.567106 ], [ -82.9452852, 42.525719 ] ] ] } },
{ "type": "Feature", "properties": { "OBJECTID": 5602, "ID": "0001248532", "NAME": "MCLAREN FLINT", "ADDRESS": "401 S BALLENGER HIGHWAY", "CITY": "FLINT", "STATE": "MI", "ZIP": "48532", "ZIP4": "NOT AVAILABLE", "TELEPHONE": "NOT AVAILABLE", "TYPE": "GENERAL ACUTE CARE", "STATUS": "OPEN", "POPULATION": 350, "COUNTY": "GENESEE", "COUNTYFIPS": "26049", "COUNTRY": "USA", "LATITUDE": 43.013757897000097, "LONGITUDE": -83.732803191999906, "NAICS_CODE": "622110", "NAICS_DESC": "GENERAL MEDICAL AND SURGICAL HOSPITALS", "SOURCE": "https://w2.lara.state.mi.us/VAL/License/Search", "SOURCEDATE": "2018-08-09T00:00:00.000Z", "VAL_METHOD": "IMAGERY", "VAL_DATE": "2014-02-10T00:00:00.000Z", "WEBSITE": "http://www.mclarenregional.org", "STATE_ID": "NOT AVAILABLE", "ALT_NAME": "NOT AVAILABLE", "ST_FIPS": "26", "OWNER": "NON-PROFIT", "TTL_STAFF": -999, "BEDS": 350, "TRAUMA": "LEVEL III", "HELIPAD": "Y" }, "geometry": { "type": "Polygon", "coordinates": [ [ [ -83.726067, 42.913131 ], [ -83.734294, 42.914579 ], [ -83.830732700000013, 42.957232 ], [ -83.8609326, 43.0006823 ], [ -83.860937, 43.000782 ], [ -83.8609752, 43.002106900000015 ], [ -83.8304279, 43.063205499999981 ], [ -83.763278, 43.120407 ], [ -83.689076400000019, 43.096621 ], [ -83.650926, 43.067363 ], [ -83.590017, 43.01953 ], [ -83.590231, 43.011075 ], [ -83.663265, 42.910497 ], [ -83.726067, 42.913131 ] ] ] } },
{ "type": "Feature", "properties": { "OBJECTID": 5603, "ID": "0008648439", "NAME": "GENESYS REGIONAL MEDICAL CENTER - HEALTH PARK", "ADDRESS": "ONE GENESYS PARKWAY", "CITY": "GRAND BLANC", "STATE": "MI", "ZIP": "48439", "ZIP4": "NOT AVAILABLE", "TELEPHONE": "NOT AVAILABLE", "TYPE": "GENERAL ACUTE CARE", "STATUS": "OPEN", "POPULATION": 410, "COUNTY": "GENESEE", "COUNTYFIPS": "26049", "COUNTRY": "USA", "LATITUDE": 42.892454804000103, "LONGITUDE": -83.642260917000002, "NAICS_CODE": "622110", "NAICS_DESC": "GENERAL MEDICAL AND SURGICAL HOSPITALS", "SOURCE": "https://w2.lara.state.mi.us/VAL/License/Search", "SOURCEDATE": "2018-08-09T00:00:00.000Z", "VAL_METHOD": "IMAGERY", "VAL_DATE": "2014-02-10T00:00:00.000Z", "WEBSITE": "http://www.genesys.org", "STATE_ID": "NOT AVAILABLE", "ALT_NAME": "NOT AVAILABLE", "ST_FIPS": "26", "OWNER": "NON-PROFIT", "TTL_STAFF": -999, "BEDS": 410, "TRAUMA": "LEVEL II", "HELIPAD": "Y" }, "geometry": { "type": "Polygon", "coordinates": [ [ [ -83.628842, 42.792989 ], [ -83.647659, 42.800886 ], [ -83.729285, 42.870639 ], [ -83.744318, 42.885102 ], [ -83.749361, 43.002722 ], [ -83.6810518, 43.0144756 ], [ -83.6696163, 43.010549 ], [ -83.654021, 43.003751 ], [ -83.5823866, 42.9464696 ], [ -83.568762, 42.934507 ], [ -83.532994, 42.892204 ], [ -83.530737, 42.845250599999986 ], [ -83.5292789, 42.80079 ], [ -83.627709, 42.793013 ], [ -83.628842, 42.792989 ] ] ] } },
{ "type": "Feature", "properties": { "OBJECTID": 5604, "ID": "0008748503", "NAME": "HURLEY MEDICAL CENTER", "ADDRESS": "ONE HURLEY PLAZA", "CITY": "FLINT", "STATE": "MI", "ZIP": "48503", "ZIP4": "NOT AVAILABLE", "TELEPHONE": "NOT AVAILABLE", "TYPE": "GENERAL ACUTE CARE", "STATUS": "OPEN", "POPULATION": 383, "COUNTY": "GENESEE", "COUNTYFIPS": "26049", "COUNTRY": "USA", "LATITUDE": 43.0211754010001, "LONGITUDE": -83.704956385999907, "NAICS_CODE": "622110", "NAICS_DESC": "GENERAL MEDICAL AND SURGICAL HOSPITALS", "SOURCE": "https://w2.lara.state.mi.us/VAL/License/Search", "SOURCEDATE": "2018-08-09T00:00:00.000Z", "VAL_METHOD": "IMAGERY/OTHER", "VAL_DATE": "2014-01-30T00:00:00.000Z", "WEBSITE": "http://www.hurleymc.com", "STATE_ID": "NOT AVAILABLE", "ALT_NAME": "NOT AVAILABLE", "ST_FIPS": "26", "OWNER": "GOVERNMENT - LOCAL", "TTL_STAFF": -999, "BEDS": 383, "TRAUMA": "LEVEL I, LEVEL II PEDIATRIC", "HELIPAD": "Y" }, "geometry": { "type": "Polygon", "coordinates": [ [ [ -83.726067, 42.913131 ], [ -83.730529, 42.914662 ], [ -83.830753, 42.963693 ], [ -83.831536, 42.965443 ], [ -83.821004, 43.0588072 ], [ -83.7628776, 43.090735899999949 ], [ -83.694488, 43.125831 ], [ -83.525133, 43.011224 ], [ -83.663265, 42.910497 ], [ -83.726067, 42.913131 ] ] ] } },
{ "type": "Feature", "properties": { "OBJECTID": 5607, "ID": "0009448341", "NAME": "PONTIAC GENERAL HOSPITAL", "ADDRESS": "461 W HURON ST", "CITY": "PONTIAC", "STATE": "MI", "ZIP": "48341", "ZIP4": "NOT AVAILABLE", "TELEPHONE": "NOT AVAILABLE", "TYPE": "GENERAL ACUTE CARE", "STATUS": "OPEN", "POPULATION": 336, "COUNTY": "OAKLAND", "COUNTYFIPS": "26125", "COUNTRY": "USA", "LATITUDE": 42.634584123000003, "LONGITUDE": -83.309522989999905, "NAICS_CODE": "622110", "NAICS_DESC": "GENERAL MEDICAL AND SURGICAL HOSPITALS", "SOURCE": "https://w2.lara.state.mi.us/VAL/License/Search", "SOURCEDATE": "2018-08-09T00:00:00.000Z", "VAL_METHOD": "IMAGERY", "VAL_DATE": "2014-02-10T00:00:00.000Z", "WEBSITE": "http://www.pontiacgeneral.com/", "STATE_ID": "NOT AVAILABLE", "ALT_NAME": "DOCTORS' HOSPITAL OF MICHIGAN", "ST_FIPS": "26", "OWNER": "NON-PROFIT", "TTL_STAFF": -999, "BEDS": 336, "TRAUMA": "NOT AVAILABLE", "HELIPAD": "N" }, "geometry": { "type": "Polygon", "coordinates": [ [ [ -83.34142, 42.551066 ], [ -83.417422, 42.61582 ], [ -83.443684, 42.657977 ], [ -83.4416854, 42.6608783 ], [ -83.4409228, 42.661538400000019 ], [ -83.407774, 42.683248 ], [ -83.390682, 42.693544 ], [ -83.307215, 42.7129257 ], [ -83.2424507, 42.709904700000031 ], [ -83.2403131, 42.70921220000001 ], [ -83.1575621, 42.651728700000042 ], [ -83.1316111, 42.628347499999983 ], [ -83.1311558, 42.6266721 ], [ -83.1611584, 42.59669 ], [ -83.226776699999988, 42.563568100000012 ], [ -83.285282, 42.547857 ], [ -83.34142, 42.551066 ] ] ] } },
{ "type": "Feature", "properties": { "OBJECTID": 5608, "ID": "0009648341", "NAME": "ST JOSEPH MERCY OAKLAND", "ADDRESS": "44405 WOODWARD AVE", "CITY": "PONTIAC", "STATE": "MI", "ZIP": "48341", "ZIP4": "NOT AVAILABLE", "TELEPHONE": "NOT AVAILABLE", "TYPE": "GENERAL ACUTE CARE", "STATUS": "OPEN", "POPULATION": 410, "COUNTY": "OAKLAND", "COUNTYFIPS": "26125", "COUNTRY": "USA", "LATITUDE": 42.615008540000098, "LONGITUDE": -83.276758759000003, "NAICS_CODE": "622110", "NAICS_DESC": "GENERAL MEDICAL AND SURGICAL HOSPITALS", "SOURCE": "https://w2.lara.state.mi.us/VAL/License/Search", "SOURCEDATE": "2018-08-09T00:00:00.000Z", "VAL_METHOD": "IMAGERY", "VAL_DATE": "2014-02-10T00:00:00.000Z", "WEBSITE": "http://www.stjoesoakland.com", "STATE_ID": "NOT AVAILABLE", "ALT_NAME": "NOT AVAILABLE", "ST_FIPS": "26", "OWNER": "NON-PROFIT", "TTL_STAFF": -999, "BEDS": 410, "TRAUMA": "LEVEL II", "HELIPAD": "Y" }, "geometry": { "type": "Polygon", "coordinates": [ [ [ -83.2861017, 42.520714700000063 ], [ -83.314545, 42.544087 ], [ -83.3547365, 42.5825967 ], [ -83.361375, 42.596566 ], [ -83.373588, 42.638827 ], [ -83.3588363, 42.677406800000057 ], [ -83.2903601, 42.704546599999965 ], [ -83.2427218, 42.7086929 ], [ -83.2424393, 42.708711400000013 ], [ -83.1999528, 42.68026950000003 ], [ -83.1575621, 42.651728700000042 ], [ -83.1316111, 42.628347499999983 ], [ -83.1305993, 42.591906 ], [ -83.1304736, 42.557960799999947 ], [ -83.1895642, 42.5211335 ], [ -83.2861017, 42.520714700000063 ] ] ] } },
{ "type": "Feature", "properties": { "OBJECTID": 5609, "ID": "0009948073", "NAME": "BEAUMONT HOSPITAL ROYAL OAK", "ADDRESS": "3601 W THIRTEEN MILE RD", "CITY": "ROYAL OAK", "STATE": "MI", "ZIP": "48073", "ZIP4": "NOT AVAILABLE", "TELEPHONE": "NOT AVAILABLE", "TYPE": "GENERAL ACUTE CARE", "STATUS": "OPEN", "POPULATION": 1070, "COUNTY": "OAKLAND", "COUNTYFIPS": "26125", "COUNTRY": "USA", "LATITUDE": 42.515011187, "LONGITUDE": -83.192567443000002, "NAICS_CODE": "622110", "NAICS_DESC": "GENERAL MEDICAL AND SURGICAL HOSPITALS", "SOURCE": "https://w2.lara.state.mi.us/VAL/License/Search", "SOURCEDATE": "2018-08-09T00:00:00.000Z", "VAL_METHOD": "IMAGERY/OTHER", "VAL_DATE": "2014-03-12T00:00:00.000Z", "WEBSITE": "http://www.beaumont.edu/royal-oak-hospital-campus", "STATE_ID": "NOT AVAILABLE", "ALT_NAME": "NOT AVAILABLE", "ST_FIPS": "26", "OWNER": "NON-PROFIT", "TTL_STAFF": -999, "BEDS": 1070, "TRAUMA": "LEVEL I, LEVEL II PEDIATRIC", "HELIPAD": "Y" }, "geometry": { "type": "Polygon", "coordinates": [ [ [ -83.2001, 42.43574 ], [ -83.221113, 42.438939 ], [ -83.2326259, 42.4442319 ], [ -83.2845563, 42.476327 ], [ -83.3063644, 42.491865399999966 ], [ -83.322184, 42.514656 ], [ -83.2686868, 42.6035151 ], [ -83.266377, 42.606158399999941 ], [ -83.1622353, 42.599027700000057 ], [ -83.1266545, 42.568858700000021 ], [ -83.1201276, 42.563117600000027 ], [ -83.090782, 42.534661 ], [ -83.076167600000019, 42.520239699999983 ], [ -83.067629, 42.476658 ], [ -83.0870667, 42.4469445 ], [ -83.095094, 42.436522 ], [ -83.2001, 42.43574 ] ] ] } },
{ "type": "Feature", "properties": { "OBJECTID": 5610, "ID": "0010148336", "NAME": "BEAUMONT HOSPITAL FARMINGTON HILLS", "ADDRESS": "28050 GRAND RIVER AVENUE", "CITY": "FARMINGTON HILLS", "STATE": "MI", "ZIP": "48336", "ZIP4": "NOT AVAILABLE", "TELEPHONE": "NOT AVAILABLE", "TYPE": "GENERAL ACUTE CARE", "STATUS": "OPEN", "POPULATION": 305, "COUNTY": "OAKLAND", "COUNTYFIPS": "26125", "COUNTRY": "USA", "LATITUDE": 42.446340030999998, "LONGITUDE": -83.32365014, "NAICS_CODE": "622110", "NAICS_DESC": "GENERAL MEDICAL AND SURGICAL HOSPITALS", "SOURCE": "https://w2.lara.state.mi.us/VAL/License/Search", "SOURCEDATE": "2018-08-09T00:00:00.000Z", "VAL_METHOD": "IMAGERY", "VAL_DATE": "2014-02-10T00:00:00.000Z", "WEBSITE": "http://www.botsford.org", "STATE_ID": "NOT AVAILABLE", "ALT_NAME": "BOTSFORD HOSPITAL", "ST_FIPS": "26", "OWNER": "NON-PROFIT", "TTL_STAFF": -999, "BEDS": 305, "TRAUMA": "LEVEL II", "HELIPAD": "Y" }, "geometry": { "type": "Polygon", "coordinates": [ [ [ -83.312756, 42.353800299999961 ], [ -83.352592, 42.370756 ], [ -83.372785, 42.379347 ], [ -83.3802034, 42.38252439999998 ], [ -83.4293299, 42.424938199999978 ], [ -83.474741, 42.4666 ], [ -83.4847542, 42.48784179999997 ], [ -83.4830702, 42.4955242 ], [ -83.4573434, 42.5106428 ], [ -83.340868, 42.538451 ], [ -83.2857316, 42.519943300000023 ], [ -83.2243092, 42.487345400000045 ], [ -83.187055, 42.445081400000021 ], [ -83.1901388, 42.433769399999981 ], [ -83.2151344, 42.3994296 ], [ -83.238414, 42.381 ], [ -83.2755214, 42.360569599999984 ], [ -83.312756, 42.353800299999961 ] ] ] } },
{ "type": "Feature", "properties": { "OBJECTID": 5611, "ID": "0010548322", "NAME": "HENRY FORD WEST BLOOMFIELD HOSPITAL", "ADDRESS": "6777 WEST MAPLE ROAD", "CITY": "W BLOOMFIELD", "STATE": "MI", "ZIP": "48322", "ZIP4": "NOT AVAILABLE", "TELEPHONE": "NOT AVAILABLE", "TYPE": "GENERAL ACUTE CARE", "STATUS": "OPEN", "POPULATION": 191, "COUNTY": "OAKLAND", "COUNTYFIPS": "26125", "COUNTRY": "USA", "LATITUDE": 42.538673176000003, "LONGITUDE": -83.407039253999997, "NAICS_CODE": "622110", "NAICS_DESC": "GENERAL MEDICAL AND SURGICAL HOSPITALS", "SOURCE": "https://w2.lara.state.mi.us/VAL/License/Search", "SOURCEDATE": "2018-08-09T00:00:00.000Z", "VAL_METHOD": "IMAGERY", "VAL_DATE": "2014-02-10T00:00:00.000Z", "WEBSITE": "http://www.henryford.com", "STATE_ID": "NOT AVAILABLE", "ALT_NAME": "NOT AVAILABLE", "ST_FIPS": "26", "OWNER": "NON-PROFIT", "TTL_STAFF": -999, "BEDS": 191, "TRAUMA": "NOT AVAILABLE", "HELIPAD": "N" }, "geometry": { "type": "Polygon", "coordinates": [ [ [ -83.4139857, 42.463516900000023 ], [ -83.434943, 42.467991 ], [ -83.4753717, 42.478521800000031 ], [ -83.4798018, 42.481758699999979 ], [ -83.4847542, 42.48784179999997 ], [ -83.4904135, 42.495212699999954 ], [ -83.5207169, 42.534720899999954 ], [ -83.5206599, 42.534980399999966 ], [ -83.482831, 42.581368 ], [ -83.480658, 42.583792 ], [ -83.47559, 42.589037 ], [ -83.446588, 42.606507 ], [ -83.349368, 42.59799 ], [ -83.3283397, 42.593080100000023 ], [ -83.285212, 42.557971 ], [ -83.275201, 42.549428 ], [ -83.274093, 42.545384 ], [ -83.292694, 42.500927 ], [ -83.297085, 42.496402 ], [ -83.3005702, 42.494180099999987 ], [ -83.3737938, 42.4679 ], [ -83.4139857, 42.463516900000023 ] ] ] } },
{ "type": "Feature", "properties": { "OBJECTID": 5612, "ID": "0010748382", "NAME": "HURON VALLEY-SINAI HOSPITAL", "ADDRESS": "ONE WILLIAM CARLS DRIVE", "CITY": "COMMERCE TOWNSHIP", "STATE": "MI", "ZIP": "48382", "ZIP4": "NOT AVAILABLE", "TELEPHONE": "NOT AVAILABLE", "TYPE": "GENERAL ACUTE CARE", "STATUS": "OPEN", "POPULATION": 153, "COUNTY": "OAKLAND", "COUNTYFIPS": "26125", "COUNTRY": "USA", "LATITUDE": 42.592614833, "LONGITUDE": -83.499091074999995, "NAICS_CODE": "622110", "NAICS_DESC": "GENERAL MEDICAL AND SURGICAL HOSPITALS", "SOURCE": "https://w2.lara.state.mi.us/VAL/License/Search", "SOURCEDATE": "2018-08-09T00:00:00.000Z", "VAL_METHOD": "IMAGERY", "VAL_DATE": "2014-03-12T00:00:00.000Z", "WEBSITE": "http://www.hvsh.org", "STATE_ID": "NOT AVAILABLE", "ALT_NAME": "NOT AVAILABLE", "ST_FIPS": "26", "OWNER": "PROPRIETARY", "TTL_STAFF": -999, "BEDS": 153, "TRAUMA": "NOT AVAILABLE", "HELIPAD": "Y" }, "geometry": { "type": "Polygon", "coordinates": [ [ [ -83.5045126, 42.5109079 ], [ -83.535884800000019, 42.523518299999971 ], [ -83.548924, 42.531313 ], [ -83.5734281, 42.547331599999978 ], [ -83.604941700000012, 42.5812742 ], [ -83.60865, 42.58628 ], [ -83.609435, 42.591446 ], [ -83.609087, 42.596171 ], [ -83.5735048, 42.639407299999988 ], [ -83.5483305, 42.652670300000032 ], [ -83.49188, 42.66901 ], [ -83.4889542, 42.668269800000033 ], [ -83.483955, 42.666777 ], [ -83.4600863, 42.657686699999957 ], [ -83.4369152, 42.645403199999983 ], [ -83.405014, 42.620241 ], [ -83.38108, 42.598192 ], [ -83.380354699999984, 42.597465799999952 ], [ -83.3802832, 42.595985 ], [ -83.391943, 42.58052 ], [ -83.4426506, 42.5269922 ], [ -83.4451821, 42.52520580000003 ], [ -83.5045126, 42.5109079 ] ] ] } },
{ "type": "Feature", "properties": { "OBJECTID": 5613, "ID": "0010948075", "NAME": "PROVIDENCE - PROVIDENCE PARK HOSPITAL", "ADDRESS": "16001 W NINE MILE RD", "CITY": "SOUTHFIELD", "STATE": "MI", "ZIP": "48075", "ZIP4": "NOT AVAILABLE", "TELEPHONE": "NOT AVAILABLE", "TYPE": "GENERAL ACUTE CARE", "STATUS": "OPEN", "POPULATION": 359, "COUNTY": "OAKLAND", "COUNTYFIPS": "26125", "COUNTRY": "USA", "LATITUDE": 42.457777708000002, "LONGITUDE": -83.20513134, "NAICS_CODE": "622110", "NAICS_DESC": "GENERAL MEDICAL AND SURGICAL HOSPITALS", "SOURCE": "https://w2.lara.state.mi.us/VAL/License/Search", "SOURCEDATE": "2018-08-09T00:00:00.000Z", "VAL_METHOD": "IMAGERY", "VAL_DATE": "2014-02-10T00:00:00.000Z", "WEBSITE": "http://www.stjohnprovidence.org/providence-providence-park-hospital", "STATE_ID": "NOT AVAILABLE", "ALT_NAME": "NOT AVAILABLE", "ST_FIPS": "26", "OWNER": "NON-PROFIT", "TTL_STAFF": -999, "BEDS": 359, "TRAUMA": "LEVEL II", "HELIPAD": "Y" }, "geometry": { "type": "Polygon", "coordinates": [ [ [ -83.2168816, 42.357526899999989 ], [ -83.2188932, 42.3578112 ], [ -83.3239652, 42.441868400000018 ], [ -83.369796500000021, 42.498907 ], [ -83.3475737, 42.523563200000034 ], [ -83.284843, 42.54607849999995 ], [ -83.210256, 42.544858699999985 ], [ -83.1152335, 42.53350839999996 ], [ -83.0494126, 42.487287600000023 ], [ -83.1036035, 42.3893392 ], [ -83.2168816, 42.357526899999989 ] ] ] } },
{ "type": "Feature", "properties": { "OBJECTID": 5620, "ID": "0012848060", "NAME": "MCLAREN PORT HURON", "ADDRESS": "1221 PINE GROVE AVE", "CITY": "PORT HURON", "STATE": "MI", "ZIP": "48060", "ZIP4": "NOT AVAILABLE", "TELEPHONE": "NOT AVAILABLE", "TYPE": "GENERAL ACUTE CARE", "STATUS": "OPEN", "POPULATION": 186, "COUNTY": "ST. CLAIR", "COUNTYFIPS": "26147", "COUNTRY": "USA", "LATITUDE": 42.98687104, "LONGITUDE": -82.429629625000004, "NAICS_CODE": "622110", "NAICS_DESC": "GENERAL MEDICAL AND SURGICAL HOSPITALS", "SOURCE": "https://w2.lara.state.mi.us/VAL/License/Search", "SOURCEDATE": "2018-08-09T00:00:00.000Z", "VAL_METHOD": "IMAGERY", "VAL_DATE": "2014-03-12T00:00:00.000Z", "WEBSITE": "http://www.mclaren.org/porthuron/porthuron.aspx", "STATE_ID": "NOT AVAILABLE", "ALT_NAME": "PORT HURON HOSPITAL", "ST_FIPS": "26", "OWNER": "NON-PROFIT", "TTL_STAFF": -999, "BEDS": 186, "TRAUMA": "LEVEL III", "HELIPAD": "Y" }, "geometry": { "type": "Polygon", "coordinates": [ [ [ -82.5075754, 42.906386800000028 ], [ -82.5972502, 42.98242650000001 ], [ -82.5977198, 42.982831300000029 ], [ -82.588918, 42.992116 ], [ -82.468803099999988, 43.073858399999949 ], [ -82.458027, 43.061382 ], [ -82.426389, 43.015570100000033 ], [ -82.4238699, 43.009086199999985 ], [ -82.422328, 43.004752 ], [ -82.4187417, 42.974507300000056 ], [ -82.422171100000014, 42.96753990000002 ], [ -82.425945, 42.961469 ], [ -82.427832, 42.958607 ], [ -82.4293143, 42.956553099999958 ], [ -82.4703, 42.9078444 ], [ -82.5075754, 42.906386800000028 ] ] ] } },
{ "type": "Feature", "properties": { "OBJECTID": 5622, "ID": "0015248184", "NAME": "BEAUMONT HOSPITAL WAYNE", "ADDRESS": "33155 ANNAPOLIS AVE", "CITY": "WAYNE", "STATE": "MI", "ZIP": "48184", "ZIP4": "NOT AVAILABLE", "TELEPHONE": "NOT AVAILABLE", "TYPE": "GENERAL ACUTE CARE", "STATUS": "OPEN", "POPULATION": 185, "COUNTY": "WAYNE", "COUNTYFIPS": "26163", "COUNTRY": "USA", "LATITUDE": 42.273032785000098, "LONGITUDE": -83.364405134999998, "NAICS_CODE": "622110", "NAICS_DESC": "GENERAL MEDICAL AND SURGICAL HOSPITALS", "SOURCE": "https://w2.lara.state.mi.us/VAL/License/Search", "SOURCEDATE": "2018-08-09T00:00:00.000Z", "VAL_METHOD": "IMAGERY", "VAL_DATE": "2014-02-10T00:00:00.000Z", "WEBSITE": "https://www.oakwood.org/beaumont-hospital-wayne", "STATE_ID": "NOT AVAILABLE", "ALT_NAME": "OAKWOOD ANNAPOLIS HOSPITAL", "ST_FIPS": "26", "OWNER": "NON-PROFIT", "TTL_STAFF": -999, "BEDS": 185, "TRAUMA": "LEVEL III", "HELIPAD": "N" }, "geometry": { "type": "Polygon", "coordinates": [ [ [ -83.3827578, 42.1941911 ], [ -83.4393114, 42.214573400000042 ], [ -83.453343, 42.221194 ], [ -83.4797297, 42.2487021 ], [ -83.487323, 42.271703 ], [ -83.4873435, 42.2719937 ], [ -83.485673, 42.276808 ], [ -83.4431323, 42.325101399999966 ], [ -83.3858047, 42.350650300000027 ], [ -83.3520616, 42.360035199999984 ], [ -83.3120089, 42.337097499999977 ], [ -83.255373, 42.303592 ], [ -83.2210682, 42.264228300000028 ], [ -83.32591, 42.195523 ], [ -83.3688836, 42.193369599999969 ], [ -83.3827578, 42.1941911 ] ] ] } },
{ "type": "Feature", "properties": { "OBJECTID": 5623, "ID": "0015448192", "NAME": "HENRY FORD WYANDOTTE HOSPITAL", "ADDRESS": "2333 BIDDLE AVE", "CITY": "WYANDOTTE", "STATE": "MI", "ZIP": "48192", "ZIP4": "NOT AVAILABLE", "TELEPHONE": "NOT AVAILABLE", "TYPE": "GENERAL ACUTE CARE", "STATUS": "OPEN", "POPULATION": 345, "COUNTY": "WAYNE", "COUNTYFIPS": "26163", "COUNTRY": "USA", "LATITUDE": 42.210161306000003, "LONGITUDE": -83.147127308999998, "NAICS_CODE": "622110", "NAICS_DESC": "GENERAL MEDICAL AND SURGICAL HOSPITALS", "SOURCE": "https://w2.lara.state.mi.us/VAL/License/Search", "SOURCEDATE": "2018-08-09T00:00:00.000Z", "VAL_METHOD": "IMAGERY", "VAL_DATE": "2014-02-10T00:00:00.000Z", "WEBSITE": "http://www.henryfordhealth.org", "STATE_ID": "NOT AVAILABLE", "ALT_NAME": "NOT AVAILABLE", "ST_FIPS": "26", "OWNER": "NON-PROFIT", "TTL_STAFF": -999, "BEDS": 345, "TRAUMA": "LEVEL III", "HELIPAD": "Y" }, "geometry": { "type": "Polygon", "coordinates": [ [ [ -83.1950631, 42.1354691 ], [ -83.2439814, 42.164826199999986 ], [ -83.264048, 42.197653 ], [ -83.263336, 42.212117 ], [ -83.21182, 42.260638 ], [ -83.188711, 42.271323 ], [ -83.183073, 42.273557 ], [ -83.1505554, 42.281881200000029 ], [ -83.1312534, 42.283244900000035 ], [ -83.127596, 42.28186 ], [ -83.124712, 42.270523 ], [ -83.138654, 42.150949 ], [ -83.157603, 42.138134 ], [ -83.1950631, 42.1354691 ] ] ] } },
{ "type": "Feature", "properties": { "OBJECTID": 5625, "ID": "0015748180", "NAME": "BEAUMONT HOSPITAL TAYLOR", "ADDRESS": "10000 TELEGRAPH ROAD", "CITY": "TAYLOR", "STATE": "MI", "ZIP": "48180", "ZIP4": "NOT AVAILABLE", "TELEPHONE": "NOT AVAILABLE", "TYPE": "GENERAL ACUTE CARE", "STATUS": "OPEN", "POPULATION": 151, "COUNTY": "WAYNE", "COUNTYFIPS": "26163", "COUNTRY": "USA", "LATITUDE": 42.235190318000001, "LONGITUDE": -83.276433494999907, "NAICS_CODE": "622110", "NAICS_DESC": "GENERAL MEDICAL AND SURGICAL HOSPITALS", "SOURCE": "https://w2.lara.state.mi.us/VAL/License/Search", "SOURCEDATE": "2018-08-09T00:00:00.000Z", "VAL_METHOD": "IMAGERY", "VAL_DATE": "2014-03-12T00:00:00.000Z", "WEBSITE": "https://www.oakwood.org/beaumont-hospital-taylor", "STATE_ID": "NOT AVAILABLE", "ALT_NAME": "OAKWOOD HERITAGE HOSPITAL", "ST_FIPS": "26", "OWNER": "NON-PROFIT", "TTL_STAFF": -999, "BEDS": 151, "TRAUMA": "NOT AVAILABLE", "HELIPAD": "Y" }, "geometry": { "type": "Polygon", "coordinates": [ [ [ -83.2420469, 42.141543900000016 ], [ -83.2661401, 42.145318600000024 ], [ -83.325196, 42.171995 ], [ -83.421711, 42.221041 ], [ -83.4182287, 42.228583 ], [ -83.389736, 42.259136 ], [ -83.3494894, 42.2855137 ], [ -83.329724, 42.297642 ], [ -83.310732, 42.308788 ], [ -83.2726197, 42.330885100000025 ], [ -83.1697093, 42.314958899999979 ], [ -83.1761896, 42.249978 ], [ -83.190541, 42.213691 ], [ -83.22034, 42.169757 ], [ -83.2420469, 42.141543900000016 ] ] ] } },
{ "type": "Feature", "properties": { "OBJECTID": 5626, "ID": "0015848201", "NAME": "KARMANOS CANCER CENTER", "ADDRESS": "4100 JOHN R", "CITY": "DETROIT", "STATE": "MI", "ZIP": "48201", "ZIP4": "NOT AVAILABLE", "TELEPHONE": "NOT AVAILABLE", "TYPE": "GENERAL ACUTE CARE", "STATUS": "OPEN", "POPULATION": 123, "COUNTY": "WAYNE", "COUNTYFIPS": "26163", "COUNTRY": "USA", "LATITUDE": 42.350720289000002, "LONGITUDE": -83.056627414999994, "NAICS_CODE": "622110", "NAICS_DESC": "GENERAL MEDICAL AND SURGICAL HOSPITALS", "SOURCE": "https://w2.lara.state.mi.us/VAL/License/Search", "SOURCEDATE": "2018-08-09T00:00:00.000Z", "VAL_METHOD": "IMAGERY", "VAL_DATE": "2014-02-10T00:00:00.000Z", "WEBSITE": "http://www.karmanos.org", "STATE_ID": "NOT AVAILABLE", "ALT_NAME": "NOT AVAILABLE", "ST_FIPS": "26", "OWNER": "NON-PROFIT", "TTL_STAFF": -999, "BEDS": 123, "TRAUMA": "NOT AVAILABLE", "HELIPAD": "N" }, "geometry": { "type": "Polygon", "coordinates": [ [ [ -83.1568123, 42.277161700000022 ], [ -83.158326, 42.278081 ], [ -83.179514, 42.301628 ], [ -83.1806596, 42.3029678 ], [ -83.2110759, 42.378868899999929 ], [ -83.1101571, 42.471639199999963 ], [ -82.9408041, 42.414690399999941 ], [ -82.944127, 42.40685 ], [ -82.985323899999983, 42.335160099999989 ], [ -82.9868204, 42.33458049999998 ], [ -83.0991368, 42.294343600000012 ], [ -83.1568123, 42.277161700000022 ] ] ] } },
{ "type": "Feature", "properties": { "OBJECTID": 5627, "ID": "0005448446", "NAME": "MCLAREN LAPEER REGION", "ADDRESS": "1375 N MAIN ST", "CITY": "LAPEER", "STATE": "MI", "ZIP": "48446", "ZIP4": "NOT AVAILABLE", "TELEPHONE": "NOT AVAILABLE", "TYPE": "GENERAL ACUTE CARE", "STATUS": "OPEN", "POPULATION": 183, "COUNTY": "LAPEER", "COUNTYFIPS": "26087", "COUNTRY": "USA", "LATITUDE": 43.06298745, "LONGITUDE": -83.320370743999902, "NAICS_CODE": "622110", "NAICS_DESC": "GENERAL MEDICAL AND SURGICAL HOSPITALS", "SOURCE": "https://w2.lara.state.mi.us/VAL/License/Search", "SOURCEDATE": "2018-08-09T00:00:00.000Z", "VAL_METHOD": "IMAGERY", "VAL_DATE": "2014-02-10T00:00:00.000Z", "WEBSITE": "http://www.lapeerregional.org", "STATE_ID": "NOT AVAILABLE", "ALT_NAME": "NOT AVAILABLE", "ST_FIPS": "26", "OWNER": "NON-PROFIT", "TTL_STAFF": -999, "BEDS": 183, "TRAUMA": "LEVEL II", "HELIPAD": "Y" }, "geometry": { "type": "Polygon", "coordinates": [ [ [ -83.314421, 42.950668 ], [ -83.439895, 43.013402 ], [ -83.449157, 43.019203 ], [ -83.385004, 43.099694 ], [ -83.311648, 43.160916 ], [ -83.219495, 43.090182 ], [ -83.207704, 43.061442 ], [ -83.211382, 43.007134 ], [ -83.3137516, 42.950674899999967 ], [ -83.314421, 42.950668 ] ] ] } },
{ "type": "Feature", "properties": { "OBJECTID": 3830, "ID": "0016748230", "NAME": "SELECT SPECIALTY HOSPITAL - GROSSE POINTE", "ADDRESS": "468 CADIEUX RD, 3 NORTHEAST", "CITY": "GROSSE POINTE", "STATE": "MI", "ZIP": "48230", "ZIP4": "NOT AVAILABLE", "TELEPHONE": "NOT AVAILABLE", "TYPE": "LONG TERM CARE", "STATUS": "CLOSED", "POPULATION": 30, "COUNTY": "WAYNE", "COUNTYFIPS": "26163", "COUNTRY": "USA", "LATITUDE": 42.384037982000102, "LONGITUDE": -82.914793934000002, "NAICS_CODE": "622310", "NAICS_DESC": "EXTENDED CARE HOSPITALS (EXCEPT MENTAL, SUBSTANCE ABUSE)", "SOURCE": "http://www.michigan.gov/lara/0,4601,7-154-35299_63294_63302---,00.html", "SOURCEDATE": "2013-05-01T00:00:00.000Z", "VAL_METHOD": "IMAGERY/OTHER", "VAL_DATE": "2019-04-16T00:00:00.000Z", "WEBSITE": "http://www.selectspecialtyhospitals.com/company/locations/grossep ointe.aspx", "STATE_ID": "NOT AVAILABLE", "ALT_NAME": "NOT AVAILABLE", "ST_FIPS": "26", "OWNER": "PROPRIETARY", "TTL_STAFF": -999, "BEDS": 30, "TRAUMA": "NOT AVAILABLE", "HELIPAD": "N" }, "geometry": { "type": "Polygon", "coordinates": [ [ [ -83.000635500000016, 42.345403800000014 ], [ -83.0049643, 42.345867299999981 ], [ -83.0086855, 42.390839 ], [ -82.999632, 42.406558 ], [ -82.97271, 42.435208 ], [ -82.971642, 42.4361 ], [ -82.965689, 42.440968 ], [ -82.9430479, 42.45127370000003 ], [ -82.9375569, 42.453701 ], [ -82.9250545, 42.458751899999982 ], [ -82.9083359, 42.4648402 ], [ -82.873396, 42.449927 ], [ -82.8745421, 42.4416866 ], [ -82.876385, 42.433494 ], [ -82.876627, 42.43269 ], [ -82.888135, 42.400043 ], [ -82.888393, 42.399342 ], [ -82.88921, 42.397207 ], [ -82.889486, 42.396515 ], [ -82.88983, 42.39577 ], [ -82.890111, 42.395245 ], [ -82.891111, 42.393611 ], [ -82.8914072, 42.39313460000001 ], [ -82.8917502, 42.392636599999982 ], [ -82.8930737, 42.39081 ], [ -82.8971411, 42.386156499999984 ], [ -82.926542, 42.362678 ], [ -82.9289331, 42.3612634 ], [ -82.9350685, 42.3582763 ], [ -83.000635500000016, 42.345403800000014 ] ] ] } }
]
}
