{
"type": "FeatureCollection",
"crs": { "type": "name", "properties": { "name": "urn:ogc:def:crs:OGC:1.3:CRS84" } },
"features": [
{ "type": "Feature", "properties": { "OBJECTID": 1447, "ID": "0007157059", "NAME": "LANDMANN-JUNGMAN MEMORIAL HOSPITAL", "ADDRESS": "600 BILLARS STREET", "CITY": "SCOTLAND", "STATE": "SD", "ZIP": "57059", "ZIP4": "NOT AVAILABLE", "TELEPHONE": "(605) 583-2226", "TYPE": "CRITICAL ACCESS", "STATUS": "OPEN", "POPULATION": 25, "COUNTY": "BON HOMME", "COUNTYFIPS": "46009", "COUNTRY": "USA", "LATITUDE": 43.14903616, "LONGITUDE": -97.729045241999998, "NAICS_CODE": "622110", "NAICS_DESC": "GENERAL MEDICAL AND SURGICAL HOSPITALS", "SOURCE": "https://apps.sd.gov/ph04lassnet/rptPH04LicenseList.Aspx", "SOURCEDATE": "2018-08-10T00:00:00.000Z", "VAL_METHOD": "IMAGERY", "VAL_DATE": "2014-02-10T00:00:00.000Z", "WEBSITE": "http://www.ljmh.org", "STATE_ID": "NOT AVAILABLE", "ALT_NAME": "NOT AVAILABLE", "ST_FIPS": "46", "OWNER": "NON-PROFIT", "TTL_STAFF": -999, "BEDS": 25, "TRAUMA": "TRH", "HELIPAD": "Y" }, "geometry": { "type": "Polygon", "coordinates": [ [ [ -97.714476491707572, 43.053860389827584 ], [ -97.734233480354078, 43.053856415102494 ], [ -97.792925429548433, 43.082884561283493 ], [ -97.853598340576738, 43.151475915925154 ], [ -97.853731329938128, 43.155037931002447 ], [ -97.795097988921867, 43.198178943678947 ], [ -97.637495160116842, 43.168770539802679 ], [ -97.650262432020853, 43.08224537055311 ], [ -97.676022861509367, 43.068102973721572 ], [ -97.714476491707572, 43.053860389827584 ] ] ] } },
{ "type": "Feature", "properties": { "OBJECTID": 1623, "ID": "0093251246", "NAME": "SANFORD ROCK RAPIDS MEDICAL CENTER", "ADDRESS": "801 SOUTH GREENE STREET", "CITY": "ROCK RAPIDS", "STATE": "IA", "ZIP": "51246", "ZIP4": "NOT AVAILABLE", "TELEPHONE": "(712) 472-2552", "TYPE": "CRITICAL ACCESS", "STATUS": "OPEN", "POPULATION": 25, "COUNTY": "LYON", "COUNTYFIPS": "19119", "COUNTRY": "USA", "LATITUDE": 43.423830007, "LONGITUDE": -96.171989592000003, "NAICS_CODE": "622110", "NAICS_DESC": "GENERAL MEDICAL AND SURGICAL HOSPITALS", "SOURCE": "https://dia-hfd.iowa.gov/DIA_HFD/CTLEntitySearch.do", "SOURCEDATE": "2018-08-09T00:00:00.000Z", "VAL_METHOD": "IMAGERY/OTHER", "VAL_DATE": "2016-04-15T00:00:00.000Z", "WEBSITE": "http://www.sanfordmerrill.org", "STATE_ID": "NOT AVAILABLE", "ALT_NAME": "NOT AVAILABLE", "ST_FIPS": "19", "OWNER": "NOT AVAILABLE", "TTL_STAFF": -999, "BEDS": 25, "TRAUMA": "LEVEL IV", "HELIPAD": "Y" }, "geometry": { "type": "Polygon", "coordinates": [ [ [ -96.1771134, 43.305613799999954 ], [ -96.178941, 43.30564 ], [ -96.2339924, 43.346217800000026 ], [ -96.3240186, 43.4330149 ], [ -96.3240022, 43.434424300000011 ], [ -96.221406, 43.500261 ], [ -96.1927609, 43.5078293 ], [ -96.1529537, 43.514743300000028 ], [ -96.096067, 43.476589 ], [ -96.0380071, 43.4327365 ], [ -96.1771134, 43.305613799999954 ] ] ] } },
{ "type": "Feature", "properties": { "OBJECTID": 1722, "ID": "0004157570", "NAME": "ROSEBUD HOSPITAL", "ADDRESS": "BIA ROUTE 1, SOLDER CREEK ROAD", "CITY": "ROSEBUD", "STATE": "SD", "ZIP": "57570", "ZIP4": "NOT AVAILABLE", "TELEPHONE": "(605) 747-2231", "TYPE": "CRITICAL ACCESS", "STATUS": "OPEN", "POPULATION": 35, "COUNTY": "TODD", "COUNTYFIPS": "46121", "COUNTRY": "USA", "LATITUDE": 43.256742970000097, "LONGITUDE": -100.850609719, "NAICS_CODE": "622110", "NAICS_DESC": "GENERAL MEDICAL AND SURGICAL HOSPITALS", "SOURCE": "https://www.ihs.gov/findhealthcare/", "SOURCEDATE": "2018-09-27T00:00:00.000Z", "VAL_METHOD": "IMAGERY/OTHER", "VAL_DATE": "2018-05-08T00:00:00.000Z", "WEBSITE": "https://www.ihs.gov/greatplains/healthcarefacilities/rosebud/", "STATE_ID": "NOT AVAILABLE", "ALT_NAME": "NOT AVAILABLE", "ST_FIPS": "46", "OWNER": "GOVERNMENT - FEDERAL", "TTL_STAFF": -999, "BEDS": 35, "TRAUMA": "NOT AVAILABLE", "HELIPAD": "Y" }, "geometry": { "type": "Polygon", "coordinates": [ [ [ -100.904387, 43.183569 ], [ -100.914307, 43.208769 ], [ -100.916229, 43.215004 ], [ -100.925474, 43.267407 ], [ -100.888328, 43.337161 ], [ -100.728669, 43.302915799999973 ], [ -100.788791, 43.201665 ], [ -100.904387, 43.183569 ] ] ] } },
{ "type": "Feature", "properties": { "OBJECTID": 1878, "ID": "0001151201", "NAME": "SANFORD SHELDON MEDICAL CENTER", "ADDRESS": "118 NORTH 7TH AVENUE", "CITY": "SHELDON", "STATE": "IA", "ZIP": "51201", "ZIP4": "NOT AVAILABLE", "TELEPHONE": "(712) 324-5041", "TYPE": "CRITICAL ACCESS", "STATUS": "OPEN", "POPULATION": 25, "COUNTY": "O'BRIEN", "COUNTYFIPS": "19141", "COUNTRY": "USA", "LATITUDE": 43.187118616000099, "LONGITUDE": -95.84643707, "NAICS_CODE": "622110", "NAICS_DESC": "GENERAL MEDICAL AND SURGICAL HOSPITALS", "SOURCE": "https://dia-hfd.iowa.gov/DIA_HFD/CTLEntitySearch.do", "SOURCEDATE": "2018-08-09T00:00:00.000Z", "VAL_METHOD": "IMAGERY", "VAL_DATE": "2016-04-18T00:00:00.000Z", "WEBSITE": "http://www.sanfordsheldon.org", "STATE_ID": "NOT AVAILABLE", "ALT_NAME": "NOT AVAILABLE", "ST_FIPS": "19", "OWNER": "NON-PROFIT", "TTL_STAFF": -999, "BEDS": 25, "TRAUMA": "LEVEL IV", "HELIPAD": "Y" }, "geometry": { "type": "Polygon", "coordinates": [ [ [ -95.900324502603539, 43.061788222043944 ], [ -95.900996201147237, 43.062241621850937 ], [ -95.909708378780181, 43.069102419050957 ], [ -96.009506729215133, 43.186197034874617 ], [ -96.00725691432568, 43.189829830411938 ], [ -96.005909409085902, 43.190895727924421 ], [ -95.921888032128223, 43.244149830219818 ], [ -95.786816, 43.305724 ], [ -95.7848003, 43.3038253 ], [ -95.7841217, 43.3031225 ], [ -95.7827008, 43.301497800000014 ], [ -95.683456834778994, 43.186066279024914 ], [ -95.801887347192434, 43.113189352038155 ], [ -95.86027752361673, 43.077639403718472 ], [ -95.900324502603539, 43.061788222043944 ] ] ] } },
{ "type": "Feature", "properties": { "OBJECTID": 2038, "ID": "0017351250", "NAME": "SIOUX CENTER HEALTH", "ADDRESS": "1101 9TH ST SE", "CITY": "SIOUX CENTER", "STATE": "IA", "ZIP": "51250", "ZIP4": "NOT AVAILABLE", "TELEPHONE": "(712) 722-8107", "TYPE": "CRITICAL ACCESS", "STATUS": "OPEN", "POPULATION": 21, "COUNTY": "SIOUX", "COUNTYFIPS": "19167", "COUNTRY": "USA", "LATITUDE": 43.068493037000103, "LONGITUDE": -96.15806865, "NAICS_CODE": "622110", "NAICS_DESC": "GENERAL MEDICAL AND SURGICAL HOSPITALS", "SOURCE": "https://dia-hfd.iowa.gov/DIA_HFD/CTLEntitySearch.do", "SOURCEDATE": "2018-08-09T00:00:00.000Z", "VAL_METHOD": "IMAGERY/OTHER", "VAL_DATE": "2016-04-18T00:00:00.000Z", "WEBSITE": "http://siouxcenterhealth.org/", "STATE_ID": "NOT AVAILABLE", "ALT_NAME": "NOT AVAILABLE", "ST_FIPS": "19", "OWNER": "NON-PROFIT", "TTL_STAFF": -999, "BEDS": 21, "TRAUMA": "NOT AVAILABLE", "HELIPAD": "Y" }, "geometry": { "type": "Polygon", "coordinates": [ [ [ -96.1799196, 42.964600400000016 ], [ -96.1813352, 42.9646015 ], [ -96.182695800000019, 42.965615200000038 ], [ -96.253762854738724, 43.026300775876344 ], [ -96.293800505619288, 43.084081988455239 ], [ -96.197340709181219, 43.156780179096188 ], [ -96.177355060398355, 43.171235134775493 ], [ -96.137569083336714, 43.18577315741824 ], [ -95.997930613223971, 43.070138433744404 ], [ -96.056741271131955, 43.022963661527861 ], [ -96.175357, 42.96502590000005 ], [ -96.1799196, 42.964600400000016 ] ] ] } },
{ "type": "Feature", "properties": { "OBJECTID": 2350, "ID": "0006657369", "NAME": "PLATTE HEALTH CENTER", "ADDRESS": "601 EAST 7TH STREET", "CITY": "PLATTE", "STATE": "SD", "ZIP": "57369", "ZIP4": "NOT AVAILABLE", "TELEPHONE": "(605) 337-3364", "TYPE": "CRITICAL ACCESS", "STATUS": "OPEN", "POPULATION": 17, "COUNTY": "CHARLES MIX", "COUNTYFIPS": "46023", "COUNTRY": "USA", "LATITUDE": 43.384647676999997, "LONGITUDE": -98.836156441999904, "NAICS_CODE": "622110", "NAICS_DESC": "GENERAL MEDICAL AND SURGICAL HOSPITALS", "SOURCE": "https://apps.sd.gov/ph04lassnet/rptPH04LicenseList.Aspx", "SOURCEDATE": "2018-08-10T00:00:00.000Z", "VAL_METHOD": "IMAGERY", "VAL_DATE": "2014-03-12T00:00:00.000Z", "WEBSITE": "http://www.phcavera.org", "STATE_ID": "NOT AVAILABLE", "ALT_NAME": "NOT AVAILABLE", "ST_FIPS": "46", "OWNER": "NON-PROFIT", "TTL_STAFF": -999, "BEDS": 17, "TRAUMA": "TRH", "HELIPAD": "Y" }, "geometry": { "type": "Polygon", "coordinates": [ [ [ -98.844392, 43.297958 ], [ -98.883991, 43.312408 ], [ -98.904113, 43.327112 ], [ -98.963251, 43.371098 ], [ -98.963196, 43.385177 ], [ -98.963112, 43.400867 ], [ -98.845264, 43.485764 ], [ -98.766184, 43.44233 ], [ -98.685359, 43.384450100000016 ], [ -98.706847, 43.366339 ], [ -98.766748, 43.322628 ], [ -98.844392, 43.297958 ] ] ] } },
{ "type": "Feature", "properties": { "OBJECTID": 2354, "ID": "0002157362", "NAME": "AVERA HAND COUNTY MEMORIAL HOSPITAL AND CLINIC", "ADDRESS": "300 WEST 5TH STREET", "CITY": "MILLER", "STATE": "SD", "ZIP": "57362", "ZIP4": "NOT AVAILABLE", "TELEPHONE": "(605) 853-2421", "TYPE": "CRITICAL ACCESS", "STATUS": "OPEN", "POPULATION": 11, "COUNTY": "HAND", "COUNTYFIPS": "46059", "COUNTRY": "USA", "LATITUDE": 44.520054120000097, "LONGITUDE": -98.992282188000004, "NAICS_CODE": "622110", "NAICS_DESC": "GENERAL MEDICAL AND SURGICAL HOSPITALS", "SOURCE": "https://apps.sd.gov/ph04lassnet/rptPH04LicenseList.Aspx", "SOURCEDATE": "2018-08-10T00:00:00.000Z", "VAL_METHOD": "IMAGERY", "VAL_DATE": "2014-02-10T00:00:00.000Z", "WEBSITE": "http://www.avera.org", "STATE_ID": "NOT AVAILABLE", "ALT_NAME": "NOT AVAILABLE", "ST_FIPS": "46", "OWNER": "NON-PROFIT", "TTL_STAFF": -999, "BEDS": 11, "TRAUMA": "TRH", "HELIPAD": "N" }, "geometry": { "type": "Polygon", "coordinates": [ [ [ -98.983402, 44.414138 ], [ -99.124993, 44.530087 ], [ -99.008991, 44.620031 ], [ -98.96837, 44.620011 ], [ -98.843108, 44.515226 ], [ -98.8431963, 44.5102927 ], [ -98.983402, 44.414138 ] ] ] } },
{ "type": "Feature", "properties": { "OBJECTID": 2448, "ID": "0007957105", "NAME": "SELECT SPECIALTY HOSPITAL - SIOUX FALLS", "ADDRESS": "1305 WEST 18TH STREET", "CITY": "SIOUX FALLS", "STATE": "SD", "ZIP": "57105", "ZIP4": "1016", "TELEPHONE": "(605) 312-9520", "TYPE": "LONG TERM CARE", "STATUS": "OPEN", "POPULATION": 24, "COUNTY": "MINNEHAHA", "COUNTYFIPS": "46099", "COUNTRY": "USA", "LATITUDE": 43.535401968000002, "LONGITUDE": -96.743228971999898, "NAICS_CODE": "622310", "NAICS_DESC": "SPECIALTY (EXCEPT PSYCHIATRIC AND SUBSTANCE ABUSE) HOSPITALS", "SOURCE": "https://apps.sd.gov/ph04lassnet/rptPH04LicenseList.Aspx", "SOURCEDATE": "2018-08-10T00:00:00.000Z", "VAL_METHOD": "IMAGERY/OTHER", "VAL_DATE": "2016-11-11T00:00:00.000Z", "WEBSITE": "http://southdakota.selectspecialtyhospitals.com/", "STATE_ID": "NOT AVAILABLE", "ALT_NAME": "NOT AVAILABLE", "ST_FIPS": "46", "OWNER": "PROPRIETARY", "TTL_STAFF": -999, "BEDS": 24, "TRAUMA": "NOT AVAILABLE", "HELIPAD": "Y" }, "geometry": { "type": "Polygon", "coordinates": [ [ [ -96.7285981, 43.443073299999973 ], [ -96.767359, 43.446255 ], [ -96.7981352, 43.454303800000019 ], [ -96.806392, 43.457760300000032 ], [ -96.812632, 43.461006 ], [ -96.8705527, 43.543662500000053 ], [ -96.870552, 43.544682 ], [ -96.870544, 43.54921 ], [ -96.850784300000015, 43.572746800000012 ], [ -96.7770122, 43.6453406 ], [ -96.7724383, 43.6488818 ], [ -96.7614005, 43.6453894 ], [ -96.6913846, 43.621550900000031 ], [ -96.6606348, 43.607744199999978 ], [ -96.6067872, 43.527312100000017 ], [ -96.60711, 43.526999500000024 ], [ -96.648932, 43.494652299999984 ], [ -96.7276613, 43.443167 ], [ -96.7285981, 43.443073299999973 ] ] ] } },
{ "type": "Feature", "properties": { "OBJECTID": 2811, "ID": "0002451041", "NAME": "ORANGE CITY MUNICIPAL HOSPITAL", "ADDRESS": "403 N CENTRAL AVE", "CITY": "ORANGE CITY", "STATE": "IA", "ZIP": "51041", "ZIP4": "NOT AVAILABLE", "TELEPHONE": "(712) 737-4984", "TYPE": "GENERAL ACUTE CARE", "STATUS": "CLOSED", "POPULATION": 104, "COUNTY": "SIOUX", "COUNTYFIPS": "19167", "COUNTRY": "USA", "LATITUDE": 43.009606340000097, "LONGITUDE": -96.058861037, "NAICS_CODE": "622110", "NAICS_DESC": "GENERAL MEDICAL AND SURGICAL HOSPITALS", "SOURCE": "ftp://ftp.igsb.uiowa.edu/gis_library/IA_State/Infrastructure/", "SOURCEDATE": "2012-06-05T00:00:00.000Z", "VAL_METHOD": "IMAGERY", "VAL_DATE": "2016-04-19T00:00:00.000Z", "WEBSITE": "http://www.ochealthsystem.org", "STATE_ID": "NOT AVAILABLE", "ALT_NAME": "NOT AVAILABLE", "ST_FIPS": "19", "OWNER": "GOVERNMENT - LOCAL", "TTL_STAFF": -999, "BEDS": 104, "TRAUMA": "NOT AVAILABLE", "HELIPAD": "N" }, "geometry": { "type": "Polygon", "coordinates": [ [ [ -96.079229, 42.9094774 ], [ -96.079774, 42.9097551 ], [ -96.175507400000015, 42.9822107 ], [ -96.195200899999989, 42.997197200000016 ], [ -96.173343156237962, 43.026122808487294 ], [ -96.077423514964281, 43.113492576333144 ], [ -96.058086459824196, 43.127980535332085 ], [ -95.919389590882318, 43.040197036041654 ], [ -95.919276544634499, 43.025793943701125 ], [ -95.919272798567647, 43.011351751384822 ], [ -95.9386547, 42.982425400000011 ], [ -95.956473, 42.962331 ], [ -95.9974499, 42.939139399999966 ], [ -96.0562353, 42.91003 ], [ -96.079229, 42.9094774 ] ] ] } },
{ "type": "Feature", "properties": { "OBJECTID": 2816, "ID": "0002351023", "NAME": "HAWARDEN REGIONAL HEALTHCARE", "ADDRESS": "1111 11TH STREET", "CITY": "HAWARDEN", "STATE": "IA", "ZIP": "51023", "ZIP4": "NOT AVAILABLE", "TELEPHONE": "(712) 551-3103", "TYPE": "CRITICAL ACCESS", "STATUS": "OPEN", "POPULATION": 25, "COUNTY": "SIOUX", "COUNTYFIPS": "19167", "COUNTRY": "USA", "LATITUDE": 42.998574033000097, "LONGITUDE": -96.479848591000007, "NAICS_CODE": "622110", "NAICS_DESC": "GENERAL MEDICAL AND SURGICAL HOSPITALS", "SOURCE": "https://dia-hfd.iowa.gov/DIA_HFD/CTLEntitySearch.do", "SOURCEDATE": "2018-08-09T00:00:00.000Z", "VAL_METHOD": "IMAGERY", "VAL_DATE": "2016-04-18T00:00:00.000Z", "WEBSITE": "http://hawardenregionalhealthcare.com/", "STATE_ID": "NOT AVAILABLE", "ALT_NAME": "NOT AVAILABLE", "ST_FIPS": "19", "OWNER": "GOVERNMENT - LOCAL", "TTL_STAFF": -999, "BEDS": 25, "TRAUMA": "LEVEL IV", "HELIPAD": "Y" }, "geometry": { "type": "Polygon", "coordinates": [ [ [ -96.47002, 42.894729 ], [ -96.5169998, 42.895760699999975 ], [ -96.5366501, 42.916207399999948 ], [ -96.489453014123953, 43.051748257987157 ], [ -96.443602978376489, 43.083873434420667 ], [ -96.44276747980156, 43.083873633957815 ], [ -96.331604520586325, 43.011563278736965 ], [ -96.3128099, 42.997095099999974 ], [ -96.33173, 42.982172 ], [ -96.3514987, 42.967351199999975 ], [ -96.3714414, 42.952862700000018 ], [ -96.47002, 42.894729 ] ] ] } },
{ "type": "Feature", "properties": { "OBJECTID": 6078, "ID": "0000257029", "NAME": "FREEMAN REGIONAL HEALTH SERVICES", "ADDRESS": "510 EAST 8TH STREET", "CITY": "FREEMAN", "STATE": "SD", "ZIP": "57029", "ZIP4": "NOT AVAILABLE", "TELEPHONE": "(605) 925-4000", "TYPE": "CRITICAL ACCESS", "STATUS": "OPEN", "POPULATION": 25, "COUNTY": "HUTCHINSON", "COUNTYFIPS": "46067", "COUNTRY": "USA", "LATITUDE": 43.345163157000101, "LONGITUDE": -97.430184284999896, "NAICS_CODE": "622110", "NAICS_DESC": "GENERAL MEDICAL AND SURGICAL HOSPITALS", "SOURCE": "https://apps.sd.gov/ph04lassnet/rptPH04LicenseList.Aspx", "SOURCEDATE": "2018-08-10T00:00:00.000Z", "VAL_METHOD": "IMAGERY", "VAL_DATE": "2014-02-10T00:00:00.000Z", "WEBSITE": "http://www.freemanregional.com", "STATE_ID": "NOT AVAILABLE", "ALT_NAME": "NOT AVAILABLE", "ST_FIPS": "46", "OWNER": "NON-PROFIT", "TTL_STAFF": -999, "BEDS": 25, "TRAUMA": "TRH", "HELIPAD": "N" }, "geometry": { "type": "Polygon", "coordinates": [ [ [ -97.419204187551713, 43.241657415700203 ], [ -97.439046208222962, 43.241563414866619 ], [ -97.559661, 43.328139 ], [ -97.539909, 43.357052 ], [ -97.500108, 43.400467 ], [ -97.480479, 43.415108 ], [ -97.425951, 43.444069 ], [ -97.421028, 43.444081 ], [ -97.359711, 43.415257 ], [ -97.3397453, 43.400924300000014 ], [ -97.3197395, 43.37199080000002 ], [ -97.3196, 43.314011 ], [ -97.339212, 43.299463 ], [ -97.358763, 43.284978 ], [ -97.419204187551713, 43.241657415700203 ] ] ] } },
{ "type": "Feature", "properties": { "OBJECTID": 6083, "ID": "0000857325", "NAME": "SANFORD CHAMBERLAIN MEDICAL CENTER", "ADDRESS": "300 SOUTH BYRON BOULEVARD", "CITY": "CHAMBERLAIN", "STATE": "SD", "ZIP": "57325", "ZIP4": "NOT AVAILABLE", "TELEPHONE": "(605) 234-5511", "TYPE": "CRITICAL ACCESS", "STATUS": "OPEN", "POPULATION": 25, "COUNTY": "BRULE", "COUNTYFIPS": "46015", "COUNTRY": "USA", "LATITUDE": 43.786132588000001, "LONGITUDE": -99.324716128000006, "NAICS_CODE": "622110", "NAICS_DESC": "GENERAL MEDICAL AND SURGICAL HOSPITALS", "SOURCE": "https://apps.sd.gov/ph04lassnet/rptPH04LicenseList.Aspx", "SOURCEDATE": "2018-08-10T00:00:00.000Z", "VAL_METHOD": "IMAGERY", "VAL_DATE": "2014-03-12T00:00:00.000Z", "WEBSITE": "http://www.sanfordmiddakota.org", "STATE_ID": "NOT AVAILABLE", "ALT_NAME": "NOT AVAILABLE", "ST_FIPS": "46", "OWNER": "NON-PROFIT", "TTL_STAFF": -999, "BEDS": 25, "TRAUMA": "TRH", "HELIPAD": "Y" }, "geometry": { "type": "Polygon", "coordinates": [ [ [ -99.311551, 43.687735 ], [ -99.368902, 43.745177 ], [ -99.3448714, 43.814173400000051 ], [ -99.2991411, 43.847219900000013 ], [ -99.293492300000011, 43.847208600000037 ], [ -99.1821032, 43.7734726 ], [ -99.177751, 43.752915 ], [ -99.1771513, 43.7302065 ], [ -99.311551, 43.687735 ] ] ] } },
{ "type": "Feature", "properties": { "OBJECTID": 6086, "ID": "0007057013", "NAME": "SANFORD CANTON-INWOOD MEDICAL CENTER", "ADDRESS": "440 NORTH HIAWATHA DRIVE", "CITY": "CANTON", "STATE": "SD", "ZIP": "57013", "ZIP4": "NOT AVAILABLE", "TELEPHONE": "(605) 764-1400", "TYPE": "CRITICAL ACCESS", "STATUS": "OPEN", "POPULATION": 11, "COUNTY": "LINCOLN", "COUNTYFIPS": "46083", "COUNTRY": "USA", "LATITUDE": 43.304497843, "LONGITUDE": -96.557559773999998, "NAICS_CODE": "622110", "NAICS_DESC": "GENERAL MEDICAL AND SURGICAL HOSPITALS", "SOURCE": "https://apps.sd.gov/ph04lassnet/rptPH04LicenseList.Aspx", "SOURCEDATE": "2018-08-10T00:00:00.000Z", "VAL_METHOD": "IMAGERY", "VAL_DATE": "2014-02-10T00:00:00.000Z", "WEBSITE": "http://www.sanfordcantoninwood.org", "STATE_ID": "NOT AVAILABLE", "ALT_NAME": "CANTON-INWOOD MEMORIAL HOSPITAL", "ST_FIPS": "46", "OWNER": "NON-PROFIT", "TTL_STAFF": -999, "BEDS": 11, "TRAUMA": "TRH", "HELIPAD": "N" }, "geometry": { "type": "Polygon", "coordinates": [ [ [ -96.570010857993921, 43.22551227344556 ], [ -96.628584485384707, 43.228468076124145 ], [ -96.7281371, 43.3010562 ], [ -96.6486073, 43.358993300000023 ], [ -96.589015, 43.38791130000002 ], [ -96.5344714, 43.3587396 ], [ -96.5285528, 43.3240867 ], [ -96.5268791, 43.3074634 ], [ -96.570010857993921, 43.22551227344556 ] ] ] } },
{ "type": "Feature", "properties": { "OBJECTID": 6091, "ID": "0003557438", "NAME": "FAULKTON AREA MEDICAL CENTER", "ADDRESS": "1300 OAK STREET", "CITY": "FAULKTON", "STATE": "SD", "ZIP": "57438", "ZIP4": "NOT AVAILABLE", "TELEPHONE": "(605) 598-6262", "TYPE": "CRITICAL ACCESS", "STATUS": "OPEN", "POPULATION": 12, "COUNTY": "FAULK", "COUNTYFIPS": "46049", "COUNTRY": "USA", "LATITUDE": 45.030655716000098, "LONGITUDE": -99.132638372000002, "NAICS_CODE": "622110", "NAICS_DESC": "GENERAL MEDICAL AND SURGICAL HOSPITALS", "SOURCE": "https://apps.sd.gov/ph04lassnet/rptPH04LicenseList.Aspx", "SOURCEDATE": "2018-08-10T00:00:00.000Z", "VAL_METHOD": "IMAGERY", "VAL_DATE": "2014-02-10T00:00:00.000Z", "WEBSITE": "http://www.faulktonmedical.org", "STATE_ID": "NOT AVAILABLE", "ALT_NAME": "NOT AVAILABLE", "ST_FIPS": "46", "OWNER": "NON-PROFIT", "TTL_STAFF": -999, "BEDS": 12, "TRAUMA": "TRH", "HELIPAD": "Y" }, "geometry": { "type": "Polygon", "coordinates": [ [ [ -99.124209, 44.926146 ], [ -99.18546, 44.969788 ], [ -99.267506, 45.034913 ], [ -99.267508, 45.051638 ], [ -99.185584, 45.076057 ], [ -99.144796, 45.08567 ], [ -99.12426, 45.085599 ], [ -98.98119, 45.041939 ], [ -99.022173, 44.998526 ], [ -99.06286, 44.969604 ], [ -99.124209, 44.926146 ] ] ] } },
{ "type": "Feature", "properties": { "OBJECTID": 6096, "ID": "0005257262", "NAME": "COTEAU DES PRAIRIES HOSPITAL", "ADDRESS": "205 ORCHARD DRIVE", "CITY": "SISSETON", "STATE": "SD", "ZIP": "57262", "ZIP4": "NOT AVAILABLE", "TELEPHONE": "(605) 698-7647", "TYPE": "CRITICAL ACCESS", "STATUS": "OPEN", "POPULATION": 25, "COUNTY": "ROBERTS", "COUNTYFIPS": "46109", "COUNTRY": "USA", "LATITUDE": 45.657492177999998, "LONGITUDE": -97.050157182000007, "NAICS_CODE": "622110", "NAICS_DESC": "GENERAL MEDICAL AND SURGICAL HOSPITALS", "SOURCE": "https://apps.sd.gov/ph04lassnet/rptPH04LicenseList.Aspx", "SOURCEDATE": "2018-08-10T00:00:00.000Z", "VAL_METHOD": "IMAGERY", "VAL_DATE": "2014-03-12T00:00:00.000Z", "WEBSITE": "http://www.cdphospital.com", "STATE_ID": "NOT AVAILABLE", "ALT_NAME": "NOT AVAILABLE", "ST_FIPS": "46", "OWNER": "NON-PROFIT", "TTL_STAFF": -999, "BEDS": 25, "TRAUMA": "TRH", "HELIPAD": "Y" }, "geometry": { "type": "Polygon", "coordinates": [ [ [ -97.061672, 45.563285 ], [ -97.066965100000019, 45.566856499999979 ], [ -97.180188, 45.645119 ], [ -97.185371, 45.659749 ], [ -97.14413, 45.703662 ], [ -97.082178, 45.732456 ], [ -97.020218, 45.746899 ], [ -96.978522, 45.717979 ], [ -96.895604, 45.659652 ], [ -96.957887, 45.613305 ], [ -97.020469, 45.572843 ], [ -97.061672, 45.563285 ] ] ] } },
{ "type": "Feature", "properties": { "OBJECTID": 6112, "ID": "0001457226", "NAME": "SANFORD CLEAR LAKE MEDICAL CENTER", "ADDRESS": "701 3RD AVENUE SOUTH", "CITY": "CLEAR LAKE", "STATE": "SD", "ZIP": "57226", "ZIP4": "NOT AVAILABLE", "TELEPHONE": "(605) 874-2141", "TYPE": "CRITICAL ACCESS", "STATUS": "OPEN", "POPULATION": 10, "COUNTY": "DEUEL", "COUNTYFIPS": "46039", "COUNTRY": "USA", "LATITUDE": 44.754054380000099, "LONGITUDE": -96.684768868000006, "NAICS_CODE": "622110", "NAICS_DESC": "GENERAL MEDICAL AND SURGICAL HOSPITALS", "SOURCE": "https://apps.sd.gov/ph04lassnet/rptPH04LicenseList.Aspx", "SOURCEDATE": "2018-08-10T00:00:00.000Z", "VAL_METHOD": "IMAGERY/OTHER", "VAL_DATE": "2014-02-10T00:00:00.000Z", "WEBSITE": "http://www.sanforddeuelcounty.org", "STATE_ID": "NOT AVAILABLE", "ALT_NAME": "SANFORD DEUEL COUNTY MEDICAL CENTER", "ST_FIPS": "46", "OWNER": "NON-PROFIT", "TTL_STAFF": -999, "BEDS": 10, "TRAUMA": "TRH", "HELIPAD": "N" }, "geometry": { "type": "Polygon", "coordinates": [ [ [ -96.6828364, 44.645067799999978 ], [ -96.864973, 44.746586 ], [ -96.865009, 44.749975 ], [ -96.682501, 44.865505 ], [ -96.500603, 44.747187 ], [ -96.6828364, 44.645067799999978 ] ] ] } },
{ "type": "Feature", "properties": { "OBJECTID": 6123, "ID": "0007657042", "NAME": "MADISON REGIONAL HEALTH SYSTEM", "ADDRESS": "323 SW 10TH ST", "CITY": "MADISON", "STATE": "SD", "ZIP": "57042", "ZIP4": "NOT AVAILABLE", "TELEPHONE": "(605) 256-6551", "TYPE": "CRITICAL ACCESS", "STATUS": "OPEN", "POPULATION": 22, "COUNTY": "LAKE", "COUNTYFIPS": "46079", "COUNTRY": "USA", "LATITUDE": 43.991373039000102, "LONGITUDE": -97.11814234000001, "NAICS_CODE": "622110", "NAICS_DESC": "GENERAL MEDICAL AND SURGICAL HOSPITALS", "SOURCE": "https://apps.sd.gov/ph04lassnet/rptPH04LicenseList.Aspx", "SOURCEDATE": "2018-08-10T00:00:00.000Z", "VAL_METHOD": "IMAGERY", "VAL_DATE": "2016-11-09T00:00:00.000Z", "WEBSITE": "http://www.madisonregionalhealth.org/", "STATE_ID": "NOT AVAILABLE", "ALT_NAME": "NOT AVAILABLE", "ST_FIPS": "46", "OWNER": "NON-PROFIT", "TTL_STAFF": -999, "BEDS": 22, "TRAUMA": "NOT AVAILABLE", "HELIPAD": "Y" }, "geometry": { "type": "Polygon", "coordinates": [ [ [ -97.129067, 43.891577 ], [ -97.2688597, 44.007824 ], [ -97.129508, 44.108893 ], [ -97.009163, 44.02205 ], [ -96.989754, 44.007487 ], [ -96.9694201, 43.978703399999986 ], [ -97.014904, 43.939716 ], [ -97.069035, 43.906072 ], [ -97.129067, 43.891577 ] ] ] } },
{ "type": "Feature", "properties": { "OBJECTID": 6190, "ID": "0005957006", "NAME": "BROOKINGS HEALTH SYSTEM", "ADDRESS": "300 22ND AVENUE", "CITY": "BROOKINGS", "STATE": "SD", "ZIP": "57006", "ZIP4": "NOT AVAILABLE", "TELEPHONE": "(605) 696-9000", "TYPE": "GENERAL ACUTE CARE", "STATUS": "OPEN", "POPULATION": 49, "COUNTY": "BROOKINGS", "COUNTYFIPS": "46011", "COUNTRY": "USA", "LATITUDE": 44.307878307000102, "LONGITUDE": -96.766967248999904, "NAICS_CODE": "622110", "NAICS_DESC": "GENERAL MEDICAL AND SURGICAL HOSPITALS", "SOURCE": "https://apps.sd.gov/ph04lassnet/rptPH04LicenseList.Aspx", "SOURCEDATE": "2018-08-10T00:00:00.000Z", "VAL_METHOD": "IMAGERY", "VAL_DATE": "2014-03-12T00:00:00.000Z", "WEBSITE": "http://www.brookingshealth.org", "STATE_ID": "NOT AVAILABLE", "ALT_NAME": "NOT AVAILABLE", "ST_FIPS": "46", "OWNER": "GOVERNMENT - LOCAL", "TTL_STAFF": -999, "BEDS": 49, "TRAUMA": "TRH", "HELIPAD": "Y" }, "geometry": { "type": "Polygon", "coordinates": [ [ [ -96.7671044, 44.210025799999947 ], [ -96.7871888, 44.210079599999965 ], [ -96.807702, 44.224518 ], [ -96.8487384, 44.2538895 ], [ -96.928354, 44.323665 ], [ -96.928552, 44.326030799999941 ], [ -96.787508, 44.433946 ], [ -96.755791, 44.441814 ], [ -96.747153, 44.441849 ], [ -96.726991, 44.441548 ], [ -96.706844, 44.427048 ], [ -96.567336, 44.311255 ], [ -96.706528, 44.224547 ], [ -96.746709, 44.210172 ], [ -96.7671044, 44.210025799999947 ] ] ] } },
{ "type": "Feature", "properties": { "OBJECTID": 6205, "ID": "0000957380", "NAME": "WAGNER COMMUNITY MEMORIAL HOSPITAL", "ADDRESS": "513 3RD STREET SOUTHWEST", "CITY": "WAGNER", "STATE": "SD", "ZIP": "57380", "ZIP4": "NOT AVAILABLE", "TELEPHONE": "(605) 384-3611", "TYPE": "CRITICAL ACCESS", "STATUS": "OPEN", "POPULATION": 20, "COUNTY": "CHARLES MIX", "COUNTYFIPS": "46023", "COUNTRY": "USA", "LATITUDE": 43.078375149000102, "LONGITUDE": -98.302003228999993, "NAICS_CODE": "622110", "NAICS_DESC": "GENERAL MEDICAL AND SURGICAL HOSPITALS", "SOURCE": "https://apps.sd.gov/ph04lassnet/rptPH04LicenseList.Aspx", "SOURCEDATE": "2018-08-10T00:00:00.000Z", "VAL_METHOD": "IMAGERY", "VAL_DATE": "2014-02-10T00:00:00.000Z", "WEBSITE": "http://www.avera.org/wagnerhospital", "STATE_ID": "NOT AVAILABLE", "ALT_NAME": "NOT AVAILABLE", "ST_FIPS": "46", "OWNER": "NON-PROFIT", "TTL_STAFF": -999, "BEDS": 20, "TRAUMA": "TRH", "HELIPAD": "Y" }, "geometry": { "type": "Polygon", "coordinates": [ [ [ -98.288769, 42.99433 ], [ -98.303581, 42.994424 ], [ -98.387554490690945, 43.052956944504352 ], [ -98.427009842260603, 43.082059560111539 ], [ -98.426975617855746, 43.09657964283732 ], [ -98.387194746994581, 43.140088265045598 ], [ -98.347496702244854, 43.169152220827563 ], [ -98.287794707265491, 43.169001343594537 ], [ -98.207503781755648, 43.12512910947445 ], [ -98.16743452619319, 43.096515609027733 ], [ -98.147535847153563, 43.082244811213315 ], [ -98.187332886950415, 43.053969624146603 ], [ -98.288769, 42.99433 ] ] ] } },
{ "type": "Feature", "properties": { "OBJECTID": 6396, "ID": "0095351249", "NAME": "OSCEOLA COMMUNITY HOSPITAL", "ADDRESS": "600 9TH AVENUE NORTH", "CITY": "SIBLEY", "STATE": "IA", "ZIP": "51249", "ZIP4": "NOT AVAILABLE", "TELEPHONE": "(712) 754-2574", "TYPE": "CRITICAL ACCESS", "STATUS": "OPEN", "POPULATION": 25, "COUNTY": "OSCEOLA", "COUNTYFIPS": "19143", "COUNTRY": "USA", "LATITUDE": 43.410307890000098, "LONGITUDE": -95.743098532999994, "NAICS_CODE": "622110", "NAICS_DESC": "GENERAL MEDICAL AND SURGICAL HOSPITALS", "SOURCE": "https://dia-hfd.iowa.gov/DIA_HFD/CTLEntitySearch.do", "SOURCEDATE": "2018-08-09T00:00:00.000Z", "VAL_METHOD": "IMAGERY/OTHER", "VAL_DATE": "2016-04-18T00:00:00.000Z", "WEBSITE": "http://www.avera.org/osceola-community-hospital/", "STATE_ID": "NOT AVAILABLE", "ALT_NAME": "NOT AVAILABLE", "ST_FIPS": "19", "OWNER": "NOT AVAILABLE", "TTL_STAFF": -999, "BEDS": 25, "TRAUMA": "LEVEL IV", "HELIPAD": "Y" }, "geometry": { "type": "Polygon", "coordinates": [ [ [ -95.7980814, 43.286937800000018 ], [ -95.798559, 43.286939 ], [ -95.841197, 43.345555 ], [ -95.8803253, 43.4033713 ], [ -95.860658, 43.432664 ], [ -95.7797019, 43.4999605 ], [ -95.6863588, 43.514179499999962 ], [ -95.6834702, 43.514539500000026 ], [ -95.673949, 43.514428 ], [ -95.604187, 43.432605 ], [ -95.604455, 43.403161 ], [ -95.683202, 43.330886 ], [ -95.7980814, 43.286937800000018 ] ] ] } },
{ "type": "Feature", "properties": { "OBJECTID": 6401, "ID": "0001051247", "NAME": "HEGG MEMORIAL HEALTH CENTER", "ADDRESS": "1202 21ST AVENUE", "CITY": "ROCK VALLEY", "STATE": "IA", "ZIP": "51247", "ZIP4": "NOT AVAILABLE", "TELEPHONE": "(712) 476-8000", "TYPE": "CRITICAL ACCESS", "STATUS": "OPEN", "POPULATION": 25, "COUNTY": "SIOUX", "COUNTYFIPS": "19167", "COUNTRY": "USA", "LATITUDE": 43.202793872000001, "LONGITUDE": -96.283968258000002, "NAICS_CODE": "622110", "NAICS_DESC": "GENERAL MEDICAL AND SURGICAL HOSPITALS", "SOURCE": "https://dia-hfd.iowa.gov/DIA_HFD/CTLEntitySearch.do", "SOURCEDATE": "2018-08-09T00:00:00.000Z", "VAL_METHOD": "IMAGERY/OTHER", "VAL_DATE": "2016-04-18T00:00:00.000Z", "WEBSITE": "http://www.hegghc.org", "STATE_ID": "NOT AVAILABLE", "ALT_NAME": "NOT AVAILABLE", "ST_FIPS": "19", "OWNER": "NON-PROFIT", "TTL_STAFF": -999, "BEDS": 25, "TRAUMA": "LEVEL IV", "HELIPAD": "Y" }, "geometry": { "type": "Polygon", "coordinates": [ [ [ -96.293917487006055, 43.098616079485744 ], [ -96.412567730388574, 43.184982119496624 ], [ -96.432523644920053, 43.199601049066722 ], [ -96.432571343666723, 43.202195549546992 ], [ -96.37343122392285, 43.243273130955572 ], [ -96.3154508, 43.272262 ], [ -96.2956877, 43.272206199999943 ], [ -96.275831, 43.271939 ], [ -96.216385370706988, 43.257474758730126 ], [ -96.177419542351572, 43.229223702017208 ], [ -96.157485343616031, 43.214732577004668 ], [ -96.137644049408891, 43.200274950729955 ], [ -96.137603257714133, 43.19671215233533 ], [ -96.137587366484453, 43.192965354069329 ], [ -96.142462489148187, 43.185783365914375 ], [ -96.235153192101805, 43.127607768083081 ], [ -96.293917487006055, 43.098616079485744 ] ] ] } },
{ "type": "Feature", "properties": { "OBJECTID": 6402, "ID": "0095951041", "NAME": "ORANGE CITY AREA HEALTH SYSTEM", "ADDRESS": "1000 LINCOLN CIRCLE SE", "CITY": "ORANGE CITY", "STATE": "IA", "ZIP": "51041", "ZIP4": "NOT AVAILABLE", "TELEPHONE": "(712) 737-4984", "TYPE": "CRITICAL ACCESS", "STATUS": "OPEN", "POPULATION": 25, "COUNTY": "SIOUX", "COUNTYFIPS": "19167", "COUNTRY": "USA", "LATITUDE": 42.994541542, "LONGITUDE": -96.045110592, "NAICS_CODE": "622110", "NAICS_DESC": "GENERAL MEDICAL AND SURGICAL HOSPITALS", "SOURCE": "https://dia-hfd.iowa.gov/DIA_HFD/CTLEntitySearch.do", "SOURCEDATE": "2018-08-09T00:00:00.000Z", "VAL_METHOD": "IMAGERY/OTHER", "VAL_DATE": "2016-04-18T00:00:00.000Z", "WEBSITE": "NOT AVAILABLE", "STATE_ID": "NOT AVAILABLE", "ALT_NAME": "NOT AVAILABLE", "ST_FIPS": "19", "OWNER": "GOVERNMENT - LOCAL", "TTL_STAFF": -999, "BEDS": 25, "TRAUMA": "LEVEL IV", "HELIPAD": "Y" }, "geometry": { "type": "Polygon", "coordinates": [ [ [ -96.0958024, 42.895172599999981 ], [ -96.1754212, 42.971350200000018 ], [ -96.195200899999989, 42.997197200000016 ], [ -96.057578245358002, 43.099028542354915 ], [ -95.916744136847356, 43.054404228237104 ], [ -95.899558539606545, 43.025773644590011 ], [ -95.8991653, 42.982097200000013 ], [ -95.9576481, 42.938527400000034 ], [ -96.056527, 42.898121 ], [ -96.076229, 42.895333 ], [ -96.0958024, 42.895172599999981 ] ] ] } },
{ "type": "Feature", "properties": { "OBJECTID": 6426, "ID": "0011556178", "NAME": "AVERA TYLER HOSPITAL", "ADDRESS": "240 WILLOW STREET", "CITY": "TYLER", "STATE": "MN", "ZIP": "56178", "ZIP4": "NOT AVAILABLE", "TELEPHONE": "(507) 247-5521", "TYPE": "CRITICAL ACCESS", "STATUS": "OPEN", "POPULATION": 20, "COUNTY": "LINCOLN", "COUNTYFIPS": "27081", "COUNTRY": "USA", "LATITUDE": 44.271837835, "LONGITUDE": -96.130437297, "NAICS_CODE": "622110", "NAICS_DESC": "GENERAL MEDICAL AND SURGICAL HOSPITALS", "SOURCE": "http://www.health.state.mn.us/divs/fpc/directory/providerselect.cfm", "SOURCEDATE": "2018-08-09T00:00:00.000Z", "VAL_METHOD": "IMAGERY", "VAL_DATE": "2014-02-10T00:00:00.000Z", "WEBSITE": "http://www.avera.org/locations/profile/?id=274", "STATE_ID": "338", "ALT_NAME": "TYLER HEALTHCARE CENTER INC", "ST_FIPS": "27", "OWNER": "NON-PROFIT", "TTL_STAFF": -999, "BEDS": 20, "TRAUMA": "LEVEL IV", "HELIPAD": "Y" }, "geometry": { "type": "Polygon", "coordinates": [ [ [ -96.124379, 44.1822879 ], [ -96.20001, 44.21172 ], [ -96.286596, 44.252916 ], [ -96.300822, 44.261081 ], [ -96.220917, 44.321246 ], [ -96.160093, 44.356622 ], [ -96.119398, 44.356689 ], [ -96.079168, 44.340672 ], [ -96.057271, 44.327333 ], [ -95.9992043, 44.283258800000013 ], [ -96.0063999, 44.239782 ], [ -96.0552479, 44.215947 ], [ -96.124379, 44.1822879 ] ] ] } },
{ "type": "Feature", "properties": { "OBJECTID": 6434, "ID": "0012756240", "NAME": "ESSENTIA HLTH HOLY TRINITY HOS", "ADDRESS": "115 - 2ND ST W, BOX 157", "CITY": "GRACEVILLE", "STATE": "MN", "ZIP": "56240", "ZIP4": "NOT AVAILABLE", "TELEPHONE": "(320) 748-7223", "TYPE": "CRITICAL ACCESS", "STATUS": "OPEN", "POPULATION": 15, "COUNTY": "BIG STONE", "COUNTYFIPS": "27011", "COUNTRY": "USA", "LATITUDE": 45.562712428000097, "LONGITUDE": -96.433888780999993, "NAICS_CODE": "622110", "NAICS_DESC": "GENERAL MEDICAL AND SURGICAL HOSPITALS", "SOURCE": "http://www.health.state.mn.us/divs/fpc/directory/providerselect.cfm", "SOURCEDATE": "2018-08-09T00:00:00.000Z", "VAL_METHOD": "IMAGERY", "VAL_DATE": "2014-02-10T00:00:00.000Z", "WEBSITE": "http://www.essentiahealth.org/holytrinityhospital/find-a-clinic/essentia-healthholy-trinity-hospital-graceville-96.aspx", "STATE_ID": "27", "ALT_NAME": "NOT AVAILABLE", "ST_FIPS": "27", "OWNER": "NON-PROFIT", "TTL_STAFF": -999, "BEDS": 15, "TRAUMA": "LEVEL IV", "HELIPAD": "Y" }, "geometry": { "type": "Polygon", "coordinates": [ [ [ -96.431425, 45.45361 ], [ -96.4417082, 45.456249100000029 ], [ -96.5750102, 45.558202 ], [ -96.5757469, 45.561792600000047 ], [ -96.468693, 45.643395 ], [ -96.4264907, 45.672248900000014 ], [ -96.293302800000021, 45.585734799999962 ], [ -96.2822052, 45.57130320000001 ], [ -96.3433222, 45.513124800000021 ], [ -96.3903915, 45.4776677 ], [ -96.431425, 45.45361 ] ] ] } },
{ "type": "Feature", "properties": { "OBJECTID": 6447, "ID": "0006556164", "NAME": "PIPESTONE CO MED C & ASHTON CC", "ADDRESS": "916 4TH AVENUE SOUTHWEST", "CITY": "PIPESTONE", "STATE": "MN", "ZIP": "56164", "ZIP4": "NOT AVAILABLE", "TELEPHONE": "(507) 825-5811", "TYPE": "CRITICAL ACCESS", "STATUS": "OPEN", "POPULATION": 44, "COUNTY": "PIPESTONE", "COUNTYFIPS": "27117", "COUNTRY": "USA", "LATITUDE": 43.990979402999997, "LONGITUDE": -96.32323883, "NAICS_CODE": "622110", "NAICS_DESC": "GENERAL MEDICAL AND SURGICAL HOSPITALS", "SOURCE": "http://www.health.state.mn.us/divs/fpc/directory/providerselect.cfm", "SOURCEDATE": "2018-08-09T00:00:00.000Z", "VAL_METHOD": "IMAGERY", "VAL_DATE": "2014-02-10T00:00:00.000Z", "WEBSITE": "https://www.avera.org/locations/profile/pipestone-county-medical-center-family-clinic-avera/", "STATE_ID": "456", "ALT_NAME": "NOT AVAILABLE", "ST_FIPS": "27", "OWNER": "GOVERNMENT - LOCAL", "TTL_STAFF": -999, "BEDS": 44, "TRAUMA": "LEVEL IV", "HELIPAD": "N" }, "geometry": { "type": "Polygon", "coordinates": [ [ [ -96.3873722, 43.8781268 ], [ -96.3905349, 43.8781499 ], [ -96.448391, 43.951207 ], [ -96.453248, 43.992734 ], [ -96.4489041, 44.018112599999981 ], [ -96.367898, 44.066945 ], [ -96.3076697, 44.0957264 ], [ -96.244848, 44.081124 ], [ -96.204812, 44.06653 ], [ -96.184692, 43.993902 ], [ -96.204714, 43.964846 ], [ -96.244675, 43.921148 ], [ -96.2648449, 43.906851 ], [ -96.3873722, 43.8781268 ] ] ] } },
{ "type": "Feature", "properties": { "OBJECTID": 6448, "ID": "0014356531", "NAME": "PRAIRIE RIDGE HOSP HLTH SERV", "ADDRESS": "1411 STATE HIGHWAY 79 E", "CITY": "ELBOW LAKE", "STATE": "MN", "ZIP": "56531", "ZIP4": "NOT AVAILABLE", "TELEPHONE": "(218) 685-7300", "TYPE": "CRITICAL ACCESS", "STATUS": "OPEN", "POPULATION": 10, "COUNTY": "GRANT", "COUNTYFIPS": "27051", "COUNTRY": "USA", "LATITUDE": 45.990525329, "LONGITUDE": -95.957901878000001, "NAICS_CODE": "622110", "NAICS_DESC": "GENERAL MEDICAL AND SURGICAL HOSPITALS", "SOURCE": "http://www.health.state.mn.us/divs/fpc/directory/providerselect.cfm", "SOURCEDATE": "2018-08-09T00:00:00.000Z", "VAL_METHOD": "IMAGERY", "VAL_DATE": "2016-08-12T00:00:00.000Z", "WEBSITE": "http://www.prairiehealth.org/", "STATE_ID": "NOT AVAILABLE", "ALT_NAME": "NOT AVAILABLE", "ST_FIPS": "27", "OWNER": "NON-PROFIT", "TTL_STAFF": -999, "BEDS": 10, "TRAUMA": "LEVEL IV", "HELIPAD": "Y" }, "geometry": { "type": "Polygon", "coordinates": [ [ [ -95.9868202, 45.868596699999976 ], [ -96.027275100000011, 45.904827400000023 ], [ -96.0802574, 45.9780093 ], [ -96.08138, 46.034422 ], [ -96.0812604, 46.0358066 ], [ -95.9984932, 46.107125600000053 ], [ -95.8783013, 46.050173799999989 ], [ -95.832112, 46.019045200000058 ], [ -95.811035, 45.999129099999983 ], [ -95.8109831, 45.991829499999987 ], [ -95.872723, 45.9083782 ], [ -95.885185, 45.9013 ], [ -95.9868202, 45.868596699999976 ] ] ] } },
{ "type": "Feature", "properties": { "OBJECTID": 6575, "ID": "0001957533", "NAME": "AVERA GREGORY HEALTHCARE CENTER", "ADDRESS": "400 PARK AVENUE", "CITY": "GREGORY", "STATE": "SD", "ZIP": "57533", "ZIP4": "NOT AVAILABLE", "TELEPHONE": "(605) 835-8394", "TYPE": "CRITICAL ACCESS", "STATUS": "OPEN", "POPULATION": 25, "COUNTY": "GREGORY", "COUNTYFIPS": "46053", "COUNTRY": "USA", "LATITUDE": 43.229554631, "LONGITUDE": -99.435848635, "NAICS_CODE": "622110", "NAICS_DESC": "GENERAL MEDICAL AND SURGICAL HOSPITALS", "SOURCE": "https://apps.sd.gov/ph04lassnet/rptPH04LicenseList.Aspx", "SOURCEDATE": "2018-08-10T00:00:00.000Z", "VAL_METHOD": "IMAGERY", "VAL_DATE": "2014-02-10T00:00:00.000Z", "WEBSITE": "http://www.avera.org/", "STATE_ID": "NOT AVAILABLE", "ALT_NAME": "NOT AVAILABLE", "ST_FIPS": "46", "OWNER": "NON-PROFIT", "TTL_STAFF": -999, "BEDS": 25, "TRAUMA": "TRH", "HELIPAD": "Y" }, "geometry": { "type": "Polygon", "coordinates": [ [ [ -99.435199346862632, 43.125496391363392 ], [ -99.59326, 43.235578 ], [ -99.435281, 43.342421 ], [ -99.3562326, 43.270243900000011 ], [ -99.290756665144499, 43.183522839666317 ], [ -99.288609160177259, 43.176679943338044 ], [ -99.435199346862632, 43.125496391363392 ] ] ] } },
{ "type": "Feature", "properties": { "OBJECTID": 6588, "ID": "0001357274", "NAME": "SANFORD HOSPITAL WEBSTER", "ADDRESS": "1401 WEST FIRST STREET", "CITY": "WEBSTER", "STATE": "SD", "ZIP": "57274", "ZIP4": "NOT AVAILABLE", "TELEPHONE": "(605) 345-3336", "TYPE": "CRITICAL ACCESS", "STATUS": "OPEN", "POPULATION": 25, "COUNTY": "DAY", "COUNTYFIPS": "46037", "COUNTRY": "USA", "LATITUDE": 45.339772772000103, "LONGITUDE": -97.521954554000004, "NAICS_CODE": "622110", "NAICS_DESC": "GENERAL MEDICAL AND SURGICAL HOSPITALS", "SOURCE": "https://apps.sd.gov/ph04lassnet/rptPH04LicenseList.Aspx", "SOURCEDATE": "2018-08-10T00:00:00.000Z", "VAL_METHOD": "IMAGERY", "VAL_DATE": "2014-02-10T00:00:00.000Z", "WEBSITE": "http://www.sanfordhealth.org", "STATE_ID": "NOT AVAILABLE", "ALT_NAME": "NOT AVAILABLE", "ST_FIPS": "46", "OWNER": "NON-PROFIT", "TTL_STAFF": -999, "BEDS": 25, "TRAUMA": "TRH", "HELIPAD": "Y" }, "geometry": { "type": "Polygon", "coordinates": [ [ [ -97.535167, 45.195131 ], [ -97.735339, 45.344424300000036 ], [ -97.7351842, 45.344665399999947 ], [ -97.530349, 45.442352 ], [ -97.514468, 45.446838 ], [ -97.509836, 45.446946 ], [ -97.4073885, 45.3699988 ], [ -97.38686, 45.352576 ], [ -97.345078, 45.311967 ], [ -97.535167, 45.195131 ] ] ] } },
{ "type": "Feature", "properties": { "OBJECTID": 6592, "ID": "0003168713", "NAME": "WEST HOLT MEMORIAL HOSPITAL", "ADDRESS": "406 W NEELY ST", "CITY": "ATKINSON", "STATE": "NE", "ZIP": "68713", "ZIP4": "NOT AVAILABLE", "TELEPHONE": "(402) 925-2811", "TYPE": "CRITICAL ACCESS", "STATUS": "OPEN", "POPULATION": 18, "COUNTY": "HOLT", "COUNTYFIPS": "31089", "COUNTRY": "USA", "LATITUDE": 42.528888316000099, "LONGITUDE": -98.982662012000006, "NAICS_CODE": "622110", "NAICS_DESC": "GENERAL MEDICAL AND SURGICAL HOSPITALS", "SOURCE": "http://dhhs.ne.gov/publichealth/Documents/Hospital%20Roster.pdf", "SOURCEDATE": "2018-08-09T00:00:00.000Z", "VAL_METHOD": "IMAGERY", "VAL_DATE": "2014-02-10T00:00:00.000Z", "WEBSITE": "http://www.westholtmed.org", "STATE_ID": "281343", "ALT_NAME": "NOT AVAILABLE", "ST_FIPS": "31", "OWNER": "NON-PROFIT", "TTL_STAFF": -999, "BEDS": 18, "TRAUMA": "LEVEL IV", "HELIPAD": "Y" }, "geometry": { "type": "Polygon", "coordinates": [ [ [ -98.905651, 42.435214 ], [ -98.94485090000002, 42.43512110000006 ], [ -98.967926, 42.435104 ], [ -98.9706494, 42.435109400000037 ], [ -98.9716572, 42.435113300000019 ], [ -99.110568, 42.50062 ], [ -99.1472619, 42.521725 ], [ -99.1489781, 42.594196899999957 ], [ -99.1411509, 42.597812099999977 ], [ -99.133926500000015, 42.600640100000028 ], [ -99.1083867, 42.610488700000012 ], [ -98.971358, 42.652578 ], [ -98.968057, 42.652611 ], [ -98.932056, 42.623743 ], [ -98.834186, 42.537103 ], [ -98.8044073, 42.479462 ], [ -98.804415, 42.478371 ], [ -98.853372, 42.450119 ], [ -98.905651, 42.435214 ] ] ] } },
{ "type": "Feature", "properties": { "OBJECTID": 6760, "ID": "0002657042", "NAME": "MADISON COMMUNITY HOSPITAL", "ADDRESS": "917 NORTH WASHINGTON AVENUE", "CITY": "MADISON", "STATE": "SD", "ZIP": "57042", "ZIP4": "NOT AVAILABLE", "TELEPHONE": "(605) 256-6551", "TYPE": "GENERAL ACUTE CARE", "STATUS": "CLOSED", "POPULATION": 25, "COUNTY": "LAKE", "COUNTYFIPS": "46079", "COUNTRY": "USA", "LATITUDE": 44.014544230000098, "LONGITUDE": -97.110428127000006, "NAICS_CODE": "622110", "NAICS_DESC": "GENERAL MEDICAL AND SURGICAL HOSPITALS", "SOURCE": "http://arcgis.sd.gov/ArcGIS/rest/services/SD_All/MapServer/38", "SOURCEDATE": "2012-11-24T00:00:00.000Z", "VAL_METHOD": "IMAGERY", "VAL_DATE": "2014-02-10T00:00:00.000Z", "WEBSITE": "http://www.madisonhospital.com", "STATE_ID": "NOT AVAILABLE", "ALT_NAME": "NOT AVAILABLE", "ST_FIPS": "46", "OWNER": "NON-PROFIT", "TTL_STAFF": -999, "BEDS": 25, "TRAUMA": "NOT AVAILABLE", "HELIPAD": "N" }, "geometry": { "type": "Polygon", "coordinates": [ [ [ -97.069115, 43.9206028 ], [ -97.1290984, 43.920554600000031 ], [ -97.229787, 43.993264 ], [ -97.2488195, 44.007848500000016 ], [ -97.129508, 44.108893 ], [ -97.029153, 44.050991 ], [ -96.989754, 44.007487 ], [ -96.9893703, 43.978496499999984 ], [ -97.029076, 43.949563 ], [ -97.069115, 43.9206028 ] ] ] } },
{ "type": "Feature", "properties": { "OBJECTID": 6769, "ID": "0001257301", "NAME": "AVERA QUEEN OF PEACE HOSPITAL", "ADDRESS": "525 NORTH FOSTER STREET", "CITY": "MITCHELL", "STATE": "SD", "ZIP": "57301", "ZIP4": "NOT AVAILABLE", "TELEPHONE": "(605) 995-2000", "TYPE": "GENERAL ACUTE CARE", "STATUS": "OPEN", "POPULATION": 67, "COUNTY": "DAVISON", "COUNTYFIPS": "46035", "COUNTRY": "USA", "LATITUDE": 43.714342281, "LONGITUDE": -98.008020802000004, "NAICS_CODE": "622110", "NAICS_DESC": "GENERAL MEDICAL AND SURGICAL HOSPITALS", "SOURCE": "https://apps.sd.gov/ph04lassnet/rptPH04LicenseList.Aspx", "SOURCEDATE": "2018-08-10T00:00:00.000Z", "VAL_METHOD": "IMAGERY", "VAL_DATE": "2014-03-12T00:00:00.000Z", "WEBSITE": "http://www.averaqueenofpeace.org", "STATE_ID": "NOT AVAILABLE", "ALT_NAME": "NOT AVAILABLE", "ST_FIPS": "46", "OWNER": "NON-PROFIT", "TTL_STAFF": -999, "BEDS": 67, "TRAUMA": "CTH", "HELIPAD": "Y" }, "geometry": { "type": "Polygon", "coordinates": [ [ [ -98.006419, 43.615093 ], [ -98.146067, 43.687695 ], [ -98.152264, 43.695516 ], [ -98.147113, 43.716952 ], [ -98.028966, 43.833212 ], [ -98.0282994, 43.833233500000027 ], [ -97.949354, 43.775871 ], [ -97.929661, 43.761188 ], [ -97.9462954, 43.658616100000032 ], [ -97.946476800000013, 43.658334699999969 ], [ -98.006419, 43.615093 ] ] ] } },
{ "type": "Feature", "properties": { "OBJECTID": 6772, "ID": "0004257105", "NAME": "SANFORD UNIVERSITY OF SOUTH DAKOTA MEDICAL CENTER", "ADDRESS": "1305 WEST 18TH STREET", "CITY": "SIOUX FALLS", "STATE": "SD", "ZIP": "57105", "ZIP4": "NOT AVAILABLE", "TELEPHONE": "(605) 333-1000", "TYPE": "GENERAL ACUTE CARE", "STATUS": "OPEN", "POPULATION": 545, "COUNTY": "MINNEHAHA", "COUNTYFIPS": "46099", "COUNTRY": "USA", "LATITUDE": 43.535516182000002, "LONGITUDE": -96.742105866000003, "NAICS_CODE": "622110", "NAICS_DESC": "GENERAL MEDICAL AND SURGICAL HOSPITALS", "SOURCE": "https://apps.sd.gov/ph04lassnet/rptPH04LicenseList.Aspx", "SOURCEDATE": "2018-08-10T00:00:00.000Z", "VAL_METHOD": "IMAGERY", "VAL_DATE": "2014-03-12T00:00:00.000Z", "WEBSITE": "http://www.sanfordhealth.org/locations/sanford-usd-medical-center", "STATE_ID": "NOT AVAILABLE", "ALT_NAME": "NOT AVAILABLE", "ST_FIPS": "46", "OWNER": "NON-PROFIT", "TTL_STAFF": -999, "BEDS": 545, "TRAUMA": "RTH", "HELIPAD": "Y" }, "geometry": { "type": "Polygon", "coordinates": [ [ [ -96.7274712, 43.435266599999935 ], [ -96.7276602, 43.4352737 ], [ -96.7981352, 43.454303800000019 ], [ -96.810158, 43.460998 ], [ -96.8705527, 43.543662500000053 ], [ -96.870552, 43.544682 ], [ -96.870544, 43.54921 ], [ -96.7724383, 43.6488818 ], [ -96.644838, 43.609608 ], [ -96.6011268, 43.525458900000025 ], [ -96.6008682, 43.524368399999958 ], [ -96.687730400000021, 43.4603789 ], [ -96.707682, 43.44604 ], [ -96.7274712, 43.435266599999935 ] ] ] } },
{ "type": "Feature", "properties": { "OBJECTID": 6773, "ID": "0001057201", "NAME": "PRAIRIE LAKES HOSPITAL", "ADDRESS": "401 9TH AVENUE NORTHWEST", "CITY": "WATERTOWN", "STATE": "SD", "ZIP": "57201", "ZIP4": "NOT AVAILABLE", "TELEPHONE": "(605) 882-7000", "TYPE": "GENERAL ACUTE CARE", "STATUS": "OPEN", "POPULATION": 81, "COUNTY": "CODINGTON", "COUNTYFIPS": "46029", "COUNTRY": "USA", "LATITUDE": 44.910974607000099, "LONGITUDE": -97.121237343999994, "NAICS_CODE": "622110", "NAICS_DESC": "GENERAL MEDICAL AND SURGICAL HOSPITALS", "SOURCE": "https://apps.sd.gov/ph04lassnet/rptPH04LicenseList.Aspx", "SOURCEDATE": "2018-08-10T00:00:00.000Z", "VAL_METHOD": "IMAGERY", "VAL_DATE": "2014-03-12T00:00:00.000Z", "WEBSITE": "http://www.prairielakes.com", "STATE_ID": "NOT AVAILABLE", "ALT_NAME": "NOT AVAILABLE", "ST_FIPS": "46", "OWNER": "NON-PROFIT", "TTL_STAFF": -999, "BEDS": 81, "TRAUMA": "CTH", "HELIPAD": "N" }, "geometry": { "type": "Polygon", "coordinates": [ [ [ -97.107936, 44.803559 ], [ -97.112048, 44.803527 ], [ -97.2572556, 44.890490700000015 ], [ -97.249414, 44.985343 ], [ -97.106521, 45.020764 ], [ -97.0539994, 45.009373400000015 ], [ -97.0049748, 44.931722299999969 ], [ -96.984381, 44.890073 ], [ -97.107936, 44.803559 ] ] ] } },
{ "type": "Feature", "properties": { "OBJECTID": 6792, "ID": "0004157105", "NAME": "LIFESCAPE", "ADDRESS": "2501 WEST 26TH STREET", "CITY": "SIOUX FALLS", "STATE": "SD", "ZIP": "57105", "ZIP4": "2498", "TELEPHONE": "(605) 444-9500", "TYPE": "CHILDREN", "STATUS": "OPEN", "POPULATION": 18, "COUNTY": "MINNEHAHA", "COUNTYFIPS": "46099", "COUNTRY": "USA", "LATITUDE": 43.528755646, "LONGITUDE": -96.755304130999903, "NAICS_CODE": "622110", "NAICS_DESC": "CHILDREN'S HOSPITALS, GENERAL", "SOURCE": "https://apps.sd.gov/ph04lassnet/rptPH04LicenseList.Aspx", "SOURCEDATE": "2018-08-10T00:00:00.000Z", "VAL_METHOD": "IMAGERY/OTHER", "VAL_DATE": "2018-12-03T00:00:00.000Z", "WEBSITE": "https://www.lifescapesd.org/", "STATE_ID": "NOT AVAILABLE", "ALT_NAME": "NOT AVAILABLE", "ST_FIPS": "46", "OWNER": "NON-PROFIT", "TTL_STAFF": -999, "BEDS": 18, "TRAUMA": "NOT AVAILABLE", "HELIPAD": "N" }, "geometry": { "type": "Polygon", "coordinates": [ [ [ -96.7275427, 43.4282508 ], [ -96.7964253, 43.42785930000003 ], [ -96.8263723, 43.459167300000018 ], [ -96.8605636, 43.514698499999987 ], [ -96.8705527, 43.543662500000053 ], [ -96.870552, 43.544682 ], [ -96.870544, 43.54921 ], [ -96.7724383, 43.6488818 ], [ -96.691436, 43.616379 ], [ -96.660149, 43.587805 ], [ -96.6011268, 43.525458900000025 ], [ -96.6008682, 43.524368399999958 ], [ -96.7200892, 43.43161419999997 ], [ -96.7275427, 43.4282508 ] ] ] } },
{ "type": "Feature", "properties": { "OBJECTID": 6799, "ID": "0011656531", "NAME": "PRAIRIE RIDGE HOSP HLTH SERV", "ADDRESS": "930 FIRST STREET NORTHEAST", "CITY": "ELBOW LAKE", "STATE": "MN", "ZIP": "56531", "ZIP4": "NOT AVAILABLE", "TELEPHONE": "(218) 685-4460", "TYPE": "GENERAL ACUTE CARE", "STATUS": "CLOSED", "POPULATION": 20, "COUNTY": "GRANT", "COUNTYFIPS": "27051", "COUNTRY": "USA", "LATITUDE": 45.994308672000003, "LONGITUDE": -95.963993298000005, "NAICS_CODE": "622110", "NAICS_DESC": "GENERAL MEDICAL AND SURGICAL HOSPITALS", "SOURCE": "http://www.health.state.mn.us/divs/fpc/directory/fpcdir.html", "SOURCEDATE": "2012-08-06T00:00:00.000Z", "VAL_METHOD": "IMAGERY", "VAL_DATE": "2014-02-10T00:00:00.000Z", "WEBSITE": "http://www.eleahmed.org", "STATE_ID": "154", "ALT_NAME": "NOT AVAILABLE", "ST_FIPS": "27", "OWNER": "NON-PROFIT", "TTL_STAFF": -999, "BEDS": 20, "TRAUMA": "NOT AVAILABLE", "HELIPAD": "N" }, "geometry": { "type": "Polygon", "coordinates": [ [ [ -95.9868202, 45.868596699999976 ], [ -96.027275100000011, 45.904827400000023 ], [ -96.1009005, 45.978280300000016 ], [ -96.0812604, 46.0358066 ], [ -95.998503900000017, 46.108479399999958 ], [ -95.9567634, 46.091662800000059 ], [ -95.8871847, 46.050240799999976 ], [ -95.831833, 46.011221799999959 ], [ -95.8109831, 45.991829499999987 ], [ -95.852153500000014, 45.9338972 ], [ -95.872723, 45.9083782 ], [ -95.888469, 45.889390800000044 ], [ -95.9868202, 45.868596699999976 ] ] ] } },
{ "type": "Feature", "properties": { "OBJECTID": 6807, "ID": "0010756278", "NAME": "ORTONVILLE AREA HEALTH SERVICE", "ADDRESS": "450 EASTVOLD AVE", "CITY": "ORTONVILLE", "STATE": "MN", "ZIP": "56278", "ZIP4": "NOT AVAILABLE", "TELEPHONE": "(320) 839-2502", "TYPE": "CRITICAL ACCESS", "STATUS": "OPEN", "POPULATION": 25, "COUNTY": "BIG STONE", "COUNTYFIPS": "27011", "COUNTRY": "USA", "LATITUDE": 45.315367919000003, "LONGITUDE": -96.445815879999898, "NAICS_CODE": "622110", "NAICS_DESC": "GENERAL MEDICAL AND SURGICAL HOSPITALS", "SOURCE": "http://www.health.state.mn.us/divs/fpc/directory/providerselect.cfm", "SOURCEDATE": "2018-08-09T00:00:00.000Z", "VAL_METHOD": "IMAGERY", "VAL_DATE": "2014-03-12T00:00:00.000Z", "WEBSITE": "https://www.sanfordhealth.org/locations/ortonville-area-health-services", "STATE_ID": "29", "ALT_NAME": "NOT AVAILABLE", "ST_FIPS": "27", "OWNER": "GOVERNMENT - LOCAL", "TTL_STAFF": -999, "BEDS": 25, "TRAUMA": "LEVEL IV", "HELIPAD": "Y" }, "geometry": { "type": "Polygon", "coordinates": [ [ [ -96.452726, 45.240013 ], [ -96.5658919, 45.2454235 ], [ -96.5303062, 45.3916 ], [ -96.5133362, 45.39886360000002 ], [ -96.4315688, 45.41816010000003 ], [ -96.429235, 45.418606 ], [ -96.3438957, 45.370184 ], [ -96.302988, 45.312732 ], [ -96.3030588, 45.298126400000015 ], [ -96.3184546, 45.26895780000001 ], [ -96.3393165, 45.255930100000015 ], [ -96.452726, 45.240013 ] ] ] } },
{ "type": "Feature", "properties": { "OBJECTID": 6815, "ID": "0010456296", "NAME": "SANFORD MEDICAL CENTER WHEATON", "ADDRESS": "401 12TH STREET NORTH", "CITY": "WHEATON", "STATE": "MN", "ZIP": "56296", "ZIP4": "NOT AVAILABLE", "TELEPHONE": "(320) 563-8226", "TYPE": "CRITICAL ACCESS", "STATUS": "OPEN", "POPULATION": 25, "COUNTY": "TRAVERSE", "COUNTYFIPS": "27155", "COUNTRY": "USA", "LATITUDE": 45.809074860000102, "LONGITUDE": -96.501291014999893, "NAICS_CODE": "622110", "NAICS_DESC": "GENERAL MEDICAL AND SURGICAL HOSPITALS", "SOURCE": "http://www.health.state.mn.us/divs/fpc/directory/providerselect.cfm", "SOURCEDATE": "2018-08-09T00:00:00.000Z", "VAL_METHOD": "IMAGERY", "VAL_DATE": "2014-02-10T00:00:00.000Z", "WEBSITE": "https://www.sanfordhealth.org/locations/sanford-wheaton-clinic", "STATE_ID": "670", "ALT_NAME": "NOT AVAILABLE", "ST_FIPS": "27", "OWNER": "NON-PROFIT", "TTL_STAFF": -999, "BEDS": 25, "TRAUMA": "NOT AVAILABLE", "HELIPAD": "Y" }, "geometry": { "type": "Polygon", "coordinates": [ [ [ -96.4230249, 45.715674 ], [ -96.489282, 45.715918 ], [ -96.593784, 45.74497 ], [ -96.6080637, 45.770325200000059 ], [ -96.6110772, 45.7774396 ], [ -96.573458, 45.861590500000027 ], [ -96.490974900000012, 45.919582299999981 ], [ -96.448709, 45.890085 ], [ -96.4071395, 45.860466 ], [ -96.3579096, 45.8026 ], [ -96.4230249, 45.715674 ] ] ] } },
{ "type": "Feature", "properties": { "OBJECTID": 4314, "ID": "0005357469", "NAME": "COMMUNITY MEMORIAL HOSPITAL", "ADDRESS": "111 WEST 10TH AVENUE", "CITY": "REDFIELD", "STATE": "SD", "ZIP": "57469", "ZIP4": "NOT AVAILABLE", "TELEPHONE": "(605) 472-1110", "TYPE": "CRITICAL ACCESS", "STATUS": "OPEN", "POPULATION": 25, "COUNTY": "SPINK", "COUNTYFIPS": "46115", "COUNTRY": "USA", "LATITUDE": 44.871566646000097, "LONGITUDE": -98.520922335999998, "NAICS_CODE": "622110", "NAICS_DESC": "GENERAL MEDICAL AND SURGICAL HOSPITALS", "SOURCE": "https://apps.sd.gov/ph04lassnet/rptPH04LicenseList.Aspx", "SOURCEDATE": "2018-08-10T00:00:00.000Z", "VAL_METHOD": "IMAGERY", "VAL_DATE": "2014-03-12T00:00:00.000Z", "WEBSITE": "http://www.redfield-sd.com/hospital.html", "STATE_ID": "NOT AVAILABLE", "ALT_NAME": "NOT AVAILABLE", "ST_FIPS": "46", "OWNER": "GOVERNMENT - LOCAL", "TTL_STAFF": -999, "BEDS": 25, "TRAUMA": "TRH", "HELIPAD": "Y" }, "geometry": { "type": "Polygon", "coordinates": [ [ [ -98.503224, 44.763464 ], [ -98.564459, 44.79994 ], [ -98.6661044, 44.897129900000024 ], [ -98.5134185, 44.998721 ], [ -98.5009299, 44.998614299999964 ], [ -98.356645, 44.878773 ], [ -98.503224, 44.763464 ] ] ] } },
{ "type": "Feature", "properties": { "OBJECTID": 4317, "ID": "0000457350", "NAME": "HURON REGIONAL MEDICAL CENTER", "ADDRESS": "172 FOURTH STREET SOUTHEAST", "CITY": "HURON", "STATE": "SD", "ZIP": "57350", "ZIP4": "NOT AVAILABLE", "TELEPHONE": "(605) 353-6200", "TYPE": "CRITICAL ACCESS", "STATUS": "OPEN", "POPULATION": 25, "COUNTY": "BEADLE", "COUNTYFIPS": "46005", "COUNTRY": "USA", "LATITUDE": 44.3615311820001, "LONGITUDE": -98.211059633000005, "NAICS_CODE": "622110", "NAICS_DESC": "GENERAL MEDICAL AND SURGICAL HOSPITALS", "SOURCE": "https://apps.sd.gov/ph04lassnet/rptPH04LicenseList.Aspx", "SOURCEDATE": "2018-08-10T00:00:00.000Z", "VAL_METHOD": "IMAGERY", "VAL_DATE": "2014-02-10T00:00:00.000Z", "WEBSITE": "http://www.huronregional.org", "STATE_ID": "NOT AVAILABLE", "ALT_NAME": "NOT AVAILABLE", "ST_FIPS": "46", "OWNER": "NON-PROFIT", "TTL_STAFF": -999, "BEDS": 25, "TRAUMA": "CTH", "HELIPAD": "N" }, "geometry": { "type": "Polygon", "coordinates": [ [ [ -98.213568, 44.245639 ], [ -98.213906, 44.245645 ], [ -98.265198, 44.283672 ], [ -98.356586, 44.370658 ], [ -98.336313, 44.385169 ], [ -98.234627, 44.457614 ], [ -98.214193, 44.472044 ], [ -98.153769, 44.442806 ], [ -98.053815, 44.369558 ], [ -98.154692, 44.289571 ], [ -98.211537, 44.246284 ], [ -98.213568, 44.245639 ] ] ] } },
{ "type": "Feature", "properties": { "OBJECTID": 7107, "ID": "0002457382", "NAME": "AVERA WESKOTA MEMORIAL MEDICAL CENTER", "ADDRESS": "604 1ST STREET NORTHEAST", "CITY": "WESSINGTON SPRINGS", "STATE": "SD", "ZIP": "57382", "ZIP4": "NOT AVAILABLE", "TELEPHONE": "(605) 539-1201", "TYPE": "CRITICAL ACCESS", "STATUS": "OPEN", "POPULATION": 16, "COUNTY": "JERAULD", "COUNTYFIPS": "46073", "COUNTRY": "USA", "LATITUDE": 44.081086331000101, "LONGITUDE": -98.563742212999998, "NAICS_CODE": "622110", "NAICS_DESC": "GENERAL MEDICAL AND SURGICAL HOSPITALS", "SOURCE": "https://apps.sd.gov/ph04lassnet/rptPH04LicenseList.Aspx", "SOURCEDATE": "2018-08-10T00:00:00.000Z", "VAL_METHOD": "IMAGERY", "VAL_DATE": "2014-02-10T00:00:00.000Z", "WEBSITE": "http://www.averaweskota.org", "STATE_ID": "NOT AVAILABLE", "ALT_NAME": "NOT AVAILABLE", "ST_FIPS": "46", "OWNER": "NON-PROFIT", "TTL_STAFF": -999, "BEDS": 16, "TRAUMA": "TRH", "HELIPAD": "Y" }, "geometry": { "type": "Polygon", "coordinates": [ [ [ -98.552109, 43.994675 ], [ -98.708828, 44.073034 ], [ -98.7180834, 44.080357400000054 ], [ -98.571258, 44.175188 ], [ -98.552441, 44.183502 ], [ -98.4122303, 44.0673522 ], [ -98.412228, 44.066065 ], [ -98.451722, 44.038641 ], [ -98.552109, 43.994675 ] ] ] } },
{ "type": "Feature", "properties": { "OBJECTID": 7108, "ID": "0006557066", "NAME": "SAINT MICHAELS HOSPITAL", "ADDRESS": "410 WEST 16TH AVENUE", "CITY": "TYNDALL", "STATE": "SD", "ZIP": "57066", "ZIP4": "NOT AVAILABLE", "TELEPHONE": "(605) 589-2100", "TYPE": "CRITICAL ACCESS", "STATUS": "OPEN", "POPULATION": 25, "COUNTY": "BON HOMME", "COUNTYFIPS": "46009", "COUNTRY": "USA", "LATITUDE": 42.991570780000103, "LONGITUDE": -97.867525100999998, "NAICS_CODE": "622110", "NAICS_DESC": "GENERAL MEDICAL AND SURGICAL HOSPITALS", "SOURCE": "https://apps.sd.gov/ph04lassnet/rptPH04LicenseList.Aspx", "SOURCEDATE": "2018-08-10T00:00:00.000Z", "VAL_METHOD": "IMAGERY", "VAL_DATE": "2014-02-10T00:00:00.000Z", "WEBSITE": "http://www.stmichaels-bhfp.org", "STATE_ID": "NOT AVAILABLE", "ALT_NAME": "NOT AVAILABLE", "ST_FIPS": "46", "OWNER": "NON-PROFIT", "TTL_STAFF": -999, "BEDS": 25, "TRAUMA": "TRH", "HELIPAD": "Y" }, "geometry": { "type": "Polygon", "coordinates": [ [ [ -97.871904, 42.879377 ], [ -97.991026, 42.966531 ], [ -98.010805, 42.995601 ], [ -98.0108195, 42.9972943 ], [ -97.891183629827083, 43.082785674122036 ], [ -97.871448589426478, 43.082873651781775 ], [ -97.851661548896601, 43.082954629301959 ], [ -97.832044509009222, 43.082935606588116 ], [ -97.753709668147039, 43.010505321379419 ], [ -97.718245, 42.960548 ], [ -97.871904, 42.879377 ] ] ] } },
{ "type": "Feature", "properties": { "OBJECTID": 7115, "ID": "0003057013", "NAME": "KEYSTONE TREATMENT CENTER", "ADDRESS": "1010 EAST 2ND STREET", "CITY": "CANTON", "STATE": "SD", "ZIP": "57013", "ZIP4": "NOT AVAILABLE", "TELEPHONE": "(605) 987-2751", "TYPE": "PSYCHIATRIC", "STATUS": "OPEN", "POPULATION": -999, "COUNTY": "LINCOLN", "COUNTYFIPS": "46083", "COUNTRY": "USA", "LATITUDE": 43.303985688000097, "LONGITUDE": -96.579996783999903, "NAICS_CODE": "622210", "NAICS_DESC": "HOSPITALS, ADDICTION", "SOURCE": "https://apps.sd.gov/ph04lassnet/rptPH04LicenseList.Aspx", "SOURCEDATE": "2018-08-10T00:00:00.000Z", "VAL_METHOD": "IMAGERY", "VAL_DATE": "2014-02-10T00:00:00.000Z", "WEBSITE": "http://www.keystonetreatment.com/", "STATE_ID": "NOT AVAILABLE", "ALT_NAME": "NOT AVAILABLE", "ST_FIPS": "46", "OWNER": "NON-PROFIT", "TTL_STAFF": -999, "BEDS": -999, "TRAUMA": "NOT AVAILABLE", "HELIPAD": "N" }, "geometry": { "type": "Polygon", "coordinates": [ [ [ -96.569221963146958, 43.218806572998297 ], [ -96.570573463857571, 43.218870573054659 ], [ -96.628584485384707, 43.228468076124145 ], [ -96.7281371, 43.3010562 ], [ -96.6486073, 43.358993300000023 ], [ -96.589015, 43.38791130000002 ], [ -96.549476, 43.373327600000032 ], [ -96.5344714, 43.3587396 ], [ -96.5285528, 43.3240867 ], [ -96.5268791, 43.3074634 ], [ -96.569221963146958, 43.218806572998297 ] ] ] } },
{ "type": "Feature", "properties": { "OBJECTID": 7121, "ID": "0006057105", "NAME": "SELECT SPECIALTY HOSPITAL", "ADDRESS": "800 EAST 21ST STREET", "CITY": "SIOUX FALLS", "STATE": "SD", "ZIP": "57105", "ZIP4": "NOT AVAILABLE", "TELEPHONE": "(605) 322-3300", "TYPE": "LONG TERM CARE", "STATUS": "CLOSED", "POPULATION": 24, "COUNTY": "MINNEHAHA", "COUNTYFIPS": "46099", "COUNTRY": "USA", "LATITUDE": 43.534233648000097, "LONGITUDE": -96.714323905000001, "NAICS_CODE": "622310", "NAICS_DESC": "HOSPITALS, SPECIALTY (EXCEPT PSYCHIATRIC, SUBSTANCE ABUSE)", "SOURCE": "http://arcgis.sd.gov/ArcGIS/rest/services/SD_All/MapServer/38", "SOURCEDATE": "2012-11-24T00:00:00.000Z", "VAL_METHOD": "IMAGERY", "VAL_DATE": "2014-03-12T00:00:00.000Z", "WEBSITE": "http://southdakota.selectspecialtyhospitals.com/", "STATE_ID": "NOT AVAILABLE", "ALT_NAME": "NOT AVAILABLE", "ST_FIPS": "46", "OWNER": "PROPRIETARY", "TTL_STAFF": -999, "BEDS": 24, "TRAUMA": "NOT AVAILABLE", "HELIPAD": "Y" }, "geometry": { "type": "Polygon", "coordinates": [ [ [ -96.7076225, 43.425519599999944 ], [ -96.7108874, 43.4255414 ], [ -96.7981352, 43.454303800000019 ], [ -96.8031549, 43.460968099999974 ], [ -96.830665, 43.500294 ], [ -96.8467255, 43.545302 ], [ -96.7911148, 43.605543600000026 ], [ -96.7861906, 43.609169499999979 ], [ -96.7113936, 43.648615300000017 ], [ -96.691452, 43.649303 ], [ -96.6516166, 43.630724400000013 ], [ -96.6197048, 43.5946979 ], [ -96.560555, 43.520916 ], [ -96.6488379, 43.46041610000001 ], [ -96.6927297, 43.431441199999981 ], [ -96.7008179, 43.427856500000026 ], [ -96.7076225, 43.425519599999944 ] ] ] } },
{ "type": "Feature", "properties": { "OBJECTID": 7233, "ID": "0002557231", "NAME": "AVERA DE SMET MEMORIAL HOSPITAL", "ADDRESS": "306 PRAIRIE AVENUE SOUTHWEST", "CITY": "DE SMET", "STATE": "SD", "ZIP": "57231", "ZIP4": "NOT AVAILABLE", "TELEPHONE": "(605) 854-3329", "TYPE": "CRITICAL ACCESS", "STATUS": "OPEN", "POPULATION": 6, "COUNTY": "KINGSBURY", "COUNTYFIPS": "46077", "COUNTRY": "USA", "LATITUDE": 44.385945802000002, "LONGITUDE": -97.561297151999995, "NAICS_CODE": "622110", "NAICS_DESC": "GENERAL MEDICAL AND SURGICAL HOSPITALS", "SOURCE": "https://apps.sd.gov/ph04lassnet/rptPH04LicenseList.Aspx", "SOURCEDATE": "2018-08-10T00:00:00.000Z", "VAL_METHOD": "IMAGERY", "VAL_DATE": "2014-02-10T00:00:00.000Z", "WEBSITE": "http://www.avera.org/", "STATE_ID": "NOT AVAILABLE", "ALT_NAME": "NOT AVAILABLE", "ST_FIPS": "46", "OWNER": "NON-PROFIT", "TTL_STAFF": -999, "BEDS": 6, "TRAUMA": "TRH", "HELIPAD": "N" }, "geometry": { "type": "Polygon", "coordinates": [ [ [ -97.551821, 44.281922 ], [ -97.720314400000021, 44.368506 ], [ -97.7203137, 44.369201700000019 ], [ -97.7203033, 44.370414899999986 ], [ -97.632244, 44.441087 ], [ -97.552099, 44.484541 ], [ -97.4169716, 44.368565800000034 ], [ -97.4109512, 44.361331299999968 ], [ -97.551821, 44.281922 ] ] ] } },
{ "type": "Feature", "properties": { "OBJECTID": 5113, "ID": "0006168746", "NAME": "NIOBRARA VALLEY HOSPITAL", "ADDRESS": "401 SOUTH 5TH STREET", "CITY": "LYNCH", "STATE": "NE", "ZIP": "68746", "ZIP4": "NOT AVAILABLE", "TELEPHONE": "(402) 569-2451", "TYPE": "CRITICAL ACCESS", "STATUS": "OPEN", "POPULATION": 20, "COUNTY": "BOYD", "COUNTYFIPS": "31015", "COUNTRY": "USA", "LATITUDE": 42.824573529000098, "LONGITUDE": -98.468494082999896, "NAICS_CODE": "622110", "NAICS_DESC": "GENERAL MEDICAL AND SURGICAL HOSPITALS", "SOURCE": "http://dhhs.ne.gov/publichealth/Documents/Hospital%20Roster.pdf", "SOURCEDATE": "2018-08-09T00:00:00.000Z", "VAL_METHOD": "IMAGERY", "VAL_DATE": "2014-02-10T00:00:00.000Z", "WEBSITE": "http://www.ci.lynch.ne.us/health.htm", "STATE_ID": "281303", "ALT_NAME": "NOT AVAILABLE", "ST_FIPS": "31", "OWNER": "NON-PROFIT", "TTL_STAFF": -999, "BEDS": 20, "TRAUMA": "NOT AVAILABLE", "HELIPAD": "Y" }, "geometry": { "type": "Polygon", "coordinates": [ [ [ -98.4420583, 42.770020200000019 ], [ -98.584919, 42.800414 ], [ -98.643833, 42.828281 ], [ -98.663409, 42.855131 ], [ -98.584631, 42.886231 ], [ -98.508894, 42.915298 ], [ -98.506217, 42.915334 ], [ -98.480041, 42.914855 ], [ -98.413624, 42.89519 ], [ -98.368845, 42.87141 ], [ -98.3102713, 42.8236331 ], [ -98.373968, 42.791019 ], [ -98.4420583, 42.770020200000019 ] ] ] } },
{ "type": "Feature", "properties": { "OBJECTID": 5134, "ID": "0009068763", "NAME": "AVERA ST ANTHONY'S HOSPITAL", "ADDRESS": "300 NORTH 2ND ST", "CITY": "O'NEILL", "STATE": "NE", "ZIP": "68763", "ZIP4": "NOT AVAILABLE", "TELEPHONE": "(402) 336-2611", "TYPE": "CRITICAL ACCESS", "STATUS": "OPEN", "POPULATION": 25, "COUNTY": "HOLT", "COUNTYFIPS": "31089", "COUNTRY": "USA", "LATITUDE": 42.460645499000101, "LONGITUDE": -98.65038285, "NAICS_CODE": "622110", "NAICS_DESC": "GENERAL MEDICAL AND SURGICAL HOSPITALS", "SOURCE": "http://dhhs.ne.gov/publichealth/Documents/Hospital%20Roster.pdf", "SOURCEDATE": "2018-08-09T00:00:00.000Z", "VAL_METHOD": "IMAGERY", "VAL_DATE": "2014-02-10T00:00:00.000Z", "WEBSITE": "http://www.avera.org/st-anthonys", "STATE_ID": "NOT AVAILABLE", "ALT_NAME": "NOT AVAILABLE", "ST_FIPS": "31", "OWNER": "NON-PROFIT", "TTL_STAFF": -999, "BEDS": 25, "TRAUMA": "LEVEL IV", "HELIPAD": "Y" }, "geometry": { "type": "Polygon", "coordinates": [ [ [ -98.651439, 42.335385 ], [ -98.6744902, 42.335300600000053 ], [ -98.690684, 42.349594 ], [ -98.833807, 42.475649 ], [ -98.833786, 42.479106 ], [ -98.81425, 42.4938092 ], [ -98.794939, 42.508324 ], [ -98.657675, 42.595475 ], [ -98.5010977, 42.465190600000014 ], [ -98.5010633, 42.45074730000001 ], [ -98.5010426, 42.4362388 ], [ -98.515139, 42.36467 ], [ -98.651439, 42.335385 ] ] ] } },
{ "type": "Feature", "properties": { "OBJECTID": 5152, "ID": "0005669210", "NAME": "BROWN COUNTY HOSPITAL", "ADDRESS": "945 EAST ZERO ST", "CITY": "AINSWORTH", "STATE": "NE", "ZIP": "69210", "ZIP4": "NOT AVAILABLE", "TELEPHONE": "(402) 387-2800", "TYPE": "CRITICAL ACCESS", "STATUS": "OPEN", "POPULATION": 23, "COUNTY": "BROWN", "COUNTYFIPS": "31017", "COUNTRY": "USA", "LATITUDE": 42.544513463999998, "LONGITUDE": -99.849561049000002, "NAICS_CODE": "622110", "NAICS_DESC": "GENERAL MEDICAL AND SURGICAL HOSPITALS", "SOURCE": "http://dhhs.ne.gov/publichealth/Documents/Hospital%20Roster.pdf", "SOURCEDATE": "2018-08-09T00:00:00.000Z", "VAL_METHOD": "IMAGERY", "VAL_DATE": "2014-02-10T00:00:00.000Z", "WEBSITE": "http://www.browncountyhospital.org", "STATE_ID": "281325", "ALT_NAME": "NOT AVAILABLE", "ST_FIPS": "31", "OWNER": "GOVERNMENT - LOCAL", "TTL_STAFF": -999, "BEDS": 23, "TRAUMA": "LEVEL IV", "HELIPAD": "Y" }, "geometry": { "type": "Polygon", "coordinates": [ [ [ -99.876207, 42.426606 ], [ -100.028036, 42.563273 ], [ -100.02815, 42.570864 ], [ -99.853272, 42.665846 ], [ -99.735723, 42.599949 ], [ -99.686151, 42.549553 ], [ -99.695839, 42.524509 ], [ -99.83238, 42.448354 ], [ -99.876207, 42.426606 ] ] ] } },
{ "type": "Feature", "properties": { "OBJECTID": 5204, "ID": "0003257108", "NAME": "AVERA HEART HOSPITAL OF SOUTH DAKOTA", "ADDRESS": "4500 WEST 69TH STREET", "CITY": "SIOUX FALLS", "STATE": "SD", "ZIP": "57108", "ZIP4": "NOT AVAILABLE", "TELEPHONE": "(605) 977-7000", "TYPE": "SPECIAL", "STATUS": "OPEN", "POPULATION": 53, "COUNTY": "LINCOLN", "COUNTYFIPS": "46083", "COUNTRY": "USA", "LATITUDE": 43.490942992999997, "LONGITUDE": -96.780734181, "NAICS_CODE": "622310", "NAICS_DESC": "SPECIALTY (EXCEPT PSYCHIATRIC AND SUBSTANCE ABUSE) HOSPITALS", "SOURCE": "https://apps.sd.gov/ph04lassnet/rptPH04LicenseList.Aspx", "SOURCEDATE": "2018-08-10T00:00:00.000Z", "VAL_METHOD": "IMAGERY", "VAL_DATE": "2014-03-12T00:00:00.000Z", "WEBSITE": "http://www.avera.org/locations/heart-hospital/", "STATE_ID": "NOT AVAILABLE", "ALT_NAME": "NOT AVAILABLE", "ST_FIPS": "46", "OWNER": "NON-PROFIT", "TTL_STAFF": -999, "BEDS": 53, "TRAUMA": "NOT AVAILABLE", "HELIPAD": "Y" }, "geometry": { "type": "Polygon", "coordinates": [ [ [ -96.7964738, 43.382321 ], [ -96.8063816, 43.388392499999973 ], [ -96.869941, 43.460023 ], [ -96.8704556, 43.500163899999983 ], [ -96.8705055, 43.514654300000018 ], [ -96.8409285, 43.546864400000047 ], [ -96.7704151, 43.608660700000044 ], [ -96.6931456, 43.581527600000022 ], [ -96.676572, 43.568905 ], [ -96.6402796, 43.529415 ], [ -96.6488709, 43.479265 ], [ -96.6906979, 43.4314349 ], [ -96.7274515, 43.4025236 ], [ -96.767027, 43.388184299999949 ], [ -96.7964738, 43.382321 ] ] ] } },
{ "type": "Feature", "properties": { "OBJECTID": 5215, "ID": "0010956136", "NAME": "HENDRICKS COMM HOSP", "ADDRESS": "503 EAST LINCOLN STREET", "CITY": "HENDRICKS", "STATE": "MN", "ZIP": "56136", "ZIP4": "NOT AVAILABLE", "TELEPHONE": "(507) 275-3134", "TYPE": "CRITICAL ACCESS", "STATUS": "OPEN", "POPULATION": 24, "COUNTY": "LINCOLN", "COUNTYFIPS": "27081", "COUNTRY": "USA", "LATITUDE": 44.505836371999997, "LONGITUDE": -96.418423038, "NAICS_CODE": "622110", "NAICS_DESC": "GENERAL MEDICAL AND SURGICAL HOSPITALS", "SOURCE": "http://www.health.state.mn.us/divs/fpc/directory/providerselect.cfm", "SOURCEDATE": "2018-08-09T00:00:00.000Z", "VAL_METHOD": "IMAGERY", "VAL_DATE": "2014-02-10T00:00:00.000Z", "WEBSITE": "http://www.hendrickshosp.org", "STATE_ID": "340", "ALT_NAME": "NOT AVAILABLE", "ST_FIPS": "27", "OWNER": "NON-PROFIT", "TTL_STAFF": -999, "BEDS": 24, "TRAUMA": "LEVEL IV", "HELIPAD": "Y" }, "geometry": { "type": "Polygon", "coordinates": [ [ [ -96.42483, 44.400613 ], [ -96.484965, 44.462728 ], [ -96.48493, 44.470339 ], [ -96.454476, 44.572643799999959 ], [ -96.439511, 44.595033 ], [ -96.419159, 44.602042 ], [ -96.316714, 44.543525599999981 ], [ -96.28174, 44.518236 ], [ -96.281925, 44.50362 ], [ -96.323549, 44.459165 ], [ -96.343815, 44.4445 ], [ -96.364075, 44.430114 ], [ -96.42483, 44.400613 ] ] ] } },
{ "type": "Feature", "properties": { "OBJECTID": 5343, "ID": "0094051031", "NAME": "FLOYD VALLEY HOSPITAL", "ADDRESS": "714 LINCOLN ST NE", "CITY": "LE MARS", "STATE": "IA", "ZIP": "51031", "ZIP4": "NOT AVAILABLE", "TELEPHONE": "(712) 546-7871", "TYPE": "CRITICAL ACCESS", "STATUS": "OPEN", "POPULATION": 25, "COUNTY": "PLYMOUTH", "COUNTYFIPS": "19149", "COUNTRY": "USA", "LATITUDE": 42.796236996000097, "LONGITUDE": -96.155625317000002, "NAICS_CODE": "622110", "NAICS_DESC": "GENERAL MEDICAL AND SURGICAL HOSPITALS", "SOURCE": "https://dia-hfd.iowa.gov/DIA_HFD/CTLEntitySearch.do", "SOURCEDATE": "2018-08-09T00:00:00.000Z", "VAL_METHOD": "IMAGERY/OTHER", "VAL_DATE": "2016-04-18T00:00:00.000Z", "WEBSITE": "http://www.floydvalleyhospital.org", "STATE_ID": "NOT AVAILABLE", "ALT_NAME": "NOT AVAILABLE", "ST_FIPS": "19", "OWNER": "NOT AVAILABLE", "TTL_STAFF": -999, "BEDS": 25, "TRAUMA": "LEVEL IV", "HELIPAD": "N" }, "geometry": { "type": "Polygon", "coordinates": [ [ [ -96.1546776, 42.6780362 ], [ -96.251846, 42.71176849999997 ], [ -96.2594494, 42.721156500000028 ], [ -96.2923641, 42.7641849 ], [ -96.3120571, 42.793098800000031 ], [ -96.1902687, 42.894877600000029 ], [ -96.0898678, 42.8954863 ], [ -96.0892677, 42.895328100000015 ], [ -95.9873421, 42.80869950000001 ], [ -96.0574856, 42.7499483 ], [ -96.1546776, 42.6780362 ] ] ] } },
{ "type": "Feature", "properties": { "OBJECTID": 5530, "ID": "0001851250", "NAME": "SIOUX CENTER COMMUNITY HOSPITAL & HEALTH CENTER", "ADDRESS": "605 SOUTH MAIN AVENUE", "CITY": "SIOUX CENTER", "STATE": "IA", "ZIP": "51250", "ZIP4": "NOT AVAILABLE", "TELEPHONE": "(712) 722-1271", "TYPE": "GENERAL ACUTE CARE", "STATUS": "CLOSED", "POPULATION": 90, "COUNTY": "SIOUX", "COUNTYFIPS": "19167", "COUNTRY": "USA", "LATITUDE": 43.072090781999997, "LONGITUDE": -96.17607879000001, "NAICS_CODE": "622110", "NAICS_DESC": "GENERAL MEDICAL AND SURGICAL HOSPITALS", "SOURCE": "ftp://ftp.igsb.uiowa.edu/gis_library/IA_State/Infrastructure/", "SOURCEDATE": "2012-06-05T00:00:00.000Z", "VAL_METHOD": "IMAGERY/OTHER", "VAL_DATE": "2014-02-10T00:00:00.000Z", "WEBSITE": "http://www.schospital.org", "STATE_ID": "NOT AVAILABLE", "ALT_NAME": "NOT AVAILABLE", "ST_FIPS": "19", "OWNER": "NON-PROFIT", "TTL_STAFF": -999, "BEDS": 90, "TRAUMA": "LEVEL IV", "HELIPAD": "N" }, "geometry": { "type": "Polygon", "coordinates": [ [ [ -96.1752014, 42.9531266 ], [ -96.1950752, 42.967713800000013 ], [ -96.25373027599791, 43.011701286546057 ], [ -96.293532342560624, 43.055248406228884 ], [ -96.31364362292139, 43.084157015650668 ], [ -96.185677840814364, 43.185716741028315 ], [ -96.182591532555406, 43.188010534337025 ], [ -96.177298830787549, 43.185735926459841 ], [ -96.07533351345262, 43.113560572313389 ], [ -96.01737361966164, 43.07001046918991 ], [ -96.155396300000021, 42.967765200000066 ], [ -96.1752014, 42.9531266 ] ] ] } },
{ "type": "Feature", "properties": { "OBJECTID": 3055, "ID": "0002357366", "NAME": "AVERA SAINT BENEDICT HEALTH CENTER", "ADDRESS": "401 WEST GLYNN DRIVE", "CITY": "PARKSTON", "STATE": "SD", "ZIP": "57366", "ZIP4": "NOT AVAILABLE", "TELEPHONE": "(605) 928-3311", "TYPE": "CRITICAL ACCESS", "STATUS": "OPEN", "POPULATION": 25, "COUNTY": "HUTCHINSON", "COUNTYFIPS": "46067", "COUNTRY": "USA", "LATITUDE": 43.39969038, "LONGITUDE": -97.991240555000005, "NAICS_CODE": "622110", "NAICS_DESC": "GENERAL MEDICAL AND SURGICAL HOSPITALS", "SOURCE": "https://apps.sd.gov/ph04lassnet/rptPH04LicenseList.Aspx", "SOURCEDATE": "2018-08-10T00:00:00.000Z", "VAL_METHOD": "IMAGERY", "VAL_DATE": "2014-02-10T00:00:00.000Z", "WEBSITE": "http://www.averastbenedict.org", "STATE_ID": "NOT AVAILABLE", "ALT_NAME": "NOT AVAILABLE", "ST_FIPS": "46", "OWNER": "NON-PROFIT", "TTL_STAFF": -999, "BEDS": 25, "TRAUMA": "TRH", "HELIPAD": "N" }, "geometry": { "type": "Polygon", "coordinates": [ [ [ -97.992429, 43.283177 ], [ -98.131339, 43.383767 ], [ -98.095611, 43.427588 ], [ -98.004521, 43.513342 ], [ -97.976927, 43.499007 ], [ -97.857714, 43.39917 ], [ -97.857596, 43.384778 ], [ -97.992429, 43.283177 ] ] ] } },
{ "type": "Feature", "properties": { "OBJECTID": 3056, "ID": "0005557070", "NAME": "PIONEER MEMORIAL HOSPITAL AND HEALTH SERVICES", "ADDRESS": "315 NORTH WASHINGTON STREET", "CITY": "VIBORG", "STATE": "SD", "ZIP": "57070", "ZIP4": "NOT AVAILABLE", "TELEPHONE": "(605) 326-5161", "TYPE": "CRITICAL ACCESS", "STATUS": "OPEN", "POPULATION": 12, "COUNTY": "TURNER", "COUNTYFIPS": "46125", "COUNTRY": "USA", "LATITUDE": 43.1753810330001, "LONGITUDE": -97.084042559999901, "NAICS_CODE": "622110", "NAICS_DESC": "GENERAL MEDICAL AND SURGICAL HOSPITALS", "SOURCE": "https://apps.sd.gov/ph04lassnet/rptPH04LicenseList.Aspx", "SOURCEDATE": "2018-08-10T00:00:00.000Z", "VAL_METHOD": "IMAGERY", "VAL_DATE": "2014-03-12T00:00:00.000Z", "WEBSITE": "http://www.pioneermemorial.org", "STATE_ID": "NOT AVAILABLE", "ALT_NAME": "NOT AVAILABLE", "ST_FIPS": "46", "OWNER": "NON-PROFIT", "TTL_STAFF": -999, "BEDS": 12, "TRAUMA": "TRH", "HELIPAD": "N" }, "geometry": { "type": "Polygon", "coordinates": [ [ [ -97.04224784489152, 43.097758133369354 ], [ -97.120896821802148, 43.098103414748522 ], [ -97.141102395303633, 43.112222404907257 ], [ -97.161202365663925, 43.126556395221883 ], [ -97.180239332333898, 43.14102838704968 ], [ -97.180498182713094, 43.184397449489566 ], [ -97.160879072483056, 43.213342522416298 ], [ -97.140621965707197, 43.242564597404758 ], [ -97.090889, 43.286082 ], [ -97.084674, 43.286085 ], [ -97.0824567, 43.286065900000011 ], [ -97.062448, 43.271784 ], [ -97.0425806, 43.257359199999989 ], [ -97.023231917513854, 43.242900785256232 ], [ -96.943489093429505, 43.170722611701358 ], [ -96.977477277875906, 43.141303429248907 ], [ -97.04224784489152, 43.097758133369354 ] ] ] } },
{ "type": "Feature", "properties": { "OBJECTID": 3057, "ID": "0005457580", "NAME": "WINNER REGIONAL HEALTHCARE CENTER", "ADDRESS": "745 EAST 8TH STREET", "CITY": "WINNER", "STATE": "SD", "ZIP": "57580", "ZIP4": "NOT AVAILABLE", "TELEPHONE": "(605) 842-7100", "TYPE": "CRITICAL ACCESS", "STATUS": "OPEN", "POPULATION": 25, "COUNTY": "TRIPP", "COUNTYFIPS": "46123", "COUNTRY": "USA", "LATITUDE": 43.369929758000097, "LONGITUDE": -99.847295091000007, "NAICS_CODE": "622110", "NAICS_DESC": "GENERAL MEDICAL AND SURGICAL HOSPITALS", "SOURCE": "https://apps.sd.gov/ph04lassnet/rptPH04LicenseList.Aspx", "SOURCEDATE": "2018-08-10T00:00:00.000Z", "VAL_METHOD": "IMAGERY", "VAL_DATE": "2014-02-10T00:00:00.000Z", "WEBSITE": "http://www.winnerregional.org", "STATE_ID": "NOT AVAILABLE", "ALT_NAME": "NOT AVAILABLE", "ST_FIPS": "46", "OWNER": "NON-PROFIT", "TTL_STAFF": -999, "BEDS": 25, "TRAUMA": "CTH", "HELIPAD": "Y" }, "geometry": { "type": "Polygon", "coordinates": [ [ [ -99.7452032, 43.2848146 ], [ -99.88979, 43.32843 ], [ -99.969141, 43.371901 ], [ -99.969214100000016, 43.3863561 ], [ -99.86966, 43.429877 ], [ -99.850536, 43.429816 ], [ -99.771047, 43.415251 ], [ -99.6923165, 43.3858308 ], [ -99.7452032, 43.2848146 ] ] ] } },
{ "type": "Feature", "properties": { "OBJECTID": 3059, "ID": "0004457028", "NAME": "AVERA FLANDREAU HOSPITAL", "ADDRESS": "214 NORTH PRAIRIE STREET", "CITY": "FLANDREAU", "STATE": "SD", "ZIP": "57028", "ZIP4": "NOT AVAILABLE", "TELEPHONE": "(605) 997-2433", "TYPE": "CRITICAL ACCESS", "STATUS": "OPEN", "POPULATION": 18, "COUNTY": "MOODY", "COUNTYFIPS": "46101", "COUNTRY": "USA", "LATITUDE": 44.051351916000002, "LONGITUDE": -96.591463090999994, "NAICS_CODE": "622110", "NAICS_DESC": "GENERAL MEDICAL AND SURGICAL HOSPITALS", "SOURCE": "https://apps.sd.gov/ph04lassnet/rptPH04LicenseList.Aspx", "SOURCEDATE": "2018-08-10T00:00:00.000Z", "VAL_METHOD": "IMAGERY", "VAL_DATE": "2014-03-12T00:00:00.000Z", "WEBSITE": "http://www.avera.org/", "STATE_ID": "NOT AVAILABLE", "ALT_NAME": "NOT AVAILABLE", "ST_FIPS": "46", "OWNER": "NON-PROFIT", "TTL_STAFF": -999, "BEDS": 18, "TRAUMA": "TRH", "HELIPAD": "Y" }, "geometry": { "type": "Polygon", "coordinates": [ [ [ -96.586835, 43.964226 ], [ -96.6553649, 43.99718 ], [ -96.728923, 44.051375 ], [ -96.669004, 44.094964 ], [ -96.588561, 44.152783 ], [ -96.48557, 44.080255 ], [ -96.464863, 44.050976 ], [ -96.465533, 44.036519 ], [ -96.5058583, 44.006988699999965 ], [ -96.525753, 43.993092 ], [ -96.586835, 43.964226 ] ] ] } },
{ "type": "Feature", "properties": { "OBJECTID": 3060, "ID": "0004057022", "NAME": "AVERA DELLS AREA HOSPITAL", "ADDRESS": "909 NORTH IOWA AVENUE", "CITY": "DELL RAPIDS", "STATE": "SD", "ZIP": "57022", "ZIP4": "NOT AVAILABLE", "TELEPHONE": "(605) 428-5431", "TYPE": "CRITICAL ACCESS", "STATUS": "OPEN", "POPULATION": 23, "COUNTY": "MINNEHAHA", "COUNTYFIPS": "46099", "COUNTRY": "USA", "LATITUDE": 43.828584536000101, "LONGITUDE": -96.715809979, "NAICS_CODE": "622110", "NAICS_DESC": "GENERAL MEDICAL AND SURGICAL HOSPITALS", "SOURCE": "https://apps.sd.gov/ph04lassnet/rptPH04LicenseList.Aspx", "SOURCEDATE": "2018-08-10T00:00:00.000Z", "VAL_METHOD": "IMAGERY", "VAL_DATE": "2014-02-10T00:00:00.000Z", "WEBSITE": "http://www.avera.org/", "STATE_ID": "NOT AVAILABLE", "ALT_NAME": "NOT AVAILABLE", "ST_FIPS": "46", "OWNER": "NON-PROFIT", "TTL_STAFF": -999, "BEDS": 23, "TRAUMA": "TRH", "HELIPAD": "Y" }, "geometry": { "type": "Polygon", "coordinates": [ [ [ -96.7112292, 43.724941500000043 ], [ -96.811211, 43.761074 ], [ -96.851456, 43.819088 ], [ -96.850105, 43.834141 ], [ -96.728383, 43.906189 ], [ -96.668024, 43.877354 ], [ -96.591652, 43.836979 ], [ -96.5717919, 43.826234800000023 ], [ -96.7112292, 43.724941500000043 ] ] ] } },
{ "type": "Feature", "properties": { "OBJECTID": 3061, "ID": "0000357252", "NAME": "MILBANK AREA HOSPITAL / AVERA HEALTH", "ADDRESS": "901 EAST VIRGIL AVENUE", "CITY": "MILBANK", "STATE": "SD", "ZIP": "57252", "ZIP4": "NOT AVAILABLE", "TELEPHONE": "(605) 432-4538", "TYPE": "CRITICAL ACCESS", "STATUS": "OPEN", "POPULATION": 25, "COUNTY": "GRANT", "COUNTYFIPS": "46051", "COUNTRY": "USA", "LATITUDE": 45.222458058000001, "LONGITUDE": -96.627173505000002, "NAICS_CODE": "622110", "NAICS_DESC": "GENERAL MEDICAL AND SURGICAL HOSPITALS", "SOURCE": "https://apps.sd.gov/ph04lassnet/rptPH04LicenseList.Aspx", "SOURCEDATE": "2018-08-10T00:00:00.000Z", "VAL_METHOD": "IMAGERY", "VAL_DATE": "2014-02-10T00:00:00.000Z", "WEBSITE": "http://www.averamilbank.org", "STATE_ID": "NOT AVAILABLE", "ALT_NAME": "NOT AVAILABLE", "ST_FIPS": "46", "OWNER": "NON-PROFIT", "TTL_STAFF": -999, "BEDS": 25, "TRAUMA": "TRH", "HELIPAD": "N" }, "geometry": { "type": "Polygon", "coordinates": [ [ [ -96.639641, 45.121369 ], [ -96.782236, 45.219878 ], [ -96.798959, 45.238967 ], [ -96.637036, 45.312056 ], [ -96.46754, 45.291289 ], [ -96.476478, 45.223427 ], [ -96.639641, 45.121369 ] ] ] } },
{ "type": "Feature", "properties": { "OBJECTID": 3094, "ID": "0007769201", "NAME": "CHERRY COUNTY HOSPITAL", "ADDRESS": "510 NORTH GREEN ST", "CITY": "VALENTINE", "STATE": "NE", "ZIP": "69201", "ZIP4": "NOT AVAILABLE", "TELEPHONE": "(402) 376-2525", "TYPE": "CRITICAL ACCESS", "STATUS": "OPEN", "POPULATION": 25, "COUNTY": "CHERRY", "COUNTYFIPS": "31031", "COUNTRY": "USA", "LATITUDE": 42.879390118000103, "LONGITUDE": -100.538166405, "NAICS_CODE": "622110", "NAICS_DESC": "GENERAL MEDICAL AND SURGICAL HOSPITALS", "SOURCE": "http://dhhs.ne.gov/publichealth/Documents/Hospital%20Roster.pdf", "SOURCEDATE": "2018-08-09T00:00:00.000Z", "VAL_METHOD": "IMAGERY", "VAL_DATE": "2014-02-10T00:00:00.000Z", "WEBSITE": "NOT AVAILABLE", "STATE_ID": "281344", "ALT_NAME": "NOT AVAILABLE", "ST_FIPS": "31", "OWNER": "GOVERNMENT - LOCAL", "TTL_STAFF": -999, "BEDS": 25, "TRAUMA": "LEVEL IV", "HELIPAD": "Y" }, "geometry": { "type": "Polygon", "coordinates": [ [ [ -100.532899, 42.787568 ], [ -100.625794, 42.79581 ], [ -100.6644263, 42.8081513 ], [ -100.708897, 42.910746 ], [ -100.5733318, 42.998487400000059 ], [ -100.415475, 42.9407 ], [ -100.456462, 42.800024 ], [ -100.532899, 42.787568 ] ] ] } },
{ "type": "Feature", "properties": { "OBJECTID": 3154, "ID": "0006157105", "NAME": "AVERA MCKENNAN HOSPITAL", "ADDRESS": "800 EAST 21ST STREET", "CITY": "SIOUX FALLS", "STATE": "SD", "ZIP": "57105", "ZIP4": "NOT AVAILABLE", "TELEPHONE": "(605) 322-8000", "TYPE": "GENERAL ACUTE CARE", "STATUS": "OPEN", "POPULATION": 514, "COUNTY": "MINNEHAHA", "COUNTYFIPS": "46099", "COUNTRY": "USA", "LATITUDE": 43.534237622, "LONGITUDE": -96.714322077000006, "NAICS_CODE": "622110", "NAICS_DESC": "GENERAL MEDICAL AND SURGICAL HOSPITALS", "SOURCE": "https://apps.sd.gov/ph04lassnet/rptPH04LicenseList.Aspx", "SOURCEDATE": "2018-08-10T00:00:00.000Z", "VAL_METHOD": "IMAGERY", "VAL_DATE": "2014-03-12T00:00:00.000Z", "WEBSITE": "http://www.averamckennan.org", "STATE_ID": "NOT AVAILABLE", "ALT_NAME": "NOT AVAILABLE", "ST_FIPS": "46", "OWNER": "NON-PROFIT", "TTL_STAFF": -999, "BEDS": 514, "TRAUMA": "RTH", "HELIPAD": "Y" }, "geometry": { "type": "Polygon", "coordinates": [ [ [ -96.7076225, 43.425519599999944 ], [ -96.7108874, 43.4255414 ], [ -96.7981352, 43.454303800000019 ], [ -96.8031549, 43.460968099999974 ], [ -96.830665, 43.500294 ], [ -96.8467255, 43.545302 ], [ -96.7911148, 43.605543600000026 ], [ -96.7861906, 43.609169499999979 ], [ -96.7113936, 43.648615300000017 ], [ -96.691452, 43.649303 ], [ -96.6516166, 43.630724400000013 ], [ -96.6197048, 43.5946979 ], [ -96.560555, 43.520916 ], [ -96.6488379, 43.46041610000001 ], [ -96.6927297, 43.431441199999981 ], [ -96.7008179, 43.427856500000026 ], [ -96.7076225, 43.425519599999944 ] ] ] } },
{ "type": "Feature", "properties": { "OBJECTID": 3168, "ID": "0008057105", "NAME": "SIOUX FALLS SPECIALTY HOSPITAL, LLP", "ADDRESS": "910 E 20TH ST", "CITY": "SIOUX FALLS", "STATE": "SD", "ZIP": "57105", "ZIP4": "1012", "TELEPHONE": "(605) 334-6730", "TYPE": "SPECIAL", "STATUS": "OPEN", "POPULATION": 26, "COUNTY": "MINNEHAHA", "COUNTYFIPS": "46099", "COUNTRY": "USA", "LATITUDE": 43.535056157, "LONGITUDE": -96.71426497, "NAICS_CODE": "622310", "NAICS_DESC": "SPECIALTY (EXCEPT PSYCHIATRIC AND SUBSTANCE ABUSE) HOSPITALS", "SOURCE": "https://apps.sd.gov/ph04lassnet/rptPH04LicenseList.Aspx", "SOURCEDATE": "2018-08-10T00:00:00.000Z", "VAL_METHOD": "IMAGERY/OTHER", "VAL_DATE": "2016-11-11T00:00:00.000Z", "WEBSITE": "https://www.sfsh.com/", "STATE_ID": "NOT AVAILABLE", "ALT_NAME": "NOT AVAILABLE", "ST_FIPS": "46", "OWNER": "PROPRIETARY", "TTL_STAFF": -999, "BEDS": 26, "TRAUMA": "NOT AVAILABLE", "HELIPAD": "Y" }, "geometry": { "type": "Polygon", "coordinates": [ [ [ -96.7076225, 43.425519599999944 ], [ -96.7108874, 43.4255414 ], [ -96.7981352, 43.454303800000019 ], [ -96.8031549, 43.460968099999974 ], [ -96.830665, 43.500294 ], [ -96.8467255, 43.545302 ], [ -96.7911148, 43.605543600000026 ], [ -96.7861906, 43.609169499999979 ], [ -96.7113936, 43.648615300000017 ], [ -96.691452, 43.649303 ], [ -96.6516166, 43.630724400000013 ], [ -96.6197048, 43.5946979 ], [ -96.560555, 43.520916 ], [ -96.6488379, 43.46041610000001 ], [ -96.6927297, 43.431441199999981 ], [ -96.7008179, 43.427856500000026 ], [ -96.7076225, 43.425519599999944 ] ] ] } },
{ "type": "Feature", "properties": { "OBJECTID": 3177, "ID": "0004357105", "NAME": "SIOUX FALLS VETERANS AFFAIRS MEDICAL CENTER", "ADDRESS": "2501 WEST 22ND STREET", "CITY": "SIOUX FALLS", "STATE": "SD", "ZIP": "57105", "ZIP4": "NOT AVAILABLE", "TELEPHONE": "(605) 336-3230", "TYPE": "MILITARY", "STATUS": "OPEN", "POPULATION": -999, "COUNTY": "MINNEHAHA", "COUNTYFIPS": "46099", "COUNTRY": "USA", "LATITUDE": 43.531101836000097, "LONGITUDE": -96.755058571000006, "NAICS_CODE": "622110", "NAICS_DESC": "GENERAL MEDICAL AND SURGICAL HOSPITALS", "SOURCE": "http://arcgis.sd.gov/ArcGIS/rest/services/SD_All/MapServer/38", "SOURCEDATE": "2018-08-10T00:00:00.000Z", "VAL_METHOD": "IMAGERY", "VAL_DATE": "2013-12-31T00:00:00.000Z", "WEBSITE": "http://www.siouxfalls.va.gov/", "STATE_ID": "NOT AVAILABLE", "ALT_NAME": "NOT AVAILABLE", "ST_FIPS": "46", "OWNER": "GOVERNMENT - FEDERAL", "TTL_STAFF": -999, "BEDS": -999, "TRAUMA": "NOT AVAILABLE", "HELIPAD": "N" }, "geometry": { "type": "Polygon", "coordinates": [ [ [ -96.7275427, 43.4282508 ], [ -96.7964253, 43.42785930000003 ], [ -96.8033564, 43.431925499999934 ], [ -96.8263723, 43.459167300000018 ], [ -96.8903871, 43.54373660000001 ], [ -96.7724383, 43.6488818 ], [ -96.691436, 43.616379 ], [ -96.660149, 43.587805 ], [ -96.6011268, 43.525458900000025 ], [ -96.6008682, 43.524368399999958 ], [ -96.7200892, 43.43161419999997 ], [ -96.7275427, 43.4282508 ] ] ] } },
{ "type": "Feature", "properties": { "OBJECTID": 3325, "ID": "0003857108", "NAME": "AVERA BEHAVIORAL HEALTH CENTER", "ADDRESS": "4400 WEST 69TH STREET", "CITY": "SIOUX FALLS", "STATE": "SD", "ZIP": "57108", "ZIP4": "NOT AVAILABLE", "TELEPHONE": "(605) 322-4065", "TYPE": "PSYCHIATRIC", "STATUS": "OPEN", "POPULATION": 54, "COUNTY": "LINCOLN", "COUNTYFIPS": "46083", "COUNTRY": "USA", "LATITUDE": 43.490940239000103, "LONGITUDE": -96.781759225000002, "NAICS_CODE": "622210", "NAICS_DESC": "PSYCHIATRIC AND SUBSTANCE ABUSE HOSPITALS", "SOURCE": "https://apps.sd.gov/ph04lassnet/rptPH04LicenseList.Aspx", "SOURCEDATE": "2018-08-10T00:00:00.000Z", "VAL_METHOD": "IMAGERY", "VAL_DATE": "2014-03-12T00:00:00.000Z", "WEBSITE": "http://www.avera.org/behavioral-health-center/", "STATE_ID": "NOT AVAILABLE", "ALT_NAME": "NOT AVAILABLE", "ST_FIPS": "46", "OWNER": "NON-PROFIT", "TTL_STAFF": -999, "BEDS": 54, "TRAUMA": "NOT AVAILABLE", "HELIPAD": "Y" }, "geometry": { "type": "Polygon", "coordinates": [ [ [ -96.7964738, 43.382321 ], [ -96.8063816, 43.388392499999973 ], [ -96.869941, 43.460023 ], [ -96.8704556, 43.500163899999983 ], [ -96.8705055, 43.514654300000018 ], [ -96.83081, 43.558288 ], [ -96.7704151, 43.608660700000044 ], [ -96.6871578, 43.569273600000017 ], [ -96.6836546, 43.566624299999987 ], [ -96.647645, 43.529424 ], [ -96.648900808214464, 43.489443816046737 ], [ -96.6686827, 43.460395599999984 ], [ -96.6980568, 43.431465499999966 ], [ -96.767027, 43.388184299999949 ], [ -96.7964738, 43.382321 ] ] ] } },
{ "type": "Feature", "properties": { "OBJECTID": 3766, "ID": "0001657313", "NAME": "DOUGLAS COUNTY MEMORIAL HOSPITAL", "ADDRESS": "708 8TH STREET", "CITY": "ARMOUR", "STATE": "SD", "ZIP": "57313", "ZIP4": "NOT AVAILABLE", "TELEPHONE": "(605) 724-2159", "TYPE": "CRITICAL ACCESS", "STATUS": "OPEN", "POPULATION": 11, "COUNTY": "DOUGLAS", "COUNTYFIPS": "46043", "COUNTRY": "USA", "LATITUDE": 43.325315625000002, "LONGITUDE": -98.345278617000005, "NAICS_CODE": "622110", "NAICS_DESC": "GENERAL MEDICAL AND SURGICAL HOSPITALS", "SOURCE": "https://apps.sd.gov/ph04lassnet/rptPH04LicenseList.Aspx", "SOURCEDATE": "2018-08-10T00:00:00.000Z", "VAL_METHOD": "IMAGERY", "VAL_DATE": "2014-02-10T00:00:00.000Z", "WEBSITE": "http://www.dcmhsd.org", "STATE_ID": "NOT AVAILABLE", "ALT_NAME": "NOT AVAILABLE", "ST_FIPS": "46", "OWNER": "NON-PROFIT", "TTL_STAFF": -999, "BEDS": 11, "TRAUMA": "TRH", "HELIPAD": "Y" }, "geometry": { "type": "Polygon", "coordinates": [ [ [ -98.306531, 43.257385 ], [ -98.3671094, 43.275700299999933 ], [ -98.464141, 43.306463 ], [ -98.50192, 43.326389 ], [ -98.426654, 43.385338 ], [ -98.3701238, 43.4134533 ], [ -98.312112, 43.413348 ], [ -98.2708, 43.384261 ], [ -98.22682, 43.325349 ], [ -98.286489, 43.268283 ], [ -98.306531, 43.257385 ] ] ] } },
{ "type": "Feature", "properties": { "OBJECTID": 3776, "ID": "0000168714", "NAME": "ROCK COUNTY HOSPITAL", "ADDRESS": "102 EAST SOUTH STREET", "CITY": "BASSETT", "STATE": "NE", "ZIP": "68714", "ZIP4": "NOT AVAILABLE", "TELEPHONE": "(402) 684-3366", "TYPE": "CRITICAL ACCESS", "STATUS": "OPEN", "POPULATION": 24, "COUNTY": "ROCK", "COUNTYFIPS": "31149", "COUNTRY": "USA", "LATITUDE": 42.575383772000102, "LONGITUDE": -99.537091351000001, "NAICS_CODE": "622110", "NAICS_DESC": "GENERAL MEDICAL AND SURGICAL HOSPITALS", "SOURCE": "http://dhhs.ne.gov/publichealth/Documents/Hospital%20Roster.pdf", "SOURCEDATE": "2018-08-09T00:00:00.000Z", "VAL_METHOD": "IMAGERY", "VAL_DATE": "2014-02-10T00:00:00.000Z", "WEBSITE": "http://www.rockcountyhospital.com", "STATE_ID": "281333", "ALT_NAME": "NOT AVAILABLE", "ST_FIPS": "31", "OWNER": "GOVERNMENT - LOCAL", "TTL_STAFF": -999, "BEDS": 24, "TRAUMA": "NOT AVAILABLE", "HELIPAD": "Y" }, "geometry": { "type": "Polygon", "coordinates": [ [ [ -99.539239, 42.448965 ], [ -99.571594, 42.463424 ], [ -99.676253, 42.528028 ], [ -99.6860244, 42.535505 ], [ -99.686444, 42.571734 ], [ -99.676695, 42.587966 ], [ -99.588361, 42.666602 ], [ -99.5394542, 42.666809300000054 ], [ -99.491491, 42.666731 ], [ -99.343385, 42.594116 ], [ -99.499765, 42.463539 ], [ -99.539239, 42.448965 ] ] ] } },
{ "type": "Feature", "properties": { "OBJECTID": 3787, "ID": "0007257108", "NAME": "TWELVE-STEP LIVING CORPORATION - TALLGRASS RECOVERY CENTER", "ADDRESS": "27048 SOUTH TALLGRASS AVENUE", "CITY": "SIOUX FALLS", "STATE": "SD", "ZIP": "57108", "ZIP4": "NOT AVAILABLE", "TELEPHONE": "(605) 368-5559", "TYPE": "PSYCHIATRIC", "STATUS": "OPEN", "POPULATION": -999, "COUNTY": "LINCOLN", "COUNTYFIPS": "46083", "COUNTRY": "USA", "LATITUDE": 43.468824001000002, "LONGITUDE": -96.784288128, "NAICS_CODE": "622210", "NAICS_DESC": "HOSPITALS, ADDICTION", "SOURCE": "https://apps.sd.gov/ph04lassnet/rptPH04LicenseList.Aspx", "SOURCEDATE": "2018-08-10T00:00:00.000Z", "VAL_METHOD": "IMAGERY/OTHER", "VAL_DATE": "2019-04-16T00:00:00.000Z", "WEBSITE": "http://www.tallgrassrecovery.org/", "STATE_ID": "NOT AVAILABLE", "ALT_NAME": "NOT AVAILABLE", "ST_FIPS": "46", "OWNER": "PROPRIETARY", "TTL_STAFF": -999, "BEDS": -999, "TRAUMA": "NOT AVAILABLE", "HELIPAD": "N" }, "geometry": { "type": "Polygon", "coordinates": [ [ [ -96.767056, 43.37368859999998 ], [ -96.7964738, 43.382321 ], [ -96.8063816, 43.388392499999973 ], [ -96.8735463, 43.446576199999981 ], [ -96.886048, 43.461119 ], [ -96.8407585, 43.515567299999972 ], [ -96.82261, 43.532927 ], [ -96.7782266, 43.566117600000069 ], [ -96.6936653, 43.546235 ], [ -96.6827222, 43.5293134 ], [ -96.6418681, 43.460421700000012 ], [ -96.7274365, 43.388063399999979 ], [ -96.767056, 43.37368859999998 ] ] ] } },
{ "type": "Feature", "properties": { "OBJECTID": 3996, "ID": "0006457523", "NAME": "COMMUNITY MEMORIAL HOSPITAL", "ADDRESS": "809 JACKSON STREET", "CITY": "BURKE", "STATE": "SD", "ZIP": "57523", "ZIP4": "NOT AVAILABLE", "TELEPHONE": "(605) 775-2621", "TYPE": "CRITICAL ACCESS", "STATUS": "OPEN", "POPULATION": 16, "COUNTY": "GREGORY", "COUNTYFIPS": "46053", "COUNTRY": "USA", "LATITUDE": 43.182093161000097, "LONGITUDE": -99.294009791999898, "NAICS_CODE": "622110", "NAICS_DESC": "GENERAL MEDICAL AND SURGICAL HOSPITALS", "SOURCE": "https://apps.sd.gov/ph04lassnet/rptPH04LicenseList.Aspx", "SOURCEDATE": "2018-08-10T00:00:00.000Z", "VAL_METHOD": "IMAGERY", "VAL_DATE": "2014-03-12T00:00:00.000Z", "WEBSITE": "http://www.sanfordhealth.org", "STATE_ID": "NOT AVAILABLE", "ALT_NAME": "NOT AVAILABLE", "ST_FIPS": "46", "OWNER": "NON-PROFIT", "TTL_STAFF": -999, "BEDS": 16, "TRAUMA": "TRH", "HELIPAD": "N" }, "geometry": { "type": "Polygon", "coordinates": [ [ [ -99.289297072841876, 43.082232973509569 ], [ -99.296835070420499, 43.082225971217483 ], [ -99.435197, 43.226818 ], [ -99.435199, 43.228949 ], [ -99.435193, 43.231156 ], [ -99.296914, 43.2847337 ], [ -99.189656239326837, 43.191630976737933 ], [ -99.139410472152804, 43.111289288419179 ], [ -99.139385165410459, 43.105898988612729 ], [ -99.289297072841876, 43.082232973509569 ] ] ] } }
]
}
