{
"type": "FeatureCollection",
"crs": { "type": "name", "properties": { "name": "urn:ogc:def:crs:OGC:1.3:CRS84" } },
"features": [
{ "type": "Feature", "properties": { "OBJECTID": 1305, "ID": "0013444820", "NAME": "BUCYRUS COMMUNITY HOSPITAL", "ADDRESS": "629 NORTH SANDUSKY AVENUE", "CITY": "BUCYRUS", "STATE": "OH", "ZIP": "44820", "ZIP4": "NOT AVAILABLE", "TELEPHONE": "(419) 562-4677", "TYPE": "CRITICAL ACCESS", "STATUS": "OPEN", "POPULATION": 25, "COUNTY": "CRAWFORD", "COUNTYFIPS": "39033", "COUNTRY": "USA", "LATITUDE": 40.815339897000101, "LONGITUDE": -82.976632127000002, "NAICS_CODE": "622110", "NAICS_DESC": "GENERAL MEDICAL AND SURGICAL HOSPITALS", "SOURCE": "http://publicapps.odh.ohio.gov/EID/Provider_Search.aspx", "SOURCEDATE": "2018-08-10T00:00:00.000Z", "VAL_METHOD": "IMAGERY/OTHER", "VAL_DATE": "2014-02-10T00:00:00.000Z", "WEBSITE": "http://avitahealth.org/home", "STATE_ID": "1130", "ALT_NAME": "AVITA HEALTH BUCYRUS", "ST_FIPS": "39", "OWNER": "NON-PROFIT", "TTL_STAFF": -999, "BEDS": 25, "TRAUMA": "NOT AVAILABLE", "HELIPAD": "Y" }, "geometry": { "type": "Polygon", "coordinates": [ [ [ -83.010075, 40.717817 ], [ -83.1366965, 40.806570100000016 ], [ -83.1341369, 40.8148209 ], [ -83.1316101, 40.818367299999984 ], [ -83.1307151, 40.819386 ], [ -83.10254, 40.844564 ], [ -83.073991, 40.862981 ], [ -83.016688, 40.892676 ], [ -82.95174, 40.92116 ], [ -82.870683, 40.872132 ], [ -82.83736, 40.812655 ], [ -82.8389034, 40.756142199999964 ], [ -82.8444, 40.745106 ], [ -82.895021, 40.733159 ], [ -83.000118, 40.71788 ], [ -83.010075, 40.717817 ] ] ] } },
{ "type": "Feature", "properties": { "OBJECTID": 1306, "ID": "0007644833", "NAME": "GALION COMMUNITY HOSPITAL", "ADDRESS": "269 PORTLAND WAY SOUTH", "CITY": "GALION", "STATE": "OH", "ZIP": "44833", "ZIP4": "NOT AVAILABLE", "TELEPHONE": "(419) 468-4841", "TYPE": "CRITICAL ACCESS", "STATUS": "OPEN", "POPULATION": 50, "COUNTY": "CRAWFORD", "COUNTYFIPS": "39033", "COUNTRY": "USA", "LATITUDE": 40.730903767000001, "LONGITUDE": -82.802257210999997, "NAICS_CODE": "622110", "NAICS_DESC": "GENERAL MEDICAL AND SURGICAL HOSPITALS", "SOURCE": "http://publicapps.odh.ohio.gov/EID/Provider_Search.aspx", "SOURCEDATE": "2018-08-10T00:00:00.000Z", "VAL_METHOD": "IMAGERY", "VAL_DATE": "2014-03-12T00:00:00.000Z", "WEBSITE": "http://www.galionhospital.org", "STATE_ID": "1132", "ALT_NAME": "NOT AVAILABLE", "ST_FIPS": "39", "OWNER": "NON-PROFIT", "TTL_STAFF": -999, "BEDS": 50, "TRAUMA": "NOT AVAILABLE", "HELIPAD": "Y" }, "geometry": { "type": "Polygon", "coordinates": [ [ [ -82.821833, 40.654518 ], [ -82.859021, 40.663409 ], [ -82.917758, 40.775004 ], [ -82.903113300000015, 40.782082300000013 ], [ -82.833249, 40.811234 ], [ -82.818793, 40.816896 ], [ -82.773908, 40.806654 ], [ -82.7358768, 40.7944512 ], [ -82.7261881, 40.789443399999975 ], [ -82.7219183, 40.769494400000028 ], [ -82.7217943, 40.762915 ], [ -82.727092, 40.71124159999998 ], [ -82.731976, 40.69337 ], [ -82.7464669, 40.682553500000033 ], [ -82.7655899, 40.668313 ], [ -82.821833, 40.654518 ] ] ] } },
{ "type": "Feature", "properties": { "OBJECTID": 1400, "ID": "0005144875", "NAME": "OHIOHEALTH SHELBY HOSPITAL", "ADDRESS": "199 WEST MAIN STREET", "CITY": "SHELBY", "STATE": "OH", "ZIP": "44875", "ZIP4": "NOT AVAILABLE", "TELEPHONE": "(419) 342-5015", "TYPE": "CRITICAL ACCESS", "STATUS": "OPEN", "POPULATION": 40, "COUNTY": "RICHLAND", "COUNTYFIPS": "39139", "COUNTRY": "USA", "LATITUDE": 40.882406732, "LONGITUDE": -82.674175077000001, "NAICS_CODE": "622110", "NAICS_DESC": "GENERAL MEDICAL AND SURGICAL HOSPITALS", "SOURCE": "http://publicapps.odh.ohio.gov/EID/Provider_Search.aspx", "SOURCEDATE": "2018-08-10T00:00:00.000Z", "VAL_METHOD": "IMAGERY", "VAL_DATE": "2014-02-10T00:00:00.000Z", "WEBSITE": "https://www.ohiohealth.com/shelby/", "STATE_ID": "1259", "ALT_NAME": "MEDCENTRAL HEALTH SYSTEM SHELBY HOSPITAL", "ST_FIPS": "39", "OWNER": "NON-PROFIT", "TTL_STAFF": -999, "BEDS": 40, "TRAUMA": "NOT AVAILABLE", "HELIPAD": "N" }, "geometry": { "type": "Polygon", "coordinates": [ [ [ -82.661535, 40.798501 ], [ -82.7301886, 40.821816 ], [ -82.783312, 40.857771 ], [ -82.77997, 40.887266 ], [ -82.776347, 40.908011 ], [ -82.772196, 40.914574 ], [ -82.667138, 40.959234 ], [ -82.560891905451768, 40.905204008844137 ], [ -82.551960004516275, 40.88660177894149 ], [ -82.586526979495375, 40.805801656789555 ], [ -82.590119280750656, 40.802440652998023 ], [ -82.628492, 40.797645 ], [ -82.661535, 40.798501 ] ] ] } },
{ "type": "Feature", "properties": { "OBJECTID": 1415, "ID": "0011444883", "NAME": "MERCY TIFFIN HOSPITAL", "ADDRESS": "45 ST LAWRENCE DRIVE", "CITY": "TIFFIN", "STATE": "OH", "ZIP": "44883", "ZIP4": "NOT AVAILABLE", "TELEPHONE": "(419) 455-7000", "TYPE": "GENERAL ACUTE CARE", "STATUS": "OPEN", "POPULATION": 120, "COUNTY": "SENECA", "COUNTYFIPS": "39147", "COUNTRY": "USA", "LATITUDE": 41.103767023000003, "LONGITUDE": -83.216262813999904, "NAICS_CODE": "622110", "NAICS_DESC": "GENERAL MEDICAL AND SURGICAL HOSPITALS", "SOURCE": "http://publicapps.odh.ohio.gov/EID/Provider_Search.aspx", "SOURCEDATE": "2018-08-10T00:00:00.000Z", "VAL_METHOD": "IMAGERY", "VAL_DATE": "2014-02-10T00:00:00.000Z", "WEBSITE": "http://www.mercyweb.org/mercy_tiffin.aspx", "STATE_ID": "1267", "ALT_NAME": "NOT AVAILABLE", "ST_FIPS": "39", "OWNER": "NON-PROFIT", "TTL_STAFF": -999, "BEDS": 120, "TRAUMA": "NOT AVAILABLE", "HELIPAD": "Y" }, "geometry": { "type": "Polygon", "coordinates": [ [ [ -83.232471, 41.029009 ], [ -83.3220901, 41.050708800000031 ], [ -83.324416, 41.087072 ], [ -83.324431, 41.093738 ], [ -83.324432, 41.094329 ], [ -83.304505, 41.133513 ], [ -83.285033, 41.152653 ], [ -83.1612434, 41.155350700000028 ], [ -83.127233, 41.145133 ], [ -83.1168965, 41.1388991 ], [ -83.108042, 41.12522 ], [ -83.107657, 41.124497 ], [ -83.0930345, 41.080676 ], [ -83.131825, 41.04826 ], [ -83.17022, 41.029424 ], [ -83.232471, 41.029009 ] ] ] } },
{ "type": "Feature", "properties": { "OBJECTID": 6007, "ID": "0009844053", "NAME": "MERCY REGIONAL MEDICAL CENTER", "ADDRESS": "3700 KOLBE ROAD", "CITY": "LORAIN", "STATE": "OH", "ZIP": "44053", "ZIP4": "NOT AVAILABLE", "TELEPHONE": "(440) 960-4000", "TYPE": "GENERAL ACUTE CARE", "STATUS": "OPEN", "POPULATION": 338, "COUNTY": "LORAIN", "COUNTYFIPS": "39093", "COUNTRY": "USA", "LATITUDE": 41.436524539000096, "LONGITUDE": -82.237163527999897, "NAICS_CODE": "622110", "NAICS_DESC": "GENERAL MEDICAL AND SURGICAL HOSPITALS", "SOURCE": "http://publicapps.odh.ohio.gov/EID/Provider_Search.aspx", "SOURCEDATE": "2018-08-10T00:00:00.000Z", "VAL_METHOD": "IMAGERY", "VAL_DATE": "2014-02-10T00:00:00.000Z", "WEBSITE": "http://www.mercyonline.org/mercy_regional_medical_center.aspx", "STATE_ID": "1018", "ALT_NAME": "COMMUNITY HEALTH PARTNERS", "ST_FIPS": "39", "OWNER": "NON-PROFIT", "TTL_STAFF": -999, "BEDS": 338, "TRAUMA": "NOT AVAILABLE", "HELIPAD": "Y" }, "geometry": { "type": "Polygon", "coordinates": [ [ [ -82.286004206607714, 41.362983864278903 ], [ -82.326681309477905, 41.402160436892856 ], [ -82.344531160797473, 41.4249783411992 ], [ -82.335541172497628, 41.428802344111205 ], [ -82.178763746919614, 41.47167064827341 ], [ -82.139481, 41.481399 ], [ -82.132263, 41.469229 ], [ -82.109144, 41.404976 ], [ -82.116415099999983, 41.4004549 ], [ -82.214740492598764, 41.363359144972783 ], [ -82.286004206607714, 41.362983864278903 ] ] ] } },
{ "type": "Feature", "properties": { "OBJECTID": 6492, "ID": "0004845840", "NAME": "BLANCHARD VALLEY HOSPITAL", "ADDRESS": "1900 SOUTH MAIN STREET", "CITY": "FINDLAY", "STATE": "OH", "ZIP": "45840", "ZIP4": "NOT AVAILABLE", "TELEPHONE": "(419) 423-4500", "TYPE": "GENERAL ACUTE CARE", "STATUS": "OPEN", "POPULATION": 176, "COUNTY": "HANCOCK", "COUNTYFIPS": "39063", "COUNTRY": "USA", "LATITUDE": 41.017652666000103, "LONGITUDE": -83.651364192000003, "NAICS_CODE": "622110", "NAICS_DESC": "GENERAL MEDICAL AND SURGICAL HOSPITALS", "SOURCE": "http://publicapps.odh.ohio.gov/EID/Provider_Search.aspx", "SOURCEDATE": "2018-08-10T00:00:00.000Z", "VAL_METHOD": "IMAGERY", "VAL_DATE": "2014-03-12T00:00:00.000Z", "WEBSITE": "http://www.bvhealthsystem.org/", "STATE_ID": "1194", "ALT_NAME": "NOT AVAILABLE", "ST_FIPS": "39", "OWNER": "NON-PROFIT", "TTL_STAFF": -999, "BEDS": 176, "TRAUMA": "LEVEL III", "HELIPAD": "Y" }, "geometry": { "type": "Polygon", "coordinates": [ [ [ -83.6508744, 40.9038429 ], [ -83.72745, 40.979664 ], [ -83.751202, 41.017772 ], [ -83.731301, 41.06032 ], [ -83.727359, 41.065868 ], [ -83.707609, 41.087963 ], [ -83.658056, 41.138059 ], [ -83.58323, 41.075082 ], [ -83.535594, 40.985081 ], [ -83.534809, 40.976622 ], [ -83.6508744, 40.9038429 ] ] ] } },
{ "type": "Feature", "properties": { "OBJECTID": 6494, "ID": "0007844857", "NAME": "FISHER-TITUS HOSPITAL", "ADDRESS": "272 BENEDICT AVENUE", "CITY": "NORWALK", "STATE": "OH", "ZIP": "44857", "ZIP4": "NOT AVAILABLE", "TELEPHONE": "(419) 668-8101", "TYPE": "GENERAL ACUTE CARE", "STATUS": "OPEN", "POPULATION": 114, "COUNTY": "HURON", "COUNTYFIPS": "39077", "COUNTRY": "USA", "LATITUDE": 41.225704273000098, "LONGITUDE": -82.604210250999998, "NAICS_CODE": "622110", "NAICS_DESC": "GENERAL MEDICAL AND SURGICAL HOSPITALS", "SOURCE": "http://publicapps.odh.ohio.gov/EID/Provider_Search.aspx", "SOURCEDATE": "2018-08-10T00:00:00.000Z", "VAL_METHOD": "IMAGERY", "VAL_DATE": "2014-02-10T00:00:00.000Z", "WEBSITE": "http://www.fisher-titus.com", "STATE_ID": "1204", "ALT_NAME": "NOT AVAILABLE", "ST_FIPS": "39", "OWNER": "NON-PROFIT", "TTL_STAFF": -999, "BEDS": 114, "TRAUMA": "LEVEL III", "HELIPAD": "Y" }, "geometry": { "type": "Polygon", "coordinates": [ [ [ -82.588733479962343, 41.156616477936858 ], [ -82.681556520688531, 41.191928628782101 ], [ -82.741442770122632, 41.233439679834788 ], [ -82.745725639074848, 41.256411587919338 ], [ -82.642614545674377, 41.286541162438411 ], [ -82.571669068253101, 41.287452022950866 ], [ -82.538877717631038, 41.286009123045055 ], [ -82.532483712578099, 41.280697170106592 ], [ -82.508131789379561, 41.248622432698404 ], [ -82.491339753489513, 41.221941394692529 ], [ -82.490850818071607, 41.20349477213167 ], [ -82.54054884867567, 41.154473790637546 ], [ -82.577750782019592, 41.156096458176954 ], [ -82.588733479962343, 41.156616477936858 ] ] ] } },
{ "type": "Feature", "properties": { "OBJECTID": 6519, "ID": "0006544254", "NAME": "LODI COMMUNITY HOSPITAL", "ADDRESS": "225 ELYRIA STREET", "CITY": "LODI", "STATE": "OH", "ZIP": "44254", "ZIP4": "NOT AVAILABLE", "TELEPHONE": "(330) 948-1222", "TYPE": "CRITICAL ACCESS", "STATUS": "OPEN", "POPULATION": 20, "COUNTY": "MEDINA", "COUNTYFIPS": "39103", "COUNTRY": "USA", "LATITUDE": 41.035862318000099, "LONGITUDE": -82.014169285999998, "NAICS_CODE": "622110", "NAICS_DESC": "GENERAL MEDICAL AND SURGICAL HOSPITALS", "SOURCE": "http://publicapps.odh.ohio.gov/EID/Provider_Search.aspx", "SOURCEDATE": "2018-08-10T00:00:00.000Z", "VAL_METHOD": "IMAGERY", "VAL_DATE": "2014-03-12T00:00:00.000Z", "WEBSITE": "http://www.lodihospital.org", "STATE_ID": "1234", "ALT_NAME": "NOT AVAILABLE", "ST_FIPS": "39", "OWNER": "NON-PROFIT", "TTL_STAFF": -999, "BEDS": 20, "TRAUMA": "NOT AVAILABLE", "HELIPAD": "Y" }, "geometry": { "type": "Polygon", "coordinates": [ [ [ -82.104113805169817, 40.976305120057575 ], [ -82.145232, 41.027419 ], [ -82.06013, 41.099971 ], [ -82.02418, 41.112529 ], [ -82.00296, 41.112254 ], [ -81.9370802, 41.0925171 ], [ -81.8614962, 41.033078300000042 ], [ -81.863956, 41.027381 ], [ -81.877007, 41.019301 ], [ -81.940010447751547, 40.989635568565618 ], [ -82.05391164628162, 40.974384692188593 ], [ -82.078069818181561, 40.974283754983119 ], [ -82.104113805169817, 40.976305120057575 ] ] ] } },
{ "type": "Feature", "properties": { "OBJECTID": 6736, "ID": "0000544256", "NAME": "MEDINA HOSPITAL", "ADDRESS": "1000 EAST WASHINGTON STREET", "CITY": "MEDINA", "STATE": "OH", "ZIP": "44256", "ZIP4": "NOT AVAILABLE", "TELEPHONE": "(330) 725-1000", "TYPE": "GENERAL ACUTE CARE", "STATUS": "OPEN", "POPULATION": 171, "COUNTY": "MEDINA", "COUNTYFIPS": "39103", "COUNTRY": "USA", "LATITUDE": 41.138450874999997, "LONGITUDE": -81.838292925000005, "NAICS_CODE": "622110", "NAICS_DESC": "GENERAL MEDICAL AND SURGICAL HOSPITALS", "SOURCE": "http://publicapps.odh.ohio.gov/EID/Provider_Search.aspx", "SOURCEDATE": "2018-08-10T00:00:00.000Z", "VAL_METHOD": "IMAGERY", "VAL_DATE": "2014-03-12T00:00:00.000Z", "WEBSITE": "http://www.medinahospital.org", "STATE_ID": "1236", "ALT_NAME": "NOT AVAILABLE", "ST_FIPS": "39", "OWNER": "NON-PROFIT", "TTL_STAFF": -999, "BEDS": 171, "TRAUMA": "NOT AVAILABLE", "HELIPAD": "Y" }, "geometry": { "type": "Polygon", "coordinates": [ [ [ -81.8642855, 41.069113800000025 ], [ -81.911091, 41.099254 ], [ -81.949273, 41.135903 ], [ -81.9589901, 41.1674697 ], [ -81.9251, 41.193821 ], [ -81.797397, 41.2383857 ], [ -81.795776300000014, 41.2384037 ], [ -81.7949523, 41.2384037 ], [ -81.735252, 41.201931 ], [ -81.6869955, 41.1360027 ], [ -81.6869981, 41.135893899999964 ], [ -81.7349704, 41.099154399999968 ], [ -81.7355186, 41.098737 ], [ -81.7853461, 41.062904199999984 ], [ -81.8642855, 41.069113800000025 ] ] ] } },
{ "type": "Feature", "properties": { "OBJECTID": 6791, "ID": "0004244691", "NAME": "WOOSTER COMMUNITY HOSPITAL", "ADDRESS": "1761 BEALL AVENUE", "CITY": "WOOSTER", "STATE": "OH", "ZIP": "44691", "ZIP4": "NOT AVAILABLE", "TELEPHONE": "(330) 263-8100", "TYPE": "GENERAL ACUTE CARE", "STATUS": "OPEN", "POPULATION": 150, "COUNTY": "WAYNE", "COUNTYFIPS": "39169", "COUNTRY": "USA", "LATITUDE": 40.820887467, "LONGITUDE": -81.932161464999993, "NAICS_CODE": "622110", "NAICS_DESC": "GENERAL MEDICAL AND SURGICAL HOSPITALS", "SOURCE": "http://publicapps.odh.ohio.gov/EID/Provider_Search.aspx", "SOURCEDATE": "2018-08-10T00:00:00.000Z", "VAL_METHOD": "IMAGERY", "VAL_DATE": "2014-02-04T00:00:00.000Z", "WEBSITE": "http://www.woosterhospital.org", "STATE_ID": "1292", "ALT_NAME": "NOT AVAILABLE", "ST_FIPS": "39", "OWNER": "GOVERNMENT - LOCAL", "TTL_STAFF": -999, "BEDS": 150, "TRAUMA": "NOT AVAILABLE", "HELIPAD": "Y" }, "geometry": { "type": "Polygon", "coordinates": [ [ [ -81.944146045697096, 40.733661762636537 ], [ -81.985495584333535, 40.743880281115018 ], [ -82.023259635146431, 40.76791617110559 ], [ -82.030352616350427, 40.810566552277962 ], [ -81.99343411141561, 40.865487005730692 ], [ -81.969616300966393, 40.887261874310177 ], [ -81.953385233130504, 40.894577875308961 ], [ -81.913653076484465, 40.903686904183026 ], [ -81.844196368295087, 40.872726030033242 ], [ -81.813537281378899, 40.829579956957581 ], [ -81.837144277141505, 40.795742446805413 ], [ -81.876924479349597, 40.757242510311215 ], [ -81.89593362107928, 40.748072792145017 ], [ -81.938495842794936, 40.733664675922334 ], [ -81.944146045697096, 40.733661762636537 ] ] ] } },
{ "type": "Feature", "properties": { "OBJECTID": 6938, "ID": "0016843326", "NAME": "HARDIN MEMORIAL HOSPITAL", "ADDRESS": "921 EAST FRANKLIN STREET", "CITY": "KENTON", "STATE": "OH", "ZIP": "43326", "ZIP4": "NOT AVAILABLE", "TELEPHONE": "(419) 675-8141", "TYPE": "CRITICAL ACCESS", "STATUS": "OPEN", "POPULATION": 25, "COUNTY": "HARDIN", "COUNTYFIPS": "39065", "COUNTRY": "USA", "LATITUDE": 40.646640326000103, "LONGITUDE": -83.595850654999893, "NAICS_CODE": "622110", "NAICS_DESC": "GENERAL MEDICAL AND SURGICAL HOSPITALS", "SOURCE": "http://publicapps.odh.ohio.gov/EID/Provider_Search.aspx", "SOURCEDATE": "2018-08-10T00:00:00.000Z", "VAL_METHOD": "IMAGERY", "VAL_DATE": "2014-02-10T00:00:00.000Z", "WEBSITE": "http://www.hardinmemorial.org", "STATE_ID": "1196", "ALT_NAME": "NOT AVAILABLE", "ST_FIPS": "39", "OWNER": "NON-PROFIT", "TTL_STAFF": -999, "BEDS": 25, "TRAUMA": "NOT AVAILABLE", "HELIPAD": "Y" }, "geometry": { "type": "Polygon", "coordinates": [ [ [ -83.585855, 40.557095 ], [ -83.717396, 40.603839 ], [ -83.692294, 40.68987 ], [ -83.624046, 40.718224 ], [ -83.556737, 40.731044 ], [ -83.477805, 40.694265 ], [ -83.477779, 40.68679 ], [ -83.496069, 40.64292 ], [ -83.55824, 40.580013 ], [ -83.585855, 40.557095 ] ] ] } },
{ "type": "Feature", "properties": { "OBJECTID": 4106, "ID": "0007344001", "NAME": "SPECIALTY HOSPITAL OF LORAIN", "ADDRESS": "254 CLEVELAND AVENUE, 2ND FLOOR", "CITY": "AMHERST", "STATE": "OH", "ZIP": "44001", "ZIP4": "NOT AVAILABLE", "TELEPHONE": "(440) 988-6260", "TYPE": "LONG TERM CARE", "STATUS": "OPEN", "POPULATION": 30, "COUNTY": "LORAIN", "COUNTYFIPS": "39093", "COUNTRY": "USA", "LATITUDE": 41.399196630000098, "LONGITUDE": -82.223587350999907, "NAICS_CODE": "622310", "NAICS_DESC": "SPECIALTY (EXCEPT PSYCHIATRIC AND SUBSTANCE ABUSE) HOSPITALS", "SOURCE": "http://publicapps.odh.ohio.gov/EID/Provider_Search.aspx", "SOURCEDATE": "2018-08-10T00:00:00.000Z", "VAL_METHOD": "IMAGERY", "VAL_DATE": "2014-02-10T00:00:00.000Z", "WEBSITE": "http://www.specialtyhospitaloflorain.org/", "STATE_ID": "1433", "ALT_NAME": "COMMUNITY SPECIALTY HOSPITAL", "ST_FIPS": "39", "OWNER": "NON-PROFIT", "TTL_STAFF": -999, "BEDS": 30, "TRAUMA": "NOT AVAILABLE", "HELIPAD": "Y" }, "geometry": { "type": "Polygon", "coordinates": [ [ [ -82.216836111852686, 41.308885256795797 ], [ -82.288633356973548, 41.344329963741821 ], [ -82.317524384372376, 41.383258076082654 ], [ -82.325043243624577, 41.395977579513122 ], [ -82.331411197979364, 41.40810048693023 ], [ -82.301944275756597, 41.425134769067363 ], [ -82.183342607469527, 41.46949682543508 ], [ -82.181681589687841, 41.469776235138333 ], [ -82.178805471361542, 41.468731556342952 ], [ -82.083798, 41.420688 ], [ -82.108385, 41.386117 ], [ -82.111417, 41.382667 ], [ -82.216836111852686, 41.308885256795797 ] ] ] } },
{ "type": "Feature", "properties": { "OBJECTID": 4163, "ID": "0123544903", "NAME": "KINDRED HOSPITAL CENTRAL OHIO", "ADDRESS": "335 GLESSNER AVENUE, 5TH FLOOR", "CITY": "MANSFIELD", "STATE": "OH", "ZIP": "44903", "ZIP4": "NOT AVAILABLE", "TELEPHONE": "(419) 526-0777", "TYPE": "LONG TERM CARE", "STATUS": "CLOSED", "POPULATION": 33, "COUNTY": "RICHLAND", "COUNTYFIPS": "39139", "COUNTRY": "USA", "LATITUDE": 40.752656555999998, "LONGITUDE": -82.528156365000001, "NAICS_CODE": "622110", "NAICS_DESC": "GENERAL MEDICAL AND SURGICAL HOSPITALS", "SOURCE": "http://publicapps.odh.ohio.gov/EID/Default.aspx", "SOURCEDATE": "2016-09-14T00:00:00.000Z", "VAL_METHOD": "IMAGERY/OTHER", "VAL_DATE": "2015-03-10T00:00:00.000Z", "WEBSITE": "http://www.khcentralohio.com/", "STATE_ID": "1426", "ALT_NAME": "NOT AVAILABLE", "ST_FIPS": "39", "OWNER": "PROPRIETARY", "TTL_STAFF": -999, "BEDS": 33, "TRAUMA": "NOT AVAILABLE", "HELIPAD": "Y" }, "geometry": { "type": "Polygon", "coordinates": [ [ [ -82.544548684531279, 40.649440365008672 ], [ -82.62943454095921, 40.715465961654402 ], [ -82.638651, 40.7395866 ], [ -82.6534917, 40.781475500000028 ], [ -82.590896927276319, 40.814708671483253 ], [ -82.513544393325049, 40.836359587980382 ], [ -82.477261332835752, 40.836602712931821 ], [ -82.408031942187364, 40.783610102242612 ], [ -82.404019171272338, 40.767559479053887 ], [ -82.438274879683718, 40.709902283454326 ], [ -82.51042228698725, 40.653561148141883 ], [ -82.512991085314255, 40.652253351708957 ], [ -82.544548684531279, 40.649440365008672 ] ] ] } },
{ "type": "Feature", "properties": { "OBJECTID": 7025, "ID": "0006943420", "NAME": "PHYSICIAN'S CHOICE HOSPITAL - FREMONT, LLC", "ADDRESS": "2390 ENTERPRISE DRIVE", "CITY": "FREMONT", "STATE": "OH", "ZIP": "43420", "ZIP4": "NOT AVAILABLE", "TELEPHONE": "(419) 461-1057", "TYPE": "GENERAL ACUTE CARE", "STATUS": "CLOSED", "POPULATION": -999, "COUNTY": "SANDUSKY", "COUNTYFIPS": "39143", "COUNTRY": "USA", "LATITUDE": 41.379740555000097, "LONGITUDE": -83.115880655999902, "NAICS_CODE": "622110", "NAICS_DESC": "GENERAL MEDICAL AND SURGICAL HOSPITALS", "SOURCE": "http://publicapps.odh.ohio.gov/EID/Provider_Search.aspx", "SOURCEDATE": "2012-07-23T00:00:00.000Z", "VAL_METHOD": "IMAGERY/OTHER", "VAL_DATE": "2014-02-10T00:00:00.000Z", "WEBSITE": "http://www.physicianschoicehospital.com", "STATE_ID": "360356", "ALT_NAME": "NOT AVAILABLE", "ST_FIPS": "39", "OWNER": "NON-PROFIT", "TTL_STAFF": -999, "BEDS": -999, "TRAUMA": "NOT AVAILABLE", "HELIPAD": "Y" }, "geometry": { "type": "Polygon", "coordinates": [ [ [ -83.168533797519558, 41.306043086617095 ], [ -83.239243419841614, 41.341378660665335 ], [ -83.24810097500557, 41.403776660843171 ], [ -83.247838876288228, 41.404199454487703 ], [ -83.173808600298429, 41.443355258382852 ], [ -83.135662975920937, 41.450422894258516 ], [ -83.062150558858932, 41.443267612269175 ], [ -82.992893907952222, 41.367346309095517 ], [ -83.004525592525354, 41.318864689062657 ], [ -83.005309896478181, 41.317964696653831 ], [ -83.05189121118859, 41.299370929013179 ], [ -83.168533797519558, 41.306043086617095 ] ] ] } },
{ "type": "Feature", "properties": { "OBJECTID": 5359, "ID": "0122744836", "NAME": "EDEN SPRINGS HEALTHCARE LLC", "ADDRESS": "401 NORTH BROADWAY STREET", "CITY": "GREEN SPRINGS", "STATE": "OH", "ZIP": "44836", "ZIP4": "NOT AVAILABLE", "TELEPHONE": "(419) 639-2626", "TYPE": "LONG TERM CARE", "STATUS": "OPEN", "POPULATION": 176, "COUNTY": "SENECA", "COUNTYFIPS": "39147", "COUNTRY": "USA", "LATITUDE": 41.262632748000001, "LONGITUDE": -83.053122768999998, "NAICS_CODE": "622310", "NAICS_DESC": "SPECIALTY (EXCEPT PSYCHIATRIC AND SUBSTANCE ABUSE) HOSPITALS", "SOURCE": "http://publicapps.odh.ohio.gov/EID/Provider_Search.aspx", "SOURCEDATE": "2018-08-10T00:00:00.000Z", "VAL_METHOD": "IMAGERY", "VAL_DATE": "2015-03-10T00:00:00.000Z", "WEBSITE": "http://www.homesofedenhc.com/eden-springs-health-care/", "STATE_ID": "1318", "ALT_NAME": "ELMWOOD HEALTHCARE CENTER AT THE SPRINGS", "ST_FIPS": "39", "OWNER": "PROPRIETARY", "TTL_STAFF": -999, "BEDS": 176, "TRAUMA": "NOT AVAILABLE", "HELIPAD": "Y" }, "geometry": { "type": "Polygon", "coordinates": [ [ [ -83.074218444890548, 41.168986706778568 ], [ -83.093412489863837, 41.173472780254393 ], [ -83.131074402368043, 41.24022071423704 ], [ -83.131166431781082, 41.263711517654016 ], [ -83.130610461135547, 41.271045429177654 ], [ -83.091553196775607, 41.365110830384417 ], [ -83.083876741405348, 41.36402084368671 ], [ -83.031674163199796, 41.342215535726019 ], [ -82.974902799800503, 41.298097751668827 ], [ -82.962317431493517, 41.285895509257806 ], [ -82.946256686441814, 41.255970011338292 ], [ -83.007357148870469, 41.198011326823554 ], [ -83.074218444890548, 41.168986706778568 ] ] ] } },
{ "type": "Feature", "properties": { "OBJECTID": 5788, "ID": "0003045817", "NAME": "BLUFFTON HOSPITAL", "ADDRESS": "139 GARAU STREET, PO BOX 48", "CITY": "BLUFFTON", "STATE": "OH", "ZIP": "45817", "ZIP4": "NOT AVAILABLE", "TELEPHONE": "(419) 358-9010", "TYPE": "CRITICAL ACCESS", "STATUS": "OPEN", "POPULATION": 39, "COUNTY": "ALLEN", "COUNTYFIPS": "39003", "COUNTRY": "USA", "LATITUDE": 40.887605696000001, "LONGITUDE": -83.896947833, "NAICS_CODE": "622110", "NAICS_DESC": "GENERAL MEDICAL AND SURGICAL HOSPITALS", "SOURCE": "http://publicapps.odh.ohio.gov/EID/Provider_Search.aspx", "SOURCEDATE": "2018-08-10T00:00:00.000Z", "VAL_METHOD": "IMAGERY", "VAL_DATE": "2014-02-10T00:00:00.000Z", "WEBSITE": "http://www.bvhealthsystem.org/?id=203&sid=1", "STATE_ID": "1101", "ALT_NAME": "NOT AVAILABLE", "ST_FIPS": "39", "OWNER": "NON-PROFIT", "TTL_STAFF": -999, "BEDS": 39, "TRAUMA": "NOT AVAILABLE", "HELIPAD": "N" }, "geometry": { "type": "Polygon", "coordinates": [ [ [ -84.0369763, 40.7930647 ], [ -83.9950663, 40.8909239 ], [ -83.956958, 40.920569 ], [ -83.9378746, 40.934731900000038 ], [ -83.899723, 40.949342 ], [ -83.82372, 40.951508 ], [ -83.82332, 40.951507 ], [ -83.803682, 40.936658 ], [ -83.784995, 40.914729 ], [ -83.76592, 40.892012 ], [ -83.823785, 40.848782 ], [ -83.862068, 40.827426 ], [ -83.8800678, 40.819922 ], [ -83.8990327, 40.812356700000016 ], [ -84.0369763, 40.7930647 ] ] ] } },
{ "type": "Feature", "properties": { "OBJECTID": 5844, "ID": "0000844805", "NAME": "UNIVERSITY HOSPITALS SAMARITAN MEDICAL", "ADDRESS": "1025 CENTER ST", "CITY": "ASHLAND", "STATE": "OH", "ZIP": "44805", "ZIP4": "NOT AVAILABLE", "TELEPHONE": "(419) 289-0491", "TYPE": "GENERAL ACUTE CARE", "STATUS": "OPEN", "POPULATION": 123, "COUNTY": "ASHLAND", "COUNTYFIPS": "39005", "COUNTRY": "USA", "LATITUDE": 40.859228973, "LONGITUDE": -82.309537857999899, "NAICS_CODE": "622110", "NAICS_DESC": "GENERAL MEDICAL AND SURGICAL HOSPITALS", "SOURCE": "http://publicapps.odh.ohio.gov/EID/Provider_Search.aspx", "SOURCEDATE": "2018-08-10T00:00:00.000Z", "VAL_METHOD": "IMAGERY", "VAL_DATE": "2014-02-10T00:00:00.000Z", "WEBSITE": "http://www.samaritanhospital.org", "STATE_ID": "1104", "ALT_NAME": "SAMARITAN HOSPITAL - PEOPLES HOSPITAL", "ST_FIPS": "39", "OWNER": "NON-PROFIT", "TTL_STAFF": -999, "BEDS": 123, "TRAUMA": "NOT AVAILABLE", "HELIPAD": "Y" }, "geometry": { "type": "Polygon", "coordinates": [ [ [ -82.32603858798177, 40.772407787415972 ], [ -82.398632071680069, 40.807669756346762 ], [ -82.410234149538311, 40.814482954073917 ], [ -82.416108204832184, 40.888168077787761 ], [ -82.406592407171388, 40.902089913118708 ], [ -82.369092421058767, 40.953327042814784 ], [ -82.310763215210983, 40.959409113910695 ], [ -82.263320995561429, 40.950725149521958 ], [ -82.174463217182065, 40.857114988094928 ], [ -82.253740222660227, 40.773429881568276 ], [ -82.262001945609185, 40.768731663585939 ], [ -82.32603858798177, 40.772407787415972 ] ] ] } },
{ "type": "Feature", "properties": { "OBJECTID": 5943, "ID": "0001844870", "NAME": "FIRELANDS REGIONAL MEDICAL CENTER", "ADDRESS": "1111 HAYES AVENUE", "CITY": "SANDUSKY", "STATE": "OH", "ZIP": "44870", "ZIP4": "NOT AVAILABLE", "TELEPHONE": "(419) 557-7400", "TYPE": "GENERAL ACUTE CARE", "STATUS": "OPEN", "POPULATION": 283, "COUNTY": "ERIE", "COUNTYFIPS": "39043", "COUNTRY": "USA", "LATITUDE": 41.445892256, "LONGITUDE": -82.710196917000005, "NAICS_CODE": "622110", "NAICS_DESC": "GENERAL MEDICAL AND SURGICAL HOSPITALS", "SOURCE": "http://publicapps.odh.ohio.gov/EID/Provider_Search.aspx", "SOURCEDATE": "2018-08-10T00:00:00.000Z", "VAL_METHOD": "IMAGERY", "VAL_DATE": "2014-03-12T00:00:00.000Z", "WEBSITE": "http://www.firelands.com", "STATE_ID": "1164", "ALT_NAME": "NOT AVAILABLE", "ST_FIPS": "39", "OWNER": "NON-PROFIT", "TTL_STAFF": -999, "BEDS": 283, "TRAUMA": "LEVEL III", "HELIPAD": "Y" }, "geometry": { "type": "Polygon", "coordinates": [ [ [ -82.749453547042876, 41.360925362572097 ], [ -82.787912419096386, 41.396945105724683 ], [ -82.792487822259076, 41.402877960338195 ], [ -82.817903728737193, 41.458691475323242 ], [ -82.818632722815309, 41.461034454085009 ], [ -82.676283840514998, 41.477264966260421 ], [ -82.585331320534152, 41.408460694859123 ], [ -82.591268513656203, 41.403217040239788 ], [ -82.615176123512853, 41.389578752990879 ], [ -82.644274024608364, 41.381702106898452 ], [ -82.749453547042876, 41.360925362572097 ] ] ] } },
{ "type": "Feature", "properties": { "OBJECTID": 5946, "ID": "0028244870", "NAME": "FIRELANDS REG MED CTR SOUTH CAMPUS", "ADDRESS": "1912 HAYES AVENUE", "CITY": "SANDUSKY", "STATE": "OH", "ZIP": "44870", "ZIP4": "NOT AVAILABLE", "TELEPHONE": "(419) 557-7400", "TYPE": "GENERAL ACUTE CARE", "STATUS": "OPEN", "POPULATION": 141, "COUNTY": "ERIE", "COUNTYFIPS": "39043", "COUNTRY": "USA", "LATITUDE": 41.436997831, "LONGITUDE": -82.712010065999905, "NAICS_CODE": "622110", "NAICS_DESC": "GENERAL MEDICAL AND SURGICAL HOSPITALS", "SOURCE": "http://publicapps.odh.ohio.gov/EID/Provider_Search.aspx", "SOURCEDATE": "2018-08-10T00:00:00.000Z", "VAL_METHOD": "IMAGERY/OTHER", "VAL_DATE": "2016-09-20T00:00:00.000Z", "WEBSITE": "http://www.firelands.com", "STATE_ID": "1165", "ALT_NAME": "NOT AVAILABLE", "ST_FIPS": "39", "OWNER": "NON-PROFIT", "TTL_STAFF": -999, "BEDS": 141, "TRAUMA": "NOT AVAILABLE", "HELIPAD": "N" }, "geometry": { "type": "Polygon", "coordinates": [ [ [ -82.75532381975944, 41.358486316905783 ], [ -82.807112828600154, 41.394838231941094 ], [ -82.808395713501056, 41.398998991310599 ], [ -82.821135031728403, 41.464572831773104 ], [ -82.819649704967034, 41.465847407390662 ], [ -82.809368552344893, 41.469254297822431 ], [ -82.676283840514998, 41.477264966260421 ], [ -82.588965648251076, 41.408601288178616 ], [ -82.588966350744016, 41.408316691095123 ], [ -82.589531865285238, 41.407168302063667 ], [ -82.591315990856828, 41.405868612897422 ], [ -82.615176123512853, 41.389578752990879 ], [ -82.644274024608364, 41.381702106898452 ], [ -82.75532381975944, 41.358486316905783 ] ] ] } },
{ "type": "Feature", "properties": { "OBJECTID": 3005, "ID": "0005544074", "NAME": "MERCY ALLEN HOSPITAL", "ADDRESS": "200 WEST LORAIN STREET", "CITY": "OBERLIN", "STATE": "OH", "ZIP": "44074", "ZIP4": "NOT AVAILABLE", "TELEPHONE": "(440) 775-1211", "TYPE": "CRITICAL ACCESS", "STATUS": "OPEN", "POPULATION": 25, "COUNTY": "LORAIN", "COUNTYFIPS": "39093", "COUNTRY": "USA", "LATITUDE": 41.295064762000003, "LONGITUDE": -82.224712964999995, "NAICS_CODE": "622110", "NAICS_DESC": "GENERAL MEDICAL AND SURGICAL HOSPITALS", "SOURCE": "http://publicapps.odh.ohio.gov/EID/Provider_Search.aspx", "SOURCEDATE": "2018-08-10T00:00:00.000Z", "VAL_METHOD": "IMAGERY", "VAL_DATE": "2014-02-10T00:00:00.000Z", "WEBSITE": "http://www.mercyonline.org/mercy_allen_hospital.aspx", "STATE_ID": "1219", "ALT_NAME": "ALLEN COMMUNITY HOSPITAL", "ST_FIPS": "39", "OWNER": "NON-PROFIT", "TTL_STAFF": -999, "BEDS": 25, "TRAUMA": "NOT AVAILABLE", "HELIPAD": "Y" }, "geometry": { "type": "Polygon", "coordinates": [ [ [ -82.217134, 41.195438 ], [ -82.217221, 41.195448 ], [ -82.30422618472069, 41.237546450864095 ], [ -82.328623279205473, 41.258697427021417 ], [ -82.335050822687961, 41.286708646496152 ], [ -82.329708994254801, 41.298521177328368 ], [ -82.286004206607714, 41.362983864278903 ], [ -82.280341131950962, 41.36787384911122 ], [ -82.209610392232634, 41.398179928942 ], [ -82.1809912, 41.386038299999981 ], [ -82.062915, 41.334862 ], [ -82.069678, 41.323819 ], [ -82.157693, 41.237242 ], [ -82.216829, 41.195405 ], [ -82.217134, 41.195438 ] ] ] } },
{ "type": "Feature", "properties": { "OBJECTID": 3170, "ID": "0016443351", "NAME": "WYANDOT MEMORIAL HOSPITAL", "ADDRESS": "885 NORTH SANDUSKY AVENUE", "CITY": "UPPER SANDUSKY", "STATE": "OH", "ZIP": "43351", "ZIP4": "NOT AVAILABLE", "TELEPHONE": "(419) 294-4991", "TYPE": "CRITICAL ACCESS", "STATUS": "OPEN", "POPULATION": 31, "COUNTY": "WYANDOT", "COUNTYFIPS": "39175", "COUNTRY": "USA", "LATITUDE": 40.840299382000097, "LONGITUDE": -83.279956897999995, "NAICS_CODE": "622110", "NAICS_DESC": "GENERAL MEDICAL AND SURGICAL HOSPITALS", "SOURCE": "http://publicapps.odh.ohio.gov/EID/Provider_Search.aspx", "SOURCEDATE": "2018-08-10T00:00:00.000Z", "VAL_METHOD": "IMAGERY", "VAL_DATE": "2014-02-04T00:00:00.000Z", "WEBSITE": "http://www.wyandotmemorial.org", "STATE_ID": "1296", "ALT_NAME": "NOT AVAILABLE", "ST_FIPS": "39", "OWNER": "GOVERNMENT - DISTRICT/AUTHORITY", "TTL_STAFF": -999, "BEDS": 31, "TRAUMA": "NOT AVAILABLE", "HELIPAD": "Y" }, "geometry": { "type": "Polygon", "coordinates": [ [ [ -83.339809, 40.759494 ], [ -83.39971, 40.832073 ], [ -83.381815, 40.93286 ], [ -83.272809, 40.930339 ], [ -83.207214, 40.92044 ], [ -83.160213, 40.840662 ], [ -83.160142, 40.826133 ], [ -83.1645081, 40.8078015 ], [ -83.226535, 40.760186 ], [ -83.234775, 40.760099 ], [ -83.240912, 40.760055 ], [ -83.304348, 40.75968 ], [ -83.339809, 40.759494 ] ] ] } },
{ "type": "Feature", "properties": { "OBJECTID": 3226, "ID": "0012144830", "NAME": "FOSTORIA COMMUNITY HOSPITAL", "ADDRESS": "501 VAN BUREN STREET", "CITY": "FOSTORIA", "STATE": "OH", "ZIP": "44830", "ZIP4": "NOT AVAILABLE", "TELEPHONE": "(419) 435-7734", "TYPE": "CRITICAL ACCESS", "STATUS": "OPEN", "POPULATION": 25, "COUNTY": "SENECA", "COUNTYFIPS": "39147", "COUNTRY": "USA", "LATITUDE": 41.162995476, "LONGITUDE": -83.424228905999897, "NAICS_CODE": "622110", "NAICS_DESC": "GENERAL MEDICAL AND SURGICAL HOSPITALS", "SOURCE": "http://publicapps.odh.ohio.gov/EID/Provider_Search.aspx", "SOURCEDATE": "2018-08-10T00:00:00.000Z", "VAL_METHOD": "IMAGERY", "VAL_DATE": "2014-03-12T00:00:00.000Z", "WEBSITE": "http://www.promedica.org", "STATE_ID": "1195", "ALT_NAME": "NOT AVAILABLE", "ST_FIPS": "39", "OWNER": "NON-PROFIT", "TTL_STAFF": -999, "BEDS": 25, "TRAUMA": "NOT AVAILABLE", "HELIPAD": "Y" }, "geometry": { "type": "Polygon", "coordinates": [ [ [ -83.440197, 41.093779 ], [ -83.510648, 41.110156 ], [ -83.530366, 41.15548 ], [ -83.477410728341141, 41.231208956155903 ], [ -83.420145716897352, 41.239418504378868 ], [ -83.323166857361912, 41.206288872390161 ], [ -83.323347890251654, 41.196069909317835 ], [ -83.333984, 41.135035 ], [ -83.362685, 41.100787 ], [ -83.396505, 41.094071 ], [ -83.4013259, 41.094030300000028 ], [ -83.440197, 41.093779 ] ] ] } },
{ "type": "Feature", "properties": { "OBJECTID": 3626, "ID": "0008244145", "NAME": "ST JOHN MEDICAL CENTER", "ADDRESS": "29000 CENTER RIDGE ROAD", "CITY": "WESTLAKE", "STATE": "OH", "ZIP": "44145", "ZIP4": "NOT AVAILABLE", "TELEPHONE": "(440) 835-8000", "TYPE": "GENERAL ACUTE CARE", "STATUS": "OPEN", "POPULATION": 204, "COUNTY": "CUYAHOGA", "COUNTYFIPS": "39035", "COUNTRY": "USA", "LATITUDE": 41.435645937000103, "LONGITUDE": -81.944736066000004, "NAICS_CODE": "622110", "NAICS_DESC": "GENERAL MEDICAL AND SURGICAL HOSPITALS", "SOURCE": "http://publicapps.odh.ohio.gov/EID/Provider_Search.aspx", "SOURCEDATE": "2018-08-10T00:00:00.000Z", "VAL_METHOD": "IMAGERY", "VAL_DATE": "2014-02-10T00:00:00.000Z", "WEBSITE": "http://www.stjohnmedicalcenter.net/", "STATE_ID": "1034", "ALT_NAME": "NOT AVAILABLE", "ST_FIPS": "39", "OWNER": "NON-PROFIT", "TTL_STAFF": -999, "BEDS": 204, "TRAUMA": "LEVEL III", "HELIPAD": "Y" }, "geometry": { "type": "Polygon", "coordinates": [ [ [ -81.9454655, 41.356972300000031 ], [ -81.997445, 41.368303 ], [ -82.0190602, 41.380288900000018 ], [ -82.0270266, 41.385650399999989 ], [ -82.0272616, 41.386351699999977 ], [ -82.0275426, 41.387722700000033 ], [ -82.026274, 41.393099 ], [ -82.0200125, 41.417938299999967 ], [ -81.995762, 41.480559 ], [ -81.991467, 41.485012 ], [ -81.9685049, 41.5041315 ], [ -81.852139, 41.477413 ], [ -81.847292, 41.47165 ], [ -81.8392137, 41.420725700000062 ], [ -81.9018316, 41.372734 ], [ -81.9454655, 41.356972300000031 ] ] ] } },
{ "type": "Feature", "properties": { "OBJECTID": 3674, "ID": "0001444890", "NAME": "MERCY WILLARD HOSPITAL", "ADDRESS": "1100 NEAL ZICK ROAD", "CITY": "WILLARD", "STATE": "OH", "ZIP": "44890", "ZIP4": "NOT AVAILABLE", "TELEPHONE": "(419) 964-5000", "TYPE": "CRITICAL ACCESS", "STATUS": "OPEN", "POPULATION": 25, "COUNTY": "HURON", "COUNTYFIPS": "39077", "COUNTRY": "USA", "LATITUDE": 41.048239949, "LONGITUDE": -82.724364523999995, "NAICS_CODE": "622110", "NAICS_DESC": "GENERAL MEDICAL AND SURGICAL HOSPITALS", "SOURCE": "http://publicapps.odh.ohio.gov/EID/Provider_Search.aspx", "SOURCEDATE": "2018-08-10T00:00:00.000Z", "VAL_METHOD": "IMAGERY", "VAL_DATE": "2014-02-10T00:00:00.000Z", "WEBSITE": "http://www.mercyweb.org", "STATE_ID": "1205", "ALT_NAME": "NOT AVAILABLE", "ST_FIPS": "39", "OWNER": "NON-PROFIT", "TTL_STAFF": -999, "BEDS": 25, "TRAUMA": "NOT AVAILABLE", "HELIPAD": "Y" }, "geometry": { "type": "Polygon", "coordinates": [ [ [ -82.743298, 40.962238 ], [ -82.8306936, 41.029697 ], [ -82.846448, 41.053382 ], [ -82.842433, 41.066023 ], [ -82.728058154052221, 41.156484725563345 ], [ -82.660509, 41.104659 ], [ -82.609579, 41.052582 ], [ -82.607748, 41.031167 ], [ -82.631619, 41.013249 ], [ -82.65974, 40.992331 ], [ -82.668203, 40.986666 ], [ -82.743298, 40.962238 ] ] ] } },
{ "type": "Feature", "properties": { "OBJECTID": 3679, "ID": "0013544035", "NAME": "EMH REGIONAL MEDICAL CENTER", "ADDRESS": "630 EAST RIVER STREET", "CITY": "ELYRIA", "STATE": "OH", "ZIP": "44035", "ZIP4": "NOT AVAILABLE", "TELEPHONE": "(440) 329-7500", "TYPE": "GENERAL ACUTE CARE", "STATUS": "OPEN", "POPULATION": 387, "COUNTY": "LORAIN", "COUNTYFIPS": "39093", "COUNTRY": "USA", "LATITUDE": 41.366855589000103, "LONGITUDE": -82.097292350999993, "NAICS_CODE": "622110", "NAICS_DESC": "GENERAL MEDICAL AND SURGICAL HOSPITALS", "SOURCE": "http://publicapps.odh.ohio.gov/EID/Provider_Search.aspx", "SOURCEDATE": "2018-08-10T00:00:00.000Z", "VAL_METHOD": "IMAGERY", "VAL_DATE": "2014-03-12T00:00:00.000Z", "WEBSITE": "http://www.uhhospitals.org/elyria", "STATE_ID": "1217", "ALT_NAME": "UNIVERSITY HOSPITALS - ELYRIA MEDICAL CENTER", "ST_FIPS": "39", "OWNER": "NON-PROFIT", "TTL_STAFF": -999, "BEDS": 387, "TRAUMA": "NOT AVAILABLE", "HELIPAD": "Y" }, "geometry": { "type": "Polygon", "coordinates": [ [ [ -82.187928, 41.279307 ], [ -82.230595403862196, 41.377779232449107 ], [ -82.216726335027928, 41.413468838281446 ], [ -82.208907934160521, 41.418305356125231 ], [ -82.163909, 41.4388 ], [ -82.076071, 41.465735 ], [ -82.052751, 41.462669 ], [ -82.0350598, 41.4516512 ], [ -81.993178, 41.400354 ], [ -81.992799, 41.399825 ], [ -81.994131, 41.385159 ], [ -81.9950113, 41.379111399999978 ], [ -81.997445, 41.368303 ], [ -81.999141, 41.361809 ], [ -82.027018, 41.314464 ], [ -82.06222, 41.285385 ], [ -82.119073, 41.274693 ], [ -82.187928, 41.279307 ] ] ] } },
{ "type": "Feature", "properties": { "OBJECTID": 3680, "ID": "0029144011", "NAME": "CLEVELAND CLINIC REHABILITATION HOSPITAL, LLC", "ADDRESS": "33355 HEALTH CAMPUS BOULEVARD", "CITY": "AVON", "STATE": "OH", "ZIP": "44011", "ZIP4": "NOT AVAILABLE", "TELEPHONE": "(440) 937-9099", "TYPE": "REHABILITATION", "STATUS": "OPEN", "POPULATION": 60, "COUNTY": "LORAIN", "COUNTYFIPS": "39093", "COUNTRY": "USA", "LATITUDE": 41.473132480000103, "LONGITUDE": -81.985816287999995, "NAICS_CODE": "622310", "NAICS_DESC": "REHABILITATION HOSPITALS (EXCEPT ALCOHOLISM, DRUG ADDICTION)", "SOURCE": "http://publicapps.odh.ohio.gov/EID/Provider_Search.aspx", "SOURCEDATE": "2018-08-10T00:00:00.000Z", "VAL_METHOD": "IMAGERY", "VAL_DATE": "2016-09-21T00:00:00.000Z", "WEBSITE": "http://my.clevelandclinic.org/locations_directions/Regional-Locations/rehabilitation-hospital", "STATE_ID": "1522", "ALT_NAME": "NOT AVAILABLE", "ST_FIPS": "39", "OWNER": "PROPRIETARY", "TTL_STAFF": -999, "BEDS": 60, "TRAUMA": "NOT AVAILABLE", "HELIPAD": "N" }, "geometry": { "type": "Polygon", "coordinates": [ [ [ -82.109755, 41.405225 ], [ -82.1174281, 41.4062994 ], [ -82.118094, 41.4188 ], [ -82.119923, 41.461637 ], [ -82.119959, 41.46341 ], [ -82.084405, 41.496087 ], [ -82.0798636, 41.497935 ], [ -82.03992, 41.508824 ], [ -82.016704, 41.514182 ], [ -82.0092766, 41.515002300000013 ], [ -81.9968893, 41.513215800000019 ], [ -81.99497, 41.51287 ], [ -81.897627, 41.485705 ], [ -81.8832973, 41.475646099999985 ], [ -81.888757, 41.468708 ], [ -81.899843, 41.459575 ], [ -81.987207, 41.397333 ], [ -82.109755, 41.405225 ] ] ] } },
{ "type": "Feature", "properties": { "OBJECTID": 3720, "ID": "0009444903", "NAME": "OHIOHEALTH MANSFIELD HOSPITAL", "ADDRESS": "335 GLESSNER AVENUE", "CITY": "MANSFIELD", "STATE": "OH", "ZIP": "44903", "ZIP4": "NOT AVAILABLE", "TELEPHONE": "(419) 526-8000", "TYPE": "GENERAL ACUTE CARE", "STATUS": "OPEN", "POPULATION": 358, "COUNTY": "RICHLAND", "COUNTYFIPS": "39139", "COUNTRY": "USA", "LATITUDE": 40.752924352999997, "LONGITUDE": -82.529472765999998, "NAICS_CODE": "622110", "NAICS_DESC": "GENERAL MEDICAL AND SURGICAL HOSPITALS", "SOURCE": "http://publicapps.odh.ohio.gov/EID/Provider_Search.aspx", "SOURCEDATE": "2018-08-10T00:00:00.000Z", "VAL_METHOD": "IMAGERY/OTHER", "VAL_DATE": "2014-03-12T00:00:00.000Z", "WEBSITE": "https://www.ohiohealth.com/locations/hospitals/mansfield-hospital/", "STATE_ID": "1257", "ALT_NAME": "MEDCENTRAL - MANSFIELD HOSPITAL", "ST_FIPS": "39", "OWNER": "NON-PROFIT", "TTL_STAFF": -999, "BEDS": 358, "TRAUMA": "LEVEL II", "HELIPAD": "Y" }, "geometry": { "type": "Polygon", "coordinates": [ [ [ -82.544548684531279, 40.649440365008672 ], [ -82.62943454095921, 40.715465961654402 ], [ -82.6430571, 40.748956900000046 ], [ -82.6534917, 40.781475500000028 ], [ -82.590896927276319, 40.814708671483253 ], [ -82.513544393325049, 40.836359587980382 ], [ -82.475716105954817, 40.829296601242397 ], [ -82.409798349404994, 40.783071299053923 ], [ -82.404019171272338, 40.767559479053887 ], [ -82.438274879683718, 40.709902283454326 ], [ -82.512991085314255, 40.652253351708957 ], [ -82.544548684531279, 40.649440365008672 ] ] ] } },
{ "type": "Feature", "properties": { "OBJECTID": 3724, "ID": "0003244811", "NAME": "BELLEVUE HOSPITAL", "ADDRESS": "1400 WEST MAIN STREET", "CITY": "BELLEVUE", "STATE": "OH", "ZIP": "44811", "ZIP4": "NOT AVAILABLE", "TELEPHONE": "(419) 483-4040", "TYPE": "GENERAL ACUTE CARE", "STATUS": "OPEN", "POPULATION": 59, "COUNTY": "SANDUSKY", "COUNTYFIPS": "39143", "COUNTRY": "USA", "LATITUDE": 41.287962046000096, "LONGITUDE": -82.881604796999994, "NAICS_CODE": "622110", "NAICS_DESC": "GENERAL MEDICAL AND SURGICAL HOSPITALS", "SOURCE": "http://publicapps.odh.ohio.gov/EID/Provider_Search.aspx", "SOURCEDATE": "2018-08-10T00:00:00.000Z", "VAL_METHOD": "IMAGERY", "VAL_DATE": "2014-02-10T00:00:00.000Z", "WEBSITE": "http://www.bellevuehospital.com", "STATE_ID": "1261", "ALT_NAME": "NOT AVAILABLE", "ST_FIPS": "39", "OWNER": "NON-PROFIT", "TTL_STAFF": -999, "BEDS": 59, "TRAUMA": "NOT AVAILABLE", "HELIPAD": "Y" }, "geometry": { "type": "Polygon", "coordinates": [ [ [ -82.929707772669971, 41.21214310543948 ], [ -82.979435856999345, 41.2560360808314 ], [ -82.98996590729017, 41.270471998325114 ], [ -83.022921093085813, 41.321752691964562 ], [ -83.022902094056349, 41.323057681676659 ], [ -83.022826493740467, 41.323176880645775 ], [ -82.974140751180329, 41.350410350939761 ], [ -82.877618209407018, 41.355220592493495 ], [ -82.843670692305423, 41.341077893872999 ], [ -82.777107558214652, 41.288875256262507 ], [ -82.749342665658503, 41.256695587530366 ], [ -82.838948301779098, 41.225415885880466 ], [ -82.917984721737014, 41.212006079932145 ], [ -82.929707772669971, 41.21214310543948 ] ] ] } },
{ "type": "Feature", "properties": { "OBJECTID": 3728, "ID": "0014443420", "NAME": "MEMORIAL HOSPITAL", "ADDRESS": "715 SOUTH TAFT AVENUE", "CITY": "FREMONT", "STATE": "OH", "ZIP": "43420", "ZIP4": "NOT AVAILABLE", "TELEPHONE": "(419) 334-6625", "TYPE": "GENERAL ACUTE CARE", "STATUS": "OPEN", "POPULATION": 100, "COUNTY": "SANDUSKY", "COUNTYFIPS": "39143", "COUNTRY": "USA", "LATITUDE": 41.339258629, "LONGITUDE": -83.135445450999995, "NAICS_CODE": "622110", "NAICS_DESC": "GENERAL MEDICAL AND SURGICAL HOSPITALS", "SOURCE": "http://publicapps.odh.ohio.gov/EID/Provider_Search.aspx", "SOURCEDATE": "2018-08-10T00:00:00.000Z", "VAL_METHOD": "IMAGERY", "VAL_DATE": "2014-03-12T00:00:00.000Z", "WEBSITE": "http://www.memorialhcs.org", "STATE_ID": "1263", "ALT_NAME": "NOT AVAILABLE", "ST_FIPS": "39", "OWNER": "NON-PROFIT", "TTL_STAFF": -999, "BEDS": 100, "TRAUMA": "NOT AVAILABLE", "HELIPAD": "Y" }, "geometry": { "type": "Polygon", "coordinates": [ [ [ -83.197535734293311, 41.273925598414962 ], [ -83.281783397450283, 41.341326046742836 ], [ -83.221849683488628, 41.392659874186286 ], [ -83.173659518481813, 41.429126449242986 ], [ -83.136883230510421, 41.43766844358408 ], [ -83.135275215666468, 41.43763644871737 ], [ -83.097139789906947, 41.413544816236723 ], [ -83.021897121427116, 41.364635354960726 ], [ -83.032561149887101, 41.325689672015905 ], [ -83.130610461135547, 41.271045429177654 ], [ -83.197535734293311, 41.273925598414962 ] ] ] } },
{ "type": "Feature", "properties": { "OBJECTID": 3943, "ID": "0175344053", "NAME": "CLEAR VISTA HEALTH & WELLNESS", "ADDRESS": "3364 KOLBE ROAD", "CITY": "LORAIN", "STATE": "OH", "ZIP": "44053", "ZIP4": "NOT AVAILABLE", "TELEPHONE": "(440) 960-7960", "TYPE": "PSYCHIATRIC", "STATUS": "OPEN", "POPULATION": -999, "COUNTY": "LORAIN", "COUNTYFIPS": "39093", "COUNTRY": "USA", "LATITUDE": 41.439241884000097, "LONGITUDE": -82.236045180999994, "NAICS_CODE": "622210", "NAICS_DESC": "PSYCHIATRIC AND SUBSTANCE ABUSE HOSPITALS", "SOURCE": "http://publicapps.odh.ohio.gov/EID/Provider_Search.aspx", "SOURCEDATE": "2018-08-10T00:00:00.000Z", "VAL_METHOD": "IMAGERY/OTHER", "VAL_DATE": "2019-05-09T00:00:00.000Z", "WEBSITE": "http://clearvistahealth.com/", "STATE_ID": "1518", "ALT_NAME": "NOT AVAILABLE", "ST_FIPS": "39", "OWNER": "PROPRIETARY", "TTL_STAFF": -999, "BEDS": -999, "TRAUMA": "NOT AVAILABLE", "HELIPAD": "N" }, "geometry": { "type": "Polygon", "coordinates": [ [ [ -82.277529182275899, 41.357780910160514 ], [ -82.298258242488714, 41.370238797078045 ], [ -82.311813549540418, 41.382554193883216 ], [ -82.325043243624577, 41.395977579513122 ], [ -82.352000614200691, 41.424500521766468 ], [ -82.351476004645605, 41.425303518054349 ], [ -82.350124888046537, 41.426312015518207 ], [ -82.34655194963905, 41.428261113692685 ], [ -82.178763746919614, 41.47167064827341 ], [ -82.131869, 41.483746 ], [ -82.113611, 41.461189 ], [ -82.1256989, 41.4039871 ], [ -82.21035263572432, 41.366704045700722 ], [ -82.214752378035527, 41.365322537195702 ], [ -82.277529182275899, 41.357780910160514 ] ] ] } },
{ "type": "Feature", "properties": { "OBJECTID": 3944, "ID": "0180044011", "NAME": "CLEVELAND CLINIC AVON HOSPITAL", "ADDRESS": "33300 CLEVELAND CLINIC BLVD", "CITY": "AVON", "STATE": "OH", "ZIP": "44011", "ZIP4": "NOT AVAILABLE", "TELEPHONE": "(216) 636-7727", "TYPE": "GENERAL ACUTE CARE", "STATUS": "OPEN", "POPULATION": 126, "COUNTY": "LORAIN", "COUNTYFIPS": "39093", "COUNTRY": "USA", "LATITUDE": 41.468906556999997, "LONGITUDE": -81.981766444999906, "NAICS_CODE": "622110", "NAICS_DESC": "GENERAL MEDICAL AND SURGICAL HOSPITALS", "SOURCE": "http://publicapps.odh.ohio.gov/EID/Provider_Search.aspx", "SOURCEDATE": "2018-08-10T00:00:00.000Z", "VAL_METHOD": "IMAGERY", "VAL_DATE": "2019-05-09T00:00:00.000Z", "WEBSITE": "https://my.clevelandclinic.org/locations/avon-hospital", "STATE_ID": "NOT AVAILABLE", "ALT_NAME": "NOT AVAILABLE", "ST_FIPS": "39", "OWNER": "NON-PROFIT", "TTL_STAFF": -999, "BEDS": -999, "TRAUMA": "NOT AVAILABLE", "HELIPAD": "Y" }, "geometry": { "type": "Polygon", "coordinates": [ [ [ -82.1170266, 41.403737400000026 ], [ -82.132377, 41.464957 ], [ -82.0863577, 41.4956455 ], [ -82.0798636, 41.497935 ], [ -82.016704, 41.514182 ], [ -82.0092766, 41.515002300000013 ], [ -81.9968893, 41.513215800000019 ], [ -81.99497, 41.51287 ], [ -81.975627, 41.507381 ], [ -81.920723, 41.488573 ], [ -81.91636, 41.484943 ], [ -81.9052003, 41.4718491 ], [ -81.9700179, 41.4055716 ], [ -81.983559, 41.392956 ], [ -81.984481, 41.392568 ], [ -81.984584, 41.392562 ], [ -82.1170266, 41.403737400000026 ] ] ] } },
{ "type": "Feature", "properties": { "OBJECTID": 3945, "ID": "0170744011", "NAME": "UNIVERSITY HOSPITALS AVON REHABILITATION HOSPITAL", "ADDRESS": "37900 CHESTER ROAD", "CITY": "AVON", "STATE": "OH", "ZIP": "44011", "ZIP4": "NOT AVAILABLE", "TELEPHONE": "(440) 695-7101", "TYPE": "REHABILITATION", "STATUS": "OPEN", "POPULATION": -999, "COUNTY": "LORAIN", "COUNTYFIPS": "39093", "COUNTRY": "USA", "LATITUDE": 41.468040018000103, "LONGITUDE": -82.044042170999901, "NAICS_CODE": "622310", "NAICS_DESC": "REHABILITATION HOSPITALS (EXCEPT ALCOHOLISM, DRUG ADDICTION)", "SOURCE": "http://publicapps.odh.ohio.gov/EID/Provider_Search.aspx", "SOURCEDATE": "2018-08-10T00:00:00.000Z", "VAL_METHOD": "IMAGERY/OTHER", "VAL_DATE": "2019-05-09T00:00:00.000Z", "WEBSITE": "http://www.uhhospitals.org/uh-avon-rehabilitation-hospital", "STATE_ID": "1523", "ALT_NAME": "NOT AVAILABLE", "ST_FIPS": "39", "OWNER": "NON-PROFIT", "TTL_STAFF": -999, "BEDS": -999, "TRAUMA": "NOT AVAILABLE", "HELIPAD": "N" }, "geometry": { "type": "Polygon", "coordinates": [ [ [ -82.1181159, 41.37124530000002 ], [ -82.170375, 41.388818 ], [ -82.1727623, 41.41131009999998 ], [ -82.173960509412709, 41.470757881470313 ], [ -82.172429, 41.472612 ], [ -82.1145194, 41.489587299999975 ], [ -82.094391, 41.494945 ], [ -82.03992, 41.508824 ], [ -82.016704, 41.514182 ], [ -82.0092766, 41.515002300000013 ], [ -81.9968893, 41.513215800000019 ], [ -81.99497, 41.51287 ], [ -81.994172, 41.512622 ], [ -81.9862597, 41.510149199999965 ], [ -81.9855499, 41.509915600000035 ], [ -81.9597228, 41.4926672 ], [ -81.9500395, 41.48526989999997 ], [ -81.9501758, 41.482351099999946 ], [ -81.9502334, 41.4811859 ], [ -81.9512476, 41.470549500000011 ], [ -81.983069, 41.418861 ], [ -82.012101, 41.399485 ], [ -82.0738691, 41.378458 ], [ -82.075247, 41.378035 ], [ -82.076431, 41.377675 ], [ -82.07719, 41.377445 ], [ -82.079474, 41.376758 ], [ -82.080407, 41.376478 ], [ -82.1181159, 41.37124530000002 ] ] ] } },
{ "type": "Feature", "properties": { "OBJECTID": 3947, "ID": "0170944906", "NAME": "AVITA ONTARIO", "ADDRESS": "715 RICHLAND MALL", "CITY": "MANSFIELD", "STATE": "OH", "ZIP": "44906", "ZIP4": "NOT AVAILABLE", "TELEPHONE": "(567) 307-7666", "TYPE": "GENERAL ACUTE CARE", "STATUS": "OPEN", "POPULATION": -999, "COUNTY": "RICHLAND", "COUNTYFIPS": "39139", "COUNTRY": "USA", "LATITUDE": 40.771483355999997, "LONGITUDE": -82.593602413, "NAICS_CODE": "622110", "NAICS_DESC": "GENERAL MEDICAL AND SURGICAL HOSPITALS", "SOURCE": "http://publicapps.odh.ohio.gov/EID/Provider_Search.aspx", "SOURCEDATE": "2018-08-10T00:00:00.000Z", "VAL_METHOD": "IMAGERY/OTHER", "VAL_DATE": "2019-05-09T00:00:00.000Z", "WEBSITE": "http://avitahealth.org/home", "STATE_ID": "NOT AVAILABLE", "ALT_NAME": "NOT AVAILABLE", "ST_FIPS": "39", "OWNER": "NOT AVAILABLE", "TTL_STAFF": -999, "BEDS": -999, "TRAUMA": "NOT AVAILABLE", "HELIPAD": "N" }, "geometry": { "type": "Polygon", "coordinates": [ [ [ -82.582964893360057, 40.6803757110982 ], [ -82.6656339, 40.7053603 ], [ -82.7268437, 40.749533600000049 ], [ -82.743602, 40.789969 ], [ -82.6463089, 40.870525200000039 ], [ -82.6166204, 40.872284500000013 ], [ -82.50067140879618, 40.823438461066061 ], [ -82.417305980347777, 40.780822485547311 ], [ -82.427274706843491, 40.772868258647691 ], [ -82.582964893360057, 40.6803757110982 ] ] ] } },
{ "type": "Feature", "properties": { "OBJECTID": 3948, "ID": "0180144883", "NAME": "SOJOURN AT SENECA", "ADDRESS": "50 ST LAWRENCE DRIVE", "CITY": "TIFFIN", "STATE": "OH", "ZIP": "44883", "ZIP4": "NOT AVAILABLE", "TELEPHONE": "(567) 207-2230", "TYPE": "PSYCHIATRIC", "STATUS": "OPEN", "POPULATION": -999, "COUNTY": "SENECA", "COUNTYFIPS": "39147", "COUNTRY": "USA", "LATITUDE": 41.105605157000099, "LONGITUDE": -83.21813664, "NAICS_CODE": "622210", "NAICS_DESC": "PSYCHIATRIC AND SUBSTANCE ABUSE HOSPITALS", "SOURCE": "http://publicapps.odh.ohio.gov/EID/Provider_Search.aspx", "SOURCEDATE": "2018-08-10T00:00:00.000Z", "VAL_METHOD": "IMAGERY/OTHER", "VAL_DATE": "2019-05-09T00:00:00.000Z", "WEBSITE": "https://www.voa.org/senior_living_and_care_facilities/sojourn-at-seneca", "STATE_ID": "1521", "ALT_NAME": "NOT AVAILABLE", "ST_FIPS": "39", "OWNER": "NON-PROFIT", "TTL_STAFF": -999, "BEDS": -999, "TRAUMA": "NOT AVAILABLE", "HELIPAD": "N" }, "geometry": { "type": "Polygon", "coordinates": [ [ [ -83.232471, 41.029009 ], [ -83.3220901, 41.050708800000031 ], [ -83.324416, 41.087072 ], [ -83.324431, 41.093738 ], [ -83.324432, 41.094329 ], [ -83.304505, 41.133513 ], [ -83.285033, 41.152653 ], [ -83.1612434, 41.155350700000028 ], [ -83.127233, 41.145133 ], [ -83.1168965, 41.1388991 ], [ -83.108042, 41.12522 ], [ -83.107657, 41.124497 ], [ -83.0930345, 41.080676 ], [ -83.131825, 41.04826 ], [ -83.17022, 41.029424 ], [ -83.232471, 41.029009 ] ] ] } }
]
}
