{
"type": "FeatureCollection",
"crs": { "type": "name", "properties": { "name": "urn:ogc:def:crs:OGC:1.3:CRS84" } },
"features": [
{ "type": "Feature", "properties": { "OBJECTID": 2772, "ID": "0005153142", "NAME": "AURORA MED CTR KENOSHA", "ADDRESS": "10400 75TH ST", "CITY": "KENOSHA", "STATE": "WI", "ZIP": "53142", "ZIP4": "NOT AVAILABLE", "TELEPHONE": "(262) 948-5600", "TYPE": "GENERAL ACUTE CARE", "STATUS": "OPEN", "POPULATION": 74, "COUNTY": "KENOSHA", "COUNTYFIPS": "55059", "COUNTRY": "USA", "LATITUDE": 42.569396815000097, "LONGITUDE": -87.935465022999907, "NAICS_CODE": "622110", "NAICS_DESC": "GENERAL MEDICAL AND SURGICAL HOSPITALS", "SOURCE": "https://www.dhs.wisconsin.gov/guide/hospital.htm", "SOURCEDATE": "2018-08-13T00:00:00.000Z", "VAL_METHOD": "IMAGERY", "VAL_DATE": "2014-03-12T00:00:00.000Z", "WEBSITE": "http://www.aurorahealthcare.org", "STATE_ID": "1001", "ALT_NAME": "NOT AVAILABLE", "ST_FIPS": "55", "OWNER": "NON-PROFIT", "TTL_STAFF": -999, "BEDS": 74, "TRAUMA": "NOT AVAILABLE", "HELIPAD": "Y" }, "geometry": { "type": "Polygon", "coordinates": [ [ [ -87.9386276, 42.443473 ], [ -87.95355, 42.452783 ], [ -87.972182, 42.465672 ], [ -88.0845244, 42.5679622 ], [ -88.0845089, 42.56816 ], [ -87.9588606, 42.695948400000027 ], [ -87.9584583, 42.696201200000019 ], [ -87.9535542, 42.698412 ], [ -87.950238, 42.6987134 ], [ -87.9451485, 42.697156199999988 ], [ -87.9447904, 42.6969721 ], [ -87.8762979, 42.642175200000032 ], [ -87.8736384, 42.6396895 ], [ -87.8182115, 42.583279100000034 ], [ -87.8161795, 42.5796682 ], [ -87.8135484, 42.5657037 ], [ -87.8523607, 42.522462799999964 ], [ -87.8852986, 42.487484499999979 ], [ -87.9386276, 42.443473 ] ] ] } },
{ "type": "Feature", "properties": { "OBJECTID": 4930, "ID": "0005253158", "NAME": "UNITED HOSPITAL SYS ST CATHERINES CAMPUS", "ADDRESS": "9555 76TH ST", "CITY": "PLEASANT PRAIRIE", "STATE": "WI", "ZIP": "53158", "ZIP4": "NOT AVAILABLE", "TELEPHONE": "(262) 656-2011", "TYPE": "GENERAL ACUTE CARE", "STATUS": "OPEN", "POPULATION": 128, "COUNTY": "KENOSHA", "COUNTYFIPS": "55059", "COUNTRY": "USA", "LATITUDE": 42.564515895000099, "LONGITUDE": -87.924321141999897, "NAICS_CODE": "622110", "NAICS_DESC": "GENERAL MEDICAL AND SURGICAL HOSPITALS", "SOURCE": "https://www.dhs.wisconsin.gov/guide/hospital.htm", "SOURCEDATE": "2018-08-13T00:00:00.000Z", "VAL_METHOD": "IMAGERY", "VAL_DATE": "2014-03-12T00:00:00.000Z", "WEBSITE": "http://www.uhsi.org", "STATE_ID": "305", "ALT_NAME": "NOT AVAILABLE", "ST_FIPS": "55", "OWNER": "NON-PROFIT", "TTL_STAFF": -999, "BEDS": 128, "TRAUMA": "NOT AVAILABLE", "HELIPAD": "Y" }, "geometry": { "type": "Polygon", "coordinates": [ [ [ -87.962358, 42.460489 ], [ -88.0521985, 42.558759900000048 ], [ -88.0467353, 42.571582 ], [ -87.9609701, 42.669568 ], [ -87.9527782, 42.6741631 ], [ -87.8765181, 42.642339200000023 ], [ -87.8711107, 42.639652100000056 ], [ -87.817011600000015, 42.583428600000012 ], [ -87.8151173, 42.579715600000021 ], [ -87.8136254, 42.567346 ], [ -87.8135484, 42.5657037 ], [ -87.8251864, 42.5512191 ], [ -87.8537315, 42.5187762 ], [ -87.8844177, 42.488044399999971 ], [ -87.8852986, 42.487484499999979 ], [ -87.937945, 42.465297 ], [ -87.9462767, 42.4633517 ], [ -87.962358, 42.460489 ] ] ] } },
{ "type": "Feature", "properties": { "OBJECTID": 4946, "ID": "0013553147", "NAME": "MERCY WALWORTH HOSPITAL & MEDICAL CENTER", "ADDRESS": "N2950 STATE ROAD 67", "CITY": "LAKE GENEVA", "STATE": "WI", "ZIP": "53147", "ZIP4": "NOT AVAILABLE", "TELEPHONE": "(262) 245-0535", "TYPE": "GENERAL ACUTE CARE", "STATUS": "OPEN", "POPULATION": 25, "COUNTY": "WALWORTH", "COUNTYFIPS": "55127", "COUNTRY": "USA", "LATITUDE": 42.598087289, "LONGITUDE": -88.53951992, "NAICS_CODE": "622110", "NAICS_DESC": "GENERAL MEDICAL AND SURGICAL HOSPITALS", "SOURCE": "https://www.dhs.wisconsin.gov/guide/hospital.htm", "SOURCEDATE": "2018-08-13T00:00:00.000Z", "VAL_METHOD": "IMAGERY", "VAL_DATE": "2014-02-10T00:00:00.000Z", "WEBSITE": "http://www.mercyhealthsystem.org", "STATE_ID": "1062", "ALT_NAME": "NOT AVAILABLE", "ST_FIPS": "55", "OWNER": "NON-PROFIT", "TTL_STAFF": -999, "BEDS": 25, "TRAUMA": "LEVEL III", "HELIPAD": "Y" }, "geometry": { "type": "Polygon", "coordinates": [ [ [ -88.5922807, 42.530350499999969 ], [ -88.5939634, 42.531110799999965 ], [ -88.624393, 42.574704 ], [ -88.629389, 42.582607 ], [ -88.6467736, 42.625688099999962 ], [ -88.6484435, 42.633042299999978 ], [ -88.5437594, 42.709715200000012 ], [ -88.4994267, 42.694894 ], [ -88.49306, 42.691703 ], [ -88.4138472, 42.59299080000001 ], [ -88.4256603, 42.5828621 ], [ -88.5601517, 42.537171199999975 ], [ -88.584771, 42.5310845 ], [ -88.5922807, 42.530350499999969 ] ] ] } },
{ "type": "Feature", "properties": { "OBJECTID": 572, "ID": "0005660050", "NAME": "CENTEGRA HEALTH SYSTEM - MC HENRY HOSPITAL", "ADDRESS": "4201 MEDICAL CENTER DRIVE", "CITY": "MCHENRY", "STATE": "IL", "ZIP": "60050", "ZIP4": "NOT AVAILABLE", "TELEPHONE": "(815) 344-5000", "TYPE": "GENERAL ACUTE CARE", "STATUS": "OPEN", "POPULATION": 173, "COUNTY": "MCHENRY", "COUNTYFIPS": "17111", "COUNTRY": "USA", "LATITUDE": 42.31779814, "LONGITUDE": -88.279468003000005, "NAICS_CODE": "622110", "NAICS_DESC": "GENERAL MEDICAL AND SURGICAL HOSPITALS", "SOURCE": "https://data.illinois.gov/", "SOURCEDATE": "2018-08-09T00:00:00.000Z", "VAL_METHOD": "IMAGERY", "VAL_DATE": "2016-04-25T00:00:00.000Z", "WEBSITE": "http://www.centegra.org", "STATE_ID": "140116", "ALT_NAME": "NOT AVAILABLE", "ST_FIPS": "17", "OWNER": "NON-PROFIT", "TTL_STAFF": -999, "BEDS": 173, "TRAUMA": "LEVEL II", "HELIPAD": "Y" }, "geometry": { "type": "Polygon", "coordinates": [ [ [ -88.286615, 42.211567500000029 ], [ -88.3330867, 42.248084700000049 ], [ -88.3803677, 42.285294 ], [ -88.3974769, 42.3044517 ], [ -88.4008725, 42.309342 ], [ -88.3972203, 42.3200547 ], [ -88.3951834, 42.325354500000039 ], [ -88.2943999, 42.394561 ], [ -88.2776922, 42.394507899999979 ], [ -88.2475004, 42.385764300000012 ], [ -88.2286284, 42.378812299999986 ], [ -88.2231918, 42.37599689999994 ], [ -88.198482, 42.350578 ], [ -88.1837685, 42.325294 ], [ -88.2048326, 42.283520099999983 ], [ -88.2068187, 42.28056670000008 ], [ -88.286415, 42.211562 ], [ -88.286615, 42.211567500000029 ] ] ] } },
{ "type": "Feature", "properties": { "OBJECTID": 934, "ID": "0016760033", "NAME": "MERCY HARVARD HOSPITAL", "ADDRESS": "901 GRANT STREET", "CITY": "HARVARD", "STATE": "IL", "ZIP": "60033", "ZIP4": "NOT AVAILABLE", "TELEPHONE": "(815) 943-5431", "TYPE": "CRITICAL ACCESS", "STATUS": "OPEN", "POPULATION": 35, "COUNTY": "MCHENRY", "COUNTYFIPS": "17111", "COUNTRY": "USA", "LATITUDE": 42.426236912999997, "LONGITUDE": -88.60704005, "NAICS_CODE": "622110", "NAICS_DESC": "GENERAL MEDICAL AND SURGICAL HOSPITALS", "SOURCE": "https://data.illinois.gov/", "SOURCEDATE": "2018-08-09T00:00:00.000Z", "VAL_METHOD": "IMAGERY", "VAL_DATE": "2016-04-25T00:00:00.000Z", "WEBSITE": "http://www.mercyhealthsystem.org", "STATE_ID": "141335", "ALT_NAME": "NOT AVAILABLE", "ST_FIPS": "17", "OWNER": "NON-PROFIT", "TTL_STAFF": -999, "BEDS": 35, "TRAUMA": "NOT AVAILABLE", "HELIPAD": "Y" }, "geometry": { "type": "Polygon", "coordinates": [ [ [ -88.617907, 42.339895 ], [ -88.73187, 42.399849 ], [ -88.6949994, 42.431129600000048 ], [ -88.59929, 42.509217 ], [ -88.4912614, 42.462278399999974 ], [ -88.5555733, 42.356956400000037 ], [ -88.617907, 42.339895 ] ] ] } }
]
}
