{
"type": "FeatureCollection",
"crs": { "type": "name", "properties": { "name": "urn:ogc:def:crs:OGC:1.3:CRS84" } },
"features": [
{ "type": "Feature", "properties": { "OBJECTID": 2125, "ID": "0012356307", "NAME": "ALBANY AREA HOSPITAL & MED CTR", "ADDRESS": "300 THIRD AVENUE", "CITY": "ALBANY", "STATE": "MN", "ZIP": "56307", "ZIP4": "NOT AVAILABLE", "TELEPHONE": "(320) 845-2120", "TYPE": "GENERAL ACUTE CARE", "STATUS": "CLOSED", "POPULATION": 17, "COUNTY": "STEARNS", "COUNTYFIPS": "27145", "COUNTRY": "USA", "LATITUDE": 45.638762067000101, "LONGITUDE": -94.566884892999994, "NAICS_CODE": "622110", "NAICS_DESC": "GENERAL MEDICAL AND SURGICAL HOSPITALS", "SOURCE": "http://www.health.state.mn.us/divs/fpc/directory/fpcdir.html", "SOURCEDATE": "2012-08-06T00:00:00.000Z", "VAL_METHOD": "IMAGERY", "VAL_DATE": "2014-02-10T00:00:00.000Z", "WEBSITE": "http://www.albanyareahospital.com", "STATE_ID": "622", "ALT_NAME": "NOT AVAILABLE", "ST_FIPS": "27", "OWNER": "NON-PROFIT", "TTL_STAFF": -999, "BEDS": 17, "TRAUMA": "NOT AVAILABLE", "HELIPAD": "N" }, "geometry": { "type": "Polygon", "coordinates": [ [ [ -94.592459, 45.565426 ], [ -94.6290797, 45.585626100000042 ], [ -94.752241, 45.665523 ], [ -94.6155329, 45.701448 ], [ -94.579389, 45.70531 ], [ -94.56386, 45.701814 ], [ -94.510893, 45.687493 ], [ -94.4265484, 45.605749 ], [ -94.4641554, 45.5863814 ], [ -94.592459, 45.565426 ] ] ] } },
{ "type": "Feature", "properties": { "OBJECTID": 2127, "ID": "0002656308", "NAME": "DOUGLAS COUNTY HOSPITAL", "ADDRESS": "111 17TH AVENUE EAST", "CITY": "ALEXANDRIA", "STATE": "MN", "ZIP": "56308", "ZIP4": "NOT AVAILABLE", "TELEPHONE": "(320) 762-1511", "TYPE": "GENERAL ACUTE CARE", "STATUS": "OPEN", "POPULATION": 127, "COUNTY": "DOUGLAS", "COUNTYFIPS": "27041", "COUNTRY": "USA", "LATITUDE": 45.873891137000001, "LONGITUDE": -95.376879242000001, "NAICS_CODE": "622110", "NAICS_DESC": "GENERAL MEDICAL AND SURGICAL HOSPITALS", "SOURCE": "http://www.health.state.mn.us/divs/fpc/directory/providerselect.cfm", "SOURCEDATE": "2018-08-09T00:00:00.000Z", "VAL_METHOD": "IMAGERY", "VAL_DATE": "2014-03-12T00:00:00.000Z", "WEBSITE": "http://www.dchospital.com", "STATE_ID": "111", "ALT_NAME": "NOT AVAILABLE", "ST_FIPS": "27", "OWNER": "GOVERNMENT - LOCAL", "TTL_STAFF": -999, "BEDS": 127, "TRAUMA": "LEVEL III", "HELIPAD": "Y" }, "geometry": { "type": "Polygon", "coordinates": [ [ [ -95.389609, 45.7762994 ], [ -95.4187719, 45.794830900000036 ], [ -95.4917263, 45.8497687 ], [ -95.5014843, 45.880523400000044 ], [ -95.5014467, 45.881849100000025 ], [ -95.4642236, 45.917649799999964 ], [ -95.4419199, 45.9352653 ], [ -95.3760456, 45.947564499999984 ], [ -95.3126468, 45.947861899999985 ], [ -95.2439034, 45.8742739 ], [ -95.3867974, 45.777333400000039 ], [ -95.38746470000001, 45.7769859 ], [ -95.389609, 45.7762994 ] ] ] } },
{ "type": "Feature", "properties": { "OBJECTID": 2130, "ID": "0013455063", "NAME": "LAKESIDE MEDICAL CENTER", "ADDRESS": "129 EAST SIXTH AVENUE", "CITY": "PINE CITY", "STATE": "MN", "ZIP": "55063", "ZIP4": "NOT AVAILABLE", "TELEPHONE": "(320) 629-2542", "TYPE": "GENERAL ACUTE CARE", "STATUS": "OPEN", "POPULATION": 10, "COUNTY": "PINE", "COUNTYFIPS": "27115", "COUNTRY": "USA", "LATITUDE": 45.8237570840001, "LONGITUDE": -92.964375309000005, "NAICS_CODE": "622110", "NAICS_DESC": "GENERAL MEDICAL AND SURGICAL HOSPITALS", "SOURCE": "http://www.health.state.mn.us/divs/fpc/directory/providerselect.cfm", "SOURCEDATE": "2018-08-09T00:00:00.000Z", "VAL_METHOD": "IMAGERY", "VAL_DATE": "2014-01-07T00:00:00.000Z", "WEBSITE": "http://www.lmc-pcac.com", "STATE_ID": "451", "ALT_NAME": "NOT AVAILABLE", "ST_FIPS": "27", "OWNER": "PROPRIETARY", "TTL_STAFF": -999, "BEDS": 10, "TRAUMA": "NOT AVAILABLE", "HELIPAD": "N" }, "geometry": { "type": "Polygon", "coordinates": [ [ [ -93.001586, 45.74514 ], [ -93.050151, 45.759661 ], [ -93.064296, 45.821529 ], [ -93.0633745, 45.8319505 ], [ -93.0495968, 45.869023299999981 ], [ -93.046844, 45.8717923 ], [ -93.0015941, 45.9042953 ], [ -92.981106, 45.918671 ], [ -92.9569148, 45.92576279999998 ], [ -92.9532724, 45.9257307 ], [ -92.8538675, 45.8171213 ], [ -92.857737, 45.814264 ], [ -92.960201200000014, 45.744888900000028 ], [ -92.993122, 45.744983 ], [ -93.001586, 45.74514 ] ] ] } },
{ "type": "Feature", "properties": { "OBJECTID": 2446, "ID": "0008056334", "NAME": "GLACIAL RIDGE HOSPITAL", "ADDRESS": "10 FOURTH AVENUE SOUTHEAST", "CITY": "GLENWOOD", "STATE": "MN", "ZIP": "56334", "ZIP4": "NOT AVAILABLE", "TELEPHONE": "(320) 634-4521", "TYPE": "CRITICAL ACCESS", "STATUS": "OPEN", "POPULATION": 34, "COUNTY": "POPE", "COUNTYFIPS": "27121", "COUNTRY": "USA", "LATITUDE": 45.6463286420001, "LONGITUDE": -95.389202306000001, "NAICS_CODE": "622110", "NAICS_DESC": "GENERAL MEDICAL AND SURGICAL HOSPITALS", "SOURCE": "http://www.health.state.mn.us/divs/fpc/directory/providerselect.cfm", "SOURCEDATE": "2018-08-09T00:00:00.000Z", "VAL_METHOD": "IMAGERY", "VAL_DATE": "2014-01-03T00:00:00.000Z", "WEBSITE": "http://www.glacialridge.org", "STATE_ID": "473", "ALT_NAME": "NOT AVAILABLE", "ST_FIPS": "27", "OWNER": "GOVERNMENT - DISTRICT/AUTHORITY", "TTL_STAFF": -999, "BEDS": 34, "TRAUMA": "LEVEL IV", "HELIPAD": "Y" }, "geometry": { "type": "Polygon", "coordinates": [ [ [ -95.3982237, 45.564100599999982 ], [ -95.4394086, 45.585222200000011 ], [ -95.4957116, 45.6176981 ], [ -95.5102862, 45.6578905 ], [ -95.469247, 45.696635900000032 ], [ -95.3873093, 45.7520538 ], [ -95.3869758, 45.752027399999989 ], [ -95.275933, 45.686514 ], [ -95.263409, 45.650127 ], [ -95.304834, 45.595654499999931 ], [ -95.357708, 45.565555 ], [ -95.387871, 45.5640543 ], [ -95.3982237, 45.564100599999982 ] ] ] } },
{ "type": "Feature", "properties": { "OBJECTID": 2918, "ID": "0007956347", "NAME": "CENTRACARE HEALTH SYSTEM-LONG", "ADDRESS": "50 CENTER CARE DRIVE", "CITY": "LONG PRAIRIE", "STATE": "MN", "ZIP": "56347", "ZIP4": "NOT AVAILABLE", "TELEPHONE": "(320) 732-2141", "TYPE": "CRITICAL ACCESS", "STATUS": "OPEN", "POPULATION": 34, "COUNTY": "TODD", "COUNTYFIPS": "27153", "COUNTRY": "USA", "LATITUDE": 45.973532790999997, "LONGITUDE": -94.848445378999898, "NAICS_CODE": "622110", "NAICS_DESC": "GENERAL MEDICAL AND SURGICAL HOSPITALS", "SOURCE": "http://www.health.state.mn.us/divs/fpc/directory/providerselect.cfm", "SOURCEDATE": "2018-08-09T00:00:00.000Z", "VAL_METHOD": "IMAGERY", "VAL_DATE": "2014-02-10T00:00:00.000Z", "WEBSITE": "http://www.centracare.com/locations/long-prairie/", "STATE_ID": "778", "ALT_NAME": "NOT AVAILABLE", "ST_FIPS": "27", "OWNER": "NON-PROFIT", "TTL_STAFF": -999, "BEDS": 34, "TRAUMA": "LEVEL IV", "HELIPAD": "Y" }, "geometry": { "type": "Polygon", "coordinates": [ [ [ -94.8990119, 45.875326399999963 ], [ -94.9221193, 45.8896599 ], [ -94.9593293, 45.975931 ], [ -94.8671297, 46.063188 ], [ -94.6686158, 45.9767564 ], [ -94.8069301, 45.904430500000068 ], [ -94.8072703, 45.90429 ], [ -94.8990119, 45.875326399999963 ] ] ] } },
{ "type": "Feature", "properties": { "OBJECTID": 2919, "ID": "0008455072", "NAME": "ESSENTIA HEALTH SANDSTONE", "ADDRESS": "705 LUNDRORFF DR", "CITY": "SANDSTONE", "STATE": "MN", "ZIP": "55072", "ZIP4": "NOT AVAILABLE", "TELEPHONE": "(320) 245-5600", "TYPE": "CRITICAL ACCESS", "STATUS": "CLOSED", "POPULATION": 30, "COUNTY": "PINE", "COUNTYFIPS": "27115", "COUNTRY": "USA", "LATITUDE": 46.126794873000101, "LONGITUDE": -92.865316605000004, "NAICS_CODE": "622110", "NAICS_DESC": "GENERAL MEDICAL AND SURGICAL HOSPITALS", "SOURCE": "http://www.health.state.mn.us/divs/fpc/directory/providerselect.cfm", "SOURCEDATE": "2016-08-09T00:00:00.000Z", "VAL_METHOD": "IMAGERY", "VAL_DATE": "2014-01-07T00:00:00.000Z", "WEBSITE": "http://www.pinemedicalcenter.org", "STATE_ID": "453", "ALT_NAME": "NOT AVAILABLE", "ST_FIPS": "27", "OWNER": "GOVERNMENT - DISTRICT/AUTHORITY", "TTL_STAFF": -999, "BEDS": 30, "TRAUMA": "NOT AVAILABLE", "HELIPAD": "Y" }, "geometry": { "type": "Polygon", "coordinates": [ [ [ -92.9333728, 46.008432 ], [ -92.9369721, 46.011077799999953 ], [ -92.970836, 46.11463 ], [ -92.949576, 46.150957 ], [ -92.8663397, 46.223344500000017 ], [ -92.8363879, 46.214553 ], [ -92.741749, 46.128587 ], [ -92.928667600000011, 46.0111423 ], [ -92.9333728, 46.008432 ] ] ] } },
{ "type": "Feature", "properties": { "OBJECTID": 6423, "ID": "0003855008", "NAME": "CAMBRIDGE MEDICAL CENTER", "ADDRESS": "701 SOUTH DELLWOOD AVENUE", "CITY": "CAMBRIDGE", "STATE": "MN", "ZIP": "55008", "ZIP4": "NOT AVAILABLE", "TELEPHONE": "(763) 689-7700", "TYPE": "GENERAL ACUTE CARE", "STATUS": "OPEN", "POPULATION": 86, "COUNTY": "ISANTI", "COUNTYFIPS": "27059", "COUNTRY": "USA", "LATITUDE": 45.566183615000099, "LONGITUDE": -93.230928419999898, "NAICS_CODE": "622110", "NAICS_DESC": "GENERAL MEDICAL AND SURGICAL HOSPITALS", "SOURCE": "http://www.health.state.mn.us/divs/fpc/directory/providerselect.cfm", "SOURCEDATE": "2018-08-09T00:00:00.000Z", "VAL_METHOD": "IMAGERY", "VAL_DATE": "2014-03-12T00:00:00.000Z", "WEBSITE": "http://www.allinahealth.org/Cambridge-Medical-Center/", "STATE_ID": "295", "ALT_NAME": "NOT AVAILABLE", "ST_FIPS": "27", "OWNER": "NON-PROFIT", "TTL_STAFF": -999, "BEDS": 86, "TRAUMA": "LEVEL IV", "HELIPAD": "Y" }, "geometry": { "type": "Polygon", "coordinates": [ [ [ -93.235758, 45.450038 ], [ -93.404485, 45.58676 ], [ -93.388924, 45.593191 ], [ -93.192986, 45.673267 ], [ -93.0837064, 45.552376099999961 ], [ -93.0840146, 45.550702699999988 ], [ -93.235421, 45.450043 ], [ -93.235758, 45.450038 ] ] ] } },
{ "type": "Feature", "properties": { "OBJECTID": 6427, "ID": "0008656362", "NAME": "CENTRACARE HEALTH PAYNESVILLE", "ADDRESS": "200 FIRST STREET WEST", "CITY": "PAYNESVILLE", "STATE": "MN", "ZIP": "56362", "ZIP4": "NOT AVAILABLE", "TELEPHONE": "(320) 243-3767", "TYPE": "CRITICAL ACCESS", "STATUS": "OPEN", "POPULATION": 30, "COUNTY": "STEARNS", "COUNTYFIPS": "27145", "COUNTRY": "USA", "LATITUDE": 45.374400596000001, "LONGITUDE": -94.715739576999994, "NAICS_CODE": "622110", "NAICS_DESC": "GENERAL MEDICAL AND SURGICAL HOSPITALS", "SOURCE": "http://www.health.state.mn.us/divs/fpc/directory/providerselect.cfm", "SOURCEDATE": "2018-08-09T00:00:00.000Z", "VAL_METHOD": "IMAGERY", "VAL_DATE": "2014-01-07T00:00:00.000Z", "WEBSITE": "http://www.centracare.com/locations/paynesville/", "STATE_ID": "636", "ALT_NAME": "PAYNESVILLE AREA HOSPITAL", "ST_FIPS": "27", "OWNER": "NON-PROFIT", "TTL_STAFF": -999, "BEDS": 30, "TRAUMA": "LEVEL IV", "HELIPAD": "Y" }, "geometry": { "type": "Polygon", "coordinates": [ [ [ -94.66948, 45.296781 ], [ -94.8655481, 45.3348617 ], [ -94.8049336, 45.394098 ], [ -94.7019432, 45.455848499999952 ], [ -94.6399633, 45.448175700000014 ], [ -94.619443, 45.444781 ], [ -94.598772, 45.4373902 ], [ -94.639793, 45.316792 ], [ -94.66948, 45.296781 ] ] ] } },
{ "type": "Feature", "properties": { "OBJECTID": 6428, "ID": "0009156352", "NAME": "CENTRACARE HEALTH SYS MELROSE", "ADDRESS": "525 MAIN STREET WEST", "CITY": "MELROSE", "STATE": "MN", "ZIP": "56352", "ZIP4": "NOT AVAILABLE", "TELEPHONE": "(320) 256-4231", "TYPE": "CRITICAL ACCESS", "STATUS": "OPEN", "POPULATION": 28, "COUNTY": "STEARNS", "COUNTYFIPS": "27145", "COUNTRY": "USA", "LATITUDE": 45.675719720000103, "LONGITUDE": -94.824478724000002, "NAICS_CODE": "622110", "NAICS_DESC": "GENERAL MEDICAL AND SURGICAL HOSPITALS", "SOURCE": "http://www.health.state.mn.us/divs/fpc/directory/providerselect.cfm", "SOURCEDATE": "2018-08-09T00:00:00.000Z", "VAL_METHOD": "IMAGERY", "VAL_DATE": "2014-02-10T00:00:00.000Z", "WEBSITE": "http://www.centracare.com", "STATE_ID": "633", "ALT_NAME": "NOT AVAILABLE", "ST_FIPS": "27", "OWNER": "NON-PROFIT", "TTL_STAFF": -999, "BEDS": 28, "TRAUMA": "LEVEL IV", "HELIPAD": "Y" }, "geometry": { "type": "Polygon", "coordinates": [ [ [ -94.8296786, 45.6145969 ], [ -94.8659213, 45.61739 ], [ -94.8914876, 45.6364822 ], [ -94.9565383, 45.711962700000029 ], [ -94.9610158, 45.723893 ], [ -94.9615577, 45.728929599999972 ], [ -94.9519275, 45.735875100000023 ], [ -94.8139699, 45.745178 ], [ -94.8087563, 45.745175499999981 ], [ -94.6832639, 45.67958210000004 ], [ -94.6816099, 45.6785051 ], [ -94.6685857, 45.661457299999945 ], [ -94.680353, 45.647069 ], [ -94.6961838, 45.640405800000039 ], [ -94.748563, 45.618353 ], [ -94.8296786, 45.6145969 ] ] ] } },
{ "type": "Feature", "properties": { "OBJECTID": 6429, "ID": "0009056378", "NAME": "CENTRACARE HEALTH SYSTEM", "ADDRESS": "425 NORTH ELM STREET", "CITY": "SAUK CENTRE", "STATE": "MN", "ZIP": "56378", "ZIP4": "NOT AVAILABLE", "TELEPHONE": "(320) 352-2221", "TYPE": "CRITICAL ACCESS", "STATUS": "OPEN", "POPULATION": 28, "COUNTY": "STEARNS", "COUNTYFIPS": "27145", "COUNTRY": "USA", "LATITUDE": 45.7457946870001, "LONGITUDE": -94.955437333999996, "NAICS_CODE": "622110", "NAICS_DESC": "GENERAL MEDICAL AND SURGICAL HOSPITALS", "SOURCE": "http://www.health.state.mn.us/divs/fpc/directory/providerselect.cfm", "SOURCEDATE": "2018-08-09T00:00:00.000Z", "VAL_METHOD": "IMAGERY", "VAL_DATE": "2014-02-10T00:00:00.000Z", "WEBSITE": "http://www.centracare.com/locations/sauk-centre/", "STATE_ID": "640", "ALT_NAME": "ST MICHAELS HOSPITAL & NH", "ST_FIPS": "27", "OWNER": "NON-PROFIT", "TTL_STAFF": -999, "BEDS": 28, "TRAUMA": "LEVEL IV", "HELIPAD": "Y" }, "geometry": { "type": "Polygon", "coordinates": [ [ [ -94.953533, 45.643438 ], [ -95.057028, 45.715867 ], [ -95.05693, 45.744824 ], [ -95.0158176, 45.7668211 ], [ -95.0022528, 45.774046899999973 ], [ -94.907998, 45.814231899999967 ], [ -94.86440810000002, 45.774428599999986 ], [ -94.8066133, 45.666344100000011 ], [ -94.8117552, 45.6651917 ], [ -94.953533, 45.643438 ] ] ] } },
{ "type": "Feature", "properties": { "OBJECTID": 6437, "ID": "0007356479", "NAME": "LAKEWOOD HEALTH SYSTEM", "ADDRESS": "49725 COUNTY ROAD 83", "CITY": "STAPLES", "STATE": "MN", "ZIP": "56479", "ZIP4": "NOT AVAILABLE", "TELEPHONE": "(218) 894-8500", "TYPE": "CRITICAL ACCESS", "STATUS": "OPEN", "POPULATION": 37, "COUNTY": "TODD", "COUNTYFIPS": "27153", "COUNTRY": "USA", "LATITUDE": 46.351140338999997, "LONGITUDE": -94.751761005000006, "NAICS_CODE": "622110", "NAICS_DESC": "GENERAL MEDICAL AND SURGICAL HOSPITALS", "SOURCE": "http://www.health.state.mn.us/divs/fpc/directory/providerselect.cfm", "SOURCEDATE": "2018-08-09T00:00:00.000Z", "VAL_METHOD": "IMAGERY", "VAL_DATE": "2014-02-10T00:00:00.000Z", "WEBSITE": "http://www.lakewoodhealthsystem.com", "STATE_ID": "24633", "ALT_NAME": "NOT AVAILABLE", "ST_FIPS": "27", "OWNER": "NON-PROFIT", "TTL_STAFF": -999, "BEDS": 37, "TRAUMA": "LEVEL III", "HELIPAD": "Y" }, "geometry": { "type": "Polygon", "coordinates": [ [ [ -94.6461117, 46.282471499999971 ], [ -94.820678, 46.310903 ], [ -94.8416453, 46.325256399999951 ], [ -94.884035, 46.354473 ], [ -94.883932, 46.374962 ], [ -94.8418377, 46.390279900000017 ], [ -94.799951, 46.4048652 ], [ -94.7871547, 46.401256 ], [ -94.670463, 46.35947 ], [ -94.6384164, 46.3402283 ], [ -94.629907, 46.331279 ], [ -94.6220087, 46.311537 ], [ -94.645622, 46.282491400000083 ], [ -94.6461117, 46.282471499999971 ] ] ] } },
{ "type": "Feature", "properties": { "OBJECTID": 6444, "ID": "0009256359", "NAME": "MILLE LACS HEALTH SYSTEM", "ADDRESS": "200 NORTH ELM STREET", "CITY": "ONAMIA", "STATE": "MN", "ZIP": "56359", "ZIP4": "NOT AVAILABLE", "TELEPHONE": "(320) 532-3154", "TYPE": "CRITICAL ACCESS", "STATUS": "OPEN", "POPULATION": 28, "COUNTY": "MILLE LACS", "COUNTYFIPS": "27095", "COUNTRY": "USA", "LATITUDE": 46.073125692000097, "LONGITUDE": -93.662402981999904, "NAICS_CODE": "622110", "NAICS_DESC": "GENERAL MEDICAL AND SURGICAL HOSPITALS", "SOURCE": "http://www.health.state.mn.us/divs/fpc/directory/providerselect.cfm", "SOURCEDATE": "2018-08-09T00:00:00.000Z", "VAL_METHOD": "IMAGERY", "VAL_DATE": "2014-03-12T00:00:00.000Z", "WEBSITE": "http://www.mlhealth.org", "STATE_ID": "374", "ALT_NAME": "NOT AVAILABLE", "ST_FIPS": "27", "OWNER": "NON-PROFIT", "TTL_STAFF": -999, "BEDS": 28, "TRAUMA": "LEVEL IV", "HELIPAD": "Y" }, "geometry": { "type": "Polygon", "coordinates": [ [ [ -93.662613, 45.951453 ], [ -93.798098, 46.077496 ], [ -93.744235, 46.151413 ], [ -93.594368, 46.131567 ], [ -93.587418, 46.130202 ], [ -93.567092, 46.118715 ], [ -93.56709, 46.11825 ], [ -93.571668, 46.089825 ], [ -93.599812, 46.03982 ], [ -93.651521, 45.965744 ], [ -93.662122, 45.951453 ], [ -93.662613, 45.951453 ] ] ] } },
{ "type": "Feature", "properties": { "OBJECTID": 6454, "ID": "0005656345", "NAME": "ST GABRIELS HOSPITAL", "ADDRESS": "815 SOUTHEAST SECOND STREET", "CITY": "LITTLE FALLS", "STATE": "MN", "ZIP": "56345", "ZIP4": "NOT AVAILABLE", "TELEPHONE": "(320) 632-5441", "TYPE": "CRITICAL ACCESS", "STATUS": "OPEN", "POPULATION": 49, "COUNTY": "MORRISON", "COUNTYFIPS": "27097", "COUNTRY": "USA", "LATITUDE": 45.966881763000103, "LONGITUDE": -94.362566901999998, "NAICS_CODE": "622110", "NAICS_DESC": "GENERAL MEDICAL AND SURGICAL HOSPITALS", "SOURCE": "http://www.health.state.mn.us/divs/fpc/directory/providerselect.cfm", "SOURCEDATE": "2018-08-09T00:00:00.000Z", "VAL_METHOD": "IMAGERY", "VAL_DATE": "2014-02-10T00:00:00.000Z", "WEBSITE": "https://www.chistgabriels.com/", "STATE_ID": "383", "ALT_NAME": "NOT AVAILABLE", "ST_FIPS": "27", "OWNER": "NON-PROFIT", "TTL_STAFF": -999, "BEDS": 49, "TRAUMA": "LEVEL IV", "HELIPAD": "Y" }, "geometry": { "type": "Polygon", "coordinates": [ [ [ -94.3030892, 45.839097699999989 ], [ -94.535410500000012, 45.977102799999983 ], [ -94.4435513, 46.0416119 ], [ -94.4430322, 46.041974600000025 ], [ -94.3248001, 46.076560499999985 ], [ -94.2453584, 45.970604700000067 ], [ -94.3028281, 45.839186699999971 ], [ -94.3030892, 45.839097699999989 ] ] ] } },
{ "type": "Feature", "properties": { "OBJECTID": 6819, "ID": "0005855051", "NAME": "FIRSTLIGHT HEALTH SYSTEM", "ADDRESS": "301 S HWY 65", "CITY": "MORA", "STATE": "MN", "ZIP": "55051", "ZIP4": "NOT AVAILABLE", "TELEPHONE": "(320) 679-1212", "TYPE": "CRITICAL ACCESS", "STATUS": "OPEN", "POPULATION": 49, "COUNTY": "KANABEC", "COUNTYFIPS": "27065", "COUNTRY": "USA", "LATITUDE": 45.874777444000102, "LONGITUDE": -93.291209013, "NAICS_CODE": "622110", "NAICS_DESC": "GENERAL MEDICAL AND SURGICAL HOSPITALS", "SOURCE": "http://www.health.state.mn.us/divs/fpc/directory/providerselect.cfm", "SOURCEDATE": "2018-08-09T00:00:00.000Z", "VAL_METHOD": "IMAGERY", "VAL_DATE": "2014-03-12T00:00:00.000Z", "WEBSITE": "http://www.firstlighthealthsystem.org", "STATE_ID": "308", "ALT_NAME": "NOT AVAILABLE", "ST_FIPS": "27", "OWNER": "GOVERNMENT - LOCAL", "TTL_STAFF": -999, "BEDS": 49, "TRAUMA": "LEVEL IV", "HELIPAD": "Y" }, "geometry": { "type": "Polygon", "coordinates": [ [ [ -93.291678, 45.759993 ], [ -93.307218, 45.767329 ], [ -93.431338, 45.828819 ], [ -93.390181, 45.889309 ], [ -93.284595, 46.010448 ], [ -93.1379112, 45.9294913 ], [ -93.14244, 45.912028 ], [ -93.262746, 45.75975090000005 ], [ -93.265859, 45.759741 ], [ -93.291678, 45.759993 ] ] ] } },
{ "type": "Feature", "properties": { "OBJECTID": 6837, "ID": "0006956441", "NAME": "CUYUNA REGIONAL MEDICAL CENTER", "ADDRESS": "320 EAST MAIN STREET", "CITY": "CROSBY", "STATE": "MN", "ZIP": "56441", "ZIP4": "NOT AVAILABLE", "TELEPHONE": "(218) 546-7000", "TYPE": "CRITICAL ACCESS", "STATUS": "OPEN", "POPULATION": 50, "COUNTY": "CROW WING", "COUNTYFIPS": "27035", "COUNTRY": "USA", "LATITUDE": 46.481742732999997, "LONGITUDE": -93.945878441999994, "NAICS_CODE": "622110", "NAICS_DESC": "GENERAL MEDICAL AND SURGICAL HOSPITALS", "SOURCE": "http://www.health.state.mn.us/divs/fpc/directory/providerselect.cfm", "SOURCEDATE": "2018-08-09T00:00:00.000Z", "VAL_METHOD": "IMAGERY", "VAL_DATE": "2014-03-12T00:00:00.000Z", "WEBSITE": "http://www.cuyunamed.org", "STATE_ID": "91", "ALT_NAME": "NOT AVAILABLE", "ST_FIPS": "27", "OWNER": "GOVERNMENT - DISTRICT/AUTHORITY", "TTL_STAFF": -999, "BEDS": 50, "TRAUMA": "NOT AVAILABLE", "HELIPAD": "Y" }, "geometry": { "type": "Polygon", "coordinates": [ [ [ -94.092343600000021, 46.415976500000035 ], [ -94.0622494, 46.460325399999974 ], [ -93.982271, 46.556188 ], [ -93.9525815, 46.568932700000012 ], [ -93.8082283, 46.516886900000031 ], [ -93.8357907, 46.460983200000015 ], [ -93.8556523, 46.439471600000019 ], [ -93.873245, 46.4245 ], [ -94.092343600000021, 46.415976500000035 ] ] ] } },
{ "type": "Feature", "properties": { "OBJECTID": 6838, "ID": "0002356401", "NAME": "ESSENTIA HEALTH ST JOSEPHS MED", "ADDRESS": "523 NORTH THIRD STREET", "CITY": "BRAINERD", "STATE": "MN", "ZIP": "56401", "ZIP4": "NOT AVAILABLE", "TELEPHONE": "(218) 829-2861", "TYPE": "GENERAL ACUTE CARE", "STATUS": "OPEN", "POPULATION": 162, "COUNTY": "CROW WING", "COUNTYFIPS": "27035", "COUNTRY": "USA", "LATITUDE": 46.361917264000098, "LONGITUDE": -94.205888865000006, "NAICS_CODE": "622110", "NAICS_DESC": "GENERAL MEDICAL AND SURGICAL HOSPITALS", "SOURCE": "http://www.health.state.mn.us/divs/fpc/directory/providerselect.cfm", "SOURCEDATE": "2018-08-09T00:00:00.000Z", "VAL_METHOD": "IMAGERY", "VAL_DATE": "2014-02-10T00:00:00.000Z", "WEBSITE": "http://www.essentiahealth.org/stjosephsmedicalcenter/find-a-clinic/essentia-healthst-josephs-medical-center-brainerd-67.aspx", "STATE_ID": "93", "ALT_NAME": "NOT AVAILABLE", "ST_FIPS": "27", "OWNER": "NON-PROFIT", "TTL_STAFF": -999, "BEDS": 162, "TRAUMA": "LEVEL III", "HELIPAD": "Y" }, "geometry": { "type": "Polygon", "coordinates": [ [ [ -94.3185123, 46.263894600000043 ], [ -94.327531800000017, 46.341429300000023 ], [ -94.31335, 46.427419799999981 ], [ -94.3061681, 46.4378079 ], [ -94.1722276, 46.435065 ], [ -94.0784927, 46.426885500000026 ], [ -94.073055, 46.3519871 ], [ -94.1454961, 46.3010222 ], [ -94.188848, 46.286805100000024 ], [ -94.3185123, 46.263894600000043 ] ] ] } },
{ "type": "Feature", "properties": { "OBJECTID": 6839, "ID": "0005255371", "NAME": "FAIRVIEW NORTHLAND REG HOSP", "ADDRESS": "911 NORTHLAND DRIVE", "CITY": "PRINCETON", "STATE": "MN", "ZIP": "55371", "ZIP4": "NOT AVAILABLE", "TELEPHONE": "(763) 389-1313", "TYPE": "GENERAL ACUTE CARE", "STATUS": "OPEN", "POPULATION": 54, "COUNTY": "SHERBURNE", "COUNTYFIPS": "27141", "COUNTRY": "USA", "LATITUDE": 45.558520403000003, "LONGITUDE": -93.590022203999993, "NAICS_CODE": "622110", "NAICS_DESC": "GENERAL MEDICAL AND SURGICAL HOSPITALS", "SOURCE": "http://www.health.state.mn.us/divs/fpc/directory/providerselect.cfm", "SOURCEDATE": "2018-08-09T00:00:00.000Z", "VAL_METHOD": "IMAGERY", "VAL_DATE": "2014-02-11T00:00:00.000Z", "WEBSITE": "www.fairview.org", "STATE_ID": "408", "ALT_NAME": "NOT AVAILABLE", "ST_FIPS": "27", "OWNER": "NON-PROFIT", "TTL_STAFF": -999, "BEDS": 54, "TRAUMA": "LEVEL IV", "HELIPAD": "Y" }, "geometry": { "type": "Polygon", "coordinates": [ [ [ -93.582883, 45.497788 ], [ -93.716546, 45.588166 ], [ -93.622913, 45.647989 ], [ -93.622222, 45.647984 ], [ -93.616726, 45.647874 ], [ -93.614645, 45.647822 ], [ -93.585036, 45.638726 ], [ -93.471979, 45.601731 ], [ -93.430533, 45.587014 ], [ -93.5418845, 45.517354599999969 ], [ -93.582883, 45.497788 ] ] ] } },
{ "type": "Feature", "properties": { "OBJECTID": 6841, "ID": "0005356267", "NAME": "STEVENS COMMUNITY MED CENTER", "ADDRESS": "400 EAST FIRST STREET", "CITY": "MORRIS", "STATE": "MN", "ZIP": "56267", "ZIP4": "NOT AVAILABLE", "TELEPHONE": "(320) 589-1313", "TYPE": "CRITICAL ACCESS", "STATUS": "OPEN", "POPULATION": 54, "COUNTY": "STEVENS", "COUNTYFIPS": "27149", "COUNTRY": "USA", "LATITUDE": 45.584898538000097, "LONGITUDE": -95.905030445999998, "NAICS_CODE": "622110", "NAICS_DESC": "GENERAL MEDICAL AND SURGICAL HOSPITALS", "SOURCE": "http://www.health.state.mn.us/divs/fpc/directory/providerselect.cfm", "SOURCEDATE": "2018-08-09T00:00:00.000Z", "VAL_METHOD": "IMAGERY", "VAL_DATE": "2014-02-10T00:00:00.000Z", "WEBSITE": "http://www.scmcinc.org", "STATE_ID": "653", "ALT_NAME": "NOT AVAILABLE", "ST_FIPS": "27", "OWNER": "NON-PROFIT", "TTL_STAFF": -999, "BEDS": 54, "TRAUMA": "LEVEL IV", "HELIPAD": "N" }, "geometry": { "type": "Polygon", "coordinates": [ [ [ -95.9120191, 45.484644199999948 ], [ -95.9155603, 45.484668699999972 ], [ -96.0350805, 45.571373199999982 ], [ -95.9853876, 45.657427 ], [ -95.88194630000001, 45.686944100000055 ], [ -95.79715, 45.616728 ], [ -95.809735, 45.571411 ], [ -95.8300081, 45.518209800000051 ], [ -95.9120191, 45.484644199999948 ] ] ] } },
{ "type": "Feature", "properties": { "OBJECTID": 5031, "ID": "0008156215", "NAME": "SWIFT COUNTY BENSON HOSPITAL", "ADDRESS": "1815 WISCONSIN AVENUE", "CITY": "BENSON", "STATE": "MN", "ZIP": "56215", "ZIP4": "NOT AVAILABLE", "TELEPHONE": "(320) 843-4232", "TYPE": "CRITICAL ACCESS", "STATUS": "OPEN", "POPULATION": 31, "COUNTY": "SWIFT", "COUNTYFIPS": "27151", "COUNTRY": "USA", "LATITUDE": 45.314357209000001, "LONGITUDE": -95.609037888000003, "NAICS_CODE": "622110", "NAICS_DESC": "GENERAL MEDICAL AND SURGICAL HOSPITALS", "SOURCE": "http://www.health.state.mn.us/divs/fpc/directory/providerselect.cfm", "SOURCEDATE": "2018-08-09T00:00:00.000Z", "VAL_METHOD": "IMAGERY", "VAL_DATE": "2014-01-03T00:00:00.000Z", "WEBSITE": "http://www.scbh.org", "STATE_ID": "659", "ALT_NAME": "NOT AVAILABLE", "ST_FIPS": "27", "OWNER": "GOVERNMENT - DISTRICT/AUTHORITY", "TTL_STAFF": -999, "BEDS": 31, "TRAUMA": "NOT AVAILABLE", "HELIPAD": "N" }, "geometry": { "type": "Polygon", "coordinates": [ [ [ -95.593246, 45.223968 ], [ -95.768447, 45.282234 ], [ -95.6799713, 45.380786100000044 ], [ -95.579763, 45.395934 ], [ -95.451579, 45.325427 ], [ -95.462121, 45.262436 ], [ -95.462345, 45.26198 ], [ -95.462419, 45.261831 ], [ -95.46528, 45.26042 ], [ -95.470319, 45.257968 ], [ -95.593246, 45.223968 ] ] ] } },
{ "type": "Feature", "properties": { "OBJECTID": 3952, "ID": "0176055072", "NAME": "ESSENTIA HEALTH SANDSTONE", "ADDRESS": "705 LUNDORFF DRIVE SOUTH", "CITY": "SANDSTONE", "STATE": "MN", "ZIP": "55072", "ZIP4": "NOT AVAILABLE", "TELEPHONE": "(320) 245-5600", "TYPE": "GENERAL ACUTE CARE", "STATUS": "OPEN", "POPULATION": 30, "COUNTY": "PINE", "COUNTYFIPS": "27115", "COUNTRY": "USA", "LATITUDE": 46.11903664, "LONGITUDE": -92.885305267000007, "NAICS_CODE": "622110", "NAICS_DESC": "GENERAL MEDICAL AND SURGICAL HOSPITALS", "SOURCE": "http://www.health.state.mn.us/divs/fpc/directory/providerselect.cfm", "SOURCEDATE": "2018-08-09T00:00:00.000Z", "VAL_METHOD": "IMAGERY", "VAL_DATE": "2019-05-09T00:00:00.000Z", "WEBSITE": "http://www.essentiahealth.org/sandstone/find-a-clinic/essentia-healthsandstone-57.aspx", "STATE_ID": "453", "ALT_NAME": "NOT AVAILABLE", "ST_FIPS": "27", "OWNER": "NON-PROFIT", "TTL_STAFF": -999, "BEDS": 30, "TRAUMA": "LEVEL IV", "HELIPAD": "Y" }, "geometry": { "type": "Polygon", "coordinates": [ [ [ -92.9552191, 45.978856400000033 ], [ -92.994965, 46.107564 ], [ -92.970299, 46.151158 ], [ -92.8661587, 46.237811799999989 ], [ -92.781062, 46.192279500000062 ], [ -92.7758471, 46.1867501 ], [ -92.781281, 46.129156 ], [ -92.9016817, 46.011064400000073 ], [ -92.9240953, 45.996622 ], [ -92.9552191, 45.978856400000033 ] ] ] } }
]
}
