{
"type": "FeatureCollection",
"crs": { "type": "name", "properties": { "name": "urn:ogc:def:crs:OGC:1.3:CRS84" } },
"features": [
{ "type": "Feature", "properties": { "OBJECTID": 1074, "ID": "0011353548", "NAME": "MERCY HLTH SYS CORP", "ADDRESS": "1000 MINERAL POINT AVE", "CITY": "JANESVILLE", "STATE": "WI", "ZIP": "53548", "ZIP4": "NOT AVAILABLE", "TELEPHONE": "(608) 756-6080", "TYPE": "GENERAL ACUTE CARE", "STATUS": "OPEN", "POPULATION": 240, "COUNTY": "ROCK", "COUNTYFIPS": "55105", "COUNTRY": "USA", "LATITUDE": 42.6878459100001, "LONGITUDE": -89.03319042, "NAICS_CODE": "622110", "NAICS_DESC": "GENERAL MEDICAL AND SURGICAL HOSPITALS", "SOURCE": "https://www.dhs.wisconsin.gov/guide/hospital.htm", "SOURCEDATE": "2018-08-13T00:00:00.000Z", "VAL_METHOD": "IMAGERY/OTHER", "VAL_DATE": "2014-03-12T00:00:00.000Z", "WEBSITE": "http://www.mercyhealthsystem.org", "STATE_ID": "162", "ALT_NAME": "NOT AVAILABLE", "ST_FIPS": "55", "OWNER": "NON-PROFIT", "TTL_STAFF": -999, "BEDS": 240, "TRAUMA": "LEVEL II", "HELIPAD": "Y" }, "geometry": { "type": "Polygon", "coordinates": [ [ [ -89.026358, 42.600983 ], [ -89.030741, 42.601783 ], [ -89.0736694, 42.613597700000049 ], [ -89.1501789, 42.672072 ], [ -89.150677, 42.701313 ], [ -89.150715, 42.703805 ], [ -89.1310104, 42.730725 ], [ -89.0346725, 42.774695100000017 ], [ -89.0331831, 42.7746951 ], [ -88.9500158, 42.7543098 ], [ -88.9341773, 42.699521499999975 ], [ -88.93386, 42.661751 ], [ -88.9729132, 42.634717199999969 ], [ -89.025419, 42.601482 ], [ -89.026358, 42.600983 ] ] ] } },
{ "type": "Feature", "properties": { "OBJECTID": 1982, "ID": "0004653533", "NAME": "UPLAND HILLS HLTH", "ADDRESS": "800 COMPASSION WAY", "CITY": "DODGEVILLE", "STATE": "WI", "ZIP": "53533", "ZIP4": "NOT AVAILABLE", "TELEPHONE": "(608) 930-8000", "TYPE": "GENERAL ACUTE CARE", "STATUS": "OPEN", "POPULATION": 25, "COUNTY": "IOWA", "COUNTYFIPS": "55049", "COUNTRY": "USA", "LATITUDE": 42.951323961000099, "LONGITUDE": -90.129462769, "NAICS_CODE": "622110", "NAICS_DESC": "GENERAL MEDICAL AND SURGICAL HOSPITALS", "SOURCE": "https://www.dhs.wisconsin.gov/guide/hospital.htm", "SOURCEDATE": "2018-08-13T00:00:00.000Z", "VAL_METHOD": "IMAGERY", "VAL_DATE": "2014-03-12T00:00:00.000Z", "WEBSITE": "http://www.uplandhillshealth.org", "STATE_ID": "1056", "ALT_NAME": "NOT AVAILABLE", "ST_FIPS": "55", "OWNER": "NON-PROFIT", "TTL_STAFF": -999, "BEDS": 25, "TRAUMA": "NOT AVAILABLE", "HELIPAD": "Y" }, "geometry": { "type": "Polygon", "coordinates": [ [ [ -90.2011466, 42.8442189 ], [ -90.2326513, 42.969589300000024 ], [ -90.2110414, 43.0036241 ], [ -90.1430895, 43.046103700000039 ], [ -90.0048064, 42.988078400000013 ], [ -90.0065469, 42.979965299999982 ], [ -90.0171775, 42.951772299999988 ], [ -90.0251422, 42.9417553 ], [ -90.073409, 42.899578199999986 ], [ -90.1123455, 42.8736718 ], [ -90.12041090000001, 42.870229 ], [ -90.1640267, 42.8534223 ], [ -90.197764400000011, 42.84494660000005 ], [ -90.2011466, 42.8442189 ] ] ] } },
{ "type": "Feature", "properties": { "OBJECTID": 2675, "ID": "0016653705", "NAME": "WILLIAM S. MIDDLETON MEMORIAL VETERANS HOSPITAL", "ADDRESS": "2500 OVERLOOK TERRACE", "CITY": "MADISON", "STATE": "WI", "ZIP": "53705", "ZIP4": "NOT AVAILABLE", "TELEPHONE": "(608) 256-1901", "TYPE": "GENERAL ACUTE CARE", "STATUS": "OPEN", "POPULATION": -999, "COUNTY": "DANE", "COUNTYFIPS": "55025", "COUNTRY": "USA", "LATITUDE": 43.074247771000003, "LONGITUDE": -89.431125806999901, "NAICS_CODE": "622110", "NAICS_DESC": "GENERAL MEDICAL AND SURGICAL HOSPITALS", "SOURCE": "https://www.va.gov/directory/guide/allstate.asp", "SOURCEDATE": "2018-09-26T00:00:00.000Z", "VAL_METHOD": "IMAGERY/OTHER", "VAL_DATE": "2015-05-29T00:00:00.000Z", "WEBSITE": "http://www.madison.va.gov/", "STATE_ID": "NOT AVAILABLE", "ALT_NAME": "NOT AVAILABLE", "ST_FIPS": "55", "OWNER": "GOVERNMENT - FEDERAL", "TTL_STAFF": -999, "BEDS": -999, "TRAUMA": "NOT AVAILABLE", "HELIPAD": "Y" }, "geometry": { "type": "Polygon", "coordinates": [ [ [ -89.4762405, 43.010158600000032 ], [ -89.4883946, 43.014243300000018 ], [ -89.4907913, 43.015055099999977 ], [ -89.5374139, 43.060505199999987 ], [ -89.5277539, 43.0967119 ], [ -89.5171635, 43.10752380000001 ], [ -89.5084168, 43.111485400000042 ], [ -89.5013827, 43.1146683 ], [ -89.472842, 43.118442 ], [ -89.4708068, 43.118191 ], [ -89.358262, 43.1035285 ], [ -89.3506918, 43.098112599999972 ], [ -89.3504848, 43.0978697 ], [ -89.3489661, 43.043796499999978 ], [ -89.3545855, 43.038722200000052 ], [ -89.3820462, 43.0144283 ], [ -89.4568062, 43.010078799999988 ], [ -89.4762405, 43.010158600000032 ] ] ] } },
{ "type": "Feature", "properties": { "OBJECTID": 2768, "ID": "0003453589", "NAME": "STOUGHTON HOSPITAL", "ADDRESS": "900 RIDGE ST", "CITY": "STOUGHTON", "STATE": "WI", "ZIP": "53589", "ZIP4": "NOT AVAILABLE", "TELEPHONE": "(608) 873-6611", "TYPE": "GENERAL ACUTE CARE", "STATUS": "OPEN", "POPULATION": 35, "COUNTY": "DANE", "COUNTYFIPS": "55025", "COUNTRY": "USA", "LATITUDE": 42.920224619000102, "LONGITUDE": -89.210744351999907, "NAICS_CODE": "622110", "NAICS_DESC": "GENERAL MEDICAL AND SURGICAL HOSPITALS", "SOURCE": "https://www.dhs.wisconsin.gov/guide/hospital.htm", "SOURCEDATE": "2018-08-13T00:00:00.000Z", "VAL_METHOD": "IMAGERY", "VAL_DATE": "2014-02-10T00:00:00.000Z", "WEBSITE": "http://www.stoughtonhospital.com", "STATE_ID": "1046", "ALT_NAME": "NOT AVAILABLE", "ST_FIPS": "55", "OWNER": "NON-PROFIT", "TTL_STAFF": -999, "BEDS": 35, "TRAUMA": "LEVEL IV", "HELIPAD": "Y" }, "geometry": { "type": "Polygon", "coordinates": [ [ [ -89.2407759, 42.845983 ], [ -89.362317, 42.917754800000012 ], [ -89.31607, 42.957935 ], [ -89.2879345, 42.9751828 ], [ -89.201458, 43.007071 ], [ -89.092286, 42.93229 ], [ -89.0851503, 42.922629300000011 ], [ -89.0857495, 42.91778760000004 ], [ -89.091922, 42.909912 ], [ -89.112771, 42.890958 ], [ -89.20126, 42.846299 ], [ -89.2407759, 42.845983 ] ] ] } },
{ "type": "Feature", "properties": { "OBJECTID": 2770, "ID": "0004253818", "NAME": "SOUTHWEST HEALTH CARE GEROPSYCH UNIT", "ADDRESS": "1185 NORTH ELM STREET", "CITY": "PLATTEVILLE", "STATE": "WI", "ZIP": "53818", "ZIP4": "NOT AVAILABLE", "TELEPHONE": "(608) 348-2331", "TYPE": "PSYCHIATRIC", "STATUS": "OPEN", "POPULATION": 10, "COUNTY": "GRANT", "COUNTYFIPS": "55043", "COUNTRY": "USA", "LATITUDE": 42.744933672999998, "LONGITUDE": -90.479130635999994, "NAICS_CODE": "622210", "NAICS_DESC": "PSYCHIATRIC AND SUBSTANCE ABUSE HOSPITALS", "SOURCE": "https://www.dhs.wisconsin.gov/guide/hospital.htm", "SOURCEDATE": "2018-08-13T00:00:00.000Z", "VAL_METHOD": "IMAGERY", "VAL_DATE": "2014-02-10T00:00:00.000Z", "WEBSITE": "http://www.southwesthealth.org", "STATE_ID": "1063", "ALT_NAME": "NOT AVAILABLE", "ST_FIPS": "55", "OWNER": "NON-PROFIT", "TTL_STAFF": -999, "BEDS": 10, "TRAUMA": "NOT AVAILABLE", "HELIPAD": "N" }, "geometry": { "type": "Polygon", "coordinates": [ [ [ -90.550360941363223, 42.664833206907012 ], [ -90.614121578824651, 42.783070071328908 ], [ -90.614504888563687, 42.792118950555611 ], [ -90.614273990258226, 42.793545647252309 ], [ -90.526024086495653, 42.820139569984235 ], [ -90.516094194145552, 42.820198868016831 ], [ -90.496131500933515, 42.820094967122486 ], [ -90.446756308937836, 42.810750221174068 ], [ -90.426801064553104, 42.80577065092487 ], [ -90.423988383394857, 42.740106945053959 ], [ -90.420958009460165, 42.667355356260103 ], [ -90.435676528888166, 42.660147338570901 ], [ -90.550360941363223, 42.664833206907012 ] ] ] } },
{ "type": "Feature", "properties": { "OBJECTID": 2781, "ID": "0011253534", "NAME": "EDGERTON HOSPITAL AND HEALTH SERVICES", "ADDRESS": "11101 N SHERMAN ROAD", "CITY": "EDGERTON", "STATE": "WI", "ZIP": "53534", "ZIP4": "NOT AVAILABLE", "TELEPHONE": "(608) 884-3441", "TYPE": "GENERAL ACUTE CARE", "STATUS": "OPEN", "POPULATION": 18, "COUNTY": "ROCK", "COUNTYFIPS": "55105", "COUNTRY": "USA", "LATITUDE": 42.8347133400001, "LONGITUDE": -89.044267249000001, "NAICS_CODE": "622110", "NAICS_DESC": "GENERAL MEDICAL AND SURGICAL HOSPITALS", "SOURCE": "https://www.dhs.wisconsin.gov/guide/hospital.htm", "SOURCEDATE": "2018-08-13T00:00:00.000Z", "VAL_METHOD": "IMAGERY", "VAL_DATE": "2014-02-10T00:00:00.000Z", "WEBSITE": "http://www.edgertonhospital.com", "STATE_ID": "1022", "ALT_NAME": "NOT AVAILABLE", "ST_FIPS": "55", "OWNER": "NON-PROFIT", "TTL_STAFF": -999, "BEDS": 18, "TRAUMA": "LEVEL IV", "HELIPAD": "Y" }, "geometry": { "type": "Polygon", "coordinates": [ [ [ -88.984265, 42.710281599999981 ], [ -89.000876, 42.711238499999943 ], [ -89.0015195, 42.711334899999954 ], [ -89.0046605, 42.712152299999985 ], [ -89.1286446, 42.803832300000025 ], [ -89.151294, 42.825056 ], [ -89.0851503, 42.922629300000011 ], [ -88.9222514, 42.840420800000011 ], [ -88.905432, 42.824358 ], [ -88.9751967, 42.714004300000028 ], [ -88.984265, 42.710281599999981 ] ] ] } },
{ "type": "Feature", "properties": { "OBJECTID": 2782, "ID": "0011453546", "NAME": "ST MARYS JANESVILLE HOSPITAL", "ADDRESS": "3400 EAST RACINE STREET", "CITY": "JANESVILLE", "STATE": "WI", "ZIP": "53546", "ZIP4": "NOT AVAILABLE", "TELEPHONE": "(608) 373-8000", "TYPE": "GENERAL ACUTE CARE", "STATUS": "OPEN", "POPULATION": 50, "COUNTY": "ROCK", "COUNTYFIPS": "55105", "COUNTRY": "USA", "LATITUDE": 42.669288435000098, "LONGITUDE": -88.976888986999896, "NAICS_CODE": "622110", "NAICS_DESC": "GENERAL MEDICAL AND SURGICAL HOSPITALS", "SOURCE": "https://www.dhs.wisconsin.gov/guide/hospital.htm", "SOURCEDATE": "2018-08-13T00:00:00.000Z", "VAL_METHOD": "IMAGERY", "VAL_DATE": "2014-02-10T00:00:00.000Z", "WEBSITE": "http://www.stmarysjanesville.com", "STATE_ID": "318", "ALT_NAME": "NOT AVAILABLE", "ST_FIPS": "55", "OWNER": "NON-PROFIT", "TTL_STAFF": -999, "BEDS": 50, "TRAUMA": "LEVEL III", "HELIPAD": "Y" }, "geometry": { "type": "Polygon", "coordinates": [ [ [ -88.975469500000017, 42.5213536 ], [ -88.9827343, 42.524771 ], [ -88.996748, 42.537188 ], [ -89.077936, 42.632101 ], [ -89.080458, 42.635284 ], [ -89.0836604, 42.678930499999979 ], [ -89.080532, 42.730223 ], [ -89.03479, 42.76284 ], [ -88.9626975, 42.7736593 ], [ -88.923818, 42.771823 ], [ -88.91013, 42.769531800000038 ], [ -88.815969, 42.653729 ], [ -88.975469500000017, 42.5213536 ] ] ] } },
{ "type": "Feature", "properties": { "OBJECTID": 4062, "ID": "0001353715", "NAME": "MERITER HSPTL", "ADDRESS": "202 S PARK ST", "CITY": "MADISON", "STATE": "WI", "ZIP": "53715", "ZIP4": "NOT AVAILABLE", "TELEPHONE": "(608) 417-6210", "TYPE": "GENERAL ACUTE CARE", "STATUS": "OPEN", "POPULATION": 426, "COUNTY": "DANE", "COUNTYFIPS": "55025", "COUNTRY": "USA", "LATITUDE": 43.065211761999997, "LONGITUDE": -89.401584311999997, "NAICS_CODE": "622110", "NAICS_DESC": "GENERAL MEDICAL AND SURGICAL HOSPITALS", "SOURCE": "https://www.dhs.wisconsin.gov/guide/hospital.htm", "SOURCEDATE": "2018-08-13T00:00:00.000Z", "VAL_METHOD": "IMAGERY", "VAL_DATE": "2014-03-12T00:00:00.000Z", "WEBSITE": "http://www.meriter.com", "STATE_ID": "248", "ALT_NAME": "NOT AVAILABLE", "ST_FIPS": "55", "OWNER": "NON-PROFIT", "TTL_STAFF": -999, "BEDS": 426, "TRAUMA": "LEVEL III", "HELIPAD": "Y" }, "geometry": { "type": "Polygon", "coordinates": [ [ [ -89.430730700000012, 42.992051299999964 ], [ -89.432001, 42.992537 ], [ -89.4762405, 43.010158600000032 ], [ -89.4774527, 43.010679 ], [ -89.4807714, 43.012685500000011 ], [ -89.508043, 43.053269699999973 ], [ -89.5053468, 43.0607559 ], [ -89.4927947, 43.09437 ], [ -89.49269, 43.094447400000028 ], [ -89.4860548, 43.096306599999956 ], [ -89.3558435, 43.127903199999963 ], [ -89.3498717, 43.125468599999984 ], [ -89.3286463, 43.114388900000058 ], [ -89.3162689, 43.1073361 ], [ -89.286824800000019, 43.047177799999979 ], [ -89.345677, 43.011369 ], [ -89.361229, 43.004126 ], [ -89.398325, 42.994434 ], [ -89.430730700000012, 42.992051299999964 ] ] ] } },
{ "type": "Feature", "properties": { "OBJECTID": 4646, "ID": "0001453715", "NAME": "SELECT SPECIALTY HOSPITAL MADISON", "ADDRESS": "801 BRAXTON PLACE", "CITY": "MADISON", "STATE": "WI", "ZIP": "53715", "ZIP4": "NOT AVAILABLE", "TELEPHONE": "(608) 260-2700", "TYPE": "LONG TERM CARE", "STATUS": "OPEN", "POPULATION": 58, "COUNTY": "DANE", "COUNTYFIPS": "55025", "COUNTRY": "USA", "LATITUDE": 43.065933437000098, "LONGITUDE": -89.399383384999993, "NAICS_CODE": "622310", "NAICS_DESC": "SPECIALTY (EXCEPT PSYCHIATRIC AND SUBSTANCE ABUSE) HOSPITALS", "SOURCE": "https://www.dhs.wisconsin.gov/guide/hospital.htm", "SOURCEDATE": "2018-08-13T00:00:00.000Z", "VAL_METHOD": "IMAGERY", "VAL_DATE": "2014-03-12T00:00:00.000Z", "WEBSITE": "http://www.selectspecialtyhospitals.com/company/locations/madison .aspx", "STATE_ID": "313", "ALT_NAME": "NOT AVAILABLE", "ST_FIPS": "55", "OWNER": "PROPRIETARY", "TTL_STAFF": -999, "BEDS": 58, "TRAUMA": "NOT AVAILABLE", "HELIPAD": "N" }, "geometry": { "type": "Polygon", "coordinates": [ [ [ -89.4284762, 42.993208699999983 ], [ -89.4762405, 43.010158600000032 ], [ -89.4807674, 43.015556599999961 ], [ -89.5031832, 43.0538822 ], [ -89.5028499, 43.060776799999978 ], [ -89.491122300000015, 43.090209300000026 ], [ -89.4900094, 43.092389899999979 ], [ -89.4860548, 43.096306599999956 ], [ -89.3552917, 43.130117400000039 ], [ -89.3253937, 43.1162406 ], [ -89.309823, 43.106303 ], [ -89.286824800000019, 43.047177799999979 ], [ -89.299627, 43.030287 ], [ -89.366028, 43.005185 ], [ -89.37622, 43.001328 ], [ -89.3972628, 42.995197 ], [ -89.4284762, 42.993208699999983 ] ] ] } },
{ "type": "Feature", "properties": { "OBJECTID": 4918, "ID": "0001253719", "NAME": "MERITER CHILD AND ADOLESCENT PSYCH HOSPITAL", "ADDRESS": "202 S PARK ST", "CITY": "MADISON", "STATE": "WI", "ZIP": "53719", "ZIP4": "NOT AVAILABLE", "TELEPHONE": "(608) 417-5336", "TYPE": "PSYCHIATRIC", "STATUS": "OPEN", "POPULATION": 22, "COUNTY": "DANE", "COUNTYFIPS": "55025", "COUNTRY": "USA", "LATITUDE": 43.019153367000101, "LONGITUDE": -89.525006224999998, "NAICS_CODE": "622210", "NAICS_DESC": "PSYCHIATRIC AND SUBSTANCE ABUSE HOSPITALS", "SOURCE": "https://www.dhs.wisconsin.gov/guide/hospital.htm", "SOURCEDATE": "2018-08-13T00:00:00.000Z", "VAL_METHOD": "IMAGERY/OTHER", "VAL_DATE": "2014-02-12T00:00:00.000Z", "WEBSITE": "www.meriter.com/?https://www.unitypoint.org/madison/child-and-adolescent-psychiatry.aspx", "STATE_ID": "752", "ALT_NAME": "NOT AVAILABLE", "ST_FIPS": "55", "OWNER": "NON-PROFIT", "TTL_STAFF": -999, "BEDS": 22, "TRAUMA": "NOT AVAILABLE", "HELIPAD": "N" }, "geometry": { "type": "Polygon", "coordinates": [ [ [ -89.5443176, 42.95107260000001 ], [ -89.6270572, 42.98943329999998 ], [ -89.64442440000002, 43.003913599999976 ], [ -89.645306, 43.006236 ], [ -89.645462, 43.009211 ], [ -89.620814, 43.030978 ], [ -89.5875137, 43.060234100000038 ], [ -89.5743995, 43.0698548 ], [ -89.5352708, 43.093632200000023 ], [ -89.5131217, 43.102516500000036 ], [ -89.512029200000015, 43.102405400000045 ], [ -89.5117534, 43.1023057 ], [ -89.400783, 43.03454 ], [ -89.4279288, 43.001155199999971 ], [ -89.480891, 42.961247 ], [ -89.526481, 42.950993 ], [ -89.5443176, 42.95107260000001 ] ] ] } },
{ "type": "Feature", "properties": { "OBJECTID": 4924, "ID": "0003353792", "NAME": "UNIVERSITY OF WI HOSPITALS & CLINICS AUTHORITY", "ADDRESS": "600 HIGHLAND AVENUE", "CITY": "MADISON", "STATE": "WI", "ZIP": "53792", "ZIP4": "NOT AVAILABLE", "TELEPHONE": "(608) 263-8991", "TYPE": "GENERAL ACUTE CARE", "STATUS": "OPEN", "POPULATION": 648, "COUNTY": "DANE", "COUNTYFIPS": "55025", "COUNTRY": "USA", "LATITUDE": 43.076585409000103, "LONGITUDE": -89.431847137000005, "NAICS_CODE": "622110", "NAICS_DESC": "GENERAL MEDICAL AND SURGICAL HOSPITALS", "SOURCE": "https://www.dhs.wisconsin.gov/guide/hospital.htm", "SOURCEDATE": "2018-08-13T00:00:00.000Z", "VAL_METHOD": "IMAGERY/OTHER", "VAL_DATE": "2014-03-12T00:00:00.000Z", "WEBSITE": "http://www.uwhospital.org", "STATE_ID": "125", "ALT_NAME": "NOT AVAILABLE", "ST_FIPS": "55", "OWNER": "NON-PROFIT", "TTL_STAFF": -999, "BEDS": 648, "TRAUMA": "LEVEL I", "HELIPAD": "Y" }, "geometry": { "type": "Polygon", "coordinates": [ [ [ -89.4762405, 43.010158600000032 ], [ -89.488411, 43.013394299999959 ], [ -89.4907913, 43.015055099999977 ], [ -89.5374805, 43.060138800000026 ], [ -89.5375359, 43.0602024 ], [ -89.5344283, 43.074878300000037 ], [ -89.5277546, 43.098433700000015 ], [ -89.5183992, 43.111500900000017 ], [ -89.5026957, 43.1170302 ], [ -89.4715774, 43.122878399999983 ], [ -89.35862, 43.103744 ], [ -89.3486758, 43.100264500000016 ], [ -89.3484998, 43.0934267 ], [ -89.3477537, 43.04712880000001 ], [ -89.3489661, 43.043796499999978 ], [ -89.3500873, 43.0407272 ], [ -89.379561, 43.023068 ], [ -89.3870033, 43.0212528 ], [ -89.4568062, 43.010078799999988 ], [ -89.4762405, 43.010158600000032 ] ] ] } },
{ "type": "Feature", "properties": { "OBJECTID": 4927, "ID": "0004453818", "NAME": "SOUTHWEST HEALTH CENTER INC", "ADDRESS": "1400 EAST SIDE RD", "CITY": "PLATTEVILLE", "STATE": "WI", "ZIP": "53818", "ZIP4": "NOT AVAILABLE", "TELEPHONE": "(608) 342-4701", "TYPE": "GENERAL ACUTE CARE", "STATUS": "OPEN", "POPULATION": 25, "COUNTY": "GRANT", "COUNTYFIPS": "55043", "COUNTRY": "USA", "LATITUDE": 42.719631217, "LONGITUDE": -90.458156490999997, "NAICS_CODE": "622110", "NAICS_DESC": "GENERAL MEDICAL AND SURGICAL HOSPITALS", "SOURCE": "https://www.dhs.wisconsin.gov/guide/hospital.htm", "SOURCEDATE": "2018-08-13T00:00:00.000Z", "VAL_METHOD": "IMAGERY", "VAL_DATE": "2014-02-10T00:00:00.000Z", "WEBSITE": "http://www.southwesthealth.org", "STATE_ID": "1059", "ALT_NAME": "NOT AVAILABLE", "ST_FIPS": "55", "OWNER": "NON-PROFIT", "TTL_STAFF": -999, "BEDS": 25, "TRAUMA": "LEVEL IV", "HELIPAD": "Y" }, "geometry": { "type": "Polygon", "coordinates": [ [ [ -90.432222176690928, 42.613683486136296 ], [ -90.578810411443826, 42.645909599703593 ], [ -90.58334870601621, 42.717208033059443 ], [ -90.545100396074176, 42.773032091563003 ], [ -90.501064943989434, 42.788437749087571 ], [ -90.446155271422484, 42.797160867317878 ], [ -90.325672, 42.747227 ], [ -90.3280501, 42.73382540000005 ], [ -90.432222176690928, 42.613683486136296 ] ] ] } },
{ "type": "Feature", "properties": { "OBJECTID": 4928, "ID": "0004553566", "NAME": "THE MONROE CLINIC", "ADDRESS": "2005 5TH STREET", "CITY": "MONROE", "STATE": "WI", "ZIP": "53566", "ZIP4": "NOT AVAILABLE", "TELEPHONE": "(608) 324-1000", "TYPE": "GENERAL ACUTE CARE", "STATUS": "OPEN", "POPULATION": 95, "COUNTY": "GREEN", "COUNTYFIPS": "55045", "COUNTRY": "USA", "LATITUDE": 42.608560421000099, "LONGITUDE": -89.63462444, "NAICS_CODE": "622110", "NAICS_DESC": "GENERAL MEDICAL AND SURGICAL HOSPITALS", "SOURCE": "https://www.dhs.wisconsin.gov/guide/hospital.htm", "SOURCEDATE": "2018-08-13T00:00:00.000Z", "VAL_METHOD": "IMAGERY", "VAL_DATE": "2014-02-10T00:00:00.000Z", "WEBSITE": "http://www.monroeclinic.org", "STATE_ID": "56", "ALT_NAME": "NOT AVAILABLE", "ST_FIPS": "55", "OWNER": "NON-PROFIT", "TTL_STAFF": -999, "BEDS": 95, "TRAUMA": "UNCLASSIFIED", "HELIPAD": "Y" }, "geometry": { "type": "Polygon", "coordinates": [ [ [ -89.6618664, 42.5193777 ], [ -89.7740758, 42.589623300000014 ], [ -89.7641925, 42.629707700000033 ], [ -89.7217744, 42.658059300000055 ], [ -89.6183336, 42.716945799999969 ], [ -89.5992983, 42.7139401 ], [ -89.5198435, 42.656798199999983 ], [ -89.4913134, 42.5901869 ], [ -89.5432988, 42.5460919 ], [ -89.5726918, 42.5286006 ], [ -89.660609900000011, 42.5193638 ], [ -89.6618664, 42.5193777 ] ] ] } },
{ "type": "Feature", "properties": { "OBJECTID": 113, "ID": "0001553715", "NAME": "ST MARYS HOSPITAL", "ADDRESS": "700 SOUTH PARK ST", "CITY": "MADISON", "STATE": "WI", "ZIP": "53715", "ZIP4": "NOT AVAILABLE", "TELEPHONE": "(608) 251-6100", "TYPE": "GENERAL ACUTE CARE", "STATUS": "OPEN", "POPULATION": 440, "COUNTY": "DANE", "COUNTYFIPS": "55025", "COUNTRY": "USA", "LATITUDE": 43.059338464000099, "LONGITUDE": -89.401429214999993, "NAICS_CODE": "622110", "NAICS_DESC": "GENERAL MEDICAL AND SURGICAL HOSPITALS", "SOURCE": "https://www.dhs.wisconsin.gov/guide/hospital.htm", "SOURCEDATE": "2018-08-13T00:00:00.000Z", "VAL_METHOD": "IMAGERY", "VAL_DATE": "2014-02-10T00:00:00.000Z", "WEBSITE": "http://www.stmarysmadison.com", "STATE_ID": "71", "ALT_NAME": "NOT AVAILABLE", "ST_FIPS": "55", "OWNER": "NON-PROFIT", "TTL_STAFF": -999, "BEDS": 440, "TRAUMA": "NOT AVAILABLE", "HELIPAD": "Y" }, "geometry": { "type": "Polygon", "coordinates": [ [ [ -89.3730579, 42.948817500000054 ], [ -89.3799951, 42.950027500000033 ], [ -89.4883946, 43.014243300000018 ], [ -89.4908172, 43.015694599999989 ], [ -89.508043, 43.053269699999973 ], [ -89.4865176, 43.090086799999959 ], [ -89.3552126, 43.123974699999962 ], [ -89.3550206, 43.123972199999969 ], [ -89.3514117, 43.123634800000033 ], [ -89.3303933, 43.113084799999989 ], [ -89.3228652, 43.1064556 ], [ -89.2742937, 43.049612100000026 ], [ -89.2719677, 43.045484900000034 ], [ -89.2743796, 43.0396323 ], [ -89.3730579, 42.948817500000054 ] ] ] } },
{ "type": "Feature", "properties": { "OBJECTID": 130, "ID": "0011153511", "NAME": "BELOIT HEALTH SYSTEM", "ADDRESS": "1969 W HART RD", "CITY": "BELOIT", "STATE": "WI", "ZIP": "53511", "ZIP4": "NOT AVAILABLE", "TELEPHONE": "(608) 364-5011", "TYPE": "GENERAL ACUTE CARE", "STATUS": "OPEN", "POPULATION": 256, "COUNTY": "ROCK", "COUNTYFIPS": "55105", "COUNTRY": "USA", "LATITUDE": 42.5482977120001, "LONGITUDE": -89.008431523, "NAICS_CODE": "622110", "NAICS_DESC": "GENERAL MEDICAL AND SURGICAL HOSPITALS", "SOURCE": "https://www.dhs.wisconsin.gov/guide/hospital.htm", "SOURCEDATE": "2018-08-13T00:00:00.000Z", "VAL_METHOD": "IMAGERY", "VAL_DATE": "2014-03-12T00:00:00.000Z", "WEBSITE": "http://www.beloithealthsystem.org", "STATE_ID": "67", "ALT_NAME": "NOT AVAILABLE", "ST_FIPS": "55", "OWNER": "NON-PROFIT", "TTL_STAFF": -999, "BEDS": 256, "TRAUMA": "LEVEL III", "HELIPAD": "Y" }, "geometry": { "type": "Polygon", "coordinates": [ [ [ -88.9952322, 42.459876 ], [ -89.058379, 42.4824963 ], [ -89.090863, 42.511085 ], [ -89.099637, 42.5403543 ], [ -89.099613, 42.547784 ], [ -89.0309978, 42.634487399999969 ], [ -89.0118332, 42.6384779 ], [ -88.9828396, 42.640737599999987 ], [ -88.9729132, 42.634717199999969 ], [ -88.918066, 42.579614100000029 ], [ -88.916702, 42.549511 ], [ -88.9952322, 42.459876 ] ] ] } },
{ "type": "Feature", "properties": { "OBJECTID": 439, "ID": "0010961104", "NAME": "SWEDISH AMERICAN HOSPITAL", "ADDRESS": "1401 EAST STATE STREET", "CITY": "ROCKFORD", "STATE": "IL", "ZIP": "61104", "ZIP4": "NOT AVAILABLE", "TELEPHONE": "(815) 968-4400", "TYPE": "GENERAL ACUTE CARE", "STATUS": "OPEN", "POPULATION": 325, "COUNTY": "WINNEBAGO", "COUNTYFIPS": "17201", "COUNTRY": "USA", "LATITUDE": 42.265674877000002, "LONGITUDE": -89.074139537999898, "NAICS_CODE": "622110", "NAICS_DESC": "GENERAL MEDICAL AND SURGICAL HOSPITALS", "SOURCE": "https://data.illinois.gov/", "SOURCEDATE": "2018-08-09T00:00:00.000Z", "VAL_METHOD": "IMAGERY", "VAL_DATE": "2014-03-12T00:00:00.000Z", "WEBSITE": "http://www.swedishamerican.org", "STATE_ID": "140228", "ALT_NAME": "NOT AVAILABLE", "ST_FIPS": "17", "OWNER": "NON-PROFIT", "TTL_STAFF": -999, "BEDS": 325, "TRAUMA": "LEVEL II", "HELIPAD": "Y" }, "geometry": { "type": "Polygon", "coordinates": [ [ [ -89.0740625, 42.1671422 ], [ -89.0742962, 42.167202400000029 ], [ -89.1731457, 42.228259699999953 ], [ -89.2124557, 42.28040560000003 ], [ -89.1560688, 42.3247855 ], [ -89.045924, 42.355544499999979 ], [ -89.0436182, 42.3558031 ], [ -88.979212, 42.307751399999972 ], [ -88.9462744, 42.278094700000025 ], [ -88.9506424, 42.2584248 ], [ -88.9655373, 42.239170599999987 ], [ -88.9696181, 42.235711099999982 ], [ -89.0740625, 42.1671422 ] ] ] } },
{ "type": "Feature", "properties": { "OBJECTID": 440, "ID": "0011361103", "NAME": "ROCKFORD MEMORIAL HOSPITAL", "ADDRESS": "2400 NORTH ROCKTON AVENUE", "CITY": "ROCKFORD", "STATE": "IL", "ZIP": "61101", "ZIP4": "NOT AVAILABLE", "TELEPHONE": "(815) 968-6861", "TYPE": "GENERAL ACUTE CARE", "STATUS": "OPEN", "POPULATION": 297, "COUNTY": "WINNEBAGO", "COUNTYFIPS": "17201", "COUNTRY": "USA", "LATITUDE": 42.298427168000003, "LONGITUDE": -89.098441351000005, "NAICS_CODE": "622110", "NAICS_DESC": "GENERAL MEDICAL AND SURGICAL HOSPITALS", "SOURCE": "https://data.illinois.gov/", "SOURCEDATE": "2018-08-09T00:00:00.000Z", "VAL_METHOD": "IMAGERY", "VAL_DATE": "2014-03-12T00:00:00.000Z", "WEBSITE": "http://www.rhsnet.org", "STATE_ID": "140239", "ALT_NAME": "NOT AVAILABLE", "ST_FIPS": "17", "OWNER": "NON-PROFIT", "TTL_STAFF": -999, "BEDS": 297, "TRAUMA": "LEVEL I", "HELIPAD": "Y" }, "geometry": { "type": "Polygon", "coordinates": [ [ [ -89.1087812, 42.21112620000001 ], [ -89.1270139, 42.221823899999983 ], [ -89.1549886, 42.238259400000032 ], [ -89.1986303, 42.280869100000018 ], [ -89.2037819, 42.2952885 ], [ -89.2237675, 42.3512341 ], [ -89.1743693, 42.36820050000005 ], [ -89.078391, 42.3786849 ], [ -89.03748130000001, 42.363383 ], [ -88.9975034, 42.318526599999977 ], [ -88.9966933, 42.2974776 ], [ -88.996699, 42.296747 ], [ -89.0133204, 42.262495 ], [ -89.0225285, 42.251865799999969 ], [ -89.0289277, 42.246492899999986 ], [ -89.0723123, 42.2192337 ], [ -89.1074579, 42.211107900000037 ], [ -89.1087812, 42.21112620000001 ] ] ] } },
{ "type": "Feature", "properties": { "OBJECTID": 996, "ID": "0005553530", "NAME": "MEMORIAL HSPTL LAFAYETTE CTY", "ADDRESS": "800 CLAY ST, PO BOX 70", "CITY": "DARLINGTON", "STATE": "WI", "ZIP": "53530", "ZIP4": "NOT AVAILABLE", "TELEPHONE": "(608) 776-4466", "TYPE": "GENERAL ACUTE CARE", "STATUS": "OPEN", "POPULATION": 25, "COUNTY": "LAFAYETTE", "COUNTYFIPS": "55065", "COUNTRY": "USA", "LATITUDE": 42.6836436930001, "LONGITUDE": -90.110027165999995, "NAICS_CODE": "622110", "NAICS_DESC": "GENERAL MEDICAL AND SURGICAL HOSPITALS", "SOURCE": "https://www.dhs.wisconsin.gov/guide/hospital.htm", "SOURCEDATE": "2018-08-13T00:00:00.000Z", "VAL_METHOD": "IMAGERY", "VAL_DATE": "2014-02-10T00:00:00.000Z", "WEBSITE": "http://www.memorialhospitaloflafayettecounty.org", "STATE_ID": "1015", "ALT_NAME": "NOT AVAILABLE", "ST_FIPS": "55", "OWNER": "GOVERNMENT - LOCAL", "TTL_STAFF": -999, "BEDS": 25, "TRAUMA": "LEVEL IV", "HELIPAD": "Y" }, "geometry": { "type": "Polygon", "coordinates": [ [ [ -90.132717, 42.595512 ], [ -90.173274, 42.617218 ], [ -90.21561, 42.660478 ], [ -90.215548, 42.667632 ], [ -90.215479, 42.675039 ], [ -90.215398, 42.679395 ], [ -90.205398, 42.697617 ], [ -90.162823500000016, 42.743106800000028 ], [ -90.121659, 42.770563 ], [ -89.993878, 42.704251 ], [ -89.995211, 42.653615 ], [ -90.132717, 42.595512 ] ] ] } },
{ "type": "Feature", "properties": { "OBJECTID": 7218, "ID": "0007761032", "NAME": "FHN MEMORIAL HOSPITAL", "ADDRESS": "1045 WEST STEPHENSON STREET", "CITY": "FREEPORT", "STATE": "IL", "ZIP": "61032", "ZIP4": "NOT AVAILABLE", "TELEPHONE": "(815) 235-4131", "TYPE": "GENERAL ACUTE CARE", "STATUS": "OPEN", "POPULATION": 100, "COUNTY": "STEPHENSON", "COUNTYFIPS": "17177", "COUNTRY": "USA", "LATITUDE": 42.295776556000099, "LONGITUDE": -89.638345837000003, "NAICS_CODE": "622110", "NAICS_DESC": "GENERAL MEDICAL AND SURGICAL HOSPITALS", "SOURCE": "https://data.illinois.gov/", "SOURCEDATE": "2018-08-09T00:00:00.000Z", "VAL_METHOD": "IMAGERY", "VAL_DATE": "2014-03-12T00:00:00.000Z", "WEBSITE": "http://www.fhn.org", "STATE_ID": "140160", "ALT_NAME": "NOT AVAILABLE", "ST_FIPS": "17", "OWNER": "NON-PROFIT", "TTL_STAFF": -999, "BEDS": 100, "TRAUMA": "NOT AVAILABLE", "HELIPAD": "Y" }, "geometry": { "type": "Polygon", "coordinates": [ [ [ -89.6298478, 42.20052279999998 ], [ -89.7452171, 42.277574799999968 ], [ -89.7491362, 42.327046500000016 ], [ -89.6313825, 42.3914308 ], [ -89.5701038, 42.345339100000039 ], [ -89.5536504, 42.3308974 ], [ -89.533505, 42.309309 ], [ -89.52207, 42.275912300000016 ], [ -89.5426138, 42.2589971 ], [ -89.6298478, 42.20052279999998 ] ] ] } }
]
}
