{
"type": "FeatureCollection",
"crs": { "type": "name", "properties": { "name": "urn:ogc:def:crs:OGC:1.3:CRS84" } },
"features": [
{ "type": "Feature", "properties": { "OBJECTID": 1144, "ID": "0011065340", "NAME": "FITZGIBBON HOSPITAL", "ADDRESS": "2305 SOUTH 65 HIGHWAY", "CITY": "MARSHALL", "STATE": "MO", "ZIP": "65340", "ZIP4": "NOT AVAILABLE", "TELEPHONE": "(660) 886-7431", "TYPE": "GENERAL ACUTE CARE", "STATUS": "OPEN", "POPULATION": 60, "COUNTY": "SALINE", "COUNTYFIPS": "29195", "COUNTRY": "USA", "LATITUDE": 39.091498172000101, "LONGITUDE": -93.213159133000005, "NAICS_CODE": "622110", "NAICS_DESC": "GENERAL MEDICAL AND SURGICAL HOSPITALS", "SOURCE": "http://health.mo.gov/safety/healthservregs/directories.php", "SOURCEDATE": "2018-08-09T00:00:00.000Z", "VAL_METHOD": "IMAGERY/OTHER", "VAL_DATE": "2014-02-10T00:00:00.000Z", "WEBSITE": "http://www.fitzgibbon.org", "STATE_ID": "H037", "ALT_NAME": "NOT AVAILABLE", "ST_FIPS": "29", "OWNER": "NON-PROFIT", "TTL_STAFF": -999, "BEDS": 60, "TRAUMA": "NOT AVAILABLE", "HELIPAD": "Y" }, "geometry": { "type": "Polygon", "coordinates": [ [ [ -93.2074184, 38.961622400000032 ], [ -93.269954, 39.003958 ], [ -93.295245, 39.059195 ], [ -93.29908, 39.113986 ], [ -93.2971899, 39.1732411 ], [ -93.219949, 39.179455 ], [ -93.1371622, 39.128290899999989 ], [ -93.145117, 39.034673 ], [ -93.2074184, 38.961622400000032 ] ] ] } },
{ "type": "Feature", "properties": { "OBJECTID": 1147, "ID": "0004965041", "NAME": "HERMANN AREA DISTRICT HOSPITAL", "ADDRESS": "509 WEST 18TH STREET", "CITY": "HERMANN", "STATE": "MO", "ZIP": "65041", "ZIP4": "NOT AVAILABLE", "TELEPHONE": "(573) 486-2191", "TYPE": "CRITICAL ACCESS", "STATUS": "OPEN", "POPULATION": 24, "COUNTY": "GASCONADE", "COUNTYFIPS": "29073", "COUNTRY": "USA", "LATITUDE": 38.693078127, "LONGITUDE": -91.449585553999995, "NAICS_CODE": "622110", "NAICS_DESC": "GENERAL MEDICAL AND SURGICAL HOSPITALS", "SOURCE": "http://health.mo.gov/safety/healthservregs/directories.php", "SOURCEDATE": "2018-08-09T00:00:00.000Z", "VAL_METHOD": "IMAGERY/OTHER", "VAL_DATE": "2014-02-10T00:00:00.000Z", "WEBSITE": "http://www.hadh.org", "STATE_ID": "H050", "ALT_NAME": "NOT AVAILABLE", "ST_FIPS": "29", "OWNER": "GOVERNMENT - DISTRICT/AUTHORITY", "TTL_STAFF": -999, "BEDS": 24, "TRAUMA": "LEVEL II", "HELIPAD": "Y" }, "geometry": { "type": "Polygon", "coordinates": [ [ [ -91.453702, 38.628413 ], [ -91.520108, 38.636378 ], [ -91.508901, 38.6772209 ], [ -91.490885, 38.692996 ], [ -91.440221, 38.713201300000016 ], [ -91.389058, 38.703416 ], [ -91.377907, 38.684262 ], [ -91.37331, 38.669341 ], [ -91.384873, 38.657136 ], [ -91.400266, 38.642009 ], [ -91.410717, 38.636045 ], [ -91.453702, 38.628413 ] ] ] } },
{ "type": "Feature", "properties": { "OBJECTID": 1158, "ID": "0011764724", "NAME": "ELLETT MEMORIAL HOSPITAL", "ADDRESS": "610 NORTH OHIO AVENUE", "CITY": "APPLETON CITY", "STATE": "MO", "ZIP": "64724", "ZIP4": "NOT AVAILABLE", "TELEPHONE": "(660) 476-2111", "TYPE": "CRITICAL ACCESS", "STATUS": "OPEN", "POPULATION": 12, "COUNTY": "ST. CLAIR", "COUNTYFIPS": "29185", "COUNTRY": "USA", "LATITUDE": 38.192474943999997, "LONGITUDE": -94.021254960999997, "NAICS_CODE": "622110", "NAICS_DESC": "GENERAL MEDICAL AND SURGICAL HOSPITALS", "SOURCE": "http://health.mo.gov/safety/healthservregs/directories.php", "SOURCEDATE": "2018-08-09T00:00:00.000Z", "VAL_METHOD": "IMAGERY/OTHER", "VAL_DATE": "2014-02-10T00:00:00.000Z", "WEBSITE": "http://www.ellettmemorial.com", "STATE_ID": "H035", "ALT_NAME": "NOT AVAILABLE", "ST_FIPS": "29", "OWNER": "GOVERNMENT - DISTRICT/AUTHORITY", "TTL_STAFF": -999, "BEDS": 12, "TRAUMA": "NOT AVAILABLE", "HELIPAD": "Y" }, "geometry": { "type": "Polygon", "coordinates": [ [ [ -93.998781, 38.123933 ], [ -94.053916, 38.129787 ], [ -94.0723869, 38.1323226 ], [ -94.108518, 38.148989 ], [ -94.157744, 38.216421 ], [ -94.120304, 38.239226 ], [ -94.0413466, 38.2572851 ], [ -94.0290561, 38.257081 ], [ -93.9814739, 38.255944800000016 ], [ -93.964327, 38.226384 ], [ -93.941399, 38.183696 ], [ -93.942609, 38.158319 ], [ -93.998781, 38.123933 ] ] ] } },
{ "type": "Feature", "properties": { "OBJECTID": 1159, "ID": "0006865360", "NAME": "ROYAL OAKS HOSPITAL", "ADDRESS": "307 NORTH MAIN", "CITY": "WINDSOR", "STATE": "MO", "ZIP": "65360", "ZIP4": "NOT AVAILABLE", "TELEPHONE": "(660) 647-2182", "TYPE": "PSYCHIATRIC", "STATUS": "OPEN", "POPULATION": 41, "COUNTY": "HENRY", "COUNTYFIPS": "29083", "COUNTRY": "USA", "LATITUDE": 38.534133312000101, "LONGITUDE": -93.518529316999903, "NAICS_CODE": "622210", "NAICS_DESC": "PSYCHIATRIC AND SUBSTANCE ABUSE HOSPITALS", "SOURCE": "http://health.mo.gov/safety/healthservregs/directories.php", "SOURCEDATE": "2018-08-09T00:00:00.000Z", "VAL_METHOD": "IMAGERY/OTHER", "VAL_DATE": "2014-02-10T00:00:00.000Z", "WEBSITE": "http://compasshealthnetwork.org/about-us/royal-oaks-hospital/", "STATE_ID": "H093", "ALT_NAME": "NOT AVAILABLE", "ST_FIPS": "29", "OWNER": "NON-PROFIT", "TTL_STAFF": -999, "BEDS": 41, "TRAUMA": "NOT AVAILABLE", "HELIPAD": "N" }, "geometry": { "type": "Polygon", "coordinates": [ [ [ -93.5349782, 38.447400200000025 ], [ -93.6087984, 38.4714729 ], [ -93.631461, 38.544735 ], [ -93.527082, 38.614764 ], [ -93.49003, 38.613665 ], [ -93.393404, 38.538362 ], [ -93.5349782, 38.447400200000025 ] ] ] } },
{ "type": "Feature", "properties": { "OBJECTID": 2144, "ID": "0004365233", "NAME": "COOPER COUNTY MEMORIAL HOSPITAL", "ADDRESS": "17651 B. HIGHWAY", "CITY": "BOONVILLE", "STATE": "MO", "ZIP": "65233", "ZIP4": "NOT AVAILABLE", "TELEPHONE": "(660) 882-7461", "TYPE": "GENERAL ACUTE CARE", "STATUS": "OPEN", "POPULATION": 70, "COUNTY": "COOPER", "COUNTYFIPS": "29053", "COUNTRY": "USA", "LATITUDE": 38.944158512999998, "LONGITUDE": -92.740723071999994, "NAICS_CODE": "622110", "NAICS_DESC": "GENERAL MEDICAL AND SURGICAL HOSPITALS", "SOURCE": "http://health.mo.gov/safety/healthservregs/directories.php", "SOURCEDATE": "2018-08-09T00:00:00.000Z", "VAL_METHOD": "IMAGERY/OTHER", "VAL_DATE": "2014-02-10T00:00:00.000Z", "WEBSITE": "http://www.coopercountymemorialhospital.org/", "STATE_ID": "H025", "ALT_NAME": "NOT AVAILABLE", "ST_FIPS": "29", "OWNER": "GOVERNMENT - LOCAL", "TTL_STAFF": -999, "BEDS": 70, "TRAUMA": "NOT AVAILABLE", "HELIPAD": "Y" }, "geometry": { "type": "Polygon", "coordinates": [ [ [ -92.8404766, 38.8549556 ], [ -92.9146585, 38.931715399999987 ], [ -92.8766182, 38.950240099999981 ], [ -92.7476012, 38.984858199999984 ], [ -92.7278308, 38.980857300000011 ], [ -92.577571, 38.948567 ], [ -92.5760442, 38.947598500000026 ], [ -92.579875, 38.924505 ], [ -92.6500605, 38.880648899999969 ], [ -92.731535600000015, 38.854498 ], [ -92.8404766, 38.8549556 ] ] ] } },
{ "type": "Feature", "properties": { "OBJECTID": 2146, "ID": "0008963552", "NAME": "MACON COUNTY SAMARITAN MEMORIAL HOSPITAL", "ADDRESS": "1205 NORTH MISSOURI", "CITY": "MACON", "STATE": "MO", "ZIP": "63552", "ZIP4": "NOT AVAILABLE", "TELEPHONE": "(660) 385-8700", "TYPE": "CRITICAL ACCESS", "STATUS": "OPEN", "POPULATION": 25, "COUNTY": "MACON", "COUNTYFIPS": "29121", "COUNTRY": "USA", "LATITUDE": 39.747780288999998, "LONGITUDE": -92.469038073999997, "NAICS_CODE": "622110", "NAICS_DESC": "GENERAL MEDICAL AND SURGICAL HOSPITALS", "SOURCE": "http://health.mo.gov/safety/healthservregs/directories.php", "SOURCEDATE": "2018-08-09T00:00:00.000Z", "VAL_METHOD": "IMAGERY/OTHER", "VAL_DATE": "2014-02-10T00:00:00.000Z", "WEBSITE": "http://www.smhmo.org/", "STATE_ID": "H061", "ALT_NAME": "NOT AVAILABLE", "ST_FIPS": "29", "OWNER": "GOVERNMENT - LOCAL", "TTL_STAFF": -999, "BEDS": 25, "TRAUMA": "NOT AVAILABLE", "HELIPAD": "Y" }, "geometry": { "type": "Polygon", "coordinates": [ [ [ -92.473231, 39.622024 ], [ -92.640586, 39.757883 ], [ -92.6405791, 39.758163900000049 ], [ -92.64056, 39.75894 ], [ -92.4743043, 39.883045499999987 ], [ -92.473069200000012, 39.882600400000037 ], [ -92.2992145, 39.749959200000042 ], [ -92.2992132, 39.7497504 ], [ -92.472851, 39.622028 ], [ -92.473231, 39.622024 ] ] ] } },
{ "type": "Feature", "properties": { "OBJECTID": 2147, "ID": "0003165251", "NAME": "FULTON STATE HOSPITAL", "ADDRESS": "600 EAST 5TH", "CITY": "FULTON", "STATE": "MO", "ZIP": "65251", "ZIP4": "NOT AVAILABLE", "TELEPHONE": "(573) 592-4100", "TYPE": "PSYCHIATRIC", "STATUS": "OPEN", "POPULATION": -999, "COUNTY": "CALLAWAY", "COUNTYFIPS": "29027", "COUNTRY": "USA", "LATITUDE": 38.847135248000001, "LONGITUDE": -91.937865458000005, "NAICS_CODE": "622210", "NAICS_DESC": "PSYCHIATRIC AND SUBSTANCE ABUSE HOSPITALS", "SOURCE": "http://health.mo.gov/safety/healthservregs/directories.php", "SOURCEDATE": "2018-08-09T00:00:00.000Z", "VAL_METHOD": "IMAGERY/OTHER", "VAL_DATE": "2014-02-10T00:00:00.000Z", "WEBSITE": "https://dmh.mo.gov/fulton/", "STATE_ID": "P007", "ALT_NAME": "NOT AVAILABLE", "ST_FIPS": "29", "OWNER": "GOVERNMENT - STATE", "TTL_STAFF": -999, "BEDS": -999, "TRAUMA": "NOT AVAILABLE", "HELIPAD": "N" }, "geometry": { "type": "Polygon", "coordinates": [ [ [ -92.043953, 38.761811 ], [ -92.0443361, 38.761982400000036 ], [ -92.0445831, 38.7620988 ], [ -92.045471, 38.762571 ], [ -92.053495, 38.777702 ], [ -92.07104, 38.8755266 ], [ -92.0707405, 38.879940400000081 ], [ -91.9555315, 38.952023 ], [ -91.93294, 38.960485 ], [ -91.9286226, 38.9589036 ], [ -91.908549, 38.943553 ], [ -91.87353, 38.907196 ], [ -91.838289, 38.84043 ], [ -91.877983, 38.792165 ], [ -91.925233, 38.767522 ], [ -92.043953, 38.761811 ] ] ] } },
{ "type": "Feature", "properties": { "OBJECTID": 2148, "ID": "0012064776", "NAME": "SAC-OSAGE HOSPITAL", "ADDRESS": "700 GIESLER", "CITY": "OSCEOLA", "STATE": "MO", "ZIP": "64776", "ZIP4": "NOT AVAILABLE", "TELEPHONE": "(417) 646-8181", "TYPE": "GENERAL ACUTE CARE", "STATUS": "CLOSED", "POPULATION": 47, "COUNTY": "ST. CLAIR", "COUNTYFIPS": "29185", "COUNTRY": "USA", "LATITUDE": 38.051754899000102, "LONGITUDE": -93.689340649000002, "NAICS_CODE": "622110", "NAICS_DESC": "GENERAL MEDICAL AND SURGICAL HOSPITALS", "SOURCE": "http://gis.dhss.mo.gov/Website/AGS_healthFacility/healthFacility.html", "SOURCEDATE": "2013-02-15T00:00:00.000Z", "VAL_METHOD": "IMAGERY/OTHER", "VAL_DATE": "2014-02-10T00:00:00.000Z", "WEBSITE": "http://www.sac-osagehospital.com", "STATE_ID": "H095", "ALT_NAME": "NOT AVAILABLE", "ST_FIPS": "29", "OWNER": "GOVERNMENT - DISTRICT/AUTHORITY", "TTL_STAFF": -999, "BEDS": 47, "TRAUMA": "NOT AVAILABLE", "HELIPAD": "Y" }, "geometry": { "type": "Polygon", "coordinates": [ [ [ -93.624773, 37.923308 ], [ -93.737485, 37.989379 ], [ -93.788187, 38.057324 ], [ -93.733005, 38.184381 ], [ -93.732791, 38.184514 ], [ -93.731514, 38.184375 ], [ -93.722233, 38.176088 ], [ -93.69514, 38.150799 ], [ -93.591735, 38.043907 ], [ -93.591795, 38.043007 ], [ -93.624475, 37.923308 ], [ -93.624773, 37.923308 ] ] ] } },
{ "type": "Feature", "properties": { "OBJECTID": 2149, "ID": "0002764735", "NAME": "GOLDEN VALLEY MEMORIAL HOSPITAL", "ADDRESS": "1600 NORTH SECOND STREET", "CITY": "CLINTON", "STATE": "MO", "ZIP": "64735", "ZIP4": "NOT AVAILABLE", "TELEPHONE": "(660) 885-5511", "TYPE": "GENERAL ACUTE CARE", "STATUS": "OPEN", "POPULATION": 56, "COUNTY": "HENRY", "COUNTYFIPS": "29083", "COUNTRY": "USA", "LATITUDE": 38.389678925000098, "LONGITUDE": -93.768801002999993, "NAICS_CODE": "622110", "NAICS_DESC": "GENERAL MEDICAL AND SURGICAL HOSPITALS", "SOURCE": "http://health.mo.gov/safety/healthservregs/directories.php", "SOURCEDATE": "2018-08-09T00:00:00.000Z", "VAL_METHOD": "IMAGERY/OTHER", "VAL_DATE": "2014-02-10T00:00:00.000Z", "WEBSITE": "http://www.gvmh.org", "STATE_ID": "H043", "ALT_NAME": "NOT AVAILABLE", "ST_FIPS": "29", "OWNER": "GOVERNMENT - DISTRICT/AUTHORITY", "TTL_STAFF": -999, "BEDS": 56, "TRAUMA": "NOT AVAILABLE", "HELIPAD": "Y" }, "geometry": { "type": "Polygon", "coordinates": [ [ [ -93.749893, 38.300803 ], [ -93.7588803, 38.301002200000021 ], [ -93.7775748, 38.30151970000005 ], [ -93.8850589, 38.355064199999987 ], [ -93.941892, 38.437544700000032 ], [ -93.9417568, 38.4377589 ], [ -93.762137, 38.51798 ], [ -93.6813152, 38.44311219999998 ], [ -93.649917, 38.36335 ], [ -93.749893, 38.300803 ] ] ] } },
{ "type": "Feature", "properties": { "OBJECTID": 2500, "ID": "0000462301", "NAME": "BLESSING HOSPITAL AT 14TH STREET", "ADDRESS": "1415 VERMONT STREET", "CITY": "QUINCY", "STATE": "IL", "ZIP": "62301", "ZIP4": "NOT AVAILABLE", "TELEPHONE": "(217) 223-1200", "TYPE": "GENERAL ACUTE CARE", "STATUS": "CLOSED", "POPULATION": -999, "COUNTY": "ADAMS", "COUNTYFIPS": "17001", "COUNTRY": "USA", "LATITUDE": 39.9350936660001, "LONGITUDE": -91.391403913000005, "NAICS_CODE": "622110", "NAICS_DESC": "GENERAL MEDICAL AND SURGICAL HOSPITALS", "SOURCE": "https://data.illinois.gov/", "SOURCEDATE": "2012-07-27T00:00:00.000Z", "VAL_METHOD": "IMAGERY", "VAL_DATE": "2014-02-10T00:00:00.000Z", "WEBSITE": "http://www.blessinghospital.org", "STATE_ID": "0004515", "ALT_NAME": "NOT AVAILABLE", "ST_FIPS": "17", "OWNER": "NON-PROFIT", "TTL_STAFF": -999, "BEDS": -999, "TRAUMA": "NOT AVAILABLE", "HELIPAD": "N" }, "geometry": { "type": "Polygon", "coordinates": [ [ [ -91.38612, 39.85899 ], [ -91.406534, 39.862367 ], [ -91.431207, 39.887373 ], [ -91.435229, 39.89241 ], [ -91.435463, 39.894355 ], [ -91.429239, 39.987502 ], [ -91.40663, 40.00182 ], [ -91.36697, 40.01328 ], [ -91.352037, 40.008048 ], [ -91.268373, 39.934421 ], [ -91.267522, 39.933505 ], [ -91.267441, 39.93332 ], [ -91.325624, 39.883973 ], [ -91.378408, 39.861018 ], [ -91.38612, 39.85899 ] ] ] } },
{ "type": "Feature", "properties": { "OBJECTID": 2935, "ID": "0010965351", "NAME": "I-70 COMMUNITY HOSPITAL", "ADDRESS": "105 HOSPITAL DRIVE", "CITY": "SWEET SPRINGS", "STATE": "MO", "ZIP": "65351", "ZIP4": "NOT AVAILABLE", "TELEPHONE": "(660) 335-4700", "TYPE": "CRITICAL ACCESS", "STATUS": "OPEN", "POPULATION": 15, "COUNTY": "SALINE", "COUNTYFIPS": "29195", "COUNTRY": "USA", "LATITUDE": 38.978705132000101, "LONGITUDE": -93.416634536999894, "NAICS_CODE": "622110", "NAICS_DESC": "GENERAL MEDICAL AND SURGICAL HOSPITALS", "SOURCE": "http://health.mo.gov/safety/healthservregs/directories.php", "SOURCEDATE": "2018-08-09T00:00:00.000Z", "VAL_METHOD": "IMAGERY", "VAL_DATE": "2014-02-10T00:00:00.000Z", "WEBSITE": "http://i70hospital.com/", "STATE_ID": "H157", "ALT_NAME": "NOT AVAILABLE", "ST_FIPS": "29", "OWNER": "PROPRIETARY", "TTL_STAFF": -999, "BEDS": 15, "TRAUMA": "NOT AVAILABLE", "HELIPAD": "Y" }, "geometry": { "type": "Polygon", "coordinates": [ [ [ -93.4316921, 38.93178990000002 ], [ -93.5682555, 38.982266400000022 ], [ -93.5906518, 38.994032800000035 ], [ -93.5649298, 39.004037 ], [ -93.415104, 39.056936 ], [ -93.270645, 38.993211 ], [ -93.253404, 38.97029 ], [ -93.272532, 38.958724 ], [ -93.398049, 38.934754 ], [ -93.4316921, 38.93178990000002 ] ] ] } },
{ "type": "Feature", "properties": { "OBJECTID": 2941, "ID": "0000165201", "NAME": "BOONE HOSPITAL CENTER", "ADDRESS": "1600 EAST BROADWAY", "CITY": "COLUMBIA", "STATE": "MO", "ZIP": "65201", "ZIP4": "NOT AVAILABLE", "TELEPHONE": "(573) 815-8000", "TYPE": "GENERAL ACUTE CARE", "STATUS": "OPEN", "POPULATION": 392, "COUNTY": "BOONE", "COUNTYFIPS": "29019", "COUNTRY": "USA", "LATITUDE": 38.949296787999998, "LONGITUDE": -92.315813083999998, "NAICS_CODE": "622110", "NAICS_DESC": "GENERAL MEDICAL AND SURGICAL HOSPITALS", "SOURCE": "http://health.mo.gov/safety/healthservregs/directories.php", "SOURCEDATE": "2018-08-09T00:00:00.000Z", "VAL_METHOD": "IMAGERY/OTHER", "VAL_DATE": "2014-02-10T00:00:00.000Z", "WEBSITE": "http://www.boone.org", "STATE_ID": "H011", "ALT_NAME": "NOT AVAILABLE", "ST_FIPS": "29", "OWNER": "NON-PROFIT", "TTL_STAFF": -999, "BEDS": 392, "TRAUMA": "LEVEL I", "HELIPAD": "Y" }, "geometry": { "type": "Polygon", "coordinates": [ [ [ -92.2492905, 38.835746500000049 ], [ -92.359857800000015, 38.871804 ], [ -92.3647577, 38.875693499999983 ], [ -92.4389399, 38.9728225 ], [ -92.4389095, 38.978839700000016 ], [ -92.3308183, 39.045506299999957 ], [ -92.2684976, 39.044004799999982 ], [ -92.2024583, 38.977526700000013 ], [ -92.1999046, 38.9742261 ], [ -92.1900446, 38.95906319999996 ], [ -92.2004813, 38.911474399999975 ], [ -92.2492905, 38.835746500000049 ] ] ] } },
{ "type": "Feature", "properties": { "OBJECTID": 2942, "ID": "0000265203", "NAME": "RUSK REHAB CENTER, A JV OF HEALTHSOUTH & UNIV.", "ADDRESS": "315 BUSINESS LOOP 70 WEST", "CITY": "COLUMBIA", "STATE": "MO", "ZIP": "65203", "ZIP4": "NOT AVAILABLE", "TELEPHONE": "(573) 817-2703", "TYPE": "REHABILITATION", "STATUS": "OPEN", "POPULATION": 60, "COUNTY": "BOONE", "COUNTYFIPS": "29019", "COUNTRY": "USA", "LATITUDE": 38.966382050999997, "LONGITUDE": -92.342104422999995, "NAICS_CODE": "622310", "NAICS_DESC": "REHABILITATION HOSPITALS (EXCEPT ALCOHOLISM, DRUG ADDICTION)", "SOURCE": "http://health.mo.gov/safety/healthservregs/directories.php", "SOURCEDATE": "2018-08-09T00:00:00.000Z", "VAL_METHOD": "IMAGERY/OTHER", "VAL_DATE": "2013-09-24T00:00:00.000Z", "WEBSITE": "http://healthsouthruskrehab.com/", "STATE_ID": "H094", "ALT_NAME": "NOT AVAILABLE", "ST_FIPS": "29", "OWNER": "PROPRIETARY", "TTL_STAFF": -999, "BEDS": 60, "TRAUMA": "NOT AVAILABLE", "HELIPAD": "N" }, "geometry": { "type": "Polygon", "coordinates": [ [ [ -92.3245146, 38.8746832 ], [ -92.3494434, 38.876764200000011 ], [ -92.533864, 38.9675755 ], [ -92.5339574, 38.967926199999951 ], [ -92.5014564, 38.989330399999979 ], [ -92.3305976, 39.0607221 ], [ -92.3302942, 39.060640300000038 ], [ -92.270955, 39.03812750000003 ], [ -92.1999046, 38.9742261 ], [ -92.1900446, 38.95906319999996 ], [ -92.2562678, 38.8785907 ], [ -92.3245146, 38.8746832 ] ] ] } },
{ "type": "Feature", "properties": { "OBJECTID": 2943, "ID": "0005065212", "NAME": "UNIVERSITY OF MISSOURI HEALTH CARE", "ADDRESS": "ONE HOSPITAL DRIVE", "CITY": "COLUMBIA", "STATE": "MO", "ZIP": "65212", "ZIP4": "NOT AVAILABLE", "TELEPHONE": "(573) 882-4141", "TYPE": "GENERAL ACUTE CARE", "STATUS": "OPEN", "POPULATION": -999, "COUNTY": "BOONE", "COUNTYFIPS": "29019", "COUNTRY": "USA", "LATITUDE": 38.938383658000099, "LONGITUDE": -92.328178113999996, "NAICS_CODE": "622110", "NAICS_DESC": "GENERAL MEDICAL AND SURGICAL HOSPITALS", "SOURCE": "http://health.mo.gov/safety/healthservregs/directories.php", "SOURCEDATE": "2018-08-09T00:00:00.000Z", "VAL_METHOD": "IMAGERY/OTHER", "VAL_DATE": "2014-03-12T00:00:00.000Z", "WEBSITE": "http://www.muhealth.org", "STATE_ID": "H151", "ALT_NAME": "NOT AVAILABLE", "ST_FIPS": "29", "OWNER": "GOVERNMENT - STATE", "TTL_STAFF": -999, "BEDS": -999, "TRAUMA": "LEVEL I", "HELIPAD": "Y" }, "geometry": { "type": "Polygon", "coordinates": [ [ [ -92.2502021, 38.828555 ], [ -92.3739689, 38.861717699999964 ], [ -92.3972624, 38.869615399999958 ], [ -92.4251927, 38.9340708 ], [ -92.4379421, 38.972805800000025 ], [ -92.4389095, 38.978839700000016 ], [ -92.3263539, 39.027871900000015 ], [ -92.2761552, 39.029351400000053 ], [ -92.2745899, 39.029289300000023 ], [ -92.2672082, 39.025426399999986 ], [ -92.2039586, 38.961049599999974 ], [ -92.2039873, 38.958206100000019 ], [ -92.2040247, 38.956896900000032 ], [ -92.2041927, 38.952588300000031 ], [ -92.2453264, 38.831329400000023 ], [ -92.2502021, 38.828555 ] ] ] } },
{ "type": "Feature", "properties": { "OBJECTID": 2946, "ID": "0009865301", "NAME": "BOTHWELL REGIONAL HEALTH CENTER", "ADDRESS": "601 EAST 14TH STREET", "CITY": "SEDALIA", "STATE": "MO", "ZIP": "65301", "ZIP4": "NOT AVAILABLE", "TELEPHONE": "(660) 826-8833", "TYPE": "GENERAL ACUTE CARE", "STATUS": "OPEN", "POPULATION": 145, "COUNTY": "PETTIS", "COUNTYFIPS": "29159", "COUNTRY": "USA", "LATITUDE": 38.699574449000103, "LONGITUDE": -93.221586110999993, "NAICS_CODE": "622110", "NAICS_DESC": "GENERAL MEDICAL AND SURGICAL HOSPITALS", "SOURCE": "http://health.mo.gov/safety/healthservregs/directories.php", "SOURCEDATE": "2018-08-09T00:00:00.000Z", "VAL_METHOD": "IMAGERY/OTHER", "VAL_DATE": "2014-02-10T00:00:00.000Z", "WEBSITE": "http://www.brhc.org", "STATE_ID": "H012", "ALT_NAME": "NOT AVAILABLE", "ST_FIPS": "29", "OWNER": "GOVERNMENT - LOCAL", "TTL_STAFF": -999, "BEDS": 145, "TRAUMA": "NOT AVAILABLE", "HELIPAD": "Y" }, "geometry": { "type": "Polygon", "coordinates": [ [ [ -93.267725, 38.605277 ], [ -93.26805, 38.605293 ], [ -93.268588, 38.60542 ], [ -93.283866, 38.626896 ], [ -93.3251918, 38.694686499999982 ], [ -93.34111, 38.747701 ], [ -93.341052, 38.747899 ], [ -93.226097, 38.809404499999964 ], [ -93.225785, 38.809391500000011 ], [ -93.074036, 38.692758 ], [ -93.216621, 38.614436 ], [ -93.267725, 38.605277 ] ] ] } },
{ "type": "Feature", "properties": { "OBJECTID": 2948, "ID": "0006564093", "NAME": "WESTERN MISSOURI MEDICAL CENTER", "ADDRESS": "403 BURKARTH ROAD", "CITY": "WARRENSBURG", "STATE": "MO", "ZIP": "64093", "ZIP4": "NOT AVAILABLE", "TELEPHONE": "(660) 747-2500", "TYPE": "GENERAL ACUTE CARE", "STATUS": "OPEN", "POPULATION": 75, "COUNTY": "JOHNSON", "COUNTYFIPS": "29101", "COUNTRY": "USA", "LATITUDE": 38.765933275000101, "LONGITUDE": -93.722295168000002, "NAICS_CODE": "622110", "NAICS_DESC": "GENERAL MEDICAL AND SURGICAL HOSPITALS", "SOURCE": "http://health.mo.gov/safety/healthservregs/directories.php", "SOURCEDATE": "2018-08-09T00:00:00.000Z", "VAL_METHOD": "IMAGERY", "VAL_DATE": "2014-02-10T00:00:00.000Z", "WEBSITE": "http://www.wmmc.com", "STATE_ID": "H143", "ALT_NAME": "NOT AVAILABLE", "ST_FIPS": "29", "OWNER": "GOVERNMENT - LOCAL", "TTL_STAFF": -999, "BEDS": 75, "TRAUMA": "LEVEL III", "HELIPAD": "Y" }, "geometry": { "type": "Polygon", "coordinates": [ [ [ -93.735192, 38.683442 ], [ -93.858015, 38.776646 ], [ -93.865478, 38.784806 ], [ -93.8670464, 38.79192819999998 ], [ -93.739186, 38.871356 ], [ -93.5562589, 38.7689801 ], [ -93.5562689, 38.768701799999988 ], [ -93.691662, 38.703942 ], [ -93.735192, 38.683442 ] ] ] } },
{ "type": "Feature", "properties": { "OBJECTID": 258, "ID": "0008665201", "NAME": "HARRY S. TRUMAN MEMORIAL VETERANS HOSPITAL", "ADDRESS": "800 HOSPITAL DR", "CITY": "COLUMBIA", "STATE": "MO", "ZIP": "65201", "ZIP4": "NOT AVAILABLE", "TELEPHONE": "(573) 814-6000", "TYPE": "GENERAL ACUTE CARE", "STATUS": "OPEN", "POPULATION": 126, "COUNTY": "BOONE", "COUNTYFIPS": "29019", "COUNTRY": "USA", "LATITUDE": 38.9366672620001, "LONGITUDE": -92.329057851999906, "NAICS_CODE": "622110", "NAICS_DESC": "GENERAL MEDICAL AND SURGICAL HOSPITALS", "SOURCE": "https://www.va.gov/directory/guide/allstate.asp", "SOURCEDATE": "2018-09-26T00:00:00.000Z", "VAL_METHOD": "IMAGERY/OTHER", "VAL_DATE": "2015-05-22T00:00:00.000Z", "WEBSITE": "http://www.columbiamo.va.gov/", "STATE_ID": "NOT AVAILABLE", "ALT_NAME": "NOT AVAILABLE", "ST_FIPS": "29", "OWNER": "GOVERNMENT - FEDERAL", "TTL_STAFF": -999, "BEDS": 126, "TRAUMA": "NOT AVAILABLE", "HELIPAD": "N" }, "geometry": { "type": "Polygon", "coordinates": [ [ [ -92.2502021, 38.828555 ], [ -92.3371031, 38.8455669 ], [ -92.4010704, 38.868183699999946 ], [ -92.4251927, 38.9340708 ], [ -92.4417857, 38.9807398 ], [ -92.3263539, 39.027871900000015 ], [ -92.2692878, 39.021441800000026 ], [ -92.2039586, 38.961049599999974 ], [ -92.2039873, 38.958206100000019 ], [ -92.2040247, 38.956896900000032 ], [ -92.2041109, 38.954740499999971 ], [ -92.2470304, 38.8322369 ], [ -92.2502021, 38.828555 ] ] ] } },
{ "type": "Feature", "properties": { "OBJECTID": 477, "ID": "0014762363", "NAME": "ILLINI COMMUNITY HOSPITAL", "ADDRESS": "640 W WASHINGTON", "CITY": "PITTSFIELD", "STATE": "IL", "ZIP": "62363", "ZIP4": "NOT AVAILABLE", "TELEPHONE": "(217) 285-2113", "TYPE": "CRITICAL ACCESS", "STATUS": "OPEN", "POPULATION": 21, "COUNTY": "PIKE", "COUNTYFIPS": "17149", "COUNTRY": "USA", "LATITUDE": 39.6074434780001, "LONGITUDE": -90.815132696999996, "NAICS_CODE": "622110", "NAICS_DESC": "GENERAL MEDICAL AND SURGICAL HOSPITALS", "SOURCE": "https://data.illinois.gov/", "SOURCEDATE": "2018-08-09T00:00:00.000Z", "VAL_METHOD": "IMAGERY", "VAL_DATE": "2016-04-26T00:00:00.000Z", "WEBSITE": "http://www.illinihospital.org", "STATE_ID": "141315", "ALT_NAME": "NOT AVAILABLE", "ST_FIPS": "17", "OWNER": "NON-PROFIT", "TTL_STAFF": -999, "BEDS": 21, "TRAUMA": "NOT AVAILABLE", "HELIPAD": "Y" }, "geometry": { "type": "Polygon", "coordinates": [ [ [ -90.8289741, 39.538322499999971 ], [ -90.9167804, 39.548482900000032 ], [ -90.921157, 39.606054 ], [ -90.904259, 39.633522 ], [ -90.838133, 39.672724699999989 ], [ -90.7565875, 39.685016600000026 ], [ -90.690383, 39.619710199999986 ], [ -90.7905368, 39.538891400000033 ], [ -90.8289741, 39.538322499999971 ] ] ] } },
{ "type": "Feature", "properties": { "OBJECTID": 481, "ID": "0000962301", "NAME": "BLESSING HOSPITAL", "ADDRESS": "BROADWAY AT 11TH STREET", "CITY": "QUINCY", "STATE": "IL", "ZIP": "62301", "ZIP4": "NOT AVAILABLE", "TELEPHONE": "(217) 223-5811", "TYPE": "GENERAL ACUTE CARE", "STATUS": "OPEN", "POPULATION": 335, "COUNTY": "ADAMS", "COUNTYFIPS": "17001", "COUNTRY": "USA", "LATITUDE": 39.936358882, "LONGITUDE": -91.399457201999994, "NAICS_CODE": "622110", "NAICS_DESC": "GENERAL MEDICAL AND SURGICAL HOSPITALS", "SOURCE": "https://data.illinois.gov/", "SOURCEDATE": "2018-08-09T00:00:00.000Z", "VAL_METHOD": "IMAGERY", "VAL_DATE": "2014-03-12T00:00:00.000Z", "WEBSITE": "http://www.blessinghospital.org", "STATE_ID": "140015", "ALT_NAME": "NOT AVAILABLE", "ST_FIPS": "17", "OWNER": "NON-PROFIT", "TTL_STAFF": -999, "BEDS": 335, "TRAUMA": "LEVEL II", "HELIPAD": "Y" }, "geometry": { "type": "Polygon", "coordinates": [ [ [ -91.381569, 39.852527 ], [ -91.40659, 39.85914 ], [ -91.431207, 39.887373 ], [ -91.435229, 39.89241 ], [ -91.435463, 39.894355 ], [ -91.429239, 39.987502 ], [ -91.40663, 40.00182 ], [ -91.36697, 40.01328 ], [ -91.352037, 40.008048 ], [ -91.279175, 39.930775 ], [ -91.279161, 39.930577 ], [ -91.381569, 39.852527 ] ] ] } },
{ "type": "Feature", "properties": { "OBJECTID": 5048, "ID": "0002465201", "NAME": "LANDMARK HOSPITAL OF COLUMBIA, LLC", "ADDRESS": "604 OLD HWY 63 N", "CITY": "COLUMBIA", "STATE": "MO", "ZIP": "65201", "ZIP4": "NOT AVAILABLE", "TELEPHONE": "(573) 499-6600", "TYPE": "GENERAL ACUTE CARE", "STATUS": "OPEN", "POPULATION": 42, "COUNTY": "BOONE", "COUNTYFIPS": "29019", "COUNTRY": "USA", "LATITUDE": 38.957989935999997, "LONGITUDE": -92.311312324, "NAICS_CODE": "622110", "NAICS_DESC": "GENERAL MEDICAL AND SURGICAL HOSPITALS", "SOURCE": "http://health.mo.gov/safety/healthservregs/directories.php", "SOURCEDATE": "2018-08-09T00:00:00.000Z", "VAL_METHOD": "IMAGERY/OTHER", "VAL_DATE": "2013-09-24T00:00:00.000Z", "WEBSITE": "http://www.landmarkhospitals.com", "STATE_ID": "H175", "ALT_NAME": "NOT AVAILABLE", "ST_FIPS": "29", "OWNER": "PROPRIETARY", "TTL_STAFF": -999, "BEDS": 42, "TRAUMA": "NOT AVAILABLE", "HELIPAD": "N" }, "geometry": { "type": "Polygon", "coordinates": [ [ [ -92.2497682, 38.849875 ], [ -92.3447142, 38.8829573 ], [ -92.4389399, 38.9728225 ], [ -92.4417857, 38.9807398 ], [ -92.3305976, 39.0607221 ], [ -92.266757, 39.051525399999981 ], [ -92.2656138, 39.0509733 ], [ -92.2505592, 39.0363785 ], [ -92.2023974, 38.978631700000015 ], [ -92.1900446, 38.95906319999996 ], [ -92.2004127, 38.9165126 ], [ -92.2497682, 38.849875 ] ] ] } },
{ "type": "Feature", "properties": { "OBJECTID": 5049, "ID": "0010063353", "NAME": "PIKE COUNTY MEMORIAL HOSPITAL", "ADDRESS": "2305 GEORGIA STREET", "CITY": "LOUISIANA", "STATE": "MO", "ZIP": "63353", "ZIP4": "NOT AVAILABLE", "TELEPHONE": "(573) 754-5531", "TYPE": "CRITICAL ACCESS", "STATUS": "OPEN", "POPULATION": 25, "COUNTY": "PIKE", "COUNTYFIPS": "29163", "COUNTRY": "USA", "LATITUDE": 39.440664380999998, "LONGITUDE": -91.064780664999901, "NAICS_CODE": "622110", "NAICS_DESC": "GENERAL MEDICAL AND SURGICAL HOSPITALS", "SOURCE": "http://health.mo.gov/safety/healthservregs/directories.php", "SOURCEDATE": "2018-08-09T00:00:00.000Z", "VAL_METHOD": "IMAGERY", "VAL_DATE": "2014-02-10T00:00:00.000Z", "WEBSITE": "http://www.pcmh-mo.org", "STATE_ID": "H083", "ALT_NAME": "NOT AVAILABLE", "ST_FIPS": "29", "OWNER": "GOVERNMENT - LOCAL", "TTL_STAFF": -999, "BEDS": 25, "TRAUMA": "LEVEL III", "HELIPAD": "Y" }, "geometry": { "type": "Polygon", "coordinates": [ [ [ -91.18193, 39.358323 ], [ -91.187069, 39.361648 ], [ -91.165193, 39.410627 ], [ -91.127947, 39.468184 ], [ -91.118763, 39.469414 ], [ -91.099047, 39.471464 ], [ -91.072652, 39.469106 ], [ -91.0434791, 39.458574399999961 ], [ -90.970777, 39.40154 ], [ -91.081855, 39.359789 ], [ -91.18193, 39.358323 ] ] ] } },
{ "type": "Feature", "properties": { "OBJECTID": 5651, "ID": "0009163401", "NAME": "HANNIBAL REGIONAL HOSPITAL", "ADDRESS": "6000 HOSPITAL DRIVE", "CITY": "HANNIBAL", "STATE": "MO", "ZIP": "63401", "ZIP4": "NOT AVAILABLE", "TELEPHONE": "(573) 248-1300", "TYPE": "GENERAL ACUTE CARE", "STATUS": "OPEN", "POPULATION": 99, "COUNTY": "MARION", "COUNTYFIPS": "29127", "COUNTRY": "USA", "LATITUDE": 39.710612138999998, "LONGITUDE": -91.450538432000002, "NAICS_CODE": "622110", "NAICS_DESC": "GENERAL MEDICAL AND SURGICAL HOSPITALS", "SOURCE": "http://health.mo.gov/safety/healthservregs/directories.php", "SOURCEDATE": "2018-08-09T00:00:00.000Z", "VAL_METHOD": "IMAGERY/OTHER", "VAL_DATE": "2014-02-10T00:00:00.000Z", "WEBSITE": "https://hospital.hannibalregional.org/", "STATE_ID": "H044", "ALT_NAME": "NOT AVAILABLE", "ST_FIPS": "29", "OWNER": "NON-PROFIT", "TTL_STAFF": -999, "BEDS": 99, "TRAUMA": "LEVEL III", "HELIPAD": "Y" }, "geometry": { "type": "Polygon", "coordinates": [ [ [ -91.419663, 39.649765 ], [ -91.419917, 39.649775 ], [ -91.6036026, 39.6856153 ], [ -91.6036038, 39.6859238 ], [ -91.51899, 39.7659808 ], [ -91.5183993, 39.765977299999989 ], [ -91.452181, 39.765527 ], [ -91.4074842, 39.763906099999964 ], [ -91.332317300000014, 39.695475100000039 ], [ -91.330832, 39.693772 ], [ -91.3313678, 39.689417 ], [ -91.332126, 39.689032 ], [ -91.419217, 39.649771 ], [ -91.419663, 39.649765 ] ] ] } },
{ "type": "Feature", "properties": { "OBJECTID": 5654, "ID": "0001365265", "NAME": "SSM HEALTH ST. MARY'S HOSPITAL AUDRAIN", "ADDRESS": "620 EAST MONROE STREET", "CITY": "MEXICO", "STATE": "MO", "ZIP": "65265", "ZIP4": "NOT AVAILABLE", "TELEPHONE": "(573) 582-5000", "TYPE": "GENERAL ACUTE CARE", "STATUS": "OPEN", "POPULATION": 88, "COUNTY": "AUDRAIN", "COUNTYFIPS": "29007", "COUNTRY": "USA", "LATITUDE": 39.1722927100001, "LONGITUDE": -91.877611039000001, "NAICS_CODE": "622110", "NAICS_DESC": "GENERAL MEDICAL AND SURGICAL HOSPITALS", "SOURCE": "http://health.mo.gov/safety/healthservregs/directories.php", "SOURCEDATE": "2018-08-09T00:00:00.000Z", "VAL_METHOD": "IMAGERY/OTHER", "VAL_DATE": "2014-02-10T00:00:00.000Z", "WEBSITE": "https://www.ssmhealth.com/locations/st-marys-hospital-audrain?utm_id=gmb18-13", "STATE_ID": "H002", "ALT_NAME": "AUDRAIN MEDICAL CENTER", "ST_FIPS": "29", "OWNER": "NON-PROFIT", "TTL_STAFF": -999, "BEDS": 88, "TRAUMA": "NOT AVAILABLE", "HELIPAD": "Y" }, "geometry": { "type": "Polygon", "coordinates": [ [ [ -91.897059, 39.069047 ], [ -91.996552, 39.190229 ], [ -91.918289, 39.257821 ], [ -91.838591, 39.244817 ], [ -91.742512, 39.163857 ], [ -91.8963401, 39.069074399999984 ], [ -91.897059, 39.069047 ] ] ] } },
{ "type": "Feature", "properties": { "OBJECTID": 5655, "ID": "0010465270", "NAME": "MOBERLY REGIONAL MEDICAL CENTER", "ADDRESS": "1515 UNION STREET", "CITY": "MOBERLY", "STATE": "MO", "ZIP": "65270", "ZIP4": "NOT AVAILABLE", "TELEPHONE": "(660) 263-3156", "TYPE": "GENERAL ACUTE CARE", "STATUS": "OPEN", "POPULATION": 100, "COUNTY": "RANDOLPH", "COUNTYFIPS": "29175", "COUNTRY": "USA", "LATITUDE": 39.425271177000099, "LONGITUDE": -92.41365616, "NAICS_CODE": "622110", "NAICS_DESC": "GENERAL MEDICAL AND SURGICAL HOSPITALS", "SOURCE": "http://health.mo.gov/safety/healthservregs/directories.php", "SOURCEDATE": "2018-08-09T00:00:00.000Z", "VAL_METHOD": "IMAGERY/OTHER", "VAL_DATE": "2014-02-10T00:00:00.000Z", "WEBSITE": "https://www.moberlyregionalmedicalcenter.com/", "STATE_ID": "H070", "ALT_NAME": "NOT AVAILABLE", "ST_FIPS": "29", "OWNER": "PROPRIETARY", "TTL_STAFF": -999, "BEDS": 100, "TRAUMA": "NOT AVAILABLE", "HELIPAD": "Y" }, "geometry": { "type": "Polygon", "coordinates": [ [ [ -92.3736866, 39.291386200000048 ], [ -92.4723447, 39.368597500000014 ], [ -92.494294, 39.4217187 ], [ -92.4962158, 39.431673699999962 ], [ -92.4958538, 39.43269260000006 ], [ -92.4501618, 39.541613099999971 ], [ -92.449572, 39.541790699999979 ], [ -92.4088728, 39.5113339 ], [ -92.3478227, 39.4646629 ], [ -92.3261059, 39.415036600000022 ], [ -92.3262654, 39.413034899999978 ], [ -92.3717018, 39.2918965 ], [ -92.3719783, 39.291776200000029 ], [ -92.3736866, 39.291386200000048 ] ] ] } },
{ "type": "Feature", "properties": { "OBJECTID": 5660, "ID": "0002565201", "NAME": "WOMEN'S AND CHILDREN'S HOSPITAL", "ADDRESS": "404 N  KEENE STREET COLUMBIA", "CITY": "COLUMBIA", "STATE": "MO", "ZIP": "65201", "ZIP4": "NOT AVAILABLE", "TELEPHONE": "(573) 875-9000", "TYPE": "GENERAL ACUTE CARE", "STATUS": "OPEN", "POPULATION": -999, "COUNTY": "BOONE", "COUNTYFIPS": "29019", "COUNTRY": "USA", "LATITUDE": 38.95747363, "LONGITUDE": -92.28821141, "NAICS_CODE": "622110", "NAICS_DESC": "GENERAL MEDICAL AND SURGICAL HOSPITALS", "SOURCE": "http://health.mo.gov/safety/healthservregs/directories.php", "SOURCEDATE": "2018-08-09T00:00:00.000Z", "VAL_METHOD": "IMAGERY", "VAL_DATE": "2014-02-10T00:00:00.000Z", "WEBSITE": "https://www.muhealth.org/locations/womens-and-childrens", "STATE_ID": "H146", "ALT_NAME": "NOT AVAILABLE", "ST_FIPS": "29", "OWNER": "GOVERNMENT - STATE", "TTL_STAFF": -999, "BEDS": -999, "TRAUMA": "NOT AVAILABLE", "HELIPAD": "Y" }, "geometry": { "type": "Polygon", "coordinates": [ [ [ -92.2502021, 38.828555 ], [ -92.3447142, 38.8829573 ], [ -92.3479776, 38.885016200000052 ], [ -92.353984, 38.889036 ], [ -92.4389399, 38.9728225 ], [ -92.4417857, 38.9807398 ], [ -92.3299183, 39.085519299999987 ], [ -92.3296097, 39.085524900000024 ], [ -92.2619865, 39.0597194 ], [ -92.260061100000016, 39.058576799999969 ], [ -92.1960397, 39.002285699999952 ], [ -92.172698200000013, 38.9779636 ], [ -92.1616465, 38.953391 ], [ -92.1724824, 38.916874300000046 ], [ -92.24522140000002, 38.8322252 ], [ -92.2502021, 38.828555 ] ] ] } },
{ "type": "Feature", "properties": { "OBJECTID": 5662, "ID": "0003065251", "NAME": "FULTON MEDICAL CENTER", "ADDRESS": "10 SOUTH HOSPITAL", "CITY": "FULTON", "STATE": "MO", "ZIP": "65251", "ZIP4": "NOT AVAILABLE", "TELEPHONE": "(573) 642-3376", "TYPE": "GENERAL ACUTE CARE", "STATUS": "OPEN", "POPULATION": 37, "COUNTY": "CALLAWAY", "COUNTYFIPS": "29027", "COUNTRY": "USA", "LATITUDE": 38.843444238000103, "LONGITUDE": -91.965897361000003, "NAICS_CODE": "622110", "NAICS_DESC": "GENERAL MEDICAL AND SURGICAL HOSPITALS", "SOURCE": "http://health.mo.gov/safety/healthservregs/directories.php", "SOURCEDATE": "2018-08-09T00:00:00.000Z", "VAL_METHOD": "IMAGERY", "VAL_DATE": "2014-02-10T00:00:00.000Z", "WEBSITE": "http://www.fultonmedicalcenter.org/getpage.php?name=index", "STATE_ID": "H014", "ALT_NAME": "CALLAWAY COMMUNITY HOSPITAL", "ST_FIPS": "29", "OWNER": "PROPRIETARY", "TTL_STAFF": -999, "BEDS": 37, "TRAUMA": "NOT AVAILABLE", "HELIPAD": "Y" }, "geometry": { "type": "Polygon", "coordinates": [ [ [ -92.058101, 38.74093 ], [ -92.058785, 38.741207 ], [ -92.1025096, 38.8887534 ], [ -91.963371, 38.95227 ], [ -91.938391, 38.961362 ], [ -91.908699, 38.965697 ], [ -91.908606, 38.965486900000016 ], [ -91.9084856, 38.965201 ], [ -91.900296, 38.943463 ], [ -91.885394, 38.89728 ], [ -91.883985, 38.844446 ], [ -91.884971, 38.8281 ], [ -91.892781, 38.799008 ], [ -91.937429, 38.773074 ], [ -92.030837, 38.742128 ], [ -92.058101, 38.74093 ] ] ] } }
]
}
