{
"type": "FeatureCollection",
"crs": { "type": "name", "properties": { "name": "urn:ogc:def:crs:OGC:1.3:CRS84" } },
"features": [
{ "type": "Feature", "properties": { "OBJECTID": 1427, "ID": "0006247303", "NAME": "INDIANA UNIVERSITY HEALTH BALL MEMORIAL HOSPITAL", "ADDRESS": "2401 UNIVERSITY AVE", "CITY": "MUNCIE", "STATE": "IN", "ZIP": "47303", "ZIP4": "NOT AVAILABLE", "TELEPHONE": "(765) 747-3111", "TYPE": "GENERAL ACUTE CARE", "STATUS": "OPEN", "POPULATION": 379, "COUNTY": "DELAWARE", "COUNTYFIPS": "18035", "COUNTRY": "USA", "LATITUDE": 40.196777534, "LONGITUDE": -85.415555943000001, "NAICS_CODE": "622110", "NAICS_DESC": "GENERAL MEDICAL AND SURGICAL HOSPITALS", "SOURCE": "http://www.in.gov/isdh/reports/QAMIS/hosdir", "SOURCEDATE": "2018-08-16T00:00:00.000Z", "VAL_METHOD": "IMAGERY", "VAL_DATE": "2014-03-12T00:00:00.000Z", "WEBSITE": "http://www.iuhealth.org", "STATE_ID": "17-005079-1", "ALT_NAME": "NOT AVAILABLE", "ST_FIPS": "18", "OWNER": "NON-PROFIT", "TTL_STAFF": -999, "BEDS": 379, "TRAUMA": "LEVEL III", "HELIPAD": "Y" }, "geometry": { "type": "Polygon", "coordinates": [ [ [ -85.457131, 40.12072 ], [ -85.513937, 40.166911 ], [ -85.5042376, 40.210574500000043 ], [ -85.490705, 40.237781 ], [ -85.443027, 40.262653 ], [ -85.427871, 40.262631 ], [ -85.386638, 40.255239 ], [ -85.348092, 40.248281 ], [ -85.306151, 40.193365 ], [ -85.376168, 40.134617 ], [ -85.404304, 40.128136 ], [ -85.457131, 40.12072 ] ] ] } },
{ "type": "Feature", "properties": { "OBJECTID": 1432, "ID": "0004147905", "NAME": "FRANCISCAN ST ELIZABETH HEALTH - LAFAYETTE EAST", "ADDRESS": "1701 S CREASY LN", "CITY": "LAFAYETTE", "STATE": "IN", "ZIP": "47905", "ZIP4": "NOT AVAILABLE", "TELEPHONE": "(765) 502-4334", "TYPE": "GENERAL ACUTE CARE", "STATUS": "OPEN", "POPULATION": 186, "COUNTY": "TIPPECANOE", "COUNTYFIPS": "18157", "COUNTRY": "USA", "LATITUDE": 40.394020232000102, "LONGITUDE": -86.834549058999997, "NAICS_CODE": "622110", "NAICS_DESC": "GENERAL MEDICAL AND SURGICAL HOSPITALS", "SOURCE": "http://www.in.gov/isdh/reports/QAMIS/hosdir", "SOURCEDATE": "2018-08-16T00:00:00.000Z", "VAL_METHOD": "IMAGERY", "VAL_DATE": "2014-03-12T00:00:00.000Z", "WEBSITE": "http://www.ste.org", "STATE_ID": "17-005096-1", "ALT_NAME": "NOT AVAILABLE", "ST_FIPS": "18", "OWNER": "NON-PROFIT", "TTL_STAFF": -999, "BEDS": 186, "TRAUMA": "LEVEL III", "HELIPAD": "Y" }, "geometry": { "type": "Polygon", "coordinates": [ [ [ -86.778716506811676, 40.32666800988563 ], [ -86.818711389213234, 40.330708013945312 ], [ -86.85620877966997, 40.337410916932697 ], [ -86.860661266856155, 40.338412717239706 ], [ -86.875703023237577, 40.343472117754281 ], [ -86.889769682687003, 40.350816517473554 ], [ -86.938203659866474, 40.378791216888381 ], [ -86.924527483603043, 40.453512491658536 ], [ -86.915663895837042, 40.458113888147743 ], [ -86.837102393900807, 40.47217826426477 ], [ -86.835603395573855, 40.472418963803435 ], [ -86.754823098280767, 40.419813466401884 ], [ -86.737846485573328, 40.390328988211166 ], [ -86.737392989552887, 40.388677389373299 ], [ -86.73281993683517, 40.368273003225937 ], [ -86.778568807080475, 40.326758009827707 ], [ -86.778716506811676, 40.32666800988563 ] ] ] } },
{ "type": "Feature", "properties": { "OBJECTID": 1434, "ID": "0008346143", "NAME": "KINDRED HOSPITAL- INDIANAPOLIS SOUTH", "ADDRESS": "607 S GREENWOOD SPRINGS DR", "CITY": "GREENWOOD", "STATE": "IN", "ZIP": "46143", "ZIP4": "NOT AVAILABLE", "TELEPHONE": "(317) 888-8155", "TYPE": "LONG TERM CARE", "STATUS": "OPEN", "POPULATION": 52, "COUNTY": "JOHNSON", "COUNTYFIPS": "18081", "COUNTRY": "USA", "LATITUDE": 39.629988801000003, "LONGITUDE": -86.075593296999998, "NAICS_CODE": "622110", "NAICS_DESC": "GENERAL MEDICAL AND SURGICAL HOSPITALS", "SOURCE": "http://www.in.gov/isdh/reports/QAMIS/hosdir", "SOURCEDATE": "2018-08-16T00:00:00.000Z", "VAL_METHOD": "IMAGERY", "VAL_DATE": "2014-02-10T00:00:00.000Z", "WEBSITE": "http://www.khindysouth.com/", "STATE_ID": "12-006218-1", "ALT_NAME": "NOT AVAILABLE", "ST_FIPS": "18", "OWNER": "PROPRIETARY", "TTL_STAFF": -999, "BEDS": 52, "TRAUMA": "NOT AVAILABLE", "HELIPAD": "N" }, "geometry": { "type": "Polygon", "coordinates": [ [ [ -86.0387256, 39.5461996 ], [ -86.0509883, 39.548918100000037 ], [ -86.0988909, 39.5810354 ], [ -86.101839, 39.58328740000001 ], [ -86.1292961, 39.606309799999977 ], [ -86.1368642, 39.612853199999989 ], [ -86.1515075, 39.6279045 ], [ -86.158455, 39.66432 ], [ -86.158458, 39.707775 ], [ -86.1481741, 39.737222 ], [ -86.1432318, 39.74934769999993 ], [ -86.0455958, 39.72842559999998 ], [ -85.990209, 39.645391 ], [ -85.9996226, 39.606643600000012 ], [ -86.035673100000011, 39.550713400000049 ], [ -86.0387256, 39.5461996 ] ] ] } },
{ "type": "Feature", "properties": { "OBJECTID": 1435, "ID": "0007146072", "NAME": "INDIANA UNIVERSITY HEALTH TIPTON HOSPITAL INC", "ADDRESS": "1000 S MAIN ST", "CITY": "TIPTON", "STATE": "IN", "ZIP": "46072", "ZIP4": "NOT AVAILABLE", "TELEPHONE": "(765) 675-8500", "TYPE": "CRITICAL ACCESS", "STATUS": "OPEN", "POPULATION": 25, "COUNTY": "TIPTON", "COUNTYFIPS": "18159", "COUNTRY": "USA", "LATITUDE": 40.271930354000098, "LONGITUDE": -86.042162253000001, "NAICS_CODE": "622110", "NAICS_DESC": "GENERAL MEDICAL AND SURGICAL HOSPITALS", "SOURCE": "http://www.in.gov/isdh/reports/QAMIS/hosdir", "SOURCEDATE": "2018-08-16T00:00:00.000Z", "VAL_METHOD": "IMAGERY", "VAL_DATE": "2014-02-10T00:00:00.000Z", "WEBSITE": "http://www.iuhealth.org", "STATE_ID": "17-005049-1", "ALT_NAME": "NOT AVAILABLE", "ST_FIPS": "18", "OWNER": "NON-PROFIT", "TTL_STAFF": -999, "BEDS": 25, "TRAUMA": "NOT AVAILABLE", "HELIPAD": "N" }, "geometry": { "type": "Polygon", "coordinates": [ [ [ -86.023691, 40.19651 ], [ -86.059809, 40.204806 ], [ -86.0786731, 40.21755689999997 ], [ -86.0979402, 40.23196669999998 ], [ -86.1073416, 40.239096299999979 ], [ -86.127574, 40.254869099999986 ], [ -86.1525408, 40.2752487 ], [ -86.1272044, 40.296605699999972 ], [ -86.032112, 40.36204679999998 ], [ -85.937694, 40.29075 ], [ -85.9418518, 40.283497399999952 ], [ -85.956976200000014, 40.2617254 ], [ -85.995618600000014, 40.218161699999989 ], [ -86.022406, 40.196507 ], [ -86.023691, 40.19651 ] ] ] } },
{ "type": "Feature", "properties": { "OBJECTID": 1436, "ID": "0004047904", "NAME": "FRANCISCAN ST ELIZABETH HEALTH - LAFAYETTE CENTRAL", "ADDRESS": "1501 HARTFORD ST", "CITY": "LAFAYETTE", "STATE": "IN", "ZIP": "47904", "ZIP4": "NOT AVAILABLE", "TELEPHONE": "(765) 502-4334", "TYPE": "GENERAL ACUTE CARE", "STATUS": "OPEN", "POPULATION": 302, "COUNTY": "TIPPECANOE", "COUNTYFIPS": "18157", "COUNTRY": "USA", "LATITUDE": 40.427286859, "LONGITUDE": -86.881446210999997, "NAICS_CODE": "622110", "NAICS_DESC": "GENERAL MEDICAL AND SURGICAL HOSPITALS", "SOURCE": "http://www.in.gov/isdh/reports/QAMIS/hosdir", "SOURCEDATE": "2018-08-16T00:00:00.000Z", "VAL_METHOD": "IMAGERY", "VAL_DATE": "2014-02-10T00:00:00.000Z", "WEBSITE": "http://www.ste.org", "STATE_ID": "12-005003-1", "ALT_NAME": "NOT AVAILABLE", "ST_FIPS": "18", "OWNER": "NON-PROFIT", "TTL_STAFF": -999, "BEDS": 302, "TRAUMA": "NOT AVAILABLE", "HELIPAD": "Y" }, "geometry": { "type": "Polygon", "coordinates": [ [ [ -86.875692321550929, 40.34627121679771 ], [ -86.905442941640857, 40.353751219016146 ], [ -86.949860532080393, 40.370838421249402 ], [ -86.952054627132839, 40.371937821316294 ], [ -86.972706897146836, 40.416570412893812 ], [ -86.981842806607958, 40.468877201061289 ], [ -86.98034531018088, 40.472132999835416 ], [ -86.948490653388177, 40.4871935876047 ], [ -86.868849729844911, 40.522082268740675 ], [ -86.76158245370577, 40.492569336834272 ], [ -86.761485362444276, 40.487818838831956 ], [ -86.766045881506798, 40.417655269663562 ], [ -86.778205130478582, 40.37405469021909 ], [ -86.807102392294013, 40.352509903734827 ], [ -86.875692321550929, 40.34627121679771 ] ] ] } },
{ "type": "Feature", "properties": { "OBJECTID": 1446, "ID": "0008646222", "NAME": "LARUE D CARTER MEMORIAL HOSPITAL", "ADDRESS": "2601 COLD SPRING RD", "CITY": "INDIANAPOLIS", "STATE": "IN", "ZIP": "46222", "ZIP4": "NOT AVAILABLE", "TELEPHONE": "(317) 941-4000", "TYPE": "PSYCHIATRIC", "STATUS": "OPEN", "POPULATION": 159, "COUNTY": "MARION", "COUNTYFIPS": "18097", "COUNTRY": "USA", "LATITUDE": 39.802493552000001, "LONGITUDE": -86.201292048, "NAICS_CODE": "622210", "NAICS_DESC": "PSYCHIATRIC AND SUBSTANCE ABUSE HOSPITALS", "SOURCE": "http://www.in.gov/isdh/reports/QAMIS/hosdir", "SOURCEDATE": "2018-08-16T00:00:00.000Z", "VAL_METHOD": "IMAGERY", "VAL_DATE": "2014-02-10T00:00:00.000Z", "WEBSITE": "www.indiana.gov/", "STATE_ID": "NOT AVAILABLE", "ALT_NAME": "NOT AVAILABLE", "ST_FIPS": "18", "OWNER": "GOVERNMENT - STATE", "TTL_STAFF": -999, "BEDS": 159, "TRAUMA": "NOT AVAILABLE", "HELIPAD": "N" }, "geometry": { "type": "Polygon", "coordinates": [ [ [ -86.1870542, 39.721980099999989 ], [ -86.2455965, 39.7290669 ], [ -86.2950586, 39.779071900000012 ], [ -86.2995431, 39.817588199999982 ], [ -86.2882732, 39.876777299999972 ], [ -86.211833, 39.889011 ], [ -86.203057, 39.886298 ], [ -86.18868, 39.881414 ], [ -86.16501, 39.868862 ], [ -86.1125477, 39.84057030000001 ], [ -86.1119416, 39.840209200000018 ], [ -86.102568, 39.810773 ], [ -86.107113, 39.796068 ], [ -86.111078, 39.786585100000032 ], [ -86.122506, 39.761678 ], [ -86.149455, 39.743599599999989 ], [ -86.1869141, 39.721982900000057 ], [ -86.1870542, 39.721980099999989 ] ] ] } },
{ "type": "Feature", "properties": { "OBJECTID": 1483, "ID": "0012746016", "NAME": "ST. VINCENT ANDERSON REGIONAL HOSPITAL", "ADDRESS": "2015 JACKSON ST", "CITY": "ANDERSON", "STATE": "IN", "ZIP": "46016", "ZIP4": "NOT AVAILABLE", "TELEPHONE": "(765) 646-8373", "TYPE": "GENERAL ACUTE CARE", "STATUS": "OPEN", "POPULATION": 195, "COUNTY": "MADISON", "COUNTYFIPS": "18095", "COUNTRY": "USA", "LATITUDE": 40.095484935999998, "LONGITUDE": -85.681305944000002, "NAICS_CODE": "622110", "NAICS_DESC": "GENERAL MEDICAL AND SURGICAL HOSPITALS", "SOURCE": "http://www.in.gov/isdh/reports/QAMIS/hosdir", "SOURCEDATE": "2018-08-16T00:00:00.000Z", "VAL_METHOD": "IMAGERY", "VAL_DATE": "2014-02-10T00:00:00.000Z", "WEBSITE": "http://www.stvincent.org/Saint-Johns/Default.aspx", "STATE_ID": "17-005078-1", "ALT_NAME": "NOT AVAILABLE", "ST_FIPS": "18", "OWNER": "NON-PROFIT", "TTL_STAFF": -999, "BEDS": 195, "TRAUMA": "LEVEL III", "HELIPAD": "Y" }, "geometry": { "type": "Polygon", "coordinates": [ [ [ -85.692097, 40.013694 ], [ -85.725801, 40.031473 ], [ -85.7358611, 40.040554299999989 ], [ -85.767943, 40.075543 ], [ -85.767664, 40.122718 ], [ -85.671671, 40.179083 ], [ -85.6693592, 40.17908 ], [ -85.5908, 40.113437 ], [ -85.5822739, 40.091858500000029 ], [ -85.595285, 40.076902 ], [ -85.614571, 40.059357 ], [ -85.648077, 40.033407 ], [ -85.692097, 40.013694 ] ] ] } },
{ "type": "Feature", "properties": { "OBJECTID": 1708, "ID": "0156146250", "NAME": "SELECT SPECIALTY HOSPITAL- INDIANAPOLIS", "ADDRESS": "8060 KNUE ROAD", "CITY": "INDIANAPOLIS", "STATE": "IN", "ZIP": "46250", "ZIP4": "NOT AVAILABLE", "TELEPHONE": "(317) 782-6669", "TYPE": "LONG TERM CARE", "STATUS": "OPEN", "POPULATION": 45, "COUNTY": "MARION", "COUNTYFIPS": "18097", "COUNTRY": "USA", "LATITUDE": 39.902117799000102, "LONGITUDE": -86.060493488999995, "NAICS_CODE": "622310", "NAICS_DESC": "SPECIALTY (EXCEPT PSYCHIATRIC AND SUBSTANCE ABUSE) HOSPITALS", "SOURCE": "http://www.in.gov/isdh/reports/QAMIS/hosdir", "SOURCEDATE": "2018-08-16T00:00:00.000Z", "VAL_METHOD": "IMAGERY/OTHER", "VAL_DATE": "2015-03-30T00:00:00.000Z", "WEBSITE": "NOT AVAILABLE", "STATE_ID": "17-008900-1", "ALT_NAME": "NOT AVAILABLE", "ST_FIPS": "18", "OWNER": "PROPRIETARY", "TTL_STAFF": -999, "BEDS": 45, "TRAUMA": "NOT AVAILABLE", "HELIPAD": "N" }, "geometry": { "type": "Polygon", "coordinates": [ [ [ -86.0311384, 39.813279399999978 ], [ -86.1217528, 39.8270901 ], [ -86.128841, 39.832832 ], [ -86.1729052, 39.912447 ], [ -86.169387, 39.92922 ], [ -86.1656113, 39.941565300000022 ], [ -86.165084, 39.942941 ], [ -86.1572543, 39.9564955 ], [ -86.0066294, 40.000841800000025 ], [ -86.0017595, 40.0019406 ], [ -85.9991857, 40.001004799999947 ], [ -85.965823, 39.959701 ], [ -85.957157, 39.902547 ], [ -85.9624646, 39.891176500000029 ], [ -86.0311384, 39.813279399999978 ] ] ] } },
{ "type": "Feature", "properties": { "OBJECTID": 1709, "ID": "0156846947", "NAME": "LOGANSPORT STATE HOSPITAL", "ADDRESS": "1098 S SR 25", "CITY": "LOGANSPORT", "STATE": "IN", "ZIP": "46947", "ZIP4": "NOT AVAILABLE", "TELEPHONE": "(574) 722-4141", "TYPE": "PSYCHIATRIC", "STATUS": "OPEN", "POPULATION": -999, "COUNTY": "CASS", "COUNTYFIPS": "18017", "COUNTRY": "USA", "LATITUDE": 40.741696639000097, "LONGITUDE": -86.400613864999997, "NAICS_CODE": "622110", "NAICS_DESC": "GENERAL MEDICAL AND SURGICAL HOSPITALS", "SOURCE": "http://www.in.gov/isdh/reports/QAMIS/hosdir", "SOURCEDATE": "2018-08-16T00:00:00.000Z", "VAL_METHOD": "IMAGERY/OTHER", "VAL_DATE": "2015-03-30T00:00:00.000Z", "WEBSITE": "NOT AVAILABLE", "STATE_ID": "NOT AVAILABLE", "ALT_NAME": "NOT AVAILABLE", "ST_FIPS": "18", "OWNER": "GOVERNMENT - STATE", "TTL_STAFF": -999, "BEDS": -999, "TRAUMA": "NOT AVAILABLE", "HELIPAD": "N" }, "geometry": { "type": "Polygon", "coordinates": [ [ [ -86.391602, 40.656061 ], [ -86.471372, 40.705501 ], [ -86.487305, 40.74001 ], [ -86.440869, 40.793467 ], [ -86.3423799, 40.81551060000001 ], [ -86.278849, 40.73673 ], [ -86.278852, 40.736469 ], [ -86.285636, 40.725602 ], [ -86.391602, 40.656061 ] ] ] } },
{ "type": "Feature", "properties": { "OBJECTID": 1736, "ID": "0004646202", "NAME": "RICHARD L. ROUDEBUSH VA MEDICAL CENTER", "ADDRESS": "1481 W 10TH ST", "CITY": "INDIANAPOLIS", "STATE": "IN", "ZIP": "46202", "ZIP4": "NOT AVAILABLE", "TELEPHONE": "NOT AVAILABLE", "TYPE": "MILITARY", "STATUS": "OPEN", "POPULATION": -999, "COUNTY": "MARION", "COUNTYFIPS": "18097", "COUNTRY": "USA", "LATITUDE": 39.778463060999997, "LONGITUDE": -86.18716442, "NAICS_CODE": "622110", "NAICS_DESC": "GENERAL MEDICAL AND SURGICAL HOSPITALS", "SOURCE": "https://www.va.gov/directory/guide/allstate.asp", "SOURCEDATE": "2018-09-26T00:00:00.000Z", "VAL_METHOD": "IMAGERY/OTHER", "VAL_DATE": "2015-05-20T00:00:00.000Z", "WEBSITE": "www.indianapolis.va.gov/", "STATE_ID": "NOT AVAILABLE", "ALT_NAME": "NOT AVAILABLE", "ST_FIPS": "18", "OWNER": "GOVERNMENT - FEDERAL", "TTL_STAFF": -999, "BEDS": -999, "TRAUMA": "NOT AVAILABLE", "HELIPAD": "Y" }, "geometry": { "type": "Polygon", "coordinates": [ [ [ -86.187316, 39.690407 ], [ -86.2633971, 39.713347399999961 ], [ -86.286524, 39.741673 ], [ -86.311375, 39.778345 ], [ -86.311382, 39.778656 ], [ -86.311386, 39.778891 ], [ -86.2950307, 39.805956800000033 ], [ -86.260479700000019, 39.8500558 ], [ -86.200262, 39.86502 ], [ -86.1595126, 39.855338600000017 ], [ -86.1149636, 39.842928499999985 ], [ -86.0836989, 39.825519 ], [ -86.0436303, 39.7980651 ], [ -86.1096966, 39.705707799999978 ], [ -86.187316, 39.690407 ] ] ] } },
{ "type": "Feature", "properties": { "OBJECTID": 2041, "ID": "0009547303", "NAME": "MERIDIAN SERVICES CORP", "ADDRESS": "2401 W UNIVERSITY AVE", "CITY": "MUNCIE", "STATE": "IN", "ZIP": "47303", "ZIP4": "NOT AVAILABLE", "TELEPHONE": "(765) 751-5377", "TYPE": "PSYCHIATRIC", "STATUS": "OPEN", "POPULATION": 16, "COUNTY": "DELAWARE", "COUNTYFIPS": "18035", "COUNTRY": "USA", "LATITUDE": 40.196783482999997, "LONGITUDE": -85.414812362000006, "NAICS_CODE": "622210", "NAICS_DESC": "PSYCHIATRIC AND SUBSTANCE ABUSE HOSPITALS", "SOURCE": "http://www.in.gov/isdh/reports/QAMIS/hosdir", "SOURCEDATE": "2018-08-16T00:00:00.000Z", "VAL_METHOD": "IMAGERY", "VAL_DATE": "2014-03-12T00:00:00.000Z", "WEBSITE": "http://www.meridianhs.org", "STATE_ID": "NOT AVAILABLE", "ALT_NAME": "NOT AVAILABLE", "ST_FIPS": "18", "OWNER": "NOT AVAILABLE", "TTL_STAFF": -999, "BEDS": 16, "TRAUMA": "NOT AVAILABLE", "HELIPAD": "Y" }, "geometry": { "type": "Polygon", "coordinates": [ [ [ -85.457131, 40.12072 ], [ -85.513937, 40.166911 ], [ -85.5042376, 40.210574500000043 ], [ -85.490705, 40.237781 ], [ -85.443027, 40.262653 ], [ -85.427871, 40.262631 ], [ -85.386638, 40.255239 ], [ -85.348092, 40.248281 ], [ -85.306151, 40.193365 ], [ -85.376168, 40.134617 ], [ -85.404304, 40.128136 ], [ -85.457131, 40.12072 ] ] ] } },
{ "type": "Feature", "properties": { "OBJECTID": 2348, "ID": "0005846250", "NAME": "COMMUNITY HEART AND VASCULAR HOSPITAL", "ADDRESS": "8075 N SHADELAND AVE", "CITY": "INDIANAPOLIS", "STATE": "IN", "ZIP": "46250", "ZIP4": "NOT AVAILABLE", "TELEPHONE": "(317) 621-8063", "TYPE": "GENERAL ACUTE CARE", "STATUS": "OPEN", "POPULATION": 56, "COUNTY": "MARION", "COUNTYFIPS": "18097", "COUNTRY": "USA", "LATITUDE": 39.901828836000099, "LONGITUDE": -86.044681839000006, "NAICS_CODE": "622110", "NAICS_DESC": "GENERAL MEDICAL AND SURGICAL HOSPITALS", "SOURCE": "http://www.in.gov/isdh/reports/QAMIS/hosdir", "SOURCEDATE": "2018-08-16T00:00:00.000Z", "VAL_METHOD": "IMAGERY", "VAL_DATE": "2014-01-22T00:00:00.000Z", "WEBSITE": "heart.ecommunity.com", "STATE_ID": "12-003312-1", "ALT_NAME": "NOT AVAILABLE", "ST_FIPS": "18", "OWNER": "PROPRIETARY", "TTL_STAFF": -999, "BEDS": 56, "TRAUMA": "NOT AVAILABLE", "HELIPAD": "Y" }, "geometry": { "type": "Polygon", "coordinates": [ [ [ -86.0357285, 39.79463160000001 ], [ -86.1362777, 39.8214142 ], [ -86.1609804, 39.92680150000001 ], [ -86.1609835, 39.927003699999986 ], [ -86.1571582, 39.941786 ], [ -86.0190797, 40.0027846 ], [ -86.013629, 40.004857 ], [ -86.005674, 40.006936 ], [ -85.9997779, 40.006994399999968 ], [ -85.9945468, 40.0070206 ], [ -85.9242785, 39.989487199999971 ], [ -85.948763, 39.891326 ], [ -86.0357285, 39.79463160000001 ] ] ] } },
{ "type": "Feature", "properties": { "OBJECTID": 2413, "ID": "0015647905", "NAME": "SYCAMORE SPRINGS", "ADDRESS": "833 PARK EAST BLVD", "CITY": "LAFAYETTE", "STATE": "IN", "ZIP": "47905", "ZIP4": "NOT AVAILABLE", "TELEPHONE": "(765) 743-4400", "TYPE": "PSYCHIATRIC", "STATUS": "OPEN", "POPULATION": 48, "COUNTY": "TIPPECANOE", "COUNTYFIPS": "18157", "COUNTRY": "USA", "LATITUDE": 40.4066718, "LONGITUDE": -86.827446464000005, "NAICS_CODE": "622210", "NAICS_DESC": "PSYCHIATRIC AND SUBSTANCE ABUSE HOSPITALS", "SOURCE": "http://www.in.gov/isdh/reports/QAMIS/hosdir", "SOURCEDATE": "2018-08-16T00:00:00.000Z", "VAL_METHOD": "IMAGERY", "VAL_DATE": "2014-02-10T00:00:00.000Z", "WEBSITE": "http://www.sycamorespringshealth.com", "STATE_ID": "NOT AVAILABLE", "ALT_NAME": "NOT AVAILABLE", "ST_FIPS": "18", "OWNER": "PROPRIETARY", "TTL_STAFF": -999, "BEDS": 48, "TRAUMA": "NOT AVAILABLE", "HELIPAD": "N" }, "geometry": { "type": "Polygon", "coordinates": [ [ [ -86.809501505067914, 40.338109409737498 ], [ -86.85669747194936, 40.345281014209313 ], [ -86.875890415544447, 40.355261613762593 ], [ -86.918175605489083, 40.377551613688659 ], [ -86.923746991984203, 40.385100912374185 ], [ -86.92531438829586, 40.387774711848337 ], [ -86.930481676065014, 40.416768704095084 ], [ -86.934103569459808, 40.459908691998265 ], [ -86.868637031786804, 40.513147466168874 ], [ -86.77477855407605, 40.48395244389485 ], [ -86.774439554661654, 40.483837643855487 ], [ -86.714894373448502, 40.417699091954326 ], [ -86.742761910228467, 40.373123892060633 ], [ -86.749164313165281, 40.365871489581849 ], [ -86.789719260318833, 40.336860407301103 ], [ -86.789864260066309, 40.336767907359999 ], [ -86.809501505067914, 40.338109409737498 ] ] ] } },
{ "type": "Feature", "properties": { "OBJECTID": 2562, "ID": "0018946013", "NAME": "ASSURANCE HEALTH PSYCHIATRIC HOSPITAL", "ADDRESS": "2725 ENTERPRISE DRIVE", "CITY": "ANDERSON", "STATE": "IN", "ZIP": "46013", "ZIP4": "NOT AVAILABLE", "TELEPHONE": "(317) 372-6611", "TYPE": "PSYCHIATRIC", "STATUS": "OPEN", "POPULATION": 22, "COUNTY": "MADISON", "COUNTYFIPS": "18095", "COUNTRY": "USA", "LATITUDE": 40.037843886000097, "LONGITUDE": -85.725053900999995, "NAICS_CODE": "622110", "NAICS_DESC": "GENERAL MEDICAL AND SURGICAL HOSPITALS", "SOURCE": "http://www.in.gov/isdh/reports/QAMIS/hosdir", "SOURCEDATE": "2018-08-16T00:00:00.000Z", "VAL_METHOD": "IMAGERY", "VAL_DATE": "2016-04-26T00:00:00.000Z", "WEBSITE": "http://www.assurancehealthsystem.com/", "STATE_ID": "16-99-1-P-IP", "ALT_NAME": "NOT AVAILABLE", "ST_FIPS": "18", "OWNER": "PROPRIETARY", "TTL_STAFF": -999, "BEDS": 22, "TRAUMA": "NOT AVAILABLE", "HELIPAD": "N" }, "geometry": { "type": "Polygon", "coordinates": [ [ [ -85.782065, 39.967813 ], [ -85.847092, 39.985481 ], [ -85.848967, 39.986271 ], [ -85.838474, 40.018739 ], [ -85.806046, 40.060416 ], [ -85.786857, 40.075648 ], [ -85.748939, 40.101556 ], [ -85.730002, 40.105647 ], [ -85.691866, 40.109831 ], [ -85.680544, 40.107887 ], [ -85.6526227, 40.098601700000032 ], [ -85.611812, 40.063218 ], [ -85.615025, 40.047598800000031 ], [ -85.633936, 40.012876 ], [ -85.70151, 39.974698 ], [ -85.729911, 39.967087 ], [ -85.75829, 39.966847 ], [ -85.782065, 39.967813 ] ] ] } },
{ "type": "Feature", "properties": { "OBJECTID": 6079, "ID": "0001346256", "NAME": "COMMUNITY HOSPITAL NORTH", "ADDRESS": "7150 CLEARVISTA DR", "CITY": "INDIANAPOLIS", "STATE": "IN", "ZIP": "46256", "ZIP4": "NOT AVAILABLE", "TELEPHONE": "(317) 621-5335", "TYPE": "GENERAL ACUTE CARE", "STATUS": "OPEN", "POPULATION": 339, "COUNTY": "MARION", "COUNTYFIPS": "18097", "COUNTRY": "USA", "LATITUDE": 39.901116092000102, "LONGITUDE": -86.0421630929999, "NAICS_CODE": "622110", "NAICS_DESC": "GENERAL MEDICAL AND SURGICAL HOSPITALS", "SOURCE": "http://www.in.gov/isdh/reports/QAMIS/hosdir", "SOURCEDATE": "2018-08-16T00:00:00.000Z", "VAL_METHOD": "IMAGERY", "VAL_DATE": "2014-02-10T00:00:00.000Z", "WEBSITE": "http://www.ecommunity.com", "STATE_ID": "17-011437-1", "ALT_NAME": "NOT AVAILABLE", "ST_FIPS": "18", "OWNER": "NON-PROFIT", "TTL_STAFF": -999, "BEDS": 339, "TRAUMA": "NOT AVAILABLE", "HELIPAD": "N" }, "geometry": { "type": "Polygon", "coordinates": [ [ [ -86.0357285, 39.79463160000001 ], [ -86.1362777, 39.8214142 ], [ -86.1609804, 39.92680150000001 ], [ -86.1609835, 39.927003699999986 ], [ -86.1571582, 39.941786 ], [ -86.0190797, 40.0027846 ], [ -86.013629, 40.004857 ], [ -86.005674, 40.006936 ], [ -85.9997779, 40.006994399999968 ], [ -85.9945468, 40.0070206 ], [ -85.9242785, 39.989487199999971 ], [ -85.948763, 39.891326 ], [ -86.0357285, 39.79463160000001 ] ] ] } },
{ "type": "Feature", "properties": { "OBJECTID": 6080, "ID": "0001646227", "NAME": "COMMUNITY HOSPITAL SOUTH", "ADDRESS": "1402 E COUNTY LINE RD S", "CITY": "INDIANAPOLIS", "STATE": "IN", "ZIP": "46227", "ZIP4": "NOT AVAILABLE", "TELEPHONE": "(317) 887-7112", "TYPE": "GENERAL ACUTE CARE", "STATUS": "OPEN", "POPULATION": 158, "COUNTY": "MARION", "COUNTYFIPS": "18097", "COUNTRY": "USA", "LATITUDE": 39.63680298, "LONGITUDE": -86.132651341, "NAICS_CODE": "622110", "NAICS_DESC": "GENERAL MEDICAL AND SURGICAL HOSPITALS", "SOURCE": "http://www.in.gov/isdh/reports/QAMIS/hosdir", "SOURCEDATE": "2018-08-16T00:00:00.000Z", "VAL_METHOD": "IMAGERY", "VAL_DATE": "2014-01-22T00:00:00.000Z", "WEBSITE": "http://www.ecommunity.com", "STATE_ID": "17-005109-1", "ALT_NAME": "NOT AVAILABLE", "ST_FIPS": "18", "OWNER": "PROPRIETARY", "TTL_STAFF": -999, "BEDS": 158, "TRAUMA": "NOT AVAILABLE", "HELIPAD": "Y" }, "geometry": { "type": "Polygon", "coordinates": [ [ [ -86.085390345588294, 39.545683818867985 ], [ -86.1588781, 39.570010800000048 ], [ -86.2019693, 39.603709099999982 ], [ -86.216581, 39.619453800000016 ], [ -86.217824, 39.641484 ], [ -86.215522, 39.663647 ], [ -86.210802, 39.670895 ], [ -86.1906694, 39.695033599999945 ], [ -86.1867916, 39.699294800000018 ], [ -86.153954, 39.722524 ], [ -86.1511774, 39.724285 ], [ -86.1479629, 39.724077799999989 ], [ -86.1019073, 39.704061400000036 ], [ -86.063552, 39.666305 ], [ -86.054062, 39.655997 ], [ -86.053212, 39.654963 ], [ -86.040016, 39.615246 ], [ -86.0534302, 39.587700900000016 ], [ -86.078513, 39.550070300000037 ], [ -86.08219142224975, 39.54578322817089 ], [ -86.083092500850711, 39.545741525776378 ], [ -86.085390345588294, 39.545683818867985 ] ] ] } },
{ "type": "Feature", "properties": { "OBJECTID": 6081, "ID": "0003246256", "NAME": "FAIRBANKS", "ADDRESS": "8102 CLEARVISTA PARKWAY", "CITY": "INDIANAPOLIS", "STATE": "IN", "ZIP": "46256", "ZIP4": "NOT AVAILABLE", "TELEPHONE": "(317) 849-8222", "TYPE": "REHABILITATION", "STATUS": "OPEN", "POPULATION": -999, "COUNTY": "MARION", "COUNTYFIPS": "18097", "COUNTRY": "USA", "LATITUDE": 39.902689271, "LONGITUDE": -86.040944476999996, "NAICS_CODE": "622110", "NAICS_DESC": "GENERAL MEDICAL AND SURGICAL HOSPITALS", "SOURCE": "http://www.in.gov/isdh/reports/QAMIS/hosdir", "SOURCEDATE": "2018-08-16T00:00:00.000Z", "VAL_METHOD": "IMAGERY", "VAL_DATE": "2014-02-10T00:00:00.000Z", "WEBSITE": "http://www.fairbankscd.org", "STATE_ID": "NOT AVAILABLE", "ALT_NAME": "NOT AVAILABLE", "ST_FIPS": "18", "OWNER": "NON-PROFIT", "TTL_STAFF": -999, "BEDS": -999, "TRAUMA": "NOT AVAILABLE", "HELIPAD": "Y" }, "geometry": { "type": "Polygon", "coordinates": [ [ [ -86.0346338, 39.801096799999961 ], [ -86.1216972, 39.8218405 ], [ -86.1319874, 39.824997399999987 ], [ -86.161046, 39.925978 ], [ -86.1609835, 39.927003699999986 ], [ -86.1571582, 39.941786 ], [ -86.005422, 40.010916 ], [ -85.9238901, 39.99042570000001 ], [ -85.9227833, 39.98945010000002 ], [ -85.944102, 39.8905 ], [ -86.0342427, 39.801348500000017 ], [ -86.0346338, 39.801096799999961 ] ] ] } },
{ "type": "Feature", "properties": { "OBJECTID": 6082, "ID": "0010146226", "NAME": "OPTIONS BEHAVIORAL HEALTH SYSTEM", "ADDRESS": "5602 CAITO DRIVE", "CITY": "INDIANAPOLIS", "STATE": "IN", "ZIP": "46226", "ZIP4": "NOT AVAILABLE", "TELEPHONE": "(317) 544-4340", "TYPE": "PSYCHIATRIC", "STATUS": "OPEN", "POPULATION": 56, "COUNTY": "MARION", "COUNTYFIPS": "18097", "COUNTRY": "USA", "LATITUDE": 39.855761569000002, "LONGITUDE": -86.04373859, "NAICS_CODE": "622210", "NAICS_DESC": "PSYCHIATRIC AND SUBSTANCE ABUSE HOSPITALS", "SOURCE": "http://www.in.gov/isdh/reports/QAMIS/hosdir", "SOURCEDATE": "2018-08-16T00:00:00.000Z", "VAL_METHOD": "IMAGERY", "VAL_DATE": "2014-02-10T00:00:00.000Z", "WEBSITE": "http://www.optionsbehavioralhealthsystem.com/", "STATE_ID": "NOT AVAILABLE", "ALT_NAME": "NOT AVAILABLE", "ST_FIPS": "18", "OWNER": "PROPRIETARY", "TTL_STAFF": -999, "BEDS": 56, "TRAUMA": "NOT AVAILABLE", "HELIPAD": "N" }, "geometry": { "type": "Polygon", "coordinates": [ [ [ -86.0364547, 39.747642500000012 ], [ -86.144947, 39.814067 ], [ -86.1497679, 39.824940300000044 ], [ -86.152609, 39.862641 ], [ -86.1227957, 39.926876900000025 ], [ -86.119366, 39.928822 ], [ -86.117292, 39.929818 ], [ -86.11215660000002, 39.931409599999988 ], [ -86.0000475, 39.965927500000014 ], [ -85.9380985, 39.889394599999989 ], [ -85.9339958, 39.877739899999987 ], [ -85.9338669, 39.877069899999974 ], [ -85.9339002, 39.875631400000039 ], [ -85.934812, 39.856462 ], [ -86.0069261, 39.773888800000023 ], [ -86.009156, 39.771771 ], [ -86.0364547, 39.747642500000012 ] ] ] } },
{ "type": "Feature", "properties": { "OBJECTID": 6102, "ID": "0001746904", "NAME": "COMMUNITY HOWARD REGIONAL HEALTH INC", "ADDRESS": "3500 S LAFOUNTAIN ST", "CITY": "KOKOMO", "STATE": "IN", "ZIP": "46904", "ZIP4": "NOT AVAILABLE", "TELEPHONE": "(765) 453-8371", "TYPE": "GENERAL ACUTE CARE", "STATUS": "OPEN", "POPULATION": 86, "COUNTY": "HOWARD", "COUNTYFIPS": "18067", "COUNTRY": "USA", "LATITUDE": 40.447201693000103, "LONGITUDE": -86.124659010999906, "NAICS_CODE": "622110", "NAICS_DESC": "GENERAL MEDICAL AND SURGICAL HOSPITALS", "SOURCE": "http://www.in.gov/isdh/reports/QAMIS/hosdir", "SOURCEDATE": "2018-08-16T00:00:00.000Z", "VAL_METHOD": "IMAGERY", "VAL_DATE": "2014-03-12T00:00:00.000Z", "WEBSITE": "http://www.howardregional.org", "STATE_ID": "17-005007-1", "ALT_NAME": "NOT AVAILABLE", "ST_FIPS": "18", "OWNER": "NON-PROFIT", "TTL_STAFF": -999, "BEDS": 86, "TRAUMA": "NOT AVAILABLE", "HELIPAD": "Y" }, "geometry": { "type": "Polygon", "coordinates": [ [ [ -86.1272671, 40.34654409999996 ], [ -86.222285, 40.417596 ], [ -86.222338, 40.439279 ], [ -86.202962, 40.490072 ], [ -86.155326, 40.526852 ], [ -86.1267012, 40.538529100000041 ], [ -86.1153321, 40.5346666 ], [ -86.1069231, 40.531352899999987 ], [ -86.069828, 40.513419 ], [ -86.051022, 40.49888 ], [ -86.03188, 40.477514 ], [ -86.031853, 40.43457 ], [ -86.039312, 40.420043 ], [ -86.040402, 40.418359 ], [ -86.120815, 40.346579 ], [ -86.1272671, 40.34654409999996 ] ] ] } },
{ "type": "Feature", "properties": { "OBJECTID": 6168, "ID": "0012247906", "NAME": "RIVER BEND HOSPITAL", "ADDRESS": "2900 N RIVER RD", "CITY": "WEST LAFAYETTE", "STATE": "IN", "ZIP": "47906", "ZIP4": "NOT AVAILABLE", "TELEPHONE": "(765) 463-2555", "TYPE": "PSYCHIATRIC", "STATUS": "OPEN", "POPULATION": 16, "COUNTY": "TIPPECANOE", "COUNTYFIPS": "18157", "COUNTRY": "USA", "LATITUDE": 40.459714696, "LONGITUDE": -86.89388199, "NAICS_CODE": "622210", "NAICS_DESC": "PSYCHIATRIC AND SUBSTANCE ABUSE HOSPITALS", "SOURCE": "http://www.in.gov/isdh/reports/QAMIS/hosdir", "SOURCEDATE": "2018-08-16T00:00:00.000Z", "VAL_METHOD": "IMAGERY", "VAL_DATE": "2014-02-10T00:00:00.000Z", "WEBSITE": "http://www.nchsi.com/riverbendhospital.cfm", "STATE_ID": "NOT AVAILABLE", "ALT_NAME": "NOT AVAILABLE", "ST_FIPS": "18", "OWNER": "NON-PROFIT", "TTL_STAFF": -999, "BEDS": 16, "TRAUMA": "NOT AVAILABLE", "HELIPAD": "N" }, "geometry": { "type": "Polygon", "coordinates": [ [ [ -86.838859984834826, 40.379109998995737 ], [ -86.936423564566681, 40.402381709585327 ], [ -87.0292749, 40.4730899 ], [ -87.0305553, 40.474252100000015 ], [ -87.0294555, 40.4758603 ], [ -86.916287684374595, 40.522397079804648 ], [ -86.868849729844911, 40.522082268740675 ], [ -86.809874800537258, 40.493814349067691 ], [ -86.809434843588846, 40.461348061623973 ], [ -86.809294901339001, 40.417521278701777 ], [ -86.809795602136461, 40.416199879321177 ], [ -86.838707585091839, 40.379197798936055 ], [ -86.838859984834826, 40.379109998995737 ] ] ] } },
{ "type": "Feature", "properties": { "OBJECTID": 6176, "ID": "0014146032", "NAME": "ST VINCENT CARMEL HOSPITAL INC", "ADDRESS": "13500 N MERIDIAN ST", "CITY": "CARMEL", "STATE": "IN", "ZIP": "46032", "ZIP4": "NOT AVAILABLE", "TELEPHONE": "(317) 582-7000", "TYPE": "GENERAL ACUTE CARE", "STATUS": "OPEN", "POPULATION": 107, "COUNTY": "HAMILTON", "COUNTYFIPS": "18057", "COUNTRY": "USA", "LATITUDE": 39.982446345, "LONGITUDE": -86.144020037000004, "NAICS_CODE": "622110", "NAICS_DESC": "GENERAL MEDICAL AND SURGICAL HOSPITALS", "SOURCE": "http://www.in.gov/isdh/reports/QAMIS/hosdir", "SOURCEDATE": "2018-08-16T00:00:00.000Z", "VAL_METHOD": "IMAGERY", "VAL_DATE": "2014-02-10T00:00:00.000Z", "WEBSITE": "http://www.stvincent.org", "STATE_ID": "17-003932-1", "ALT_NAME": "NOT AVAILABLE", "ST_FIPS": "18", "OWNER": "NON-PROFIT", "TTL_STAFF": -999, "BEDS": 107, "TRAUMA": "NOT AVAILABLE", "HELIPAD": "N" }, "geometry": { "type": "Polygon", "coordinates": [ [ [ -86.157817, 39.886749 ], [ -86.2016404, 39.92670940000005 ], [ -86.2151487, 39.9410947 ], [ -86.2395074, 39.97712580000001 ], [ -86.22179, 40.006068 ], [ -86.1860399, 40.043262099999957 ], [ -86.1834427, 40.0455396 ], [ -86.1277975, 40.0934301 ], [ -86.1249468, 40.09299860000003 ], [ -86.033832600000011, 40.000110500000019 ], [ -86.033831, 40.000004100000012 ], [ -86.0338993, 39.998607099999973 ], [ -86.1130634, 39.914953599999961 ], [ -86.157817, 39.886749 ] ] ] } },
{ "type": "Feature", "properties": { "OBJECTID": 6177, "ID": "0014546290", "NAME": "ST VINCENT HEART CENTER OF INDIANA LLC", "ADDRESS": "10580 N MERIDIAN ST", "CITY": "INDIANAPOLIS", "STATE": "IN", "ZIP": "46290", "ZIP4": "NOT AVAILABLE", "TELEPHONE": "(317) 583-5000", "TYPE": "SPECIAL", "STATUS": "OPEN", "POPULATION": 107, "COUNTY": "HAMILTON", "COUNTYFIPS": "18057", "COUNTRY": "USA", "LATITUDE": 39.939347372999997, "LONGITUDE": -86.159170257, "NAICS_CODE": "622110", "NAICS_DESC": "GENERAL MEDICAL AND SURGICAL HOSPITALS", "SOURCE": "http://www.in.gov/isdh/reports/QAMIS/hosdir", "SOURCEDATE": "2018-08-16T00:00:00.000Z", "VAL_METHOD": "IMAGERY", "VAL_DATE": "2014-02-10T00:00:00.000Z", "WEBSITE": "http://bestheartcare.com/", "STATE_ID": "17-003284-1", "ALT_NAME": "NOT AVAILABLE", "ST_FIPS": "18", "OWNER": "PROPRIETARY", "TTL_STAFF": -999, "BEDS": 107, "TRAUMA": "NOT AVAILABLE", "HELIPAD": "N" }, "geometry": { "type": "Polygon", "coordinates": [ [ [ -86.156961, 39.837833 ], [ -86.161712, 39.83943 ], [ -86.174074, 39.84665 ], [ -86.1882599, 39.8572445 ], [ -86.240856, 39.903504 ], [ -86.2437319, 39.906945800000024 ], [ -86.2460201, 39.911076 ], [ -86.240186400000013, 39.940773200000017 ], [ -86.2380718, 39.9433529 ], [ -86.1761137, 39.9993877 ], [ -86.164843, 40.006341 ], [ -86.1328298, 40.025530900000028 ], [ -86.1247859, 40.022069700000046 ], [ -86.097852, 40.000856 ], [ -86.0648713, 39.905342 ], [ -86.0649115, 39.905196900000035 ], [ -86.156961, 39.837833 ] ] ] } },
{ "type": "Feature", "properties": { "OBJECTID": 6187, "ID": "0016846202", "NAME": "WILLIAM N WISHARD MEMORIAL HOSPITAL", "ADDRESS": "1001 W 10TH ST", "CITY": "INDIANAPOLIS", "STATE": "IN", "ZIP": "46202", "ZIP4": "NOT AVAILABLE", "TELEPHONE": "(317) 630-7592", "TYPE": "GENERAL ACUTE CARE", "STATUS": "CLOSED", "POPULATION": -999, "COUNTY": "MARION", "COUNTYFIPS": "18097", "COUNTRY": "USA", "LATITUDE": 39.779426891000099, "LONGITUDE": -86.177215890999904, "NAICS_CODE": "622110", "NAICS_DESC": "GENERAL MEDICAL AND SURGICAL HOSPITALS", "SOURCE": "http://www.state.in.us/isdh/reports/QAMIS/hosdir/wdirhos.htm", "SOURCEDATE": "2012-11-06T00:00:00.000Z", "VAL_METHOD": "IMAGERY", "VAL_DATE": "2014-01-22T00:00:00.000Z", "WEBSITE": "http://www.eskenazihealth.edu/", "STATE_ID": "12-005023-1", "ALT_NAME": "NOT AVAILABLE", "ST_FIPS": "18", "OWNER": "GOVERNMENT - LOCAL", "TTL_STAFF": -999, "BEDS": -999, "TRAUMA": "NOT AVAILABLE", "HELIPAD": "N" }, "geometry": { "type": "Polygon", "coordinates": [ [ [ -86.1868316, 39.701961 ], [ -86.232136, 39.717187899999949 ], [ -86.2538385, 39.730257600000016 ], [ -86.271701, 39.7462526 ], [ -86.3004806, 39.778995100000031 ], [ -86.3004431, 39.779106199999987 ], [ -86.2569255, 39.84571110000001 ], [ -86.202299, 39.86921 ], [ -86.1568396, 39.859158 ], [ -86.110819600000013, 39.847637499999976 ], [ -86.0836935, 39.831227799999979 ], [ -86.0373607, 39.798705899999966 ], [ -86.1069689, 39.698335900000025 ], [ -86.1489035, 39.700002 ], [ -86.1868316, 39.701961 ] ] ] } },
{ "type": "Feature", "properties": { "OBJECTID": 6188, "ID": "0015346260", "NAME": "ST VINCENT SETON SPECIALTY HOSPITAL, INDIANAPOLIS", "ADDRESS": "8050 TOWNSHIP LINE RD", "CITY": "INDIANAPOLIS", "STATE": "IN", "ZIP": "46260", "ZIP4": "NOT AVAILABLE", "TELEPHONE": "(317) 415-8500", "TYPE": "LONG TERM CARE", "STATUS": "OPEN", "POPULATION": 74, "COUNTY": "MARION", "COUNTYFIPS": "18097", "COUNTRY": "USA", "LATITUDE": 39.901812457000098, "LONGITUDE": -86.204365543999998, "NAICS_CODE": "622110", "NAICS_DESC": "GENERAL MEDICAL AND SURGICAL HOSPITALS", "SOURCE": "http://www.in.gov/isdh/reports/QAMIS/hosdir", "SOURCEDATE": "2018-08-16T00:00:00.000Z", "VAL_METHOD": "IMAGERY", "VAL_DATE": "2014-02-10T00:00:00.000Z", "WEBSITE": "http://stvincent.org/", "STATE_ID": "17-003350-1", "ALT_NAME": "NOT AVAILABLE", "ST_FIPS": "18", "OWNER": "NON-PROFIT", "TTL_STAFF": -999, "BEDS": 74, "TRAUMA": "NOT AVAILABLE", "HELIPAD": "N" }, "geometry": { "type": "Polygon", "coordinates": [ [ [ -86.177315, 39.817405 ], [ -86.180518, 39.81845 ], [ -86.197756, 39.825504 ], [ -86.2418419, 39.845923500000033 ], [ -86.243723, 39.846904 ], [ -86.2544181, 39.85305810000002 ], [ -86.2712216, 39.863366699999972 ], [ -86.273175, 39.8649344 ], [ -86.2916361, 39.880304899999949 ], [ -86.301744600000021, 39.8945982 ], [ -86.307256, 39.909834 ], [ -86.30727, 39.910875 ], [ -86.2712521, 39.950230499999968 ], [ -86.2669027, 39.95487989999998 ], [ -86.2609825, 39.956592700000016 ], [ -86.1576468, 39.973267399999976 ], [ -86.1036535, 39.9187489 ], [ -86.099311, 39.911293 ], [ -86.0982786, 39.907963899999956 ], [ -86.0982731, 39.907826399999976 ], [ -86.0982713, 39.905865499999969 ], [ -86.1693342, 39.82474160000001 ], [ -86.177315, 39.817405 ] ] ] } },
{ "type": "Feature", "properties": { "OBJECTID": 6189, "ID": "0016746222", "NAME": "COMMUNITY WESTVIEW HOSPITAL", "ADDRESS": "3630 GUION RD", "CITY": "INDIANAPOLIS", "STATE": "IN", "ZIP": "46222", "ZIP4": "NOT AVAILABLE", "TELEPHONE": "(317) 920-7288", "TYPE": "GENERAL ACUTE CARE", "STATUS": "CLOSED", "POPULATION": 68, "COUNTY": "MARION", "COUNTYFIPS": "18097", "COUNTRY": "USA", "LATITUDE": 39.820940711, "LONGITUDE": -86.222438396000001, "NAICS_CODE": "622110", "NAICS_DESC": "GENERAL MEDICAL AND SURGICAL HOSPITALS", "SOURCE": "http://www.in.gov/isdh/reports/QAMIS/hosdir", "SOURCEDATE": "2016-04-13T00:00:00.000Z", "VAL_METHOD": "IMAGERY", "VAL_DATE": "2014-02-10T00:00:00.000Z", "WEBSITE": "http://www.westviewhospital.org", "STATE_ID": "12-005110-1", "ALT_NAME": "NOT AVAILABLE", "ST_FIPS": "18", "OWNER": "NON-PROFIT", "TTL_STAFF": -999, "BEDS": 68, "TRAUMA": "NOT AVAILABLE", "HELIPAD": "N" }, "geometry": { "type": "Polygon", "coordinates": [ [ [ -86.196633, 39.74032 ], [ -86.2252484, 39.742575299999956 ], [ -86.2525448, 39.752126299999951 ], [ -86.278767, 39.77749 ], [ -86.309448, 39.807927 ], [ -86.3128735, 39.812389899999985 ], [ -86.3132026, 39.8520046 ], [ -86.302258, 39.891883399999955 ], [ -86.269545, 39.904145599999971 ], [ -86.215757, 39.897147 ], [ -86.187052, 39.889417 ], [ -86.1081993, 39.850714699999976 ], [ -86.1034171, 39.848165899999969 ], [ -86.1029257, 39.847499300000038 ], [ -86.101135, 39.840288 ], [ -86.097965, 39.825392 ], [ -86.112148, 39.798326300000028 ], [ -86.1165917, 39.792393 ], [ -86.1251606, 39.781305900000028 ], [ -86.1395086, 39.7680548 ], [ -86.1556343, 39.754981 ], [ -86.167639, 39.749626 ], [ -86.196633, 39.74032 ] ] ] } },
{ "type": "Feature", "properties": { "OBJECTID": 6691, "ID": "0016946052", "NAME": "WITHAM HEALTH SERVICES", "ADDRESS": "2605 N LEBANON ST", "CITY": "LEBANON", "STATE": "IN", "ZIP": "46052", "ZIP4": "NOT AVAILABLE", "TELEPHONE": "(765) 485-8000", "TYPE": "GENERAL ACUTE CARE", "STATUS": "OPEN", "POPULATION": 52, "COUNTY": "BOONE", "COUNTYFIPS": "18011", "COUNTRY": "USA", "LATITUDE": 40.077473453000003, "LONGITUDE": -86.472990401999894, "NAICS_CODE": "622110", "NAICS_DESC": "GENERAL MEDICAL AND SURGICAL HOSPITALS", "SOURCE": "http://www.in.gov/isdh/reports/QAMIS/hosdir", "SOURCEDATE": "2018-08-16T00:00:00.000Z", "VAL_METHOD": "IMAGERY", "VAL_DATE": "2014-01-22T00:00:00.000Z", "WEBSITE": "http://www.witham.org", "STATE_ID": "17-005093-1", "ALT_NAME": "NOT AVAILABLE", "ST_FIPS": "18", "OWNER": "GOVERNMENT - LOCAL", "TTL_STAFF": -999, "BEDS": 52, "TRAUMA": "NOT AVAILABLE", "HELIPAD": "N" }, "geometry": { "type": "Polygon", "coordinates": [ [ [ -86.3929789, 39.979010599999974 ], [ -86.4822173, 39.9954733 ], [ -86.500175, 40.010070300000024 ], [ -86.5256869, 40.031921699999955 ], [ -86.5443504, 40.0539648 ], [ -86.5628268, 40.097605399999935 ], [ -86.5536605, 40.119673500000033 ], [ -86.4860124, 40.16593 ], [ -86.4808511, 40.162370600000017 ], [ -86.4029943, 40.108332 ], [ -86.3939324, 40.0394094 ], [ -86.3929789, 39.979010599999974 ] ] ] } },
{ "type": "Feature", "properties": { "OBJECTID": 6754, "ID": "0012446060", "NAME": "RIVERVIEW HOSPITAL", "ADDRESS": "395 WESTFIELD RD", "CITY": "NOBLESVILLE", "STATE": "IN", "ZIP": "46060", "ZIP4": "NOT AVAILABLE", "TELEPHONE": "(317) 776-7108", "TYPE": "GENERAL ACUTE CARE", "STATUS": "OPEN", "POPULATION": 162, "COUNTY": "HAMILTON", "COUNTYFIPS": "18057", "COUNTRY": "USA", "LATITUDE": 40.04581762, "LONGITUDE": -86.023521853000005, "NAICS_CODE": "622110", "NAICS_DESC": "GENERAL MEDICAL AND SURGICAL HOSPITALS", "SOURCE": "http://www.in.gov/isdh/reports/QAMIS/hosdir", "SOURCEDATE": "2018-08-16T00:00:00.000Z", "VAL_METHOD": "IMAGERY", "VAL_DATE": "2014-01-23T00:00:00.000Z", "WEBSITE": "http://www.riverview.org", "STATE_ID": "17-005054-1", "ALT_NAME": "NOT AVAILABLE", "ST_FIPS": "18", "OWNER": "GOVERNMENT - LOCAL", "TTL_STAFF": -999, "BEDS": 162, "TRAUMA": "NOT AVAILABLE", "HELIPAD": "N" }, "geometry": { "type": "Polygon", "coordinates": [ [ [ -86.0162552, 39.945620699999985 ], [ -86.1332869, 40.025821199999974 ], [ -86.151346700000019, 40.041480700000022 ], [ -86.155704, 40.106302 ], [ -86.1281974, 40.116004300000029 ], [ -86.1279317, 40.116071500000025 ], [ -86.013421, 40.139778 ], [ -85.9424819, 40.123991599999968 ], [ -85.940613099999979, 40.123148699999973 ], [ -85.8978571, 40.058371100000024 ], [ -85.900556, 40.029942 ], [ -86.0038399, 39.953781400000011 ], [ -86.0162552, 39.945620699999985 ] ] ] } },
{ "type": "Feature", "properties": { "OBJECTID": 6779, "ID": "0014646260", "NAME": "ST VINCENT HOSPITAL", "ADDRESS": "2001 W 86TH ST", "CITY": "INDIANAPOLIS", "STATE": "IN", "ZIP": "46260", "ZIP4": "NOT AVAILABLE", "TELEPHONE": "(317) 280-9566", "TYPE": "GENERAL ACUTE CARE", "STATUS": "OPEN", "POPULATION": -999, "COUNTY": "MARION", "COUNTYFIPS": "18097", "COUNTRY": "USA", "LATITUDE": 39.908987447000101, "LONGITUDE": -86.195732218000003, "NAICS_CODE": "622110", "NAICS_DESC": "GENERAL MEDICAL AND SURGICAL HOSPITALS", "SOURCE": "http://www.in.gov/isdh/reports/QAMIS/hosdir", "SOURCEDATE": "2018-08-16T00:00:00.000Z", "VAL_METHOD": "IMAGERY", "VAL_DATE": "2014-03-12T00:00:00.000Z", "WEBSITE": "http://www.stvincent.org", "STATE_ID": "NOT AVAILABLE", "ALT_NAME": "NOT AVAILABLE", "ST_FIPS": "18", "OWNER": "NON-PROFIT", "TTL_STAFF": -999, "BEDS": -999, "TRAUMA": "LEVEL I", "HELIPAD": "Y" }, "geometry": { "type": "Polygon", "coordinates": [ [ [ -86.1807507, 39.8243807 ], [ -86.1959814, 39.830785900000024 ], [ -86.233274, 39.850007 ], [ -86.274874, 39.876503 ], [ -86.2814401, 39.881329299999969 ], [ -86.300624, 39.895487 ], [ -86.311541, 39.909747 ], [ -86.2759806, 39.950128400000025 ], [ -86.2662676, 39.957042599999987 ], [ -86.2026197, 39.974617699999989 ], [ -86.1367166, 39.986828099999975 ], [ -86.07411740000002, 39.9050753 ], [ -86.1807507, 39.8243807 ] ] ] } },
{ "type": "Feature", "properties": { "OBJECTID": 4259, "ID": "0000847303", "NAME": "CENTRAL INDIANA AMG SPECIALTY HOSPITAL LLC", "ADDRESS": "2401 W UNIVERSITY AVE, 8TH FL", "CITY": "MUNCIE", "STATE": "IN", "ZIP": "47303", "ZIP4": "NOT AVAILABLE", "TELEPHONE": "(765) 751-5253", "TYPE": "LONG TERM CARE", "STATUS": "OPEN", "POPULATION": 16, "COUNTY": "DELAWARE", "COUNTYFIPS": "18035", "COUNTRY": "USA", "LATITUDE": 40.196741842000101, "LONGITUDE": -85.413991448000004, "NAICS_CODE": "622110", "NAICS_DESC": "GENERAL MEDICAL AND SURGICAL HOSPITALS", "SOURCE": "http://www.in.gov/isdh/reports/QAMIS/hosdir", "SOURCEDATE": "2018-08-16T00:00:00.000Z", "VAL_METHOD": "IMAGERY", "VAL_DATE": "2014-03-12T00:00:00.000Z", "WEBSITE": "http://www.amgmuncie.com/", "STATE_ID": "NOT AVAILABLE", "ALT_NAME": "NOT AVAILABLE", "ST_FIPS": "18", "OWNER": "PROPRIETARY", "TTL_STAFF": -999, "BEDS": 16, "TRAUMA": "NOT AVAILABLE", "HELIPAD": "Y" }, "geometry": { "type": "Polygon", "coordinates": [ [ [ -85.4483244, 40.1272191 ], [ -85.49806, 40.169414 ], [ -85.4998365, 40.171907300000029 ], [ -85.509467, 40.214519 ], [ -85.490705, 40.237781 ], [ -85.443027, 40.262653 ], [ -85.427871, 40.262631 ], [ -85.3866295, 40.2583845 ], [ -85.348035, 40.25093 ], [ -85.346109, 40.25028 ], [ -85.323809, 40.21927 ], [ -85.308072, 40.193372 ], [ -85.341972, 40.164117 ], [ -85.376168, 40.134617 ], [ -85.4483244, 40.1272191 ] ] ] } },
{ "type": "Feature", "properties": { "OBJECTID": 4685, "ID": "0015247904", "NAME": "ST VINCENT SETON SPECIALTY HOSPITAL LAFAYETTE", "ADDRESS": "1501 HARTFORD ST", "CITY": "LAFAYETTE", "STATE": "IN", "ZIP": "47904", "ZIP4": "NOT AVAILABLE", "TELEPHONE": "(765) 423-6650", "TYPE": "LONG TERM CARE", "STATUS": "CLOSED", "POPULATION": 30, "COUNTY": "TIPPECANOE", "COUNTYFIPS": "18157", "COUNTRY": "USA", "LATITUDE": 40.4272035770001, "LONGITUDE": -86.879435565999998, "NAICS_CODE": "622110", "NAICS_DESC": "GENERAL MEDICAL AND SURGICAL HOSPITALS", "SOURCE": "http://www.state.in.us/isdh/reports/QAMIS/hosdir/wdirhos.htm", "SOURCEDATE": "2012-11-06T00:00:00.000Z", "VAL_METHOD": "IMAGERY", "VAL_DATE": "2014-02-10T00:00:00.000Z", "WEBSITE": "http://www.stvincent.org", "STATE_ID": "12-003495-1", "ALT_NAME": "NOT AVAILABLE", "ST_FIPS": "18", "OWNER": "NON-PROFIT", "TTL_STAFF": -999, "BEDS": 30, "TRAUMA": "NOT AVAILABLE", "HELIPAD": "Y" }, "geometry": { "type": "Polygon", "coordinates": [ [ [ -86.875692321550929, 40.34627121679771 ], [ -86.917097711074859, 40.359761819019099 ], [ -86.952054627132839, 40.371937821316294 ], [ -86.9702292018778, 40.416829712310793 ], [ -86.980327107889934, 40.467422901071998 ], [ -86.980327407947911, 40.467541701040709 ], [ -86.980314508844131, 40.469331200565975 ], [ -86.966186930004341, 40.4769836949922 ], [ -86.948489053101966, 40.485340688136269 ], [ -86.868849729844911, 40.522082268740675 ], [ -86.76158245370577, 40.492569336834272 ], [ -86.761485362444276, 40.487818838831956 ], [ -86.761516363881853, 40.487008739185072 ], [ -86.766045881506798, 40.417655269663562 ], [ -86.77617733508319, 40.374111989839577 ], [ -86.807102392294013, 40.352509903734827 ], [ -86.875692321550929, 40.34627121679771 ] ] ] } },
{ "type": "Feature", "properties": { "OBJECTID": 264, "ID": "0001446011", "NAME": "COMMUNITY HOSPITAL OF ANDERSON AND MADISON COUNTY", "ADDRESS": "1515 N MADISON AVE", "CITY": "ANDERSON", "STATE": "IN", "ZIP": "46011", "ZIP4": "NOT AVAILABLE", "TELEPHONE": "(765) 298-4242", "TYPE": "GENERAL ACUTE CARE", "STATUS": "OPEN", "POPULATION": 137, "COUNTY": "MADISON", "COUNTYFIPS": "18095", "COUNTRY": "USA", "LATITUDE": 40.1306455880001, "LONGITUDE": -85.693209183999997, "NAICS_CODE": "622110", "NAICS_DESC": "GENERAL MEDICAL AND SURGICAL HOSPITALS", "SOURCE": "http://www.in.gov/isdh/reports/QAMIS/hosdir", "SOURCEDATE": "2018-08-16T00:00:00.000Z", "VAL_METHOD": "IMAGERY", "VAL_DATE": "2014-03-12T00:00:00.000Z", "WEBSITE": "http://www.communityanderson.com", "STATE_ID": "17-005100-1", "ALT_NAME": "NOT AVAILABLE", "ST_FIPS": "18", "OWNER": "NON-PROFIT", "TTL_STAFF": -999, "BEDS": 137, "TRAUMA": "LEVEL III", "HELIPAD": "Y" }, "geometry": { "type": "Polygon", "coordinates": [ [ [ -85.692169, 40.051123 ], [ -85.7164267, 40.0601212 ], [ -85.787641, 40.134275 ], [ -85.788263, 40.136209 ], [ -85.6905466, 40.208281 ], [ -85.665175, 40.209741 ], [ -85.664775, 40.209541 ], [ -85.632345, 40.171752 ], [ -85.613671, 40.135167 ], [ -85.614547, 40.113585 ], [ -85.6241403, 40.091146300000034 ], [ -85.631217, 40.084044 ], [ -85.632173, 40.08316 ], [ -85.6515855, 40.06628629999998 ], [ -85.692169, 40.051123 ] ] ] } },
{ "type": "Feature", "properties": { "OBJECTID": 841, "ID": "0157046032", "NAME": "FRANCISCAN ST FRANCIS HEALTH - CARMEL", "ADDRESS": "12188 B NORTH MERIDIAN STREET", "CITY": "CARMEL", "STATE": "IN", "ZIP": "46032", "ZIP4": "NOT AVAILABLE", "TELEPHONE": "(317) 705-4500", "TYPE": "GENERAL ACUTE CARE", "STATUS": "OPEN", "POPULATION": 6, "COUNTY": "HAMILTON", "COUNTYFIPS": "18057", "COUNTRY": "USA", "LATITUDE": 39.968032053999998, "LONGITUDE": -86.158707019000005, "NAICS_CODE": "622110", "NAICS_DESC": "GENERAL MEDICAL AND SURGICAL HOSPITALS", "SOURCE": "http://www.in.gov/isdh/reports/QAMIS/hosdir", "SOURCEDATE": "2018-08-16T00:00:00.000Z", "VAL_METHOD": "IMAGERY/OTHER", "VAL_DATE": "2015-03-30T00:00:00.000Z", "WEBSITE": "NOT AVAILABLE", "STATE_ID": "17-012826-1", "ALT_NAME": "NOT AVAILABLE", "ST_FIPS": "18", "OWNER": "NON-PROFIT", "TTL_STAFF": -999, "BEDS": 6, "TRAUMA": "NOT AVAILABLE", "HELIPAD": "N" }, "geometry": { "type": "Polygon", "coordinates": [ [ [ -86.155378399999989, 39.867863300000039 ], [ -86.17735, 39.886465 ], [ -86.203033, 39.90839 ], [ -86.2069144, 39.911819700000017 ], [ -86.2199031, 39.926326 ], [ -86.2322567, 39.940874199999953 ], [ -86.2372463, 39.955375299999986 ], [ -86.2433613, 39.975723299999984 ], [ -86.2419815, 39.978586099999958 ], [ -86.22179, 40.006068 ], [ -86.165504, 40.04559 ], [ -86.1276953, 40.0694928 ], [ -86.0567395, 40.0033217 ], [ -86.053564599999987, 40.0002372 ], [ -86.0723463, 39.956677600000042 ], [ -86.1066072, 39.910926500000045 ], [ -86.1067081, 39.9108072 ], [ -86.155378399999989, 39.867863300000039 ] ] ] } },
{ "type": "Feature", "properties": { "OBJECTID": 842, "ID": "0157146254", "NAME": "ESKENAZI HEALTH", "ADDRESS": "720 ESKENAZI AVENUE", "CITY": "INDIANAPOLIS", "STATE": "IN", "ZIP": "46254", "ZIP4": "NOT AVAILABLE", "TELEPHONE": "(317) 880-4818", "TYPE": "GENERAL ACUTE CARE", "STATUS": "OPEN", "POPULATION": 337, "COUNTY": "MARION", "COUNTYFIPS": "18097", "COUNTRY": "USA", "LATITUDE": 39.777882757999997, "LONGITUDE": -86.183985886000002, "NAICS_CODE": "622110", "NAICS_DESC": "GENERAL MEDICAL AND SURGICAL HOSPITALS", "SOURCE": "http://www.in.gov/isdh/reports/QAMIS/hosdir", "SOURCEDATE": "2018-08-16T00:00:00.000Z", "VAL_METHOD": "IMAGERY/OTHER", "VAL_DATE": "2015-03-30T00:00:00.000Z", "WEBSITE": "NOT AVAILABLE", "STATE_ID": "17-005023-1", "ALT_NAME": "NOT AVAILABLE", "ST_FIPS": "18", "OWNER": "GOVERNMENT - LOCAL", "TTL_STAFF": -999, "BEDS": 337, "TRAUMA": "LEVEL I", "HELIPAD": "Y" }, "geometry": { "type": "Polygon", "coordinates": [ [ [ -86.1869736, 39.692453699999945 ], [ -86.2633971, 39.713347399999961 ], [ -86.307968, 39.778942 ], [ -86.30747, 39.780286 ], [ -86.2928733, 39.8055545 ], [ -86.2569255, 39.84571110000001 ], [ -86.255097, 39.8468246 ], [ -86.200878, 39.86629 ], [ -86.1595126, 39.855338600000017 ], [ -86.1149636, 39.842928499999985 ], [ -86.1091217, 39.840611899999963 ], [ -86.0836656, 39.8273585 ], [ -86.0436303, 39.7980651 ], [ -86.1096966, 39.705707799999978 ], [ -86.1861207, 39.692450599999944 ], [ -86.1867295, 39.6924424 ], [ -86.1869736, 39.692453699999945 ] ] ] } },
{ "type": "Feature", "properties": { "OBJECTID": 973, "ID": "0156546202", "NAME": "INDIANA UNIVERSITY HEALTH", "ADDRESS": "1701 N SENATE BLVD", "CITY": "INDIANAPOLIS", "STATE": "IN", "ZIP": "46202", "ZIP4": "NOT AVAILABLE", "TELEPHONE": "(317) 962-5900", "TYPE": "GENERAL ACUTE CARE", "STATUS": "OPEN", "POPULATION": 1244, "COUNTY": "MARION", "COUNTYFIPS": "18097", "COUNTRY": "USA", "LATITUDE": 39.789801115000003, "LONGITUDE": -86.163100641, "NAICS_CODE": "622110", "NAICS_DESC": "GENERAL MEDICAL AND SURGICAL HOSPITALS", "SOURCE": "http://www.in.gov/isdh/reports/QAMIS/hosdir", "SOURCEDATE": "2018-08-16T00:00:00.000Z", "VAL_METHOD": "IMAGERY/OTHER", "VAL_DATE": "2016-04-27T00:00:00.000Z", "WEBSITE": "http://www.iuhealth.org", "STATE_ID": "17-005051-1", "ALT_NAME": "METHODIST", "ST_FIPS": "18", "OWNER": "NON-PROFIT", "TTL_STAFF": -999, "BEDS": 1244, "TRAUMA": "LEVEL I", "HELIPAD": "Y" }, "geometry": { "type": "Polygon", "coordinates": [ [ [ -86.148921500000014, 39.701397699999987 ], [ -86.1871441, 39.709659499999979 ], [ -86.221071, 39.719569199999988 ], [ -86.2240603, 39.720878100000022 ], [ -86.2803736, 39.7793272 ], [ -86.2855628, 39.804025500000016 ], [ -86.2855254, 39.8041299 ], [ -86.268766, 39.845546399999982 ], [ -86.263908099999981, 39.853572599999978 ], [ -86.207756, 39.880573 ], [ -86.2058738, 39.880534700000013 ], [ -86.099604, 39.86326 ], [ -86.0887919, 39.8581565 ], [ -86.0373607, 39.798705899999966 ], [ -86.080079, 39.743293 ], [ -86.1096966, 39.705707799999978 ], [ -86.1487549, 39.7014007 ], [ -86.148921500000014, 39.701397699999987 ] ] ] } },
{ "type": "Feature", "properties": { "OBJECTID": 7438, "ID": "0156946037", "NAME": "ST VINCENT FISHERS HOSPITAL INC", "ADDRESS": "13861 OLIO ROAD", "CITY": "FISHERS", "STATE": "IN", "ZIP": "46037", "ZIP4": "NOT AVAILABLE", "TELEPHONE": "(317) 415-9000", "TYPE": "GENERAL ACUTE CARE", "STATUS": "OPEN", "POPULATION": 46, "COUNTY": "HAMILTON", "COUNTYFIPS": "18057", "COUNTRY": "USA", "LATITUDE": 39.989336055000102, "LONGITUDE": -85.916601968999899, "NAICS_CODE": "622110", "NAICS_DESC": "GENERAL MEDICAL AND SURGICAL HOSPITALS", "SOURCE": "http://www.in.gov/isdh/reports/QAMIS/hosdir", "SOURCEDATE": "2018-08-16T00:00:00.000Z", "VAL_METHOD": "IMAGERY/OTHER", "VAL_DATE": "2015-03-30T00:00:00.000Z", "WEBSITE": "NOT AVAILABLE", "STATE_ID": "17-013137-1", "ALT_NAME": "NOT AVAILABLE", "ST_FIPS": "18", "OWNER": "NON-PROFIT", "TTL_STAFF": -999, "BEDS": 46, "TRAUMA": "NOT AVAILABLE", "HELIPAD": "Y" }, "geometry": { "type": "Polygon", "coordinates": [ [ [ -86.049676, 39.9005479 ], [ -86.060196, 39.939610500000043 ], [ -86.0602062, 39.9415179 ], [ -86.0445605, 40.000968499999971 ], [ -86.010808, 40.034542 ], [ -85.9957085, 40.04563669999996 ], [ -85.9719, 40.058604 ], [ -85.934848, 40.066276 ], [ -85.900975, 40.066724 ], [ -85.882015, 40.061456 ], [ -85.8625382, 40.045154199999949 ], [ -85.843193, 40.019604 ], [ -85.824312, 39.987778 ], [ -85.8606653, 39.941430899999972 ], [ -85.8642058, 39.9381998 ], [ -85.865337499999981, 39.937289600000078 ], [ -85.91905, 39.898887 ], [ -86.049676, 39.9005479 ] ] ] } },
{ "type": "Feature", "properties": { "OBJECTID": 5118, "ID": "0005647362", "NAME": "HENRY COUNTY MEMORIAL HOSPITAL", "ADDRESS": "1000 N 16TH ST", "CITY": "NEW CASTLE", "STATE": "IN", "ZIP": "47362", "ZIP4": "NOT AVAILABLE", "TELEPHONE": "(765) 521-0890", "TYPE": "GENERAL ACUTE CARE", "STATUS": "OPEN", "POPULATION": 90, "COUNTY": "HENRY", "COUNTYFIPS": "18065", "COUNTRY": "USA", "LATITUDE": 39.943377009000102, "LONGITUDE": -85.362963152999995, "NAICS_CODE": "622110", "NAICS_DESC": "GENERAL MEDICAL AND SURGICAL HOSPITALS", "SOURCE": "http://www.in.gov/isdh/reports/QAMIS/hosdir", "SOURCEDATE": "2018-08-16T00:00:00.000Z", "VAL_METHOD": "IMAGERY", "VAL_DATE": "2014-03-12T00:00:00.000Z", "WEBSITE": "http://www.hcmhcares.org", "STATE_ID": "17-005028-1", "ALT_NAME": "NOT AVAILABLE", "ST_FIPS": "18", "OWNER": "GOVERNMENT - LOCAL", "TTL_STAFF": -999, "BEDS": 90, "TRAUMA": "NOT AVAILABLE", "HELIPAD": "Y" }, "geometry": { "type": "Polygon", "coordinates": [ [ [ -85.4012004, 39.8631365 ], [ -85.4014361, 39.86331 ], [ -85.462526, 39.931805 ], [ -85.462531, 39.936975 ], [ -85.437897, 39.975629 ], [ -85.388133, 40.007535 ], [ -85.384908, 40.009174 ], [ -85.337246, 40.018878 ], [ -85.327708, 40.010744 ], [ -85.2887401, 39.9751044 ], [ -85.277957, 39.962903 ], [ -85.271219, 39.925102 ], [ -85.271224, 39.923918 ], [ -85.271278, 39.917385 ], [ -85.284729, 39.902551 ], [ -85.2998936, 39.887750800000028 ], [ -85.3545604, 39.860448699999949 ], [ -85.4012004, 39.8631365 ] ] ] } },
{ "type": "Feature", "properties": { "OBJECTID": 5119, "ID": "0001846901", "NAME": "COMMUNITY HOWARD SPECIALTY HOSPITAL", "ADDRESS": "829 N DIXON RD", "CITY": "KOKOMO", "STATE": "IN", "ZIP": "46901", "ZIP4": "NOT AVAILABLE", "TELEPHONE": "(765) 452-6700", "TYPE": "REHABILITATION", "STATUS": "OPEN", "POPULATION": 30, "COUNTY": "HOWARD", "COUNTYFIPS": "18067", "COUNTRY": "USA", "LATITUDE": 40.497256422000099, "LONGITUDE": -86.16580401, "NAICS_CODE": "622310", "NAICS_DESC": "REHABILITATION HOSPITALS (EXCEPT ALCOHOLISM, DRUG ADDICTION)", "SOURCE": "http://www.in.gov/isdh/reports/QAMIS/hosdir", "SOURCEDATE": "2018-08-16T00:00:00.000Z", "VAL_METHOD": "IMAGERY", "VAL_DATE": "2014-01-22T00:00:00.000Z", "WEBSITE": "http://www.howardregional.org", "STATE_ID": "17-003868-1", "ALT_NAME": "NOT AVAILABLE", "ST_FIPS": "18", "OWNER": "PROPRIETARY", "TTL_STAFF": -999, "BEDS": 30, "TRAUMA": "NOT AVAILABLE", "HELIPAD": "N" }, "geometry": { "type": "Polygon", "coordinates": [ [ [ -86.165116, 40.403786 ], [ -86.184138, 40.418108 ], [ -86.271315, 40.489428 ], [ -86.261708, 40.504033 ], [ -86.174232, 40.560256 ], [ -86.170167, 40.562598 ], [ -86.1274163, 40.5668286 ], [ -86.1271189, 40.566827599999982 ], [ -86.090686, 40.5349141 ], [ -86.051069, 40.493575 ], [ -86.0633244, 40.477092700000043 ], [ -86.0800541, 40.458752599999976 ], [ -86.146077, 40.409372 ], [ -86.165116, 40.403786 ] ] ] } },
{ "type": "Feature", "properties": { "OBJECTID": 5366, "ID": "0156747905", "NAME": "LAFAYETTE REGIONAL REHABILITATION HOSPITAL", "ADDRESS": "950 PARK EAST BLVD", "CITY": "LAFAYETTE", "STATE": "IN", "ZIP": "47905", "ZIP4": "NOT AVAILABLE", "TELEPHONE": "(765) 447-4040", "TYPE": "REHABILITATION", "STATUS": "OPEN", "POPULATION": 40, "COUNTY": "TIPPECANOE", "COUNTYFIPS": "18157", "COUNTRY": "USA", "LATITUDE": 40.404630950000097, "LONGITUDE": -86.830032685999996, "NAICS_CODE": "622310", "NAICS_DESC": "REHABILITATION HOSPITALS (EXCEPT ALCOHOLISM, DRUG ADDICTION)", "SOURCE": "http://www.in.gov/isdh/reports/QAMIS/hosdir", "SOURCEDATE": "2018-08-16T00:00:00.000Z", "VAL_METHOD": "IMAGERY/OTHER", "VAL_DATE": "2015-03-30T00:00:00.000Z", "WEBSITE": "NOT AVAILABLE", "STATE_ID": "17-012870-1", "ALT_NAME": "NOT AVAILABLE", "ST_FIPS": "18", "OWNER": "PROPRIETARY", "TTL_STAFF": -999, "BEDS": 40, "TRAUMA": "NOT AVAILABLE", "HELIPAD": "N" }, "geometry": { "type": "Polygon", "coordinates": [ [ [ -86.78999516911442, 40.330568909888399 ], [ -86.853918780197603, 40.344136214190236 ], [ -86.861889757904535, 40.345853514807999 ], [ -86.875767418400571, 40.351099515162424 ], [ -86.938203659866474, 40.378791216888381 ], [ -86.933277070624314, 40.460384591658602 ], [ -86.874340127969475, 40.503943265066134 ], [ -86.868514833682568, 40.504020263560029 ], [ -86.862225639856945, 40.504065461924547 ], [ -86.810721498159211, 40.494958648845881 ], [ -86.732831030385483, 40.423554875964022 ], [ -86.73276214021638, 40.418511978500163 ], [ -86.732675252629889, 40.412143781706042 ], [ -86.742761910228467, 40.373123892060633 ], [ -86.783056387974739, 40.330824008790636 ], [ -86.783203787701225, 40.330738808846718 ], [ -86.78999516911442, 40.330568909888399 ] ] ] } },
{ "type": "Feature", "properties": { "OBJECTID": 5396, "ID": "0000000100", "NAME": "IU HEALTH UNIVERSITY HOSPITAL", "ADDRESS": "550 UNIVERSITY BLVD", "CITY": "INDIANAPOLIS", "STATE": "IN", "ZIP": "46202", "ZIP4": "NOT AVAILABLE", "TELEPHONE": "(317) 274-5000", "TYPE": "GENERAL ACUTE CARE", "STATUS": "OPEN", "POPULATION": -999, "COUNTY": "MARION", "COUNTYFIPS": "18097", "COUNTRY": "USA", "LATITUDE": 39.7752833260001, "LONGITUDE": -86.176561614999997, "NAICS_CODE": "622110", "NAICS_DESC": "GENERAL MEDICAL AND SURGICAL HOSPITALS", "SOURCE": "http://www.in.gov/isdh/reports/QAMIS/hosdir", "SOURCEDATE": "2018-08-16T00:00:00.000Z", "VAL_METHOD": "IMAGERY/OTHER", "VAL_DATE": "2015-05-22T00:00:00.000Z", "WEBSITE": "http://iuhealth.org/university/", "STATE_ID": "NOT AVAILABLE", "ALT_NAME": "NOT AVAILABLE", "ST_FIPS": "18", "OWNER": "GOVERNMENT - STATE", "TTL_STAFF": -999, "BEDS": -999, "TRAUMA": "NOT AVAILABLE", "HELIPAD": "Y" }, "geometry": { "type": "Polygon", "coordinates": [ [ [ -86.1866998, 39.6942517 ], [ -86.260035, 39.715522 ], [ -86.278101, 39.744279 ], [ -86.293763, 39.778604 ], [ -86.2937621, 39.77909049999996 ], [ -86.2937108, 39.779207 ], [ -86.250935, 39.83859 ], [ -86.247207, 39.841124900000025 ], [ -86.198723, 39.86182 ], [ -86.1609995, 39.854080199999949 ], [ -86.116107, 39.841651 ], [ -86.1125477, 39.84057030000001 ], [ -86.0837318, 39.824533500000022 ], [ -86.0540956, 39.804588100000011 ], [ -86.0467561, 39.798562899999972 ], [ -86.076811, 39.741582 ], [ -86.1019073, 39.704061400000036 ], [ -86.1069689, 39.698335900000025 ], [ -86.1866998, 39.6942517 ] ] ] } },
{ "type": "Feature", "properties": { "OBJECTID": 5398, "ID": "0000000102", "NAME": "RILEY HOSPITAL FOR CHILDREN", "ADDRESS": "705 RILEY HOSPITAL DR", "CITY": "INDIANAPOLIS", "STATE": "IN", "ZIP": "46202", "ZIP4": "NOT AVAILABLE", "TELEPHONE": "(317) 944-5000", "TYPE": "CHILDREN", "STATUS": "OPEN", "POPULATION": -999, "COUNTY": "MARION", "COUNTYFIPS": "18097", "COUNTRY": "USA", "LATITUDE": 39.777107743000002, "LONGITUDE": -86.180276462999998, "NAICS_CODE": "622310", "NAICS_DESC": "CHILDREN'S HOSPITALS, SPECIALTY (EXCEPT PSYCHIATRIC, SUBSTANCE ABUSE)", "SOURCE": "http://www.in.gov/isdh/reports/QAMIS/hosdir", "SOURCEDATE": "2018-08-16T00:00:00.000Z", "VAL_METHOD": "IMAGERY/OTHER", "VAL_DATE": "2015-05-22T00:00:00.000Z", "WEBSITE": "http://iuhealth.org/riley/", "STATE_ID": "NOT AVAILABLE", "ALT_NAME": "NOT AVAILABLE", "ST_FIPS": "18", "OWNER": "NOT AVAILABLE", "TTL_STAFF": -999, "BEDS": -999, "TRAUMA": "LEVEL I PEDIATRIC", "HELIPAD": "Y" }, "geometry": { "type": "Polygon", "coordinates": [ [ [ -86.1868316, 39.701961 ], [ -86.2259001, 39.713946299999975 ], [ -86.2585825, 39.729923200000016 ], [ -86.275216, 39.745162 ], [ -86.300727, 39.777399 ], [ -86.3019864, 39.779027700000036 ], [ -86.2855254, 39.8041299 ], [ -86.2562159, 39.845729299999981 ], [ -86.201434, 39.866506 ], [ -86.112324, 39.845879 ], [ -86.0836807, 39.829394600000043 ], [ -86.0401496, 39.798183600000037 ], [ -86.1096966, 39.705707799999978 ], [ -86.1487718, 39.702496499999988 ], [ -86.1868316, 39.701961 ] ] ] } },
{ "type": "Feature", "properties": { "OBJECTID": 5475, "ID": "0013746904", "NAME": "ST JOSEPH HOSPITAL & HEALTH CENTER INC", "ADDRESS": "1907 W SYCAMORE ST", "CITY": "KOKOMO", "STATE": "IN", "ZIP": "46904", "ZIP4": "NOT AVAILABLE", "TELEPHONE": "(765) 452-5611", "TYPE": "GENERAL ACUTE CARE", "STATUS": "OPEN", "POPULATION": 138, "COUNTY": "HOWARD", "COUNTYFIPS": "18067", "COUNTRY": "USA", "LATITUDE": 40.4860802050001, "LONGITUDE": -86.156694771000005, "NAICS_CODE": "622110", "NAICS_DESC": "GENERAL MEDICAL AND SURGICAL HOSPITALS", "SOURCE": "http://www.in.gov/isdh/reports/QAMIS/hosdir", "SOURCEDATE": "2018-08-16T00:00:00.000Z", "VAL_METHOD": "IMAGERY", "VAL_DATE": "2014-03-12T00:00:00.000Z", "WEBSITE": "http://www.stvincent.org/St-Joseph/", "STATE_ID": "17-005010-1", "ALT_NAME": "NOT AVAILABLE", "ST_FIPS": "18", "OWNER": "NON-PROFIT", "TTL_STAFF": -999, "BEDS": 138, "TRAUMA": "NOT AVAILABLE", "HELIPAD": "Y" }, "geometry": { "type": "Polygon", "coordinates": [ [ [ -86.165116, 40.403786 ], [ -86.285599, 40.489283 ], [ -86.169594, 40.553315 ], [ -86.1274299, 40.5630723 ], [ -86.1271662, 40.563072 ], [ -86.090629, 40.542123 ], [ -86.031983, 40.494455 ], [ -86.041383, 40.477298 ], [ -86.0699896, 40.4485567 ], [ -86.117631, 40.418995100000046 ], [ -86.146072, 40.402661 ], [ -86.165116, 40.403786 ] ] ] } },
{ "type": "Feature", "properties": { "OBJECTID": 5539, "ID": "0156446250", "NAME": "COMMUNITY HEALTH NETWORK REHABILITATION HOSPITAL", "ADDRESS": "7343 CLEARVISTA DRIVE", "CITY": "INDIANAPOLIS", "STATE": "IN", "ZIP": "46250", "ZIP4": "NOT AVAILABLE", "TELEPHONE": "(317) 585-5000", "TYPE": "REHABILITATION", "STATUS": "OPEN", "POPULATION": 60, "COUNTY": "MARION", "COUNTYFIPS": "18097", "COUNTRY": "USA", "LATITUDE": 39.898920937000099, "LONGITUDE": -86.037910707999998, "NAICS_CODE": "622310", "NAICS_DESC": "REHABILITATION HOSPITALS (EXCEPT ALCOHOLISM, DRUG ADDICTION)", "SOURCE": "http://www.in.gov/isdh/reports/QAMIS/hosdir", "SOURCEDATE": "2018-08-16T00:00:00.000Z", "VAL_METHOD": "IMAGERY/OTHER", "VAL_DATE": "2016-04-26T00:00:00.000Z", "WEBSITE": "NOT AVAILABLE", "STATE_ID": "17-012908-1", "ALT_NAME": "NOT AVAILABLE", "ST_FIPS": "18", "OWNER": "PROPRIETARY", "TTL_STAFF": -999, "BEDS": 60, "TRAUMA": "NOT AVAILABLE", "HELIPAD": "N" }, "geometry": { "type": "Polygon", "coordinates": [ [ [ -86.0311883, 39.818088 ], [ -86.1217993, 39.8349962 ], [ -86.1515744, 39.930669 ], [ -86.0066294, 40.000841800000025 ], [ -86.0017426, 40.0012756 ], [ -85.9658365, 39.957433500000036 ], [ -85.9468013, 39.899946300000025 ], [ -85.94422, 39.891371 ], [ -85.963734, 39.874883 ], [ -86.0311883, 39.818088 ] ] ] } },
{ "type": "Feature", "properties": { "OBJECTID": 3053, "ID": "0001246219", "NAME": "COMMUNITY HOSPITAL EAST", "ADDRESS": "1500 N RITTER AVE", "CITY": "INDIANAPOLIS", "STATE": "IN", "ZIP": "46219", "ZIP4": "NOT AVAILABLE", "TELEPHONE": "(317) 355-5411", "TYPE": "GENERAL ACUTE CARE", "STATUS": "OPEN", "POPULATION": 335, "COUNTY": "MARION", "COUNTYFIPS": "18097", "COUNTRY": "USA", "LATITUDE": 39.787313719000103, "LONGITUDE": -86.075498183999997, "NAICS_CODE": "622110", "NAICS_DESC": "GENERAL MEDICAL AND SURGICAL HOSPITALS", "SOURCE": "http://www.in.gov/isdh/reports/QAMIS/hosdir", "SOURCEDATE": "2018-08-16T00:00:00.000Z", "VAL_METHOD": "IMAGERY", "VAL_DATE": "2014-01-22T00:00:00.000Z", "WEBSITE": "http://www.ecommunity.com/east/", "STATE_ID": "17-005068-1", "ALT_NAME": "NOT AVAILABLE", "ST_FIPS": "18", "OWNER": "PROPRIETARY", "TTL_STAFF": -999, "BEDS": 335, "TRAUMA": "NOT AVAILABLE", "HELIPAD": "N" }, "geometry": { "type": "Polygon", "coordinates": [ [ [ -86.0823851, 39.698198100000042 ], [ -86.082549500000013, 39.6982278 ], [ -86.1377625, 39.737654399999975 ], [ -86.1856648, 39.7790637 ], [ -86.182676, 39.788678 ], [ -86.1670015, 39.81011860000006 ], [ -86.111213, 39.862349 ], [ -86.096087, 39.870431 ], [ -86.0800093, 39.87267509999996 ], [ -86.047021900000018, 39.867136700000025 ], [ -86.0020196, 39.848420699999977 ], [ -85.9646101, 39.7972655 ], [ -85.989663, 39.74192 ], [ -86.010857, 39.717504699999985 ], [ -86.0823851, 39.698198100000042 ] ] ] } },
{ "type": "Feature", "properties": { "OBJECTID": 3054, "ID": "0005946278", "NAME": "ORTHOINDY HOSPITAL", "ADDRESS": "8400 NORTHWEST BLVD", "CITY": "INDIANAPOLIS", "STATE": "IN", "ZIP": "46278", "ZIP4": "NOT AVAILABLE", "TELEPHONE": "(317) 956-1000", "TYPE": "SPECIAL", "STATUS": "OPEN", "POPULATION": 38, "COUNTY": "MARION", "COUNTYFIPS": "18097", "COUNTRY": "USA", "LATITUDE": 39.907695425, "LONGITUDE": -86.267216495, "NAICS_CODE": "622110", "NAICS_DESC": "GENERAL MEDICAL AND SURGICAL HOSPITALS", "SOURCE": "http://www.in.gov/isdh/reports/QAMIS/hosdir", "SOURCEDATE": "2018-08-16T00:00:00.000Z", "VAL_METHOD": "IMAGERY", "VAL_DATE": "2014-02-10T00:00:00.000Z", "WEBSITE": "http://www.orthoindy.com", "STATE_ID": "17-003930-1", "ALT_NAME": "NOT AVAILABLE", "ST_FIPS": "18", "OWNER": "PROPRIETARY", "TTL_STAFF": -999, "BEDS": 38, "TRAUMA": "NOT AVAILABLE", "HELIPAD": "N" }, "geometry": { "type": "Polygon", "coordinates": [ [ [ -86.2759113, 39.801276300000062 ], [ -86.2978024, 39.822914800000014 ], [ -86.338565, 39.892098 ], [ -86.339434, 39.897859 ], [ -86.328697, 39.927375099999985 ], [ -86.3167209, 39.949640700000032 ], [ -86.294277, 39.96483990000003 ], [ -86.2838477, 39.971218800000024 ], [ -86.2547553, 39.985073699999951 ], [ -86.232890499999982, 39.971648800000018 ], [ -86.1548879, 39.919721799999962 ], [ -86.1458465, 39.912608899999945 ], [ -86.1458422, 39.9125033 ], [ -86.192943, 39.849927 ], [ -86.2254316, 39.823836700000037 ], [ -86.2759113, 39.801276300000062 ] ] ] } },
{ "type": "Feature", "properties": { "OBJECTID": 3134, "ID": "0014446041", "NAME": "ST VINCENT FRANKFORT HOSPITAL INC", "ADDRESS": "1300 S JACKSON ST", "CITY": "FRANKFORT", "STATE": "IN", "ZIP": "46041", "ZIP4": "NOT AVAILABLE", "TELEPHONE": "(765) 656-3000", "TYPE": "CRITICAL ACCESS", "STATUS": "OPEN", "POPULATION": 25, "COUNTY": "CLINTON", "COUNTYFIPS": "18023", "COUNTRY": "USA", "LATITUDE": 40.269550646, "LONGITUDE": -86.511280709999895, "NAICS_CODE": "622110", "NAICS_DESC": "GENERAL MEDICAL AND SURGICAL HOSPITALS", "SOURCE": "http://www.in.gov/isdh/reports/QAMIS/hosdir", "SOURCEDATE": "2018-08-16T00:00:00.000Z", "VAL_METHOD": "IMAGERY", "VAL_DATE": "2014-03-12T00:00:00.000Z", "WEBSITE": "http://www.stvincent.org", "STATE_ID": "17-005039-1", "ALT_NAME": "NOT AVAILABLE", "ST_FIPS": "18", "OWNER": "NON-PROFIT", "TTL_STAFF": -999, "BEDS": 25, "TRAUMA": "NOT AVAILABLE", "HELIPAD": "Y" }, "geometry": { "type": "Polygon", "coordinates": [ [ [ -86.505361, 40.191889 ], [ -86.5245473, 40.20287279999998 ], [ -86.619044409602154, 40.272565489818341 ], [ -86.619173508899465, 40.272831889425596 ], [ -86.613933491942674, 40.28683778326031 ], [ -86.611420890012994, 40.290185183181165 ], [ -86.567077, 40.344198899999981 ], [ -86.515166, 40.347493899999954 ], [ -86.5057988, 40.347592800000015 ], [ -86.430891, 40.330013 ], [ -86.4062099, 40.3227479 ], [ -86.4132512, 40.2645715 ], [ -86.4506548, 40.218047199999965 ], [ -86.467823, 40.206018 ], [ -86.488903800000017, 40.191820799999981 ], [ -86.505361, 40.191889 ] ] ] } },
{ "type": "Feature", "properties": { "OBJECTID": 3148, "ID": "0014946036", "NAME": "ST VINCENT MERCY HOSPITAL", "ADDRESS": "1331 S A ST", "CITY": "ELWOOD", "STATE": "IN", "ZIP": "46036", "ZIP4": "NOT AVAILABLE", "TELEPHONE": "(765) 552-4594", "TYPE": "CRITICAL ACCESS", "STATUS": "OPEN", "POPULATION": 25, "COUNTY": "MADISON", "COUNTYFIPS": "18095", "COUNTRY": "USA", "LATITUDE": 40.276365129000098, "LONGITUDE": -85.842215754999998, "NAICS_CODE": "622110", "NAICS_DESC": "GENERAL MEDICAL AND SURGICAL HOSPITALS", "SOURCE": "http://www.in.gov/isdh/reports/QAMIS/hosdir", "SOURCEDATE": "2018-08-16T00:00:00.000Z", "VAL_METHOD": "IMAGERY", "VAL_DATE": "2014-02-10T00:00:00.000Z", "WEBSITE": "http://www.stvincent.org", "STATE_ID": "17-005083-1", "ALT_NAME": "NOT AVAILABLE", "ST_FIPS": "18", "OWNER": "NON-PROFIT", "TTL_STAFF": -999, "BEDS": 25, "TRAUMA": "NOT AVAILABLE", "HELIPAD": "N" }, "geometry": { "type": "Polygon", "coordinates": [ [ [ -85.843499, 40.192501 ], [ -85.862618, 40.201141 ], [ -85.9005075, 40.225955099999958 ], [ -85.9665061, 40.28338530000002 ], [ -85.9570304, 40.290567200000027 ], [ -85.84319, 40.371267 ], [ -85.785893, 40.342614 ], [ -85.747052, 40.306265 ], [ -85.719535, 40.278372 ], [ -85.7246286, 40.2711314 ], [ -85.725494, 40.270181 ], [ -85.7282367, 40.26796589999995 ], [ -85.8143981, 40.2112083 ], [ -85.843499, 40.192501 ] ] ] } },
{ "type": "Feature", "properties": { "OBJECTID": 3712, "ID": "0003546947", "NAME": "FOUR COUNTY COUNSELING CENTER", "ADDRESS": "1015 MICHIGAN AVE", "CITY": "LOGANSPORT", "STATE": "IN", "ZIP": "46947", "ZIP4": "NOT AVAILABLE", "TELEPHONE": "(574) 722-5151", "TYPE": "PSYCHIATRIC", "STATUS": "OPEN", "POPULATION": 15, "COUNTY": "CASS", "COUNTYFIPS": "18017", "COUNTRY": "USA", "LATITUDE": 40.763290379000097, "LONGITUDE": -86.362468225000001, "NAICS_CODE": "622210", "NAICS_DESC": "PSYCHIATRIC AND SUBSTANCE ABUSE HOSPITALS", "SOURCE": "http://www.in.gov/isdh/reports/QAMIS/hosdir", "SOURCEDATE": "2018-08-16T00:00:00.000Z", "VAL_METHOD": "IMAGERY", "VAL_DATE": "2014-03-12T00:00:00.000Z", "WEBSITE": "http://www.fourcounty.org", "STATE_ID": "42-7-1-PI-P", "ALT_NAME": "NOT AVAILABLE", "ST_FIPS": "18", "OWNER": "GOVERNMENT - LOCAL", "TTL_STAFF": -999, "BEDS": 15, "TRAUMA": "NOT AVAILABLE", "HELIPAD": "Y" }, "geometry": { "type": "Polygon", "coordinates": [ [ [ -86.391627, 40.663327 ], [ -86.4559896, 40.706558100000038 ], [ -86.47224, 40.761871 ], [ -86.443853, 40.808077 ], [ -86.309671, 40.869061 ], [ -86.265817, 40.77019 ], [ -86.278807, 40.716144 ], [ -86.391627, 40.663327 ] ] ] } },
{ "type": "Feature", "properties": { "OBJECTID": 3713, "ID": "0009246947", "NAME": "MEMORIAL HOSPITAL", "ADDRESS": "1101 MICHIGAN AVE", "CITY": "LOGANSPORT", "STATE": "IN", "ZIP": "46947", "ZIP4": "NOT AVAILABLE", "TELEPHONE": "(574) 753-7541", "TYPE": "GENERAL ACUTE CARE", "STATUS": "OPEN", "POPULATION": 83, "COUNTY": "CASS", "COUNTYFIPS": "18017", "COUNTRY": "USA", "LATITUDE": 40.763478766, "LONGITUDE": -86.3620203199999, "NAICS_CODE": "622110", "NAICS_DESC": "GENERAL MEDICAL AND SURGICAL HOSPITALS", "SOURCE": "http://www.in.gov/isdh/reports/QAMIS/hosdir", "SOURCEDATE": "2018-08-16T00:00:00.000Z", "VAL_METHOD": "IMAGERY/OTHER", "VAL_DATE": "2014-03-12T00:00:00.000Z", "WEBSITE": "http://www.logansportmemorial.org", "STATE_ID": "17-005066-1", "ALT_NAME": "NOT AVAILABLE", "ST_FIPS": "18", "OWNER": "GOVERNMENT - LOCAL", "TTL_STAFF": -999, "BEDS": 83, "TRAUMA": "NOT AVAILABLE", "HELIPAD": "Y" }, "geometry": { "type": "Polygon", "coordinates": [ [ [ -86.391627, 40.663327 ], [ -86.4559896, 40.706558100000038 ], [ -86.47224, 40.761871 ], [ -86.443853, 40.808077 ], [ -86.309671, 40.869061 ], [ -86.266955, 40.769784 ], [ -86.26871, 40.759865 ], [ -86.278807, 40.716144 ], [ -86.391627, 40.663327 ] ] ] } },
{ "type": "Feature", "properties": { "OBJECTID": 3740, "ID": "0002746970", "NAME": "DUKES MEMORIAL HOSPITAL", "ADDRESS": "275 W 12TH ST", "CITY": "PERU", "STATE": "IN", "ZIP": "46970", "ZIP4": "NOT AVAILABLE", "TELEPHONE": "(765) 472-8000", "TYPE": "CRITICAL ACCESS", "STATUS": "OPEN", "POPULATION": 25, "COUNTY": "MIAMI", "COUNTYFIPS": "18103", "COUNTRY": "USA", "LATITUDE": 40.756646283000102, "LONGITUDE": -86.082403798000001, "NAICS_CODE": "622110", "NAICS_DESC": "GENERAL MEDICAL AND SURGICAL HOSPITALS", "SOURCE": "http://www.in.gov/isdh/reports/QAMIS/hosdir", "SOURCEDATE": "2018-08-16T00:00:00.000Z", "VAL_METHOD": "IMAGERY", "VAL_DATE": "2014-01-23T00:00:00.000Z", "WEBSITE": "http://www.dukesmemorialhosp.com", "STATE_ID": "17-005062-1", "ALT_NAME": "NOT AVAILABLE", "ST_FIPS": "18", "OWNER": "PROPRIETARY", "TTL_STAFF": -999, "BEDS": 25, "TRAUMA": "NOT AVAILABLE", "HELIPAD": "Y" }, "geometry": { "type": "Polygon", "coordinates": [ [ [ -86.1278604, 40.677103299999963 ], [ -86.1281553, 40.677132800000024 ], [ -86.1286027, 40.67719460000005 ], [ -86.192876, 40.757607 ], [ -86.190971, 40.764391 ], [ -86.1292911, 40.829343 ], [ -86.034404, 40.844456 ], [ -85.970776, 40.808549 ], [ -85.964277, 40.769536 ], [ -85.964266, 40.766899 ], [ -86.008675, 40.693131 ], [ -86.024235, 40.685637 ], [ -86.110886, 40.6781 ], [ -86.1278604, 40.677103299999963 ] ] ] } },
{ "type": "Feature", "properties": { "OBJECTID": 3757, "ID": "0006147905", "NAME": "INDIANA UNIVERSITY HEALTH ARNETT HOSPITAL", "ADDRESS": "5165 MCCARTY LN", "CITY": "LAFAYETTE", "STATE": "IN", "ZIP": "47905", "ZIP4": "NOT AVAILABLE", "TELEPHONE": "(765) 448-8000", "TYPE": "GENERAL ACUTE CARE", "STATUS": "OPEN", "POPULATION": 191, "COUNTY": "TIPPECANOE", "COUNTYFIPS": "18157", "COUNTRY": "USA", "LATITUDE": 40.400530441999997, "LONGITUDE": -86.806373218999994, "NAICS_CODE": "622110", "NAICS_DESC": "GENERAL MEDICAL AND SURGICAL HOSPITALS", "SOURCE": "http://www.in.gov/isdh/reports/QAMIS/hosdir", "SOURCEDATE": "2018-08-16T00:00:00.000Z", "VAL_METHOD": "IMAGERY", "VAL_DATE": "2014-03-12T00:00:00.000Z", "WEBSITE": "http://www.iuhealth.org", "STATE_ID": "17-011506-1", "ALT_NAME": "NOT AVAILABLE", "ST_FIPS": "18", "OWNER": "NON-PROFIT", "TTL_STAFF": -999, "BEDS": 191, "TRAUMA": "LEVEL III", "HELIPAD": "Y" }, "geometry": { "type": "Polygon", "coordinates": [ [ [ -86.78999516911442, 40.330568909888399 ], [ -86.818722880351785, 40.337982611157614 ], [ -86.85827756395885, 40.35011341274172 ], [ -86.91882170253011, 40.386976410890099 ], [ -86.916047002326295, 40.420455899958 ], [ -86.91216170195969, 40.45323548884717 ], [ -86.912138601952648, 40.453416388784937 ], [ -86.868830431858413, 40.511812865840199 ], [ -86.868627932054693, 40.511815965790667 ], [ -86.810721498159211, 40.494958648845881 ], [ -86.733092385319978, 40.44671896437989 ], [ -86.694646309425622, 40.417650906776537 ], [ -86.783056387974739, 40.330824008790636 ], [ -86.783203787701225, 40.330738808846718 ], [ -86.78999516911442, 40.330568909888399 ] ] ] } },
{ "type": "Feature", "properties": { "OBJECTID": 3763, "ID": "0006846032", "NAME": "INDIANA UNIVERSITY HEALTH NORTH HOSPITAL", "ADDRESS": "11700 N MERIDIAN ST", "CITY": "CARMEL", "STATE": "IN", "ZIP": "46032", "ZIP4": "NOT AVAILABLE", "TELEPHONE": "(317) 688-2000", "TYPE": "GENERAL ACUTE CARE", "STATUS": "OPEN", "POPULATION": 149, "COUNTY": "HAMILTON", "COUNTYFIPS": "18057", "COUNTRY": "USA", "LATITUDE": 39.959344477999998, "LONGITUDE": -86.159655666999996, "NAICS_CODE": "622110", "NAICS_DESC": "GENERAL MEDICAL AND SURGICAL HOSPITALS", "SOURCE": "http://www.in.gov/isdh/reports/QAMIS/hosdir", "SOURCEDATE": "2018-08-16T00:00:00.000Z", "VAL_METHOD": "IMAGERY", "VAL_DATE": "2014-02-10T00:00:00.000Z", "WEBSITE": "http://www.iuhealth.org", "STATE_ID": "17-004171-1", "ALT_NAME": "NOT AVAILABLE", "ST_FIPS": "18", "OWNER": "NON-PROFIT", "TTL_STAFF": -999, "BEDS": 149, "TRAUMA": "NOT AVAILABLE", "HELIPAD": "Y" }, "geometry": { "type": "Polygon", "coordinates": [ [ [ -86.157138, 39.852272 ], [ -86.1624856, 39.8529933 ], [ -86.2308664, 39.9115101 ], [ -86.247696, 39.939952099999971 ], [ -86.2476922, 39.941529399999986 ], [ -86.2446824, 39.962553200000031 ], [ -86.202899, 40.006285 ], [ -86.164962, 40.031943 ], [ -86.1466029, 40.043799899999982 ], [ -86.135107, 40.047753299999989 ], [ -86.129896, 40.047172 ], [ -86.125003, 40.044932 ], [ -86.121332, 40.042818 ], [ -86.0705546, 40.0014757 ], [ -86.0668754, 39.9566524 ], [ -86.0874242, 39.905333500000019 ], [ -86.157138, 39.852272 ] ] ] } },
{ "type": "Feature", "properties": { "OBJECTID": 3768, "ID": "0004246237", "NAME": "FRANCISCAN ST FRANCIS HEALTH - INDIANAPOLIS", "ADDRESS": "8111 S EMERSON AVE", "CITY": "INDIANAPOLIS", "STATE": "IN", "ZIP": "46237", "ZIP4": "NOT AVAILABLE", "TELEPHONE": "(317) 865-5001", "TYPE": "GENERAL ACUTE CARE", "STATUS": "OPEN", "POPULATION": 485, "COUNTY": "MARION", "COUNTYFIPS": "18097", "COUNTRY": "USA", "LATITUDE": 39.6487177590001, "LONGITUDE": -86.079467628000003, "NAICS_CODE": "622110", "NAICS_DESC": "GENERAL MEDICAL AND SURGICAL HOSPITALS", "SOURCE": "http://www.in.gov/isdh/reports/QAMIS/hosdir", "SOURCEDATE": "2018-08-16T00:00:00.000Z", "VAL_METHOD": "IMAGERY", "VAL_DATE": "2014-02-10T00:00:00.000Z", "WEBSITE": "http://www.stfrancishospitals.org", "STATE_ID": "17-004972-1", "ALT_NAME": "NOT AVAILABLE", "ST_FIPS": "18", "OWNER": "NON-PROFIT", "TTL_STAFF": -999, "BEDS": 485, "TRAUMA": "NOT AVAILABLE", "HELIPAD": "Y" }, "geometry": { "type": "Polygon", "coordinates": [ [ [ -86.035369210659098, 39.543229331565335 ], [ -86.048851124296974, 39.546432831208733 ], [ -86.0592914, 39.549981 ], [ -86.060198, 39.550462300000035 ], [ -86.1207903, 39.588327199999966 ], [ -86.1584201, 39.613188 ], [ -86.1655022, 39.620322499999951 ], [ -86.1917798, 39.649065700000023 ], [ -86.1851937, 39.6969026 ], [ -86.1436233, 39.7554309 ], [ -86.0828247, 39.74934530000003 ], [ -86.038419, 39.744673499999962 ], [ -85.9948477, 39.667313 ], [ -85.990209, 39.645391 ], [ -85.9901814, 39.637797099999979 ], [ -86.025984, 39.550912 ], [ -86.035369210659098, 39.543229331565335 ] ] ] } },
{ "type": "Feature", "properties": { "OBJECTID": 3769, "ID": "0008046222", "NAME": "KINDRED HOSPITAL INDIANAPOLIS", "ADDRESS": "1700 W 10TH ST", "CITY": "INDIANAPOLIS", "STATE": "IN", "ZIP": "46222", "ZIP4": "NOT AVAILABLE", "TELEPHONE": "(317) 636-4400", "TYPE": "LONG TERM CARE", "STATUS": "OPEN", "POPULATION": 59, "COUNTY": "MARION", "COUNTYFIPS": "18097", "COUNTRY": "USA", "LATITUDE": 39.781501851000002, "LONGITUDE": -86.191449165999998, "NAICS_CODE": "622110", "NAICS_DESC": "GENERAL MEDICAL AND SURGICAL HOSPITALS", "SOURCE": "http://www.in.gov/isdh/reports/QAMIS/hosdir", "SOURCEDATE": "2018-08-16T00:00:00.000Z", "VAL_METHOD": "IMAGERY", "VAL_DATE": "2014-02-10T00:00:00.000Z", "WEBSITE": "http://www.kindredhospitalindy.com/", "STATE_ID": "17-006106-1", "ALT_NAME": "NOT AVAILABLE", "ST_FIPS": "18", "OWNER": "PROPRIETARY", "TTL_STAFF": -999, "BEDS": 59, "TRAUMA": "NOT AVAILABLE", "HELIPAD": "N" }, "geometry": { "type": "Polygon", "coordinates": [ [ [ -86.187316, 39.690407 ], [ -86.2647956, 39.7123532 ], [ -86.2888815, 39.7409394 ], [ -86.319426, 39.778767 ], [ -86.319431, 39.779357 ], [ -86.302351, 39.808538 ], [ -86.2654947, 39.8529611 ], [ -86.263908099999981, 39.853572599999978 ], [ -86.198723, 39.86182 ], [ -86.1624856, 39.8529933 ], [ -86.117336, 39.840247800000036 ], [ -86.0836585, 39.822045100000025 ], [ -86.0540956, 39.804588100000011 ], [ -86.0511106, 39.801587199999979 ], [ -86.1096779, 39.708139400000022 ], [ -86.187316, 39.690407 ] ] ] } }
]
}
