{
"type": "FeatureCollection",
"crs": { "type": "name", "properties": { "name": "urn:ogc:def:crs:OGC:1.3:CRS84" } },
"features": [
{ "type": "Feature", "properties": { "OBJECTID": 1046, "ID": "0151453097", "NAME": "COLUMBIA ST MARYS HOSPITAL OZAUKEE", "ADDRESS": "13111 N PORT WASHINGTON RD", "CITY": "MEQUON", "STATE": "WI", "ZIP": "53097", "ZIP4": "NOT AVAILABLE", "TELEPHONE": "(262) 243-7300", "TYPE": "GENERAL ACUTE CARE", "STATUS": "OPEN", "POPULATION": 182, "COUNTY": "OZAUKEE", "COUNTYFIPS": "55089", "COUNTRY": "USA", "LATITUDE": 43.255979392, "LONGITUDE": -87.926216564999905, "NAICS_CODE": "622110", "NAICS_DESC": "GENERAL MEDICAL AND SURGICAL HOSPITALS", "SOURCE": "https://www.dhs.wisconsin.gov/guide/hospital.htm", "SOURCEDATE": "2018-08-13T00:00:00.000Z", "VAL_METHOD": "IMAGERY/OTHER", "VAL_DATE": "2015-03-27T00:00:00.000Z", "WEBSITE": "NOT AVAILABLE", "STATE_ID": "NOT AVAILABLE", "ALT_NAME": "NOT AVAILABLE", "ST_FIPS": "55", "OWNER": "NON-PROFIT", "TTL_STAFF": -999, "BEDS": 182, "TRAUMA": "NOT AVAILABLE", "HELIPAD": "Y" }, "geometry": { "type": "Polygon", "coordinates": [ [ [ -87.9159797, 43.1733916 ], [ -87.9249701, 43.175366 ], [ -87.92866, 43.176955799999973 ], [ -88.0056953, 43.214126799999988 ], [ -88.0334288, 43.235986499999974 ], [ -88.0433469, 43.250380599999986 ], [ -88.0041361, 43.287814 ], [ -87.9146116, 43.3531414 ], [ -87.9139572, 43.353001 ], [ -87.9131355, 43.352804499999969 ], [ -87.8895984, 43.32047720000002 ], [ -87.8983617, 43.199029500000023 ], [ -87.910796, 43.1767372 ], [ -87.9159797, 43.1733916 ] ] ] } },
{ "type": "Feature", "properties": { "OBJECTID": 1058, "ID": "0150953228", "NAME": "POST ACUTE MEDICAL SPECIALTY HOSPITAL OF MILWAUKEE", "ADDRESS": "5017 S 110TH ST", "CITY": "GREENFIELD", "STATE": "WI", "ZIP": "53228", "ZIP4": "NOT AVAILABLE", "TELEPHONE": "(414) 427-8282", "TYPE": "LONG TERM CARE", "STATUS": "OPEN", "POPULATION": 62, "COUNTY": "MILWAUKEE", "COUNTYFIPS": "55079", "COUNTRY": "USA", "LATITUDE": 42.953672460000099, "LONGITUDE": -88.050969862000002, "NAICS_CODE": "622310", "NAICS_DESC": "SPECIALTY (EXCEPT PSYCHIATRIC AND SUBSTANCE ABUSE) HOSPITALS", "SOURCE": "https://www.dhs.wisconsin.gov/guide/hospital.htm", "SOURCEDATE": "2018-08-13T00:00:00.000Z", "VAL_METHOD": "IMAGERY/OTHER", "VAL_DATE": "2015-03-27T00:00:00.000Z", "WEBSITE": "http://www.warmsprings.org/our-facilities/hospitals/post-acute-medical-specialty-hospital-milwaukee/", "STATE_ID": "274", "ALT_NAME": "NOT AVAILABLE", "ST_FIPS": "55", "OWNER": "NOT AVAILABLE", "TTL_STAFF": -999, "BEDS": 62, "TRAUMA": "NOT AVAILABLE", "HELIPAD": "N" }, "geometry": { "type": "Polygon", "coordinates": [ [ [ -88.0547112, 42.867561500000036 ], [ -88.0618051, 42.868977799999946 ], [ -88.1600157, 42.912620900000022 ], [ -88.164411, 42.916257 ], [ -88.1652072, 42.921807900000012 ], [ -88.1654438, 42.9500913 ], [ -88.158171, 42.959164 ], [ -88.0531649, 43.060262499999965 ], [ -88.047587, 43.0638306 ], [ -88.0089174, 43.0489771 ], [ -87.9787405, 43.0315302 ], [ -87.9142036, 42.987034399999963 ], [ -87.8991175, 42.9737886 ], [ -87.8991242, 42.97368920000001 ], [ -87.909080799999984, 42.9591149 ], [ -87.9354991, 42.930811400000032 ], [ -88.0101622, 42.872593499999958 ], [ -88.0151961, 42.8706107 ], [ -88.0547112, 42.867561500000036 ] ] ] } },
{ "type": "Feature", "properties": { "OBJECTID": 1075, "ID": "0012253578", "NAME": "SAUK PRAIRIE MEM HSPTL", "ADDRESS": "80 FIRST ST", "CITY": "PRAIRIE DU SAC", "STATE": "WI", "ZIP": "53578", "ZIP4": "NOT AVAILABLE", "TELEPHONE": "(608) 643-3311", "TYPE": "GENERAL ACUTE CARE", "STATUS": "CLOSED", "POPULATION": 36, "COUNTY": "SAUK", "COUNTYFIPS": "55111", "COUNTRY": "USA", "LATITUDE": 43.282853976000098, "LONGITUDE": -89.720064545, "NAICS_CODE": "622110", "NAICS_DESC": "GENERAL MEDICAL AND SURGICAL HOSPITALS", "SOURCE": "http://www.dhs.wisconsin.gov/bqaconsumer/healthcare/HospitalCty.pdf", "SOURCEDATE": "2013-07-10T00:00:00.000Z", "VAL_METHOD": "IMAGERY", "VAL_DATE": "2014-02-10T00:00:00.000Z", "WEBSITE": "http://www.spmh.org", "STATE_ID": "122", "ALT_NAME": "NOT AVAILABLE", "ST_FIPS": "55", "OWNER": "NON-PROFIT", "TTL_STAFF": -999, "BEDS": 36, "TRAUMA": "LEVEL III", "HELIPAD": "Y" }, "geometry": { "type": "Polygon", "coordinates": [ [ [ -89.774109, 43.244657 ], [ -89.827842, 43.247734 ], [ -89.828386, 43.27816 ], [ -89.8246, 43.293023 ], [ -89.769283, 43.370086 ], [ -89.7684327, 43.3700984 ], [ -89.69477040000001, 43.363121 ], [ -89.694289, 43.350425 ], [ -89.718510400000014, 43.269558499999974 ], [ -89.7287941, 43.2640988 ], [ -89.7346756, 43.2613061 ], [ -89.774109, 43.244657 ] ] ] } },
{ "type": "Feature", "properties": { "OBJECTID": 1076, "ID": "0014053051", "NAME": "COMMUNITY MEMORIAL HSPTL", "ADDRESS": "W180 N8085 TOWN HALL RD", "CITY": "MENOMONEE FALLS", "STATE": "WI", "ZIP": "53051", "ZIP4": "NOT AVAILABLE", "TELEPHONE": "(262) 251-1000", "TYPE": "GENERAL ACUTE CARE", "STATUS": "OPEN", "POPULATION": 237, "COUNTY": "WAUKESHA", "COUNTYFIPS": "55133", "COUNTRY": "USA", "LATITUDE": 43.164352757000103, "LONGITUDE": -88.137605451999903, "NAICS_CODE": "622110", "NAICS_DESC": "GENERAL MEDICAL AND SURGICAL HOSPITALS", "SOURCE": "https://www.dhs.wisconsin.gov/guide/hospital.htm", "SOURCEDATE": "2018-08-13T00:00:00.000Z", "VAL_METHOD": "IMAGERY", "VAL_DATE": "2014-03-12T00:00:00.000Z", "WEBSITE": "http://www.communitymemorial.com", "STATE_ID": "28", "ALT_NAME": "NOT AVAILABLE", "ST_FIPS": "55", "OWNER": "NON-PROFIT", "TTL_STAFF": -999, "BEDS": 237, "TRAUMA": "LEVEL III", "HELIPAD": "Y" }, "geometry": { "type": "Polygon", "coordinates": [ [ [ -88.1611757, 43.105420600000045 ], [ -88.185966199999982, 43.110353099999962 ], [ -88.210564, 43.127399 ], [ -88.2183249, 43.133712700000054 ], [ -88.223699, 43.148245 ], [ -88.2231799, 43.162738200000014 ], [ -88.222978, 43.166064 ], [ -88.2193426, 43.193051 ], [ -88.1819345, 43.228588700000053 ], [ -88.1427292, 43.230823100000045 ], [ -88.1031304, 43.2215582 ], [ -88.0809414, 43.206537700000048 ], [ -88.0441177, 43.180638399999964 ], [ -88.0410924, 43.1784576 ], [ -88.0291719, 43.1484338 ], [ -88.04273, 43.125265500000033 ], [ -88.0428725, 43.125153299999951 ], [ -88.05559460000002, 43.117040699999954 ], [ -88.1045592, 43.1088872 ], [ -88.1611757, 43.105420600000045 ] ] ] } },
{ "type": "Feature", "properties": { "OBJECTID": 1077, "ID": "0014353066", "NAME": "AURORA MEDICAL CENTER", "ADDRESS": "36500 AURORA DRIVE", "CITY": "SUMMIT", "STATE": "WI", "ZIP": "53066", "ZIP4": "NOT AVAILABLE", "TELEPHONE": "(262) 434-1000", "TYPE": "GENERAL ACUTE CARE", "STATUS": "OPEN", "POPULATION": 117, "COUNTY": "WAUKESHA", "COUNTYFIPS": "55133", "COUNTRY": "USA", "LATITUDE": 43.065912056000101, "LONGITUDE": -88.467578653000004, "NAICS_CODE": "622110", "NAICS_DESC": "GENERAL MEDICAL AND SURGICAL HOSPITALS", "SOURCE": "https://www.dhs.wisconsin.gov/guide/hospital.htm", "SOURCEDATE": "2018-08-13T00:00:00.000Z", "VAL_METHOD": "IMAGERY", "VAL_DATE": "2014-02-10T00:00:00.000Z", "WEBSITE": "http://www.aurorahealthcare.org", "STATE_ID": "316", "ALT_NAME": "NOT AVAILABLE", "ST_FIPS": "55", "OWNER": "NON-PROFIT", "TTL_STAFF": -999, "BEDS": 117, "TRAUMA": "LEVEL II", "HELIPAD": "Y" }, "geometry": { "type": "Polygon", "coordinates": [ [ [ -88.473846, 42.96595 ], [ -88.629493, 43.067955 ], [ -88.61739, 43.092447 ], [ -88.508158, 43.150599 ], [ -88.499676, 43.154107 ], [ -88.459263, 43.149167 ], [ -88.261551, 43.04607 ], [ -88.473846, 42.96595 ] ] ] } },
{ "type": "Feature", "properties": { "OBJECTID": 1980, "ID": "0002853901", "NAME": "DIVINE SAVIOR HLTHCARE", "ADDRESS": "2817 NEW PINERY RD", "CITY": "PORTAGE", "STATE": "WI", "ZIP": "53901", "ZIP4": "NOT AVAILABLE", "TELEPHONE": "(608) 742-4131", "TYPE": "GENERAL ACUTE CARE", "STATUS": "OPEN", "POPULATION": 73, "COUNTY": "COLUMBIA", "COUNTYFIPS": "55021", "COUNTRY": "USA", "LATITUDE": 43.5669499850001, "LONGITUDE": -89.466510600999996, "NAICS_CODE": "622110", "NAICS_DESC": "GENERAL MEDICAL AND SURGICAL HOSPITALS", "SOURCE": "https://www.dhs.wisconsin.gov/guide/hospital.htm", "SOURCEDATE": "2018-08-13T00:00:00.000Z", "VAL_METHOD": "IMAGERY", "VAL_DATE": "2014-02-10T00:00:00.000Z", "WEBSITE": "http://www.dshealthcare.com", "STATE_ID": "80", "ALT_NAME": "NOT AVAILABLE", "ST_FIPS": "55", "OWNER": "NON-PROFIT", "TTL_STAFF": -999, "BEDS": 73, "TRAUMA": "LEVEL III", "HELIPAD": "Y" }, "geometry": { "type": "Polygon", "coordinates": [ [ [ -89.5075209, 43.467900099999959 ], [ -89.5449192, 43.504763799999985 ], [ -89.5473275, 43.50808169999997 ], [ -89.582216, 43.569979600000025 ], [ -89.559887, 43.594085 ], [ -89.528846, 43.61447 ], [ -89.4674599, 43.649752600000028 ], [ -89.4651479, 43.649920300000026 ], [ -89.425909, 43.636314 ], [ -89.38114, 43.554464 ], [ -89.388691, 43.520672 ], [ -89.4092031, 43.491602499999971 ], [ -89.5075209, 43.467900099999959 ] ] ] } },
{ "type": "Feature", "properties": { "OBJECTID": 1987, "ID": "0009653024", "NAME": "AURORA MEDICAL CENTER", "ADDRESS": "975 PORT WASHINGTON ROAD", "CITY": "GRAFTON", "STATE": "WI", "ZIP": "53024", "ZIP4": "NOT AVAILABLE", "TELEPHONE": "(262) 329-1000", "TYPE": "GENERAL ACUTE CARE", "STATUS": "OPEN", "POPULATION": 127, "COUNTY": "OZAUKEE", "COUNTYFIPS": "55089", "COUNTRY": "USA", "LATITUDE": 43.323652090000103, "LONGITUDE": -87.928171535999994, "NAICS_CODE": "622110", "NAICS_DESC": "GENERAL MEDICAL AND SURGICAL HOSPITALS", "SOURCE": "https://www.dhs.wisconsin.gov/guide/hospital.htm", "SOURCEDATE": "2018-08-13T00:00:00.000Z", "VAL_METHOD": "IMAGERY/OTHER", "VAL_DATE": "2014-02-10T00:00:00.000Z", "WEBSITE": "http://www.aurorahealthcare.org", "STATE_ID": "317", "ALT_NAME": "NOT AVAILABLE", "ST_FIPS": "55", "OWNER": "NON-PROFIT", "TTL_STAFF": -999, "BEDS": 127, "TRAUMA": "LEVEL III", "HELIPAD": "Y" }, "geometry": { "type": "Polygon", "coordinates": [ [ [ -87.9243752, 43.204797200000023 ], [ -87.927254100000013, 43.206742499999969 ], [ -87.9477345, 43.2214428 ], [ -88.0444088, 43.322226899999968 ], [ -88.03292230000001, 43.345291199999977 ], [ -87.9411389, 43.440638499999963 ], [ -87.9408039, 43.440647299999988 ], [ -87.871121, 43.416086600000042 ], [ -87.8658579, 43.413821300000023 ], [ -87.8655646, 43.390365299999964 ], [ -87.9041352, 43.21930389999995 ], [ -87.9242163, 43.204795 ], [ -87.9243752, 43.204797200000023 ] ] ] } },
{ "type": "Feature", "properties": { "OBJECTID": 1992, "ID": "0011053581", "NAME": "RICHLAND HSPTL", "ADDRESS": "333 E SECOND ST", "CITY": "RICHLAND CENTER", "STATE": "WI", "ZIP": "53581", "ZIP4": "NOT AVAILABLE", "TELEPHONE": "(608) 647-6321", "TYPE": "GENERAL ACUTE CARE", "STATUS": "OPEN", "POPULATION": 25, "COUNTY": "RICHLAND", "COUNTYFIPS": "55103", "COUNTRY": "USA", "LATITUDE": 43.338702283000003, "LONGITUDE": -90.382274339000006, "NAICS_CODE": "622110", "NAICS_DESC": "GENERAL MEDICAL AND SURGICAL HOSPITALS", "SOURCE": "https://www.dhs.wisconsin.gov/guide/hospital.htm", "SOURCEDATE": "2018-08-13T00:00:00.000Z", "VAL_METHOD": "IMAGERY", "VAL_DATE": "2014-02-10T00:00:00.000Z", "WEBSITE": "http://www.richlandhospital.com", "STATE_ID": "1045", "ALT_NAME": "NOT AVAILABLE", "ST_FIPS": "55", "OWNER": "NON-PROFIT", "TTL_STAFF": -999, "BEDS": 25, "TRAUMA": "NOT AVAILABLE", "HELIPAD": "Y" }, "geometry": { "type": "Polygon", "coordinates": [ [ [ -90.43824320122701, 43.271121414320369 ], [ -90.506349688207038, 43.30658602371274 ], [ -90.477564868723846, 43.365524295112252 ], [ -90.445140787536019, 43.426403164275854 ], [ -90.373913, 43.431979 ], [ -90.366137, 43.43072 ], [ -90.35508, 43.421788 ], [ -90.302334, 43.35109 ], [ -90.3012596, 43.3455339 ], [ -90.3013011, 43.278517799999982 ], [ -90.3026092, 43.278178599999947 ], [ -90.360459, 43.274406 ], [ -90.43824320122701, 43.271121414320369 ] ] ] } },
{ "type": "Feature", "properties": { "OBJECTID": 1996, "ID": "0013753045", "NAME": "WHEATON FRANCISCAN HEALTHCARE - ELMBROOK MEMORIAL", "ADDRESS": "19333 W NORTH AVE", "CITY": "BROOKFIELD", "STATE": "WI", "ZIP": "53045", "ZIP4": "NOT AVAILABLE", "TELEPHONE": "(262) 785-2000", "TYPE": "GENERAL ACUTE CARE", "STATUS": "OPEN", "POPULATION": 175, "COUNTY": "WAUKESHA", "COUNTYFIPS": "55133", "COUNTRY": "USA", "LATITUDE": 43.059375896000098, "LONGITUDE": -88.154519428999905, "NAICS_CODE": "622110", "NAICS_DESC": "GENERAL MEDICAL AND SURGICAL HOSPITALS", "SOURCE": "https://www.dhs.wisconsin.gov/guide/hospital.htm", "SOURCEDATE": "2018-08-13T00:00:00.000Z", "VAL_METHOD": "IMAGERY", "VAL_DATE": "2014-02-10T00:00:00.000Z", "WEBSITE": "http://www.wfhealthcare.org", "STATE_ID": "262", "ALT_NAME": "NOT AVAILABLE", "ST_FIPS": "55", "OWNER": "NON-PROFIT", "TTL_STAFF": -999, "BEDS": 175, "TRAUMA": "NOT AVAILABLE", "HELIPAD": "N" }, "geometry": { "type": "Polygon", "coordinates": [ [ [ -88.203419, 42.990865 ], [ -88.204558, 42.991135 ], [ -88.2047675, 42.991210100000046 ], [ -88.303968, 43.051212 ], [ -88.2661639, 43.09362 ], [ -88.2467573, 43.106723700000032 ], [ -88.210703, 43.129653 ], [ -88.2095661, 43.130260299999968 ], [ -88.134958, 43.125535 ], [ -88.10428, 43.117335 ], [ -88.0578899, 43.0895203 ], [ -88.0571445, 43.0888566 ], [ -88.0326233, 43.060400600000051 ], [ -88.0351193, 43.044046300000019 ], [ -88.108105, 43.002742 ], [ -88.124874, 42.997269 ], [ -88.200311, 42.990746 ], [ -88.203419, 42.990865 ] ] ] } },
{ "type": "Feature", "properties": { "OBJECTID": 1997, "ID": "0013853095", "NAME": "ST JOSEPHS COMMUNITY HOSPITAL OF WEST BEND INC", "ADDRESS": "3200 PLEASANT VALLEY ROAD", "CITY": "WEST BEND", "STATE": "WI", "ZIP": "53095", "ZIP4": "NOT AVAILABLE", "TELEPHONE": "(262) 334-5533", "TYPE": "GENERAL ACUTE CARE", "STATUS": "OPEN", "POPULATION": 70, "COUNTY": "WASHINGTON", "COUNTYFIPS": "55131", "COUNTRY": "USA", "LATITUDE": 43.355758838, "LONGITUDE": -88.195096962999997, "NAICS_CODE": "622110", "NAICS_DESC": "GENERAL MEDICAL AND SURGICAL HOSPITALS", "SOURCE": "https://www.dhs.wisconsin.gov/guide/hospital.htm", "SOURCEDATE": "2018-08-13T00:00:00.000Z", "VAL_METHOD": "IMAGERY", "VAL_DATE": "2014-02-10T00:00:00.000Z", "WEBSITE": "http://www.stjosephswbclinic.com", "STATE_ID": "44", "ALT_NAME": "NOT AVAILABLE", "ST_FIPS": "55", "OWNER": "NON-PROFIT", "TTL_STAFF": -999, "BEDS": 70, "TRAUMA": "LEVEL III", "HELIPAD": "Y" }, "geometry": { "type": "Polygon", "coordinates": [ [ [ -88.1559707, 43.207279699999944 ], [ -88.2304736, 43.251101699999978 ], [ -88.3145119, 43.322159399999968 ], [ -88.3005222, 43.373747 ], [ -88.2781712, 43.427477099999983 ], [ -88.2161915, 43.4969597 ], [ -88.215615, 43.497181 ], [ -88.2148749, 43.497008499999964 ], [ -88.0819356, 43.3821622 ], [ -88.0613128, 43.361555899999956 ], [ -88.0594849, 43.357363200000023 ], [ -88.1427391, 43.2092235 ], [ -88.1559707, 43.207279699999944 ] ] ] } },
{ "type": "Feature", "properties": { "OBJECTID": 2006, "ID": "0017953223", "NAME": "ROGERS MEMORIAL HOSPITAL BROWN DEER", "ADDRESS": "4600 W SCHROEDER DRIVE", "CITY": "BROWN DEER", "STATE": "WI", "ZIP": "53223", "ZIP4": "NOT AVAILABLE", "TELEPHONE": "(414) 865-2500", "TYPE": "PSYCHIATRIC", "STATUS": "OPEN", "POPULATION": 56, "COUNTY": "MILWAUKEE", "COUNTYFIPS": "55079", "COUNTRY": "USA", "LATITUDE": 43.1873094050001, "LONGITUDE": -87.967626195999998, "NAICS_CODE": "622210", "NAICS_DESC": "PSYCHIATRIC AND SUBSTANCE ABUSE HOSPITALS", "SOURCE": "https://www.dhs.wisconsin.gov/guide/hospital.htm", "SOURCEDATE": "2018-08-13T00:00:00.000Z", "VAL_METHOD": "IMAGERY/OTHER", "VAL_DATE": "2016-02-03T00:00:00.000Z", "WEBSITE": "https://rogershospital.org/locations/brown-deer", "STATE_ID": "320", "ALT_NAME": "NOT AVAILABLE", "ST_FIPS": "55", "OWNER": "NON-PROFIT", "TTL_STAFF": -999, "BEDS": 56, "TRAUMA": "NOT AVAILABLE", "HELIPAD": "N" }, "geometry": { "type": "Polygon", "coordinates": [ [ [ -87.9274157, 43.097078 ], [ -87.943753, 43.098939899999976 ], [ -87.9667942, 43.103762899999971 ], [ -87.9690523, 43.104581700000026 ], [ -87.9874325, 43.1120378 ], [ -88.064289, 43.161728800000041 ], [ -88.0863315, 43.177959499999986 ], [ -88.0862541, 43.1781317 ], [ -88.0638428, 43.2212678 ], [ -88.003818, 43.2653427 ], [ -87.9985989, 43.2653242 ], [ -87.9753297, 43.265192300000045 ], [ -87.9439866, 43.2476199 ], [ -87.9239367, 43.235209900000022 ], [ -87.9090876, 43.221117700000022 ], [ -87.8893938, 43.1846048 ], [ -87.888127900000015, 43.1764851 ], [ -87.8876387, 43.169238399999969 ], [ -87.8876096, 43.1669327 ], [ -87.8877908, 43.163865899999983 ], [ -87.891121, 43.1519197 ], [ -87.906743, 43.1185314 ], [ -87.9274157, 43.097078 ] ] ] } },
{ "type": "Feature", "properties": { "OBJECTID": 2601, "ID": "0014453188", "NAME": "REHABILITATION HOSPITAL OF WISCONSIN", "ADDRESS": "1625 COLD WATER CREEK DRIVE", "CITY": "WAUKESHA", "STATE": "WI", "ZIP": "53188", "ZIP4": "NOT AVAILABLE", "TELEPHONE": "(262) 521-8800", "TYPE": "REHABILITATION", "STATUS": "OPEN", "POPULATION": 40, "COUNTY": "WAUKESHA", "COUNTYFIPS": "55133", "COUNTRY": "USA", "LATITUDE": 43.026034106000097, "LONGITUDE": -88.287208895999996, "NAICS_CODE": "622310", "NAICS_DESC": "REHABILITATION HOSPITALS (EXCEPT ALCOHOLISM, DRUG ADDICTION)", "SOURCE": "https://www.dhs.wisconsin.gov/guide/hospital.htm", "SOURCEDATE": "2018-08-13T00:00:00.000Z", "VAL_METHOD": "IMAGERY", "VAL_DATE": "2014-01-15T00:00:00.000Z", "WEBSITE": "http://www.rehabhospitalwi.com", "STATE_ID": "315", "ALT_NAME": "NOT AVAILABLE", "ST_FIPS": "55", "OWNER": "PROPRIETARY", "TTL_STAFF": -999, "BEDS": 40, "TRAUMA": "NOT AVAILABLE", "HELIPAD": "N" }, "geometry": { "type": "Polygon", "coordinates": [ [ [ -88.3256016, 42.9464159 ], [ -88.3586852, 42.958470900000037 ], [ -88.4228053, 43.018118900000019 ], [ -88.4437458, 43.061938499999975 ], [ -88.4426818, 43.0624577 ], [ -88.27012, 43.104075100000024 ], [ -88.2246353, 43.0924057 ], [ -88.2022948, 43.086384100000025 ], [ -88.19707, 43.083633300000031 ], [ -88.1494723, 43.0359793 ], [ -88.2272311, 42.9593776 ], [ -88.258618, 42.94635 ], [ -88.3256016, 42.9464159 ] ] ] } },
{ "type": "Feature", "properties": { "OBJECTID": 2646, "ID": "0006953212", "NAME": "ORTHOPAEDIC HSPTL OF WI", "ADDRESS": "475 W RIVER WOODS PKWY", "CITY": "GLENDALE", "STATE": "WI", "ZIP": "53212", "ZIP4": "NOT AVAILABLE", "TELEPHONE": "(414) 961-6800", "TYPE": "GENERAL ACUTE CARE", "STATUS": "OPEN", "POPULATION": 30, "COUNTY": "MILWAUKEE", "COUNTYFIPS": "55079", "COUNTRY": "USA", "LATITUDE": 43.097945927000097, "LONGITUDE": -87.9146822229999, "NAICS_CODE": "622110", "NAICS_DESC": "GENERAL MEDICAL AND SURGICAL HOSPITALS", "SOURCE": "https://www.dhs.wisconsin.gov/guide/hospital.htm", "SOURCEDATE": "2018-08-13T00:00:00.000Z", "VAL_METHOD": "IMAGERY/OTHER", "VAL_DATE": "2014-01-13T00:00:00.000Z", "WEBSITE": "http://www.ohow.org", "STATE_ID": "1006", "ALT_NAME": "NOT AVAILABLE", "ST_FIPS": "55", "OWNER": "PROPRIETARY", "TTL_STAFF": -999, "BEDS": 30, "TRAUMA": "NOT AVAILABLE", "HELIPAD": "N" }, "geometry": { "type": "Polygon", "coordinates": [ [ [ -87.9169573, 43.00120630000005 ], [ -87.9187905, 43.001814500000037 ], [ -87.974575, 43.032329200000063 ], [ -88.0309367, 43.104870400000031 ], [ -88.0309474, 43.105009899999963 ], [ -88.0253652, 43.133575700000023 ], [ -87.964593, 43.174424699999967 ], [ -87.9617435, 43.1758716 ], [ -87.9249335, 43.192168100000053 ], [ -87.923354100000012, 43.1921855 ], [ -87.9230204, 43.192151700000018 ], [ -87.8966498, 43.176566400000056 ], [ -87.8688633, 43.07546360000002 ], [ -87.8686895, 43.074679600000024 ], [ -87.8678264, 43.068691599999987 ], [ -87.9104099, 43.0065256 ], [ -87.916675, 43.001365799999967 ], [ -87.9169573, 43.00120630000005 ] ] ] } },
{ "type": "Feature", "properties": { "OBJECTID": 2647, "ID": "0014253072", "NAME": "LIFECARE HOSPITALS OF WISCONSIN", "ADDRESS": "2400 GOLF ROAD", "CITY": "PEWAUKEE", "STATE": "WI", "ZIP": "53072", "ZIP4": "NOT AVAILABLE", "TELEPHONE": "(262) 524-2600", "TYPE": "LONG TERM CARE", "STATUS": "OPEN", "POPULATION": 62, "COUNTY": "WAUKESHA", "COUNTYFIPS": "55133", "COUNTRY": "USA", "LATITUDE": 43.0472930030001, "LONGITUDE": -88.267085316000006, "NAICS_CODE": "622310", "NAICS_DESC": "SPECIALTY (EXCEPT PSYCHIATRIC AND SUBSTANCE ABUSE) HOSPITALS", "SOURCE": "https://www.dhs.wisconsin.gov/guide/hospital.htm", "SOURCEDATE": "2018-08-13T00:00:00.000Z", "VAL_METHOD": "IMAGERY/OTHER", "VAL_DATE": "2014-02-10T00:00:00.000Z", "WEBSITE": "http://www.lifecare-hospitals.com", "STATE_ID": "302", "ALT_NAME": "NOT AVAILABLE", "ST_FIPS": "55", "OWNER": "PROPRIETARY", "TTL_STAFF": -999, "BEDS": 62, "TRAUMA": "NOT AVAILABLE", "HELIPAD": "N" }, "geometry": { "type": "Polygon", "coordinates": [ [ [ -88.2765513, 42.973441200000039 ], [ -88.2925871, 42.97481770000001 ], [ -88.317457, 42.982024 ], [ -88.383798, 43.015533499999982 ], [ -88.4423139, 43.0576183 ], [ -88.449215, 43.062824 ], [ -88.4423235, 43.066729099999975 ], [ -88.335206, 43.114331 ], [ -88.313004, 43.119574 ], [ -88.278903, 43.124281 ], [ -88.2098145, 43.12233420000004 ], [ -88.1509675, 43.090653699999955 ], [ -88.106132700000018, 43.035921400000021 ], [ -88.0978678, 43.0218102 ], [ -88.0966334, 43.0167481 ], [ -88.09663, 43.0166214 ], [ -88.0966281, 43.016443599999981 ], [ -88.107348, 43.011318499999966 ], [ -88.26232, 42.974306 ], [ -88.2765513, 42.973441200000039 ] ] ] } },
{ "type": "Feature", "properties": { "OBJECTID": 2674, "ID": "0016553295", "NAME": "CLEMENT J. ZABLOCKI VA MEDICAL CENTER", "ADDRESS": "5000 W NATIONAL AVE", "CITY": "MILWAUKEE", "STATE": "WI", "ZIP": "53295", "ZIP4": "NOT AVAILABLE", "TELEPHONE": "(414) 384-2000", "TYPE": "MILITARY", "STATUS": "OPEN", "POPULATION": -999, "COUNTY": "MILWAUKEE", "COUNTYFIPS": "55079", "COUNTRY": "USA", "LATITUDE": 43.020888186000001, "LONGITUDE": -87.975916878999996, "NAICS_CODE": "622110", "NAICS_DESC": "GENERAL MEDICAL AND SURGICAL HOSPITALS", "SOURCE": "https://www.va.gov/directory/guide/allstate.asp", "SOURCEDATE": "2018-09-26T00:00:00.000Z", "VAL_METHOD": "IMAGERY/OTHER", "VAL_DATE": "2015-05-29T00:00:00.000Z", "WEBSITE": "http://www.milwaukee.va.gov/", "STATE_ID": "NOT AVAILABLE", "ALT_NAME": "NOT AVAILABLE", "ST_FIPS": "55", "OWNER": "GOVERNMENT - FEDERAL", "TTL_STAFF": -999, "BEDS": -999, "TRAUMA": "NOT AVAILABLE", "HELIPAD": "N" }, "geometry": { "type": "Polygon", "coordinates": [ [ [ -87.987522, 42.9418437 ], [ -88.0087252, 42.9441425 ], [ -88.029986, 42.948710899999931 ], [ -88.0302355, 42.948818299999964 ], [ -88.04695270000002, 42.957191599999966 ], [ -88.0612765, 42.968109200000029 ], [ -88.07333, 42.988230199999926 ], [ -88.0878816, 43.016677100000038 ], [ -88.0623829, 43.07458490000004 ], [ -88.0580165, 43.0794184 ], [ -87.9914529, 43.1020085 ], [ -87.9768332, 43.1021046 ], [ -87.9767003, 43.102102600000066 ], [ -87.9180861, 43.100373199999957 ], [ -87.8977061, 43.074709799999972 ], [ -87.8851325, 43.0587164 ], [ -87.8836573, 43.05671840000003 ], [ -87.8829454, 43.0556761 ], [ -87.8883469, 43.00037 ], [ -87.8887632, 42.998469399999934 ], [ -87.889543, 42.996491399999982 ], [ -87.9158447, 42.969446099999971 ], [ -87.948839, 42.9477351 ], [ -87.987522, 42.9418437 ] ] ] } },
{ "type": "Feature", "properties": { "OBJECTID": 2771, "ID": "0005053948", "NAME": "MILE BLUFF MEDICAL CENTER INC", "ADDRESS": "1050 DIVISION ST", "CITY": "MAUSTON", "STATE": "WI", "ZIP": "53948", "ZIP4": "NOT AVAILABLE", "TELEPHONE": "(608) 847-6161", "TYPE": "GENERAL ACUTE CARE", "STATUS": "OPEN", "POPULATION": 40, "COUNTY": "JUNEAU", "COUNTYFIPS": "55057", "COUNTRY": "USA", "LATITUDE": 43.782835446999997, "LONGITUDE": -90.075155867999996, "NAICS_CODE": "622110", "NAICS_DESC": "GENERAL MEDICAL AND SURGICAL HOSPITALS", "SOURCE": "https://www.dhs.wisconsin.gov/guide/hospital.htm", "SOURCEDATE": "2018-08-13T00:00:00.000Z", "VAL_METHOD": "IMAGERY", "VAL_DATE": "2014-03-12T00:00:00.000Z", "WEBSITE": "http://www.milebluff.com", "STATE_ID": "134", "ALT_NAME": "NOT AVAILABLE", "ST_FIPS": "55", "OWNER": "NON-PROFIT", "TTL_STAFF": -999, "BEDS": 40, "TRAUMA": "LEVEL III", "HELIPAD": "Y" }, "geometry": { "type": "Polygon", "coordinates": [ [ [ -90.094521, 43.69577 ], [ -90.108508, 43.703837 ], [ -90.192602, 43.784218 ], [ -90.1466022, 43.883563299999985 ], [ -90.14581, 43.884148 ], [ -90.055561, 43.861757 ], [ -89.985022, 43.795837 ], [ -89.961224, 43.755461 ], [ -90.082473, 43.700572 ], [ -90.094521, 43.69577 ] ] ] } },
{ "type": "Feature", "properties": { "OBJECTID": 2774, "ID": "0007153215", "NAME": "AURORA ST LUKES MEDICAL CENTER", "ADDRESS": "2900 W OKLAHOMA AVE", "CITY": "MILWAUKEE", "STATE": "WI", "ZIP": "53215", "ZIP4": "NOT AVAILABLE", "TELEPHONE": "(414) 649-6000", "TYPE": "GENERAL ACUTE CARE", "STATUS": "OPEN", "POPULATION": 938, "COUNTY": "MILWAUKEE", "COUNTYFIPS": "55079", "COUNTRY": "USA", "LATITUDE": 42.989626227000002, "LONGITUDE": -87.950210774, "NAICS_CODE": "622110", "NAICS_DESC": "GENERAL MEDICAL AND SURGICAL HOSPITALS", "SOURCE": "https://www.dhs.wisconsin.gov/guide/hospital.htm", "SOURCEDATE": "2018-08-13T00:00:00.000Z", "VAL_METHOD": "IMAGERY", "VAL_DATE": "2014-03-12T00:00:00.000Z", "WEBSITE": "http://www.aurorahealthcare.org", "STATE_ID": "160", "ALT_NAME": "NOT AVAILABLE", "ST_FIPS": "55", "OWNER": "NON-PROFIT", "TTL_STAFF": -999, "BEDS": 938, "TRAUMA": "LEVEL III", "HELIPAD": "Y" }, "geometry": { "type": "Polygon", "coordinates": [ [ [ -87.9509379, 42.8890899 ], [ -88.026611, 42.901688 ], [ -88.0277103, 42.902065300000054 ], [ -88.0278991, 42.9021483 ], [ -88.055660500000016, 42.9446249 ], [ -88.0600308, 42.951795899999986 ], [ -88.0621508, 42.959029899999933 ], [ -88.062022, 42.988079699999979 ], [ -88.0620212, 42.988257099999934 ], [ -88.0299378, 43.0282407 ], [ -87.9819033, 43.064314800000041 ], [ -87.9810326, 43.064761 ], [ -87.9584962, 43.076079200000024 ], [ -87.948503, 43.077011500000019 ], [ -87.9472663, 43.077019 ], [ -87.9460177, 43.077001099999954 ], [ -87.9204768, 43.074080399999978 ], [ -87.9169602, 43.071110600000019 ], [ -87.8964046, 43.046902599999967 ], [ -87.8531438, 42.9697856 ], [ -87.8576278, 42.959148400000046 ], [ -87.911134500000017, 42.91198570000001 ], [ -87.9315353, 42.894263299999956 ], [ -87.9506584, 42.8890861 ], [ -87.9509379, 42.8890899 ] ] ] } },
{ "type": "Feature", "properties": { "OBJECTID": 2775, "ID": "0007553226", "NAME": "CHILDRENS HSPTL OF WISCONSIN", "ADDRESS": "9000 W WISCONSIN AVE", "CITY": "MILWAUKEE", "STATE": "WI", "ZIP": "53226", "ZIP4": "NOT AVAILABLE", "TELEPHONE": "(414) 266-2000", "TYPE": "GENERAL ACUTE CARE", "STATUS": "OPEN", "POPULATION": 298, "COUNTY": "MILWAUKEE", "COUNTYFIPS": "55079", "COUNTRY": "USA", "LATITUDE": 43.042354, "LONGITUDE": -88.024153, "NAICS_CODE": "622110", "NAICS_DESC": "GENERAL MEDICAL AND SURGICAL HOSPITALS", "SOURCE": "https://www.dhs.wisconsin.gov/guide/hospital.htm", "SOURCEDATE": "2018-08-13T00:00:00.000Z", "VAL_METHOD": "IMAGERY", "VAL_DATE": "2018-02-15T00:00:00.000Z", "WEBSITE": "http://www.chw.org", "STATE_ID": "135", "ALT_NAME": "NOT AVAILABLE", "ST_FIPS": "55", "OWNER": "NON-PROFIT", "TTL_STAFF": -999, "BEDS": 298, "TRAUMA": "LEVEL I", "HELIPAD": "Y" }, "geometry": { "type": "Polygon", "coordinates": [ [ [ -88.0485446, 42.937267799999987 ], [ -88.076911, 42.962241 ], [ -88.097209100000015, 42.9833894 ], [ -88.1269734, 43.016958099999961 ], [ -88.1350689, 43.036774700000038 ], [ -88.135275, 43.060397 ], [ -88.135226, 43.061109 ], [ -88.130943, 43.090157 ], [ -88.130788, 43.09114 ], [ -88.068317, 43.143855 ], [ -88.068174, 43.143965 ], [ -88.0550662, 43.152526799999983 ], [ -87.9642257, 43.086951200000065 ], [ -87.9054125, 43.035480600000035 ], [ -87.988334, 42.961853099999942 ], [ -88.04828280000001, 42.937262 ], [ -88.0485446, 42.937267799999987 ] ] ] } },
{ "type": "Feature", "properties": { "OBJECTID": 2784, "ID": "0011953959", "NAME": "REEDSBURG AREA MED CTR", "ADDRESS": "2000 N DEWEY AVE", "CITY": "REEDSBURG", "STATE": "WI", "ZIP": "53959", "ZIP4": "NOT AVAILABLE", "TELEPHONE": "(608) 524-6487", "TYPE": "GENERAL ACUTE CARE", "STATUS": "OPEN", "POPULATION": 25, "COUNTY": "SAUK", "COUNTYFIPS": "55111", "COUNTRY": "USA", "LATITUDE": 43.549714839000004, "LONGITUDE": -89.992938642999903, "NAICS_CODE": "622110", "NAICS_DESC": "GENERAL MEDICAL AND SURGICAL HOSPITALS", "SOURCE": "https://www.dhs.wisconsin.gov/guide/hospital.htm", "SOURCEDATE": "2018-08-13T00:00:00.000Z", "VAL_METHOD": "IMAGERY", "VAL_DATE": "2014-03-12T00:00:00.000Z", "WEBSITE": "http://www.ramchealth.com", "STATE_ID": "1057", "ALT_NAME": "NOT AVAILABLE", "ST_FIPS": "55", "OWNER": "NON-PROFIT", "TTL_STAFF": -999, "BEDS": 25, "TRAUMA": "LEVEL III", "HELIPAD": "Y" }, "geometry": { "type": "Polygon", "coordinates": [ [ [ -90.015021, 43.471186 ], [ -90.04521, 43.49291 ], [ -90.078208, 43.52044 ], [ -90.080778, 43.523322 ], [ -90.083531, 43.564687 ], [ -90.068796, 43.584085 ], [ -90.035655, 43.615989 ], [ -89.989864, 43.626691 ], [ -89.988938, 43.626814 ], [ -89.9424949, 43.605876400000021 ], [ -89.917322, 43.592501 ], [ -89.887341, 43.540245 ], [ -89.891976, 43.528022 ], [ -89.9452294, 43.4967195 ], [ -89.96437, 43.48923 ], [ -90.015021, 43.471186 ] ] ] } },
{ "type": "Feature", "properties": { "OBJECTID": 2788, "ID": "0013953066", "NAME": "OCONOMOWOC MEM HSPTL", "ADDRESS": "791 E SUMMIT AVE", "CITY": "OCONOMOWOC", "STATE": "WI", "ZIP": "53066", "ZIP4": "NOT AVAILABLE", "TELEPHONE": "(262) 569-9400", "TYPE": "GENERAL ACUTE CARE", "STATUS": "OPEN", "POPULATION": 156, "COUNTY": "WAUKESHA", "COUNTYFIPS": "55133", "COUNTRY": "USA", "LATITUDE": 43.100061336000103, "LONGITUDE": -88.486813743, "NAICS_CODE": "622110", "NAICS_DESC": "GENERAL MEDICAL AND SURGICAL HOSPITALS", "SOURCE": "https://www.dhs.wisconsin.gov/guide/hospital.htm", "SOURCEDATE": "2018-08-13T00:00:00.000Z", "VAL_METHOD": "IMAGERY", "VAL_DATE": "2014-02-10T00:00:00.000Z", "WEBSITE": "http://www.prohealthcare.org/locations/locations-v2-detail/?id=1123", "STATE_ID": "113", "ALT_NAME": "NOT AVAILABLE", "ST_FIPS": "55", "OWNER": "NON-PROFIT", "TTL_STAFF": -999, "BEDS": 156, "TRAUMA": "LEVEL III", "HELIPAD": "Y" }, "geometry": { "type": "Polygon", "coordinates": [ [ [ -88.463363, 42.994415 ], [ -88.60069, 43.069186 ], [ -88.582589, 43.141357 ], [ -88.5187713, 43.1796604 ], [ -88.508522, 43.185745 ], [ -88.45881, 43.179718 ], [ -88.342927, 43.115746 ], [ -88.341232, 43.111678 ], [ -88.359118, 43.050566 ], [ -88.3656408, 43.043087899999975 ], [ -88.374146, 43.033948 ], [ -88.463363, 42.994415 ] ] ] } },
{ "type": "Feature", "properties": { "OBJECTID": 2789, "ID": "0014653188", "NAME": "WAUKESHA MEMORIAL HOSPITAL", "ADDRESS": "725 AMERICAN AVE", "CITY": "WAUKESHA", "STATE": "WI", "ZIP": "53188", "ZIP4": "NOT AVAILABLE", "TELEPHONE": "(262) 928-1000", "TYPE": "GENERAL ACUTE CARE", "STATUS": "OPEN", "POPULATION": 400, "COUNTY": "WAUKESHA", "COUNTYFIPS": "55133", "COUNTRY": "USA", "LATITUDE": 43.011176987000098, "LONGITUDE": -88.242550953999995, "NAICS_CODE": "622110", "NAICS_DESC": "GENERAL MEDICAL AND SURGICAL HOSPITALS", "SOURCE": "https://www.dhs.wisconsin.gov/guide/hospital.htm", "SOURCEDATE": "2018-08-13T00:00:00.000Z", "VAL_METHOD": "IMAGERY", "VAL_DATE": "2014-03-12T00:00:00.000Z", "WEBSITE": "http://www.prohealthcare.org/locations/locations-v2-detail/?id=1119", "STATE_ID": "41", "ALT_NAME": "NOT AVAILABLE", "ST_FIPS": "55", "OWNER": "NON-PROFIT", "TTL_STAFF": -999, "BEDS": 400, "TRAUMA": "LEVEL III", "HELIPAD": "Y" }, "geometry": { "type": "Polygon", "coordinates": [ [ [ -88.2285795, 42.936056600000036 ], [ -88.320982, 42.949203 ], [ -88.352574, 42.959169 ], [ -88.349503, 43.014169 ], [ -88.315046, 43.057449 ], [ -88.2531594, 43.08921579999997 ], [ -88.2291378, 43.0904063 ], [ -88.2022948, 43.086384100000025 ], [ -88.19707, 43.083633300000031 ], [ -88.1343358, 43.0365268 ], [ -88.1354852, 43.01688190000003 ], [ -88.163153, 42.968308 ], [ -88.2283579, 42.936053400000027 ], [ -88.2285795, 42.936056600000036 ] ] ] } },
{ "type": "Feature", "properties": { "OBJECTID": 4019, "ID": "0001753916", "NAME": "BEAVER DAM COM HSPTL", "ADDRESS": "707 S UNIVERSITY AVE", "CITY": "BEAVER DAM", "STATE": "WI", "ZIP": "53916", "ZIP4": "NOT AVAILABLE", "TELEPHONE": "(920) 887-7181", "TYPE": "GENERAL ACUTE CARE", "STATUS": "OPEN", "POPULATION": 125, "COUNTY": "DODGE", "COUNTYFIPS": "55027", "COUNTRY": "USA", "LATITUDE": 43.4484329490001, "LONGITUDE": -88.826118111, "NAICS_CODE": "622110", "NAICS_DESC": "GENERAL MEDICAL AND SURGICAL HOSPITALS", "SOURCE": "https://www.dhs.wisconsin.gov/guide/hospital.htm", "SOURCEDATE": "2018-08-13T00:00:00.000Z", "VAL_METHOD": "IMAGERY", "VAL_DATE": "2014-03-12T00:00:00.000Z", "WEBSITE": "http://www.bdch.com", "STATE_ID": "199", "ALT_NAME": "NOT AVAILABLE", "ST_FIPS": "55", "OWNER": "NON-PROFIT", "TTL_STAFF": -999, "BEDS": 125, "TRAUMA": "NOT AVAILABLE", "HELIPAD": "Y" }, "geometry": { "type": "Polygon", "coordinates": [ [ [ -88.964433, 43.376837 ], [ -88.9646992, 43.377029699999937 ], [ -88.909479, 43.466307 ], [ -88.866752, 43.517253 ], [ -88.7683262, 43.5722046 ], [ -88.768056, 43.572052 ], [ -88.695958, 43.45226 ], [ -88.694535, 43.449828 ], [ -88.694535, 43.444852 ], [ -88.730096, 43.41502 ], [ -88.7489224, 43.400767100000031 ], [ -88.78858, 43.386235 ], [ -88.842725, 43.378506 ], [ -88.964433, 43.376837 ] ] ] } },
{ "type": "Feature", "properties": { "OBJECTID": 4150, "ID": "0007353215", "NAME": "SELECT SPEC HOSPITAL LUKES CAMPUS", "ADDRESS": "2900 W OKLAHOMA AVE, 5TH FL", "CITY": "MILWAUKEE", "STATE": "WI", "ZIP": "53215", "ZIP4": "NOT AVAILABLE", "TELEPHONE": "(414) 649-6991", "TYPE": "GENERAL ACUTE CARE", "STATUS": "OPEN", "POPULATION": 29, "COUNTY": "MILWAUKEE", "COUNTYFIPS": "55079", "COUNTRY": "USA", "LATITUDE": 42.988828173000101, "LONGITUDE": -87.95025177, "NAICS_CODE": "622110", "NAICS_DESC": "GENERAL MEDICAL AND SURGICAL HOSPITALS", "SOURCE": "https://www.dhs.wisconsin.gov/guide/hospital.htm", "SOURCEDATE": "2018-08-13T00:00:00.000Z", "VAL_METHOD": "IMAGERY", "VAL_DATE": "2014-03-12T00:00:00.000Z", "WEBSITE": "milwaukeestlukes.selectspecialtyhospitals.com", "STATE_ID": "304", "ALT_NAME": "SELECT SPEC HOSPITAL ST LUKES CAMPUS", "ST_FIPS": "55", "OWNER": "NON-PROFIT", "TTL_STAFF": -999, "BEDS": 29, "TRAUMA": "NOT AVAILABLE", "HELIPAD": "Y" }, "geometry": { "type": "Polygon", "coordinates": [ [ [ -87.9509379, 42.8890899 ], [ -88.026611, 42.901688 ], [ -88.0277103, 42.902065300000054 ], [ -88.0278991, 42.9021483 ], [ -88.055660500000016, 42.9446249 ], [ -88.0600308, 42.951795899999986 ], [ -88.0621508, 42.959029899999933 ], [ -88.062022, 42.988079699999979 ], [ -88.0620212, 42.988257099999934 ], [ -88.0299378, 43.0282407 ], [ -87.9819033, 43.064314800000041 ], [ -87.9810326, 43.064761 ], [ -87.9584962, 43.076079200000024 ], [ -87.948503, 43.077011500000019 ], [ -87.9472663, 43.077019 ], [ -87.9460177, 43.077001099999954 ], [ -87.9204768, 43.074080399999978 ], [ -87.9169602, 43.071110600000019 ], [ -87.8964046, 43.046902599999967 ], [ -87.8531438, 42.9697856 ], [ -87.8576278, 42.959148400000046 ], [ -87.911134500000017, 42.91198570000001 ], [ -87.9315353, 42.894263299999956 ], [ -87.9506584, 42.8890861 ], [ -87.9509379, 42.8890899 ] ] ] } },
{ "type": "Feature", "properties": { "OBJECTID": 4647, "ID": "0008653227", "NAME": "SELECT SPECIALTY HSPTL MILWAUKEE", "ADDRESS": "8901 W LINCOLN AVE", "CITY": "WEST ALLIS", "STATE": "WI", "ZIP": "53227", "ZIP4": "NOT AVAILABLE", "TELEPHONE": "(414) 328-7700", "TYPE": "LONG TERM CARE", "STATUS": "OPEN", "POPULATION": 34, "COUNTY": "MILWAUKEE", "COUNTYFIPS": "55079", "COUNTRY": "USA", "LATITUDE": 43.002050808, "LONGITUDE": -88.023768613999906, "NAICS_CODE": "622310", "NAICS_DESC": "SPECIALTY (EXCEPT PSYCHIATRIC AND SUBSTANCE ABUSE) HOSPITALS", "SOURCE": "https://www.dhs.wisconsin.gov/guide/hospital.htm", "SOURCEDATE": "2018-08-13T00:00:00.000Z", "VAL_METHOD": "IMAGERY", "VAL_DATE": "2014-02-10T00:00:00.000Z", "WEBSITE": "http://www.selectspecialtyhospitals.com/company/locations/milwauk ee.aspx", "STATE_ID": "1002", "ALT_NAME": "NOT AVAILABLE", "ST_FIPS": "55", "OWNER": "PROPRIETARY", "TTL_STAFF": -999, "BEDS": 34, "TRAUMA": "NOT AVAILABLE", "HELIPAD": "N" }, "geometry": { "type": "Polygon", "coordinates": [ [ [ -88.041623700000017, 42.914018199999973 ], [ -88.0595354, 42.916377600000025 ], [ -88.109133, 42.944589 ], [ -88.1182769, 42.954007399999973 ], [ -88.124568, 42.965742 ], [ -88.1283359, 42.980666099999958 ], [ -88.1368261, 43.0168819 ], [ -88.1368263, 43.017031499999959 ], [ -88.080255, 43.089551 ], [ -88.0575556, 43.1085561 ], [ -87.967395, 43.066080800000044 ], [ -87.914355, 43.035564900000047 ], [ -87.9247821, 43.002861100000018 ], [ -87.940746800000014, 42.9621119 ], [ -87.9449807, 42.959300799999966 ], [ -87.9651071, 42.949332800000036 ], [ -88.0087534, 42.9289997 ], [ -88.041623700000017, 42.914018199999973 ] ] ] } },
{ "type": "Feature", "properties": { "OBJECTID": 4696, "ID": "0003153704", "NAME": "MENDOTA MENTAL HLTH INSTITUTE", "ADDRESS": "301 TROY DR", "CITY": "MADISON", "STATE": "WI", "ZIP": "53704", "ZIP4": "NOT AVAILABLE", "TELEPHONE": "(608) 301-1000", "TYPE": "PSYCHIATRIC", "STATUS": "OPEN", "POPULATION": 394, "COUNTY": "DANE", "COUNTYFIPS": "55025", "COUNTRY": "USA", "LATITUDE": 43.133732168000101, "LONGITUDE": -89.39856894, "NAICS_CODE": "622210", "NAICS_DESC": "PSYCHIATRIC AND SUBSTANCE ABUSE HOSPITALS", "SOURCE": "https://www.dhs.wisconsin.gov/guide/hospital.htm", "SOURCEDATE": "2018-08-13T00:00:00.000Z", "VAL_METHOD": "IMAGERY/OTHER", "VAL_DATE": "2014-02-10T00:00:00.000Z", "WEBSITE": "http://www.dhfs.state.wi.us", "STATE_ID": "249", "ALT_NAME": "NOT AVAILABLE", "ST_FIPS": "55", "OWNER": "GOVERNMENT - STATE", "TTL_STAFF": -999, "BEDS": 394, "TRAUMA": "NOT AVAILABLE", "HELIPAD": "N" }, "geometry": { "type": "Polygon", "coordinates": [ [ [ -89.3747267, 43.081436899999929 ], [ -89.4762253, 43.109610799999963 ], [ -89.503913, 43.140752 ], [ -89.503878, 43.142152 ], [ -89.491719, 43.162836 ], [ -89.454363, 43.19617 ], [ -89.4517661, 43.197943 ], [ -89.436675, 43.20647 ], [ -89.411499, 43.210763 ], [ -89.3496192, 43.194383199999983 ], [ -89.32431, 43.1721429 ], [ -89.3027975, 43.131648399999982 ], [ -89.2873158, 43.101496100000013 ], [ -89.3126374, 43.08743620000002 ], [ -89.359977, 43.08255 ], [ -89.3722678, 43.081461900000058 ], [ -89.3747267, 43.081436899999929 ] ] ] } },
{ "type": "Feature", "properties": { "OBJECTID": 4729, "ID": "0152453578", "NAME": "SAUK PRAIRIE HOSPITAL", "ADDRESS": "260 26TH STREET", "CITY": "PRAIRIE DU SAC", "STATE": "WI", "ZIP": "53578", "ZIP4": "NOT AVAILABLE", "TELEPHONE": "(608) 643-3311", "TYPE": "GENERAL ACUTE CARE", "STATUS": "OPEN", "POPULATION": 36, "COUNTY": "SAUK", "COUNTYFIPS": "55111", "COUNTRY": "USA", "LATITUDE": 43.287272656, "LONGITUDE": -89.752105354999998, "NAICS_CODE": "622110", "NAICS_DESC": "GENERAL MEDICAL AND SURGICAL HOSPITALS", "SOURCE": "https://www.dhs.wisconsin.gov/guide/hospital.htm", "SOURCEDATE": "2018-08-13T00:00:00.000Z", "VAL_METHOD": "IMAGERY/OTHER", "VAL_DATE": "2015-03-30T00:00:00.000Z", "WEBSITE": "http://www.saukprairiehealthcare.org/Clinic-Details/location/Sauk-Prairie-Hospital", "STATE_ID": "122", "ALT_NAME": "NOT AVAILABLE", "ST_FIPS": "55", "OWNER": "NOT AVAILABLE", "TTL_STAFF": -999, "BEDS": 36, "TRAUMA": "LEVEL III", "HELIPAD": "Y" }, "geometry": { "type": "Polygon", "coordinates": [ [ [ -89.774109, 43.244657 ], [ -89.822691, 43.256751 ], [ -89.845792, 43.301943 ], [ -89.798483, 43.358073 ], [ -89.772331, 43.380291 ], [ -89.6991, 43.349907 ], [ -89.6966526, 43.34738 ], [ -89.718510400000014, 43.269558499999974 ], [ -89.7287941, 43.2640988 ], [ -89.7346756, 43.2613061 ], [ -89.774109, 43.244657 ] ] ] } },
{ "type": "Feature", "properties": { "OBJECTID": 4920, "ID": "0001953963", "NAME": "WAUPUN MEM HSPTL", "ADDRESS": "620 W BROWN ST", "CITY": "WAUPUN", "STATE": "WI", "ZIP": "53963", "ZIP4": "NOT AVAILABLE", "TELEPHONE": "(920) 324-6530", "TYPE": "GENERAL ACUTE CARE", "STATUS": "OPEN", "POPULATION": 25, "COUNTY": "DODGE", "COUNTYFIPS": "55027", "COUNTRY": "USA", "LATITUDE": 43.631654834000102, "LONGITUDE": -88.745621667999998, "NAICS_CODE": "622110", "NAICS_DESC": "GENERAL MEDICAL AND SURGICAL HOSPITALS", "SOURCE": "https://www.dhs.wisconsin.gov/guide/hospital.htm", "SOURCEDATE": "2018-08-13T00:00:00.000Z", "VAL_METHOD": "IMAGERY", "VAL_DATE": "2014-03-12T00:00:00.000Z", "WEBSITE": "http://www.agnesian.com", "STATE_ID": "1031", "ALT_NAME": "NOT AVAILABLE", "ST_FIPS": "55", "OWNER": "NON-PROFIT", "TTL_STAFF": -999, "BEDS": 25, "TRAUMA": "LEVEL IV", "HELIPAD": "Y" }, "geometry": { "type": "Polygon", "coordinates": [ [ [ -88.795936, 43.523729 ], [ -88.796290700000014, 43.523828099999967 ], [ -88.825818, 43.560332 ], [ -88.856208, 43.604346 ], [ -88.856253, 43.618889 ], [ -88.855774, 43.633137 ], [ -88.7953308, 43.691094600000021 ], [ -88.775185, 43.705730299999978 ], [ -88.722505, 43.705417 ], [ -88.6124216, 43.69352070000005 ], [ -88.61239, 43.693263 ], [ -88.611856, 43.668852 ], [ -88.710024, 43.55692 ], [ -88.795936, 43.523729 ] ] ] } },
{ "type": "Feature", "properties": { "OBJECTID": 4923, "ID": "0003254971", "NAME": "RIPON MED CTR", "ADDRESS": "933 NEWBURY ST", "CITY": "RIPON", "STATE": "WI", "ZIP": "54971", "ZIP4": "NOT AVAILABLE", "TELEPHONE": "(920) 748-3101", "TYPE": "GENERAL ACUTE CARE", "STATUS": "CLOSED", "POPULATION": 25, "COUNTY": "FOND DU LAC", "COUNTYFIPS": "55039", "COUNTRY": "USA", "LATITUDE": 43.834692335000099, "LONGITUDE": -88.836733834, "NAICS_CODE": "622110", "NAICS_DESC": "GENERAL MEDICAL AND SURGICAL HOSPITALS", "SOURCE": "http://www.dhs.wisconsin.gov/bqaconsumer/healthcare/HospitalCty.pdf", "SOURCEDATE": "2013-07-10T00:00:00.000Z", "VAL_METHOD": "IMAGERY", "VAL_DATE": "2014-02-10T00:00:00.000Z", "WEBSITE": "http://www.riponmedicalcenter.com", "STATE_ID": "1024", "ALT_NAME": "NOT AVAILABLE", "ST_FIPS": "55", "OWNER": "NON-PROFIT", "TTL_STAFF": -999, "BEDS": 25, "TRAUMA": "LEVEL IV", "HELIPAD": "Y" }, "geometry": { "type": "Polygon", "coordinates": [ [ [ -88.825214, 43.737071 ], [ -88.86557, 43.756924 ], [ -88.925865, 43.807633 ], [ -88.9710822, 43.851758499999967 ], [ -88.945881, 43.87301319999996 ], [ -88.9290989, 43.880243 ], [ -88.865781, 43.896682 ], [ -88.7449378, 43.892821899999952 ], [ -88.725109, 43.807738 ], [ -88.825214, 43.737071 ] ] ] } },
{ "type": "Feature", "properties": { "OBJECTID": 4925, "ID": "0003553098", "NAME": "UW HLTH PARTNERS - WATERTOWN REGIONAL MEDICAL CTR", "ADDRESS": "125 HOSPITAL DR", "CITY": "WATERTOWN", "STATE": "WI", "ZIP": "53098", "ZIP4": "NOT AVAILABLE", "TELEPHONE": "(920) 261-4210", "TYPE": "GENERAL ACUTE CARE", "STATUS": "OPEN", "POPULATION": 95, "COUNTY": "DODGE", "COUNTYFIPS": "55027", "COUNTRY": "USA", "LATITUDE": 43.199090653, "LONGITUDE": -88.696852457999995, "NAICS_CODE": "622110", "NAICS_DESC": "GENERAL MEDICAL AND SURGICAL HOSPITALS", "SOURCE": "https://www.dhs.wisconsin.gov/guide/hospital.htm", "SOURCEDATE": "2018-08-13T00:00:00.000Z", "VAL_METHOD": "IMAGERY", "VAL_DATE": "2014-02-10T00:00:00.000Z", "WEBSITE": "http://www.uwphwatertown.com", "STATE_ID": "105", "ALT_NAME": "NOT AVAILABLE", "ST_FIPS": "55", "OWNER": "NON-PROFIT", "TTL_STAFF": -999, "BEDS": 95, "TRAUMA": "NOT AVAILABLE", "HELIPAD": "Y" }, "geometry": { "type": "Polygon", "coordinates": [ [ [ -88.715393, 43.144744 ], [ -88.7485814, 43.152775200000015 ], [ -88.7613555, 43.1633986 ], [ -88.762401, 43.164737099999947 ], [ -88.772441, 43.189965 ], [ -88.7517344, 43.22192 ], [ -88.7411744, 43.233744 ], [ -88.737343, 43.237314 ], [ -88.703154, 43.237926 ], [ -88.654377, 43.21165 ], [ -88.5890186, 43.14557940000001 ], [ -88.592015, 43.143899 ], [ -88.6436642, 43.143048200000031 ], [ -88.715393, 43.144744 ] ] ] } },
{ "type": "Feature", "properties": { "OBJECTID": 4937, "ID": "0006853110", "NAME": "AURORA ST LUKES MED CTR SOUTH SHORE", "ADDRESS": "5900 S LAKE DR", "CITY": "CUDAHY", "STATE": "WI", "ZIP": "53110", "ZIP4": "NOT AVAILABLE", "TELEPHONE": "(414) 489-4009", "TYPE": "GENERAL ACUTE CARE", "STATUS": "OPEN", "POPULATION": 275, "COUNTY": "MILWAUKEE", "COUNTYFIPS": "55079", "COUNTRY": "USA", "LATITUDE": 42.936339069, "LONGITUDE": -87.851172774999995, "NAICS_CODE": "622110", "NAICS_DESC": "GENERAL MEDICAL AND SURGICAL HOSPITALS", "SOURCE": "https://www.dhs.wisconsin.gov/guide/hospital.htm", "SOURCEDATE": "2018-08-13T00:00:00.000Z", "VAL_METHOD": "IMAGERY", "VAL_DATE": "2014-02-12T00:00:00.000Z", "WEBSITE": "https://my.aurorahealthcare.org", "STATE_ID": "16", "ALT_NAME": "NOT AVAILABLE", "ST_FIPS": "55", "OWNER": "NON-PROFIT", "TTL_STAFF": -999, "BEDS": 275, "TRAUMA": "LEVEL IV", "HELIPAD": "N" }, "geometry": { "type": "Polygon", "coordinates": [ [ [ -87.8534657, 42.850971200000018 ], [ -87.912476, 42.882963500000024 ], [ -87.937108, 42.901081499999989 ], [ -87.9380615, 42.9018057 ], [ -87.9540288, 42.916416300000023 ], [ -87.9637111, 42.930404499999945 ], [ -87.9509219, 42.959489 ], [ -87.948521, 42.962172 ], [ -87.899147, 43.0056245 ], [ -87.8925357, 43.007648500000037 ], [ -87.8919512, 43.007542099999952 ], [ -87.860582199999982, 42.97882909999997 ], [ -87.8594373, 42.977706900000044 ], [ -87.8478431, 42.963825300000011 ], [ -87.8437738, 42.95093839999997 ], [ -87.843067, 42.9084845 ], [ -87.8492908, 42.8568008 ], [ -87.8534657, 42.850971200000018 ] ] ] } },
{ "type": "Feature", "properties": { "OBJECTID": 4938, "ID": "0007453223", "NAME": "AURORA SINAI MEDICAL CENTER", "ADDRESS": "945 N 12TH ST", "CITY": "MILWAUKEE", "STATE": "WI", "ZIP": "53223", "ZIP4": "NOT AVAILABLE", "TELEPHONE": "(414) 219-2000", "TYPE": "GENERAL ACUTE CARE", "STATUS": "OPEN", "POPULATION": 386, "COUNTY": "MILWAUKEE", "COUNTYFIPS": "55079", "COUNTRY": "USA", "LATITUDE": 43.042490135000001, "LONGITUDE": -87.927810902999994, "NAICS_CODE": "622110", "NAICS_DESC": "GENERAL MEDICAL AND SURGICAL HOSPITALS", "SOURCE": "https://www.dhs.wisconsin.gov/guide/hospital.htm", "SOURCEDATE": "2018-08-13T00:00:00.000Z", "VAL_METHOD": "IMAGERY", "VAL_DATE": "2014-02-10T00:00:00.000Z", "WEBSITE": "http://www.aurorahealthcare.org", "STATE_ID": "74", "ALT_NAME": "NOT AVAILABLE", "ST_FIPS": "55", "OWNER": "NON-PROFIT", "TTL_STAFF": -999, "BEDS": 386, "TRAUMA": "LEVEL IV", "HELIPAD": "N" }, "geometry": { "type": "Polygon", "coordinates": [ [ [ -87.9356115, 42.934919900000011 ], [ -88.0393159, 42.998168300000046 ], [ -88.0444035, 43.002516899999982 ], [ -88.055741, 43.016472199999988 ], [ -88.0611677, 43.0362675 ], [ -88.0475391, 43.059526800000029 ], [ -88.0120443, 43.119608299999982 ], [ -87.9125271, 43.158167 ], [ -87.912268, 43.1581683 ], [ -87.907000300000021, 43.154911699999943 ], [ -87.8770246, 43.095804800000025 ], [ -87.8739792, 43.08923649999997 ], [ -87.8688633, 43.07546360000002 ], [ -87.8686895, 43.074679600000024 ], [ -87.8678264, 43.068691599999987 ], [ -87.8584935, 42.976567399999965 ], [ -87.8612481, 42.973631500000039 ], [ -87.8785698, 42.95905 ], [ -87.8799411, 42.958162399999978 ], [ -87.9095517, 42.944643400000032 ], [ -87.9356115, 42.934919900000011 ] ] ] } },
{ "type": "Feature", "properties": { "OBJECTID": 4939, "ID": "0007653211", "NAME": "COLUMBIA ST MARYS HOSPITAL MILWAUKEE", "ADDRESS": "2323 N LAKE DR", "CITY": "MILWAUKEE", "STATE": "WI", "ZIP": "53211", "ZIP4": "NOT AVAILABLE", "TELEPHONE": "(414) 291-1210", "TYPE": "GENERAL ACUTE CARE", "STATUS": "OPEN", "POPULATION": 422, "COUNTY": "MILWAUKEE", "COUNTYFIPS": "55079", "COUNTRY": "USA", "LATITUDE": 43.061163293000099, "LONGITUDE": -87.880090328999998, "NAICS_CODE": "622110", "NAICS_DESC": "GENERAL MEDICAL AND SURGICAL HOSPITALS", "SOURCE": "https://www.dhs.wisconsin.gov/guide/hospital.htm", "SOURCEDATE": "2018-08-13T00:00:00.000Z", "VAL_METHOD": "IMAGERY", "VAL_DATE": "2014-03-12T00:00:00.000Z", "WEBSITE": "http://www.columbia-stmarys.org", "STATE_ID": "53", "ALT_NAME": "NOT AVAILABLE", "ST_FIPS": "55", "OWNER": "NON-PROFIT", "TTL_STAFF": -999, "BEDS": 422, "TRAUMA": "LEVEL IV", "HELIPAD": "Y" }, "geometry": { "type": "Polygon", "coordinates": [ [ [ -87.8846326, 42.973716699999969 ], [ -87.9164842, 42.983886 ], [ -87.9908178, 43.0305531 ], [ -87.9739894, 43.08796719999998 ], [ -87.9498937, 43.111248599999975 ], [ -87.9353641, 43.123429599999973 ], [ -87.9039241, 43.133074200000024 ], [ -87.878967, 43.0985079 ], [ -87.8770246, 43.095804800000025 ], [ -87.8739792, 43.08923649999997 ], [ -87.8688633, 43.07546360000002 ], [ -87.8686895, 43.074679600000024 ], [ -87.8678264, 43.068691599999987 ], [ -87.8720481, 42.987547799999987 ], [ -87.8780575, 42.973599599999979 ], [ -87.8806618, 42.973584499999951 ], [ -87.8811858, 42.9735874 ], [ -87.8846326, 42.973716699999969 ] ] ] } },
{ "type": "Feature", "properties": { "OBJECTID": 4940, "ID": "0008153210", "NAME": "WHEATON FRANCISCAN INC- ST JOSEPH", "ADDRESS": "5000 W CHAMBERS ST", "CITY": "MILWAUKEE", "STATE": "WI", "ZIP": "53210", "ZIP4": "NOT AVAILABLE", "TELEPHONE": "(414) 447-2000", "TYPE": "GENERAL ACUTE CARE", "STATUS": "OPEN", "POPULATION": 538, "COUNTY": "MILWAUKEE", "COUNTYFIPS": "55079", "COUNTRY": "USA", "LATITUDE": 43.074120252999997, "LONGITUDE": -87.976073404000005, "NAICS_CODE": "622110", "NAICS_DESC": "GENERAL MEDICAL AND SURGICAL HOSPITALS", "SOURCE": "https://www.dhs.wisconsin.gov/guide/hospital.htm", "SOURCEDATE": "2018-08-13T00:00:00.000Z", "VAL_METHOD": "IMAGERY", "VAL_DATE": "2014-02-10T00:00:00.000Z", "WEBSITE": "http://www.mywheaton.org/stjoseph", "STATE_ID": "30", "ALT_NAME": "NOT AVAILABLE", "ST_FIPS": "55", "OWNER": "NON-PROFIT", "TTL_STAFF": -999, "BEDS": 538, "TRAUMA": "LEVEL IV", "HELIPAD": "N" }, "geometry": { "type": "Polygon", "coordinates": [ [ [ -87.9680439, 42.984562 ], [ -88.0376792, 43.006353799999971 ], [ -88.04743910000002, 43.016514500000056 ], [ -88.083148, 43.075023 ], [ -88.090032600000015, 43.08956060000002 ], [ -88.0900366, 43.089745 ], [ -88.0642615, 43.158470799999975 ], [ -88.0050381, 43.1581812 ], [ -88.0047915, 43.158177199999983 ], [ -87.9823062, 43.151642 ], [ -87.9654926, 43.145444900000015 ], [ -87.9145809, 43.124182199999964 ], [ -87.9144526, 43.124116700000023 ], [ -87.911565300000021, 43.122421100000054 ], [ -87.8758844, 43.092787899999962 ], [ -87.8739792, 43.08923649999997 ], [ -87.8686895, 43.074679600000024 ], [ -87.8678264, 43.068691599999987 ], [ -87.9163622, 43.002735800000011 ], [ -87.9678947, 42.984556599999976 ], [ -87.9680439, 42.984562 ] ] ] } },
{ "type": "Feature", "properties": { "OBJECTID": 4941, "ID": "0008453227", "NAME": "AURORA WEST ALLIS MEDICAL CENTER", "ADDRESS": "8901 W LINCOLN AVE", "CITY": "WEST ALLIS", "STATE": "WI", "ZIP": "53227", "ZIP4": "NOT AVAILABLE", "TELEPHONE": "(414) 328-6000", "TYPE": "GENERAL ACUTE CARE", "STATUS": "OPEN", "POPULATION": 350, "COUNTY": "MILWAUKEE", "COUNTYFIPS": "55079", "COUNTRY": "USA", "LATITUDE": 43.001425045000097, "LONGITUDE": -88.023473890999995, "NAICS_CODE": "622110", "NAICS_DESC": "GENERAL MEDICAL AND SURGICAL HOSPITALS", "SOURCE": "https://www.dhs.wisconsin.gov/guide/hospital.htm", "SOURCEDATE": "2018-08-13T00:00:00.000Z", "VAL_METHOD": "IMAGERY", "VAL_DATE": "2014-02-10T00:00:00.000Z", "WEBSITE": "http://www.aurorahealthcare.org", "STATE_ID": "149", "ALT_NAME": "NOT AVAILABLE", "ST_FIPS": "55", "OWNER": "NON-PROFIT", "TTL_STAFF": -999, "BEDS": 350, "TRAUMA": "LEVEL IV", "HELIPAD": "N" }, "geometry": { "type": "Polygon", "coordinates": [ [ [ -88.0475362, 42.915264100000016 ], [ -88.0572224, 42.916305100000031 ], [ -88.109108, 42.946585 ], [ -88.1127365, 42.950219 ], [ -88.12313, 42.96765 ], [ -88.1267036, 42.980741 ], [ -88.1334142, 43.016995799999968 ], [ -88.071264200000016, 43.09269230000001 ], [ -88.057138, 43.10509 ], [ -87.9688291, 43.064278 ], [ -87.9245998, 43.0391022 ], [ -87.9203861, 43.0361125 ], [ -87.9193266, 43.034659099999985 ], [ -87.9247821, 43.002861100000018 ], [ -87.940746800000014, 42.9621119 ], [ -87.9489288, 42.957609099999942 ], [ -88.0087534, 42.9289997 ], [ -88.0460795, 42.915778399999965 ], [ -88.0475362, 42.915264100000016 ] ] ] } },
{ "type": "Feature", "properties": { "OBJECTID": 4942, "ID": "0008553227", "NAME": "ROGERS MEM HOSPITAL MILWAUKEE", "ADDRESS": "11101 W LINCOLN AVE", "CITY": "WEST ALLIS", "STATE": "WI", "ZIP": "53227", "ZIP4": "NOT AVAILABLE", "TELEPHONE": "(414) 327-3000", "TYPE": "GENERAL ACUTE CARE", "STATUS": "OPEN", "POPULATION": 81, "COUNTY": "MILWAUKEE", "COUNTYFIPS": "55079", "COUNTRY": "USA", "LATITUDE": 43.001466807, "LONGITUDE": -88.05139457, "NAICS_CODE": "622110", "NAICS_DESC": "GENERAL MEDICAL AND SURGICAL HOSPITALS", "SOURCE": "https://www.dhs.wisconsin.gov/guide/hospital.htm", "SOURCEDATE": "2018-08-13T00:00:00.000Z", "VAL_METHOD": "IMAGERY/OTHER", "VAL_DATE": "2014-02-12T00:00:00.000Z", "WEBSITE": "rogershospital.org/?", "STATE_ID": "751", "ALT_NAME": "NOT AVAILABLE", "ST_FIPS": "55", "OWNER": "NON-PROFIT", "TTL_STAFF": -999, "BEDS": 81, "TRAUMA": "NOT AVAILABLE", "HELIPAD": "N" }, "geometry": { "type": "Polygon", "coordinates": [ [ [ -88.0475362, 42.915264100000016 ], [ -88.0572224, 42.916305100000031 ], [ -88.10981, 42.94079 ], [ -88.114957, 42.944325 ], [ -88.128717, 42.960915 ], [ -88.152462, 42.990761 ], [ -88.1557411, 43.017028199999949 ], [ -88.1557411, 43.017175800000047 ], [ -88.155549, 43.017766 ], [ -88.0697422, 43.091909899999976 ], [ -88.0581384, 43.101213799999968 ], [ -87.9700594, 43.060628599999959 ], [ -87.96747, 43.059274300000062 ], [ -87.965868400000019, 43.058384899999979 ], [ -87.9282482, 43.035244400000032 ], [ -87.9563785, 42.962238099999951 ], [ -87.9605465, 42.9593309 ], [ -87.968623, 42.9551538 ], [ -88.0460795, 42.915778399999965 ], [ -88.0475362, 42.915264100000016 ] ] ] } },
{ "type": "Feature", "properties": { "OBJECTID": 4945, "ID": "0012954634", "NAME": "ST JOSEPHS HLTH SVCS", "ADDRESS": "400 WATER AVE", "CITY": "HILLSBORO", "STATE": "WI", "ZIP": "54634", "ZIP4": "NOT AVAILABLE", "TELEPHONE": "(608) 489-8000", "TYPE": "GENERAL ACUTE CARE", "STATUS": "OPEN", "POPULATION": 25, "COUNTY": "VERNON", "COUNTYFIPS": "55123", "COUNTRY": "USA", "LATITUDE": 43.648726082000103, "LONGITUDE": -90.34520407, "NAICS_CODE": "622110", "NAICS_DESC": "GENERAL MEDICAL AND SURGICAL HOSPITALS", "SOURCE": "https://www.dhs.wisconsin.gov/guide/hospital.htm", "SOURCEDATE": "2018-08-13T00:00:00.000Z", "VAL_METHOD": "IMAGERY", "VAL_DATE": "2014-03-12T00:00:00.000Z", "WEBSITE": "http://www.stjhealthcare.org", "STATE_ID": "1005", "ALT_NAME": "NOT AVAILABLE", "ST_FIPS": "55", "OWNER": "NON-PROFIT", "TTL_STAFF": -999, "BEDS": 25, "TRAUMA": "LEVEL IV", "HELIPAD": "Y" }, "geometry": { "type": "Polygon", "coordinates": [ [ [ -90.35255, 43.565526 ], [ -90.377608, 43.575767 ], [ -90.4521375720511, 43.63254765855509 ], [ -90.452338571918474, 43.632766658720961 ], [ -90.462063567032899, 43.667887998133878 ], [ -90.336372, 43.719887 ], [ -90.2663111, 43.704563299999975 ], [ -90.2359584, 43.672752800000012 ], [ -90.245949, 43.642722 ], [ -90.314462, 43.575907 ], [ -90.3505323, 43.565474500000043 ], [ -90.35255, 43.565526 ] ] ] } },
{ "type": "Feature", "properties": { "OBJECTID": 4947, "ID": "0013653027", "NAME": "AURORA MED CENTER-WASHINGTON COUNTY", "ADDRESS": "1032 E SUMNER ST", "CITY": "HARTFORD", "STATE": "WI", "ZIP": "53027", "ZIP4": "NOT AVAILABLE", "TELEPHONE": "(262) 673-2300", "TYPE": "GENERAL ACUTE CARE", "STATUS": "OPEN", "POPULATION": 71, "COUNTY": "WASHINGTON", "COUNTYFIPS": "55131", "COUNTRY": "USA", "LATITUDE": 43.3184058430001, "LONGITUDE": -88.362461561999993, "NAICS_CODE": "622110", "NAICS_DESC": "GENERAL MEDICAL AND SURGICAL HOSPITALS", "SOURCE": "https://www.dhs.wisconsin.gov/guide/hospital.htm", "SOURCEDATE": "2018-08-13T00:00:00.000Z", "VAL_METHOD": "IMAGERY", "VAL_DATE": "2014-02-10T00:00:00.000Z", "WEBSITE": "http://www.aurorahealthcare.org", "STATE_ID": "195", "ALT_NAME": "NOT AVAILABLE", "ST_FIPS": "55", "OWNER": "NON-PROFIT", "TTL_STAFF": -999, "BEDS": 71, "TRAUMA": "LEVEL III", "HELIPAD": "Y" }, "geometry": { "type": "Polygon", "coordinates": [ [ [ -88.3800189, 43.2322566 ], [ -88.4042727, 43.2526048 ], [ -88.4887561, 43.3259043 ], [ -88.458092, 43.347227 ], [ -88.3666988, 43.404666300000045 ], [ -88.341053, 43.4059946 ], [ -88.2067855, 43.324548 ], [ -88.2067968, 43.324376699999966 ], [ -88.2310563, 43.301936500000011 ], [ -88.340629600000014, 43.231994500000027 ], [ -88.3800189, 43.2322566 ] ] ] } },
{ "type": "Feature", "properties": { "OBJECTID": 4948, "ID": "0014153066", "NAME": "ROGERS MEM HSPTL", "ADDRESS": "34700 VALLEY RD", "CITY": "OCONOMOWOC", "STATE": "WI", "ZIP": "53066", "ZIP4": "NOT AVAILABLE", "TELEPHONE": "(262) 646-4411", "TYPE": "PSYCHIATRIC", "STATUS": "OPEN", "POPULATION": 90, "COUNTY": "WAUKESHA", "COUNTYFIPS": "55133", "COUNTRY": "USA", "LATITUDE": 43.084342445000097, "LONGITUDE": -88.435921339999894, "NAICS_CODE": "622210", "NAICS_DESC": "PSYCHIATRIC AND SUBSTANCE ABUSE HOSPITALS", "SOURCE": "https://www.dhs.wisconsin.gov/guide/hospital.htm", "SOURCEDATE": "2018-08-13T00:00:00.000Z", "VAL_METHOD": "IMAGERY", "VAL_DATE": "2014-02-10T00:00:00.000Z", "WEBSITE": "http://www.rogershospital.org", "STATE_ID": "190", "ALT_NAME": "NOT AVAILABLE", "ST_FIPS": "55", "OWNER": "NON-PROFIT", "TTL_STAFF": -999, "BEDS": 90, "TRAUMA": "NOT AVAILABLE", "HELIPAD": "N" }, "geometry": { "type": "Polygon", "coordinates": [ [ [ -88.46314, 43.000097 ], [ -88.596873, 43.072343 ], [ -88.594464, 43.077481 ], [ -88.52803, 43.123601 ], [ -88.460184, 43.154549 ], [ -88.3368158, 43.119780800000044 ], [ -88.3134006, 43.103752599999957 ], [ -88.2916029, 43.049785300000039 ], [ -88.3836081, 43.0155311 ], [ -88.443005, 43.00267 ], [ -88.46314, 43.000097 ] ] ] } },
{ "type": "Feature", "properties": { "OBJECTID": 4952, "ID": "0018053718", "NAME": "UW HEALTH REHABILITATION HOSPITAL", "ADDRESS": "5115 N BILTMORE LN", "CITY": "MADISON", "STATE": "WI", "ZIP": "53718", "ZIP4": "NOT AVAILABLE", "TELEPHONE": "(608) 592-8173", "TYPE": "REHABILITATION", "STATUS": "OPEN", "POPULATION": 50, "COUNTY": "DANE", "COUNTYFIPS": "55025", "COUNTRY": "USA", "LATITUDE": 43.153038982000098, "LONGITUDE": -89.296702523999997, "NAICS_CODE": "622310", "NAICS_DESC": "REHABILITATION HOSPITALS (EXCEPT ALCOHOLISM, DRUG ADDICTION)", "SOURCE": "https://www.dhs.wisconsin.gov/guide/hospital.htm", "SOURCEDATE": "2018-08-13T00:00:00.000Z", "VAL_METHOD": "IMAGERY/OTHER", "VAL_DATE": "2016-02-03T00:00:00.000Z", "WEBSITE": "http://www.uwhealth.org/locations/detail.jsp?locationId=286", "STATE_ID": "321", "ALT_NAME": "NOT AVAILABLE", "ST_FIPS": "55", "OWNER": "NON-PROFIT", "TTL_STAFF": -999, "BEDS": 50, "TRAUMA": "NOT AVAILABLE", "HELIPAD": "N" }, "geometry": { "type": "Polygon", "coordinates": [ [ [ -89.2743796, 43.0396323 ], [ -89.3001995, 43.047549699999955 ], [ -89.3597137, 43.092125399999979 ], [ -89.3606848, 43.09290490000005 ], [ -89.3622549, 43.094302400000018 ], [ -89.382642, 43.148012 ], [ -89.3866337, 43.192662200000015 ], [ -89.3750158, 43.24600829999995 ], [ -89.3229185, 43.252866 ], [ -89.211048, 43.216968 ], [ -89.1974475, 43.204573300000035 ], [ -89.194055, 43.201301 ], [ -89.186821, 43.180907 ], [ -89.192623, 43.110083399999944 ], [ -89.1969034, 43.102605600000032 ], [ -89.199449, 43.099377 ], [ -89.2743796, 43.0396323 ] ] ] } },
{ "type": "Feature", "properties": { "OBJECTID": 43, "ID": "0151253226", "NAME": "WHEATON FRANCISCAN WI HEART SPINE AND ORTHO", "ADDRESS": "10000 WEST BLUEMOUND ROAD", "CITY": "WAUWATOSA", "STATE": "WI", "ZIP": "53226", "ZIP4": "NOT AVAILABLE", "TELEPHONE": "(414) 778-7800", "TYPE": "GENERAL ACUTE CARE", "STATUS": "OPEN", "POPULATION": 40, "COUNTY": "MILWAUKEE", "COUNTYFIPS": "55079", "COUNTRY": "USA", "LATITUDE": 43.035812152000098, "LONGITUDE": -88.037265822999998, "NAICS_CODE": "622110", "NAICS_DESC": "GENERAL MEDICAL AND SURGICAL HOSPITALS", "SOURCE": "https://www.dhs.wisconsin.gov/guide/hospital.htm", "SOURCEDATE": "2018-08-13T00:00:00.000Z", "VAL_METHOD": "IMAGERY/OTHER", "VAL_DATE": "2015-03-27T00:00:00.000Z", "WEBSITE": "NOT AVAILABLE", "STATE_ID": "NOT AVAILABLE", "ALT_NAME": "WISCONSIN HEART HOSPITAL", "ST_FIPS": "55", "OWNER": "NOT AVAILABLE", "TTL_STAFF": -999, "BEDS": 40, "TRAUMA": "NOT AVAILABLE", "HELIPAD": "N" }, "geometry": { "type": "Polygon", "coordinates": [ [ [ -88.0471187, 42.924551099999988 ], [ -88.0543405, 42.925228200000028 ], [ -88.105196, 42.95504 ], [ -88.1474859, 43.017071 ], [ -88.130788, 43.09114 ], [ -88.068317, 43.143855 ], [ -88.068174, 43.143965 ], [ -88.0550662, 43.152526799999983 ], [ -88.0488167, 43.147949700000019 ], [ -87.9044168, 43.035777199999927 ], [ -87.9646721, 42.960847300000019 ], [ -88.0087641, 42.9410418 ], [ -88.0468761, 42.924602700000023 ], [ -88.0471187, 42.924551099999988 ] ] ] } },
{ "type": "Feature", "properties": { "OBJECTID": 44, "ID": "0152354971", "NAME": "RIPON MEDICAL CENTER", "ADDRESS": "845 PARKSIDE ST", "CITY": "RIPON", "STATE": "WI", "ZIP": "54971", "ZIP4": "NOT AVAILABLE", "TELEPHONE": "(920) 748-3101", "TYPE": "CRITICAL ACCESS", "STATUS": "OPEN", "POPULATION": 18, "COUNTY": "FOND DU LAC", "COUNTYFIPS": "55039", "COUNTRY": "USA", "LATITUDE": 43.834868748000098, "LONGITUDE": -88.81800698000001, "NAICS_CODE": "622110", "NAICS_DESC": "GENERAL MEDICAL AND SURGICAL HOSPITALS", "SOURCE": "https://www.dhs.wisconsin.gov/guide/hospital.htm", "SOURCEDATE": "2018-08-13T00:00:00.000Z", "VAL_METHOD": "IMAGERY/OTHER", "VAL_DATE": "2015-03-27T00:00:00.000Z", "WEBSITE": "http://www.agnesian.com/locations/hospitals/ripon-medical-center", "STATE_ID": "1024", "ALT_NAME": "NOT AVAILABLE", "ST_FIPS": "55", "OWNER": "NOT AVAILABLE", "TTL_STAFF": -999, "BEDS": 18, "TRAUMA": "LEVEL IV", "HELIPAD": "Y" }, "geometry": { "type": "Polygon", "coordinates": [ [ [ -88.8255039, 43.764104899999978 ], [ -88.865566, 43.778777 ], [ -88.9562366, 43.854675599999986 ], [ -88.9562355, 43.8548113 ], [ -88.945128, 43.865461 ], [ -88.92569, 43.874576 ], [ -88.885613, 43.89129 ], [ -88.743083, 43.902021 ], [ -88.742421, 43.901929 ], [ -88.713411, 43.806358 ], [ -88.722714, 43.792805 ], [ -88.805374, 43.766996 ], [ -88.8255039, 43.764104899999978 ] ] ] } },
{ "type": "Feature", "properties": { "OBJECTID": 117, "ID": "0002753925", "NAME": "COLUMBUS COM HSPTL", "ADDRESS": "1515 PARK AVE", "CITY": "COLUMBUS", "STATE": "WI", "ZIP": "53925", "ZIP4": "NOT AVAILABLE", "TELEPHONE": "(920) 623-2200", "TYPE": "GENERAL ACUTE CARE", "STATUS": "OPEN", "POPULATION": 25, "COUNTY": "COLUMBIA", "COUNTYFIPS": "55021", "COUNTRY": "USA", "LATITUDE": 43.322607354000098, "LONGITUDE": -89.035370684, "NAICS_CODE": "622110", "NAICS_DESC": "GENERAL MEDICAL AND SURGICAL HOSPITALS", "SOURCE": "https://www.dhs.wisconsin.gov/guide/hospital.htm", "SOURCEDATE": "2018-08-13T00:00:00.000Z", "VAL_METHOD": "IMAGERY", "VAL_DATE": "2014-03-12T00:00:00.000Z", "WEBSITE": "http://www.cch-inc.com", "STATE_ID": "1042", "ALT_NAME": "NOT AVAILABLE", "ST_FIPS": "55", "OWNER": "NON-PROFIT", "TTL_STAFF": -999, "BEDS": 25, "TRAUMA": "LEVEL IV", "HELIPAD": "Y" }, "geometry": { "type": "Polygon", "coordinates": [ [ [ -89.01923, 43.240942 ], [ -89.068144, 43.253697 ], [ -89.088353, 43.267926 ], [ -89.117037, 43.321085 ], [ -89.117007, 43.322818 ], [ -89.108980200000019, 43.340899799999988 ], [ -89.07466, 43.392231 ], [ -89.036653500000014, 43.392998700000028 ], [ -89.036269, 43.39295 ], [ -89.0090427, 43.358358500000023 ], [ -88.994897, 43.296998 ], [ -89.01923, 43.240942 ] ] ] } },
{ "type": "Feature", "properties": { "OBJECTID": 119, "ID": "0004354923", "NAME": "BERLIN MEMORIAL HOSPITAL", "ADDRESS": "225 MEMORIAL DRIVE", "CITY": "BERLIN", "STATE": "WI", "ZIP": "54923", "ZIP4": "NOT AVAILABLE", "TELEPHONE": "(920) 361-1313", "TYPE": "GENERAL ACUTE CARE", "STATUS": "OPEN", "POPULATION": 25, "COUNTY": "GREEN LAKE", "COUNTYFIPS": "55047", "COUNTRY": "USA", "LATITUDE": 43.978477154000103, "LONGITUDE": -88.94122636, "NAICS_CODE": "622110", "NAICS_DESC": "GENERAL MEDICAL AND SURGICAL HOSPITALS", "SOURCE": "https://www.dhs.wisconsin.gov/guide/hospital.htm", "SOURCEDATE": "2018-08-13T00:00:00.000Z", "VAL_METHOD": "IMAGERY", "VAL_DATE": "2014-02-10T00:00:00.000Z", "WEBSITE": "http://www.chnwi.org", "STATE_ID": "1060", "ALT_NAME": "NOT AVAILABLE", "ST_FIPS": "55", "OWNER": "NON-PROFIT", "TTL_STAFF": -999, "BEDS": 25, "TRAUMA": "NOT AVAILABLE", "HELIPAD": "Y" }, "geometry": { "type": "Polygon", "coordinates": [ [ [ -88.9465314, 43.903801 ], [ -88.966792, 43.917435 ], [ -89.0313212, 43.971410800000029 ], [ -88.9922989, 44.052639800000016 ], [ -88.9014642, 44.026862399999978 ], [ -88.852556, 43.967831 ], [ -88.909546, 43.924117 ], [ -88.9465314, 43.903801 ] ] ] } },
{ "type": "Feature", "properties": { "OBJECTID": 121, "ID": "0006753132", "NAME": "WHEATON FRANCISCAN HEALTHCARE- FRANKLIN INC", "ADDRESS": "10101 SOUTH 27TH STREET", "CITY": "FRANKLIN", "STATE": "WI", "ZIP": "53132", "ZIP4": "NOT AVAILABLE", "TELEPHONE": "(414) 325-4700", "TYPE": "GENERAL ACUTE CARE", "STATUS": "OPEN", "POPULATION": 52, "COUNTY": "MILWAUKEE", "COUNTYFIPS": "55079", "COUNTRY": "USA", "LATITUDE": 42.86001258, "LONGITUDE": -87.954068104000001, "NAICS_CODE": "622110", "NAICS_DESC": "GENERAL MEDICAL AND SURGICAL HOSPITALS", "SOURCE": "https://www.dhs.wisconsin.gov/guide/hospital.htm", "SOURCEDATE": "2018-08-13T00:00:00.000Z", "VAL_METHOD": "IMAGERY", "VAL_DATE": "2014-02-10T00:00:00.000Z", "WEBSITE": "http://www.mywheaton.org/", "STATE_ID": "314", "ALT_NAME": "NOT AVAILABLE", "ST_FIPS": "55", "OWNER": "NON-PROFIT", "TTL_STAFF": -999, "BEDS": 52, "TRAUMA": "LEVEL IV", "HELIPAD": "N" }, "geometry": { "type": "Polygon", "coordinates": [ [ [ -88.0121208, 42.8203025 ], [ -88.0548573, 42.857989400000022 ], [ -88.0546306, 42.872545599999945 ], [ -88.0459676, 42.895120100000014 ], [ -88.0446067, 42.896214700000044 ], [ -87.9435946, 42.962674100000022 ], [ -87.9301361, 42.965748 ], [ -87.9295291, 42.96578719999998 ], [ -87.9194471, 42.959153099999988 ], [ -87.9095854, 42.951950900000014 ], [ -87.9037127, 42.947015 ], [ -87.9035078, 42.946836600000026 ], [ -87.853364, 42.877185 ], [ -87.8494281, 42.857842799999986 ], [ -87.8492908, 42.8568008 ], [ -87.8503105, 42.854454200000013 ], [ -87.8534657, 42.850971200000018 ], [ -87.8644106, 42.842436699999965 ], [ -88.0121208, 42.8203025 ] ] ] } },
{ "type": "Feature", "properties": { "OBJECTID": 122, "ID": "0007253226", "NAME": "FROEDTERT MEM LUTHERAN HSPTL", "ADDRESS": "9200 W WISCONSIN AVE", "CITY": "MILWAUKEE", "STATE": "WI", "ZIP": "53226", "ZIP4": "NOT AVAILABLE", "TELEPHONE": "(414) 805-3000", "TYPE": "GENERAL ACUTE CARE", "STATUS": "OPEN", "POPULATION": 596, "COUNTY": "MILWAUKEE", "COUNTYFIPS": "55079", "COUNTRY": "USA", "LATITUDE": 43.040861555, "LONGITUDE": -88.024612555999994, "NAICS_CODE": "622110", "NAICS_DESC": "GENERAL MEDICAL AND SURGICAL HOSPITALS", "SOURCE": "https://www.dhs.wisconsin.gov/guide/hospital.htm", "SOURCEDATE": "2018-08-13T00:00:00.000Z", "VAL_METHOD": "IMAGERY/OTHER", "VAL_DATE": "2014-03-12T00:00:00.000Z", "WEBSITE": "http://www.froedtert.com", "STATE_ID": "232", "ALT_NAME": "NOT AVAILABLE", "ST_FIPS": "55", "OWNER": "NON-PROFIT", "TTL_STAFF": -999, "BEDS": 596, "TRAUMA": "LEVEL I", "HELIPAD": "Y" }, "geometry": { "type": "Polygon", "coordinates": [ [ [ -88.0485728, 42.9319245 ], [ -88.080044, 42.957196 ], [ -88.1026498, 42.980515700000012 ], [ -88.1334144, 43.016864399999974 ], [ -88.135226, 43.061109 ], [ -88.130943, 43.090157 ], [ -88.130904, 43.090228899999964 ], [ -88.130829, 43.090367 ], [ -88.06683, 43.142831 ], [ -88.066688, 43.142943 ], [ -88.0584605, 43.147826 ], [ -88.0488167, 43.147949700000019 ], [ -87.965407899999988, 43.0864527 ], [ -87.9008325, 43.036493699999951 ], [ -87.8994029, 43.034645700000013 ], [ -87.9169313, 43.018532599999936 ], [ -87.988572, 42.957483599999968 ], [ -88.048315, 42.931992299999969 ], [ -88.0485728, 42.9319245 ] ] ] } },
{ "type": "Feature", "properties": { "OBJECTID": 123, "ID": "0007853215", "NAME": "WHEATON FRANCISCAN HEALTHCARE- ST FRANCIS", "ADDRESS": "3237 S 16TH ST", "CITY": "MILWAUKEE", "STATE": "WI", "ZIP": "53215", "ZIP4": "NOT AVAILABLE", "TELEPHONE": "(414) 647-5000", "TYPE": "GENERAL ACUTE CARE", "STATUS": "OPEN", "POPULATION": 260, "COUNTY": "MILWAUKEE", "COUNTYFIPS": "55079", "COUNTRY": "USA", "LATITUDE": 42.985657748999998, "LONGITUDE": -87.934657291999898, "NAICS_CODE": "622110", "NAICS_DESC": "GENERAL MEDICAL AND SURGICAL HOSPITALS", "SOURCE": "https://www.dhs.wisconsin.gov/guide/hospital.htm", "SOURCEDATE": "2018-08-13T00:00:00.000Z", "VAL_METHOD": "IMAGERY", "VAL_DATE": "2014-02-10T00:00:00.000Z", "WEBSITE": "http://www.mywheaton.org", "STATE_ID": "75", "ALT_NAME": "NOT AVAILABLE", "ST_FIPS": "55", "OWNER": "NON-PROFIT", "TTL_STAFF": -999, "BEDS": 260, "TRAUMA": "LEVEL IV", "HELIPAD": "Y" }, "geometry": { "type": "Polygon", "coordinates": [ [ [ -87.9371633, 42.878220499999983 ], [ -88.0214714, 42.90942579999998 ], [ -88.0216658, 42.9095221 ], [ -88.0503878, 42.9491401 ], [ -88.0516542, 42.959053300000015 ], [ -88.0516623, 42.959198500000028 ], [ -88.0437086, 42.977448899999963 ], [ -88.0428541, 42.979385599999986 ], [ -88.0376846, 42.988509899999968 ], [ -87.9998354, 43.030503599999967 ], [ -87.9717448, 43.053834 ], [ -87.9462434, 43.066483300000023 ], [ -87.9200149, 43.074803900000028 ], [ -87.914031, 43.07107 ], [ -87.8942444, 43.0491753 ], [ -87.8478431, 42.963825300000011 ], [ -87.8473984, 42.96196829999996 ], [ -87.8475354, 42.956522 ], [ -87.8500908, 42.952810399999969 ], [ -87.9371633, 42.878220499999983 ] ] ] } },
{ "type": "Feature", "properties": { "OBJECTID": 124, "ID": "0008053211", "NAME": "SACRED HEART REHAB INST", "ADDRESS": "2301 NORTH LAKE DRIVE", "CITY": "MILWAUKEE", "STATE": "WI", "ZIP": "53211", "ZIP4": "NOT AVAILABLE", "TELEPHONE": "(414) 298-6700", "TYPE": "REHABILITATION", "STATUS": "OPEN", "POPULATION": 31, "COUNTY": "MILWAUKEE", "COUNTYFIPS": "55079", "COUNTRY": "USA", "LATITUDE": 43.060816226999997, "LONGITUDE": -87.883660363000004, "NAICS_CODE": "622310", "NAICS_DESC": "REHABILITATION HOSPITALS (EXCEPT ALCOHOLISM, DRUG ADDICTION)", "SOURCE": "https://www.dhs.wisconsin.gov/guide/hospital.htm", "SOURCEDATE": "2018-08-13T00:00:00.000Z", "VAL_METHOD": "IMAGERY", "VAL_DATE": "2014-03-13T00:00:00.000Z", "WEBSITE": "http://www.columbia-stmarys.com", "STATE_ID": "165", "ALT_NAME": "NOT AVAILABLE", "ST_FIPS": "55", "OWNER": "NON-PROFIT", "TTL_STAFF": -999, "BEDS": 31, "TRAUMA": "NOT AVAILABLE", "HELIPAD": "Y" }, "geometry": { "type": "Polygon", "coordinates": [ [ [ -87.881766, 42.978026200000045 ], [ -87.9189135, 42.9955812 ], [ -87.9704635, 43.022045700000056 ], [ -87.9860656, 43.030515400000027 ], [ -87.9820825, 43.071677700000023 ], [ -87.978315, 43.089977900000022 ], [ -87.9777483, 43.091145900000015 ], [ -87.9408668, 43.123624 ], [ -87.934388, 43.1269473 ], [ -87.9130052, 43.129965799999979 ], [ -87.9031307, 43.1294585 ], [ -87.878967, 43.0985079 ], [ -87.8770246, 43.095804800000025 ], [ -87.8739792, 43.08923649999997 ], [ -87.8688633, 43.07546360000002 ], [ -87.8686895, 43.074679600000024 ], [ -87.8678264, 43.068691599999987 ], [ -87.8773106, 42.9912342 ], [ -87.8781886, 42.9881217 ], [ -87.881766, 42.978026200000045 ] ] ] } },
{ "type": "Feature", "properties": { "OBJECTID": 125, "ID": "0008253213", "NAME": "AURORA PSYCHIATRIC HSPTL", "ADDRESS": "1220 DEWEY AVE", "CITY": "WAUWATOSA", "STATE": "WI", "ZIP": "53213", "ZIP4": "NOT AVAILABLE", "TELEPHONE": "(414) 454-6600", "TYPE": "PSYCHIATRIC", "STATUS": "OPEN", "POPULATION": 105, "COUNTY": "MILWAUKEE", "COUNTYFIPS": "55079", "COUNTRY": "USA", "LATITUDE": 43.046765098000002, "LONGITUDE": -88.007716433, "NAICS_CODE": "622210", "NAICS_DESC": "PSYCHIATRIC AND SUBSTANCE ABUSE HOSPITALS", "SOURCE": "https://www.dhs.wisconsin.gov/guide/hospital.htm", "SOURCEDATE": "2018-08-13T00:00:00.000Z", "VAL_METHOD": "IMAGERY", "VAL_DATE": "2014-02-10T00:00:00.000Z", "WEBSITE": "http://www.aurorahealthcare.org", "STATE_ID": "164", "ALT_NAME": "NOT AVAILABLE", "ST_FIPS": "55", "OWNER": "NON-PROFIT", "TTL_STAFF": -999, "BEDS": 105, "TRAUMA": "NOT AVAILABLE", "HELIPAD": "N" }, "geometry": { "type": "Polygon", "coordinates": [ [ [ -88.0497044, 42.955353399999986 ], [ -88.0612765, 42.968109200000029 ], [ -88.118331400000017, 43.0369062 ], [ -88.1225386, 43.0608046 ], [ -88.122556, 43.060910699999958 ], [ -88.1133286, 43.090016499999962 ], [ -88.0546499, 43.136710700000023 ], [ -88.0058371, 43.123217400000016 ], [ -87.9959419, 43.118327900000047 ], [ -87.956986, 43.093450200000014 ], [ -87.9517448, 43.0897551 ], [ -87.900022, 43.034634500000024 ], [ -87.9000759, 43.034556 ], [ -87.9169313, 43.018532599999936 ], [ -88.0080172, 42.9682408 ], [ -88.0228784, 42.962271 ], [ -88.0497044, 42.955353399999986 ] ] ] } },
{ "type": "Feature", "properties": { "OBJECTID": 126, "ID": "0009753097", "NAME": "COLUMBIA CENTER", "ADDRESS": "13125 N PORT WASHINGTON RD", "CITY": "MEQUON", "STATE": "WI", "ZIP": "53097", "ZIP4": "NOT AVAILABLE", "TELEPHONE": "(262) 243-7408", "TYPE": "GENERAL ACUTE CARE", "STATUS": "OPEN", "POPULATION": 17, "COUNTY": "OZAUKEE", "COUNTYFIPS": "55089", "COUNTRY": "USA", "LATITUDE": 43.256677929, "LONGITUDE": -87.926157962000005, "NAICS_CODE": "622110", "NAICS_DESC": "GENERAL MEDICAL AND SURGICAL HOSPITALS", "SOURCE": "https://www.dhs.wisconsin.gov/guide/hospital.htm", "SOURCEDATE": "2018-08-13T00:00:00.000Z", "VAL_METHOD": "IMAGERY", "VAL_DATE": "2014-03-12T00:00:00.000Z", "WEBSITE": "http://www.columbiacenter.org", "STATE_ID": "300", "ALT_NAME": "NOT AVAILABLE", "ST_FIPS": "55", "OWNER": "NON-PROFIT", "TTL_STAFF": -999, "BEDS": 17, "TRAUMA": "NOT AVAILABLE", "HELIPAD": "Y" }, "geometry": { "type": "Polygon", "coordinates": [ [ [ -87.9159797, 43.1733916 ], [ -87.9249701, 43.175366 ], [ -87.92866, 43.176955799999973 ], [ -88.0056953, 43.214126799999988 ], [ -88.0334288, 43.235986499999974 ], [ -88.0433469, 43.250380599999986 ], [ -88.0041361, 43.287814 ], [ -87.9146116, 43.3531414 ], [ -87.9139572, 43.353001 ], [ -87.9131355, 43.352804499999969 ], [ -87.8895984, 43.32047720000002 ], [ -87.8983617, 43.199029500000023 ], [ -87.910796, 43.1767372 ], [ -87.9159797, 43.1733916 ] ] ] } },
{ "type": "Feature", "properties": { "OBJECTID": 129, "ID": "0010853405", "NAME": "WHEATON FRANCISCAN HEALTHCARE- ALL SAINTS", "ADDRESS": "3801 SPRING ST", "CITY": "RACINE", "STATE": "WI", "ZIP": "53405", "ZIP4": "NOT AVAILABLE", "TELEPHONE": "(262) 687-4011", "TYPE": "GENERAL ACUTE CARE", "STATUS": "OPEN", "POPULATION": 314, "COUNTY": "RACINE", "COUNTYFIPS": "55101", "COUNTRY": "USA", "LATITUDE": 42.731650446000103, "LONGITUDE": -87.82650281, "NAICS_CODE": "622110", "NAICS_DESC": "GENERAL MEDICAL AND SURGICAL HOSPITALS", "SOURCE": "https://www.dhs.wisconsin.gov/guide/hospital.htm", "SOURCEDATE": "2018-08-13T00:00:00.000Z", "VAL_METHOD": "IMAGERY", "VAL_DATE": "2014-03-12T00:00:00.000Z", "WEBSITE": "http://www.allsaintshealth.com", "STATE_ID": "123", "ALT_NAME": "NOT AVAILABLE", "ST_FIPS": "55", "OWNER": "NON-PROFIT", "TTL_STAFF": -999, "BEDS": 314, "TRAUMA": "LEVEL III", "HELIPAD": "Y" }, "geometry": { "type": "Polygon", "coordinates": [ [ [ -87.8763093, 42.654238099999951 ], [ -87.9348708, 42.721148800000037 ], [ -87.9343723, 42.767914300000015 ], [ -87.876874, 42.81051 ], [ -87.8360793, 42.81600050000003 ], [ -87.8253442, 42.813551 ], [ -87.7773273, 42.784523900000067 ], [ -87.767223, 42.775716 ], [ -87.7733694, 42.731860200000028 ], [ -87.7836384, 42.707624299999985 ], [ -87.8093776, 42.664621700000026 ], [ -87.873827, 42.6542233 ], [ -87.8763093, 42.654238099999951 ] ] ] } },
{ "type": "Feature", "properties": { "OBJECTID": 997, "ID": "0007953226", "NAME": "MILWAUKEE CTY BEHAVIORAL HLTH DIV", "ADDRESS": "9455 W WATERTOWN PLANK RD", "CITY": "MILWAUKEE", "STATE": "WI", "ZIP": "53226", "ZIP4": "NOT AVAILABLE", "TELEPHONE": "(414) 257-6995", "TYPE": "PSYCHIATRIC", "STATUS": "OPEN", "POPULATION": 144, "COUNTY": "MILWAUKEE", "COUNTYFIPS": "55079", "COUNTRY": "USA", "LATITUDE": 43.043042795000098, "LONGITUDE": -88.030255585999996, "NAICS_CODE": "622210", "NAICS_DESC": "PSYCHIATRIC AND SUBSTANCE ABUSE HOSPITALS", "SOURCE": "https://www.dhs.wisconsin.gov/guide/hospital.htm", "SOURCEDATE": "2018-08-13T00:00:00.000Z", "VAL_METHOD": "IMAGERY", "VAL_DATE": "2014-02-10T00:00:00.000Z", "WEBSITE": "http://www.milwaukeecounty.org", "STATE_ID": "229", "ALT_NAME": "NOT AVAILABLE", "ST_FIPS": "55", "OWNER": "GOVERNMENT - LOCAL", "TTL_STAFF": -999, "BEDS": 144, "TRAUMA": "NOT AVAILABLE", "HELIPAD": "N" }, "geometry": { "type": "Polygon", "coordinates": [ [ [ -88.0484519, 42.938986 ], [ -88.075557, 42.961459 ], [ -88.1442119, 43.0364145 ], [ -88.143653500000013, 43.061297499999966 ], [ -88.142992, 43.09069 ], [ -88.0753464, 43.14933259999998 ], [ -88.0613307, 43.158343599999967 ], [ -88.0448248, 43.152057199999987 ], [ -88.0385881, 43.148335599999967 ], [ -87.9630651, 43.087439599999989 ], [ -87.9283784, 43.052543400000026 ], [ -87.918848, 43.041604 ], [ -87.914355, 43.035564900000047 ], [ -87.9146204, 43.0346679 ], [ -87.9218337, 43.025421400000013 ], [ -87.991883, 42.9623267 ], [ -88.0484519, 42.938986 ] ] ] } },
{ "type": "Feature", "properties": { "OBJECTID": 999, "ID": "0014553188", "NAME": "WAUKESHA CTY MENTAL HLTH CTR", "ADDRESS": "1501 AIRPORT RD", "CITY": "WAUKESHA", "STATE": "WI", "ZIP": "53188", "ZIP4": "NOT AVAILABLE", "TELEPHONE": "(262) 548-7950", "TYPE": "PSYCHIATRIC", "STATUS": "OPEN", "POPULATION": 28, "COUNTY": "WAUKESHA", "COUNTYFIPS": "55133", "COUNTRY": "USA", "LATITUDE": 43.026065220000099, "LONGITUDE": -88.232807816000005, "NAICS_CODE": "622210", "NAICS_DESC": "PSYCHIATRIC AND SUBSTANCE ABUSE HOSPITALS", "SOURCE": "https://www.dhs.wisconsin.gov/guide/hospital.htm", "SOURCEDATE": "2018-08-13T00:00:00.000Z", "VAL_METHOD": "IMAGERY", "VAL_DATE": "2014-02-10T00:00:00.000Z", "WEBSITE": "http://www.waukeshacounty.gov/", "STATE_ID": "218", "ALT_NAME": "NOT AVAILABLE", "ST_FIPS": "55", "OWNER": "GOVERNMENT - LOCAL", "TTL_STAFF": -999, "BEDS": 28, "TRAUMA": "NOT AVAILABLE", "HELIPAD": "N" }, "geometry": { "type": "Polygon", "coordinates": [ [ [ -88.228008, 42.959139900000018 ], [ -88.2835948, 42.962665899999976 ], [ -88.2926187, 42.965115900000029 ], [ -88.30176, 42.969037 ], [ -88.305712, 42.972451 ], [ -88.351267, 43.015404 ], [ -88.3733983, 43.052243599999954 ], [ -88.3728265, 43.052878399999948 ], [ -88.3062584, 43.1025208 ], [ -88.274444, 43.109379 ], [ -88.210007, 43.12068270000001 ], [ -88.209828, 43.120670899999986 ], [ -88.153226500000017, 43.090407399999989 ], [ -88.098946, 43.023356 ], [ -88.107262, 43.012715 ], [ -88.167605, 42.97235 ], [ -88.198088, 42.964364 ], [ -88.228008, 42.959139900000018 ] ] ] } },
{ "type": "Feature", "properties": { "OBJECTID": 7562, "ID": "0012053913", "NAME": "ST. CLARE HOSPITAL", "ADDRESS": "707 14TH ST", "CITY": "BARABOO", "STATE": "WI", "ZIP": "53913", "ZIP4": "NOT AVAILABLE", "TELEPHONE": "(608) 356-1400", "TYPE": "GENERAL ACUTE CARE", "STATUS": "OPEN", "POPULATION": 100, "COUNTY": "SAUK", "COUNTYFIPS": "55111", "COUNTRY": "USA", "LATITUDE": 43.480970941000102, "LONGITUDE": -89.730524072999998, "NAICS_CODE": "622110", "NAICS_DESC": "GENERAL MEDICAL AND SURGICAL HOSPITALS", "SOURCE": "https://www.dhs.wisconsin.gov/guide/hospital.htm", "SOURCEDATE": "2018-08-13T00:00:00.000Z", "VAL_METHOD": "IMAGERY", "VAL_DATE": "2014-03-12T00:00:00.000Z", "WEBSITE": "http://www.stclare.com", "STATE_ID": "65", "ALT_NAME": "NOT AVAILABLE", "ST_FIPS": "55", "OWNER": "NON-PROFIT", "TTL_STAFF": -999, "BEDS": 100, "TRAUMA": "NOT AVAILABLE", "HELIPAD": "Y" }, "geometry": { "type": "Polygon", "coordinates": [ [ [ -89.748499, 43.416573 ], [ -89.7735997, 43.420159299999973 ], [ -89.8091304, 43.447507200000025 ], [ -89.829254, 43.479495 ], [ -89.792953, 43.532552 ], [ -89.7869767, 43.5366479 ], [ -89.738472, 43.561461 ], [ -89.682376, 43.537981 ], [ -89.6207182, 43.481643 ], [ -89.673383, 43.42007 ], [ -89.748499, 43.416573 ] ] ] } },
{ "type": "Feature", "properties": { "OBJECTID": 7572, "ID": "0006653132", "NAME": "MIDWEST ORTHOPEDIC SPECIALTY HOSPITAL LLC", "ADDRESS": "10101 SOUTH 27TH STREET", "CITY": "FRANKLIN", "STATE": "WI", "ZIP": "53132", "ZIP4": "NOT AVAILABLE", "TELEPHONE": "(414) 817-5800", "TYPE": "GENERAL ACUTE CARE", "STATUS": "OPEN", "POPULATION": 16, "COUNTY": "MILWAUKEE", "COUNTYFIPS": "55079", "COUNTRY": "USA", "LATITUDE": 42.859865688000099, "LONGITUDE": -87.954472952999893, "NAICS_CODE": "622110", "NAICS_DESC": "GENERAL MEDICAL AND SURGICAL HOSPITALS", "SOURCE": "https://www.dhs.wisconsin.gov/guide/hospital.htm", "SOURCEDATE": "2018-08-13T00:00:00.000Z", "VAL_METHOD": "IMAGERY", "VAL_DATE": "2014-01-13T00:00:00.000Z", "WEBSITE": "http://www.mymosh.com/", "STATE_ID": "1070", "ALT_NAME": "NOT AVAILABLE", "ST_FIPS": "55", "OWNER": "PROPRIETARY", "TTL_STAFF": -999, "BEDS": 16, "TRAUMA": "NOT AVAILABLE", "HELIPAD": "N" }, "geometry": { "type": "Polygon", "coordinates": [ [ [ -88.0121208, 42.8203025 ], [ -88.0548573, 42.857989400000022 ], [ -88.0546306, 42.872545599999945 ], [ -88.0459676, 42.895120100000014 ], [ -88.0446067, 42.896214700000044 ], [ -87.9435946, 42.962674100000022 ], [ -87.9301361, 42.965748 ], [ -87.9295291, 42.96578719999998 ], [ -87.9194471, 42.959153099999988 ], [ -87.9095854, 42.951950900000014 ], [ -87.9037127, 42.947015 ], [ -87.9035078, 42.946836600000026 ], [ -87.853364, 42.877185 ], [ -87.8494281, 42.857842799999986 ], [ -87.8492908, 42.8568008 ], [ -87.8503105, 42.854454200000013 ], [ -87.8534657, 42.850971200000018 ], [ -87.8644106, 42.842436699999965 ], [ -88.0121208, 42.8203025 ] ] ] } }
]
}
