{
"type": "FeatureCollection",
"crs": { "type": "name", "properties": { "name": "urn:ogc:def:crs:OGC:1.3:CRS84" } },
"features": [
{ "type": "Feature", "properties": { "OBJECTID": 4310, "ID": "0008560098", "NAME": "CENTEGRA HEALTH SYSTEM - WOODSTOCK HOSPITAL", "ADDRESS": "3701 DOTY ROAD", "CITY": "WOODSTOCK", "STATE": "IL", "ZIP": "60098", "ZIP4": "NOT AVAILABLE", "TELEPHONE": "(815) 338-2500", "TYPE": "GENERAL ACUTE CARE", "STATUS": "OPEN", "POPULATION": 135, "COUNTY": "MCHENRY", "COUNTYFIPS": "17111", "COUNTRY": "USA", "LATITUDE": 42.275597415000099, "LONGITUDE": -88.400804421999993, "NAICS_CODE": "622110", "NAICS_DESC": "GENERAL MEDICAL AND SURGICAL HOSPITALS", "SOURCE": "https://data.illinois.gov/", "SOURCEDATE": "2018-08-09T00:00:00.000Z", "VAL_METHOD": "IMAGERY", "VAL_DATE": "2016-04-26T00:00:00.000Z", "WEBSITE": "http://www.centegra.org", "STATE_ID": "140176", "ALT_NAME": "NOT AVAILABLE", "ST_FIPS": "17", "OWNER": "NON-PROFIT", "TTL_STAFF": -999, "BEDS": 135, "TRAUMA": "LEVEL II", "HELIPAD": "Y" }, "geometry": { "type": "Polygon", "coordinates": [ [ [ -88.4224159, 42.215343199999943 ], [ -88.440373, 42.235194100000029 ], [ -88.4720654, 42.276675900000015 ], [ -88.4919028, 42.3164419 ], [ -88.4917907, 42.338327899999946 ], [ -88.4917838, 42.338486900000014 ], [ -88.4432596, 42.341887400000019 ], [ -88.4138953, 42.3347288 ], [ -88.350288, 42.305921 ], [ -88.336187, 42.290022 ], [ -88.3014838, 42.2485589 ], [ -88.3133304, 42.226159399999986 ], [ -88.3186927, 42.218841900000037 ], [ -88.3908251, 42.215366699999983 ], [ -88.4224159, 42.215343199999943 ] ] ] } },
{ "type": "Feature", "properties": { "OBJECTID": 358, "ID": "0006560045", "NAME": "NORTHWESTERN LAKE FOREST HOSPITAL", "ADDRESS": "660 N WESTMORELAND ROAD", "CITY": "LAKE FOREST", "STATE": "IL", "ZIP": "60045", "ZIP4": "NOT AVAILABLE", "TELEPHONE": "(847) 234-5600", "TYPE": "GENERAL ACUTE CARE", "STATUS": "OPEN", "POPULATION": 188, "COUNTY": "LAKE", "COUNTYFIPS": "17097", "COUNTRY": "USA", "LATITUDE": 42.252278629000003, "LONGITUDE": -87.865294429999906, "NAICS_CODE": "622110", "NAICS_DESC": "GENERAL MEDICAL AND SURGICAL HOSPITALS", "SOURCE": "https://data.illinois.gov/", "SOURCEDATE": "2018-08-09T00:00:00.000Z", "VAL_METHOD": "IMAGERY", "VAL_DATE": "2014-03-12T00:00:00.000Z", "WEBSITE": "http://www.lfh.org", "STATE_ID": "140130", "ALT_NAME": "NOT AVAILABLE", "ST_FIPS": "17", "OWNER": "NON-PROFIT", "TTL_STAFF": -999, "BEDS": 188, "TRAUMA": "LEVEL II", "HELIPAD": "Y" }, "geometry": { "type": "Polygon", "coordinates": [ [ [ -87.8744194, 42.160963100000011 ], [ -87.9297237, 42.19838750000001 ], [ -87.976934, 42.23534 ], [ -87.982127599999984, 42.240535799999989 ], [ -87.9821273, 42.240633099999961 ], [ -87.9607066, 42.283678099999982 ], [ -87.9226464, 42.344824499999945 ], [ -87.89232, 42.348284700000036 ], [ -87.839547, 42.319261 ], [ -87.797472, 42.200464 ], [ -87.7975379, 42.197933199999973 ], [ -87.808417, 42.16224 ], [ -87.8744194, 42.160963100000011 ] ] ] } },
{ "type": "Feature", "properties": { "OBJECTID": 360, "ID": "0012860010", "NAME": "ADVOCATE GOOD SHEPHERD HOSPITAL", "ADDRESS": "450 WEST HIGHWAY 22", "CITY": "BARRINGTON", "STATE": "IL", "ZIP": "60010", "ZIP4": "NOT AVAILABLE", "TELEPHONE": "(847) 381-9600", "TYPE": "GENERAL ACUTE CARE", "STATUS": "OPEN", "POPULATION": 169, "COUNTY": "LAKE", "COUNTYFIPS": "17097", "COUNTRY": "USA", "LATITUDE": 42.1953823710001, "LONGITUDE": -88.172818870999905, "NAICS_CODE": "622110", "NAICS_DESC": "GENERAL MEDICAL AND SURGICAL HOSPITALS", "SOURCE": "https://data.illinois.gov/", "SOURCEDATE": "2018-08-09T00:00:00.000Z", "VAL_METHOD": "IMAGERY", "VAL_DATE": "2014-03-12T00:00:00.000Z", "WEBSITE": "http://www.advocatehealth.com/gshp/", "STATE_ID": "140291", "ALT_NAME": "NOT AVAILABLE", "ST_FIPS": "17", "OWNER": "NON-PROFIT", "TTL_STAFF": -999, "BEDS": 169, "TRAUMA": "LEVEL II", "HELIPAD": "Y" }, "geometry": { "type": "Polygon", "coordinates": [ [ [ -88.1361241, 42.135582399999976 ], [ -88.199624, 42.154263 ], [ -88.2574715, 42.175793 ], [ -88.273155, 42.190188800000023 ], [ -88.2823447, 42.218985 ], [ -88.2828088, 42.225147200000016 ], [ -88.282809, 42.22525 ], [ -88.196012, 42.248779 ], [ -88.139498, 42.258827599999975 ], [ -88.0578591, 42.197353399999969 ], [ -88.0626619, 42.166244 ], [ -88.1361241, 42.135582399999976 ] ] ] } },
{ "type": "Feature", "properties": { "OBJECTID": 3472, "ID": "0002661008", "NAME": "SWEDISHAMERICAN MEDICAL CENTER BELVIDERE", "ADDRESS": "1625 SOUTH STATE STREET", "CITY": "BELVIDERE", "STATE": "IL", "ZIP": "61008", "ZIP4": "NOT AVAILABLE", "TELEPHONE": "(815) 547-5441", "TYPE": "GENERAL ACUTE CARE", "STATUS": "OPEN", "POPULATION": -999, "COUNTY": "BOONE", "COUNTYFIPS": "17007", "COUNTRY": "USA", "LATITUDE": 42.243012259000103, "LONGITUDE": -88.839745097999995, "NAICS_CODE": "622110", "NAICS_DESC": "GENERAL MEDICAL AND SURGICAL HOSPITALS", "SOURCE": "https://data.illinois.gov/", "SOURCEDATE": "2018-08-09T00:00:00.000Z", "VAL_METHOD": "IMAGERY", "VAL_DATE": "2014-02-10T00:00:00.000Z", "WEBSITE": "www.swedishamerican.org", "STATE_ID": "0005504", "ALT_NAME": "NOT AVAILABLE", "ST_FIPS": "17", "OWNER": "NON-PROFIT", "TTL_STAFF": -999, "BEDS": -999, "TRAUMA": "NOT AVAILABLE", "HELIPAD": "N" }, "geometry": { "type": "Polygon", "coordinates": [ [ [ -88.77922, 42.168004 ], [ -88.86143, 42.174884 ], [ -88.9710428, 42.226345699999968 ], [ -88.9855389, 42.238608299999989 ], [ -88.985539, 42.238736499999952 ], [ -88.98345710000001, 42.242620599999967 ], [ -88.964673600000012, 42.259174700000024 ], [ -88.925918, 42.291541 ], [ -88.8735722, 42.3327018 ], [ -88.8514665, 42.348609900000042 ], [ -88.8501729, 42.348628200000036 ], [ -88.848917, 42.348645900000015 ], [ -88.8488736, 42.3486465 ], [ -88.8222003, 42.348360100000015 ], [ -88.7172247, 42.25623979999996 ], [ -88.719111, 42.252953 ], [ -88.775653, 42.168014 ], [ -88.77922, 42.168004 ] ] ] } }
]
}
