{
"type": "FeatureCollection",
"crs": { "type": "name", "properties": { "name": "urn:ogc:def:crs:OGC:1.3:CRS84" } },
"features": [
{ "type": "Feature", "properties": { "OBJECTID": 1179, "ID": "0002228078", "NAME": "NOVANT HEALTH HUNTERSVILLE MEDICAL CENTER", "ADDRESS": "10030 GILEAD ROAD", "CITY": "HUNTERSVILLE", "STATE": "NC", "ZIP": "28078", "ZIP4": "NOT AVAILABLE", "TELEPHONE": "(704) 316-4010", "TYPE": "GENERAL ACUTE CARE", "STATUS": "OPEN", "POPULATION": 91, "COUNTY": "MECKLENBURG", "COUNTYFIPS": "37119", "COUNTRY": "USA", "LATITUDE": 35.406444182000001, "LONGITUDE": -80.860260894999996, "NAICS_CODE": "622110", "NAICS_DESC": "GENERAL MEDICAL AND SURGICAL HOSPITALS", "SOURCE": "https://www2.ncdhhs.gov/dhsr/reports.htm", "SOURCEDATE": "2018-08-10T00:00:00.000Z", "VAL_METHOD": "IMAGERY/OTHER", "VAL_DATE": "2014-02-10T00:00:00.000Z", "WEBSITE": "https://www.novanthealth.org/huntersville-medical-center.aspx", "STATE_ID": "NOT AVAILABLE", "ALT_NAME": "HUNTERSVILLE MEDICAL CENTER", "ST_FIPS": "37", "OWNER": "NON-PROFIT", "TTL_STAFF": -999, "BEDS": 91, "TRAUMA": "NOT AVAILABLE", "HELIPAD": "Y" }, "geometry": { "type": "Polygon", "coordinates": [ [ [ -80.8421069, 35.2609956 ], [ -80.9451669, 35.317611 ], [ -80.947883, 35.322903 ], [ -80.9480027, 35.323769 ], [ -80.9580182, 35.427621599999981 ], [ -80.913271, 35.496221 ], [ -80.898444, 35.503073 ], [ -80.890599, 35.505135 ], [ -80.8458879, 35.510547399999972 ], [ -80.839563, 35.511023 ], [ -80.7823273, 35.4603 ], [ -80.768017, 35.440735 ], [ -80.7343393, 35.36971470000001 ], [ -80.7365933, 35.3484586 ], [ -80.737806, 35.344052 ], [ -80.8418256, 35.2610251 ], [ -80.8421069, 35.2609956 ] ] ] } },
{ "type": "Feature", "properties": { "OBJECTID": 1180, "ID": "0002328106", "NAME": "NOVANT HEALTH MATTHEWS MEDICAL CENTER", "ADDRESS": "1500 MATTHEWS TOWNSHIP PARKWAY", "CITY": "MATTHEWS", "STATE": "NC", "ZIP": "28106", "ZIP4": "NOT AVAILABLE", "TELEPHONE": "(704) 384-6370", "TYPE": "GENERAL ACUTE CARE", "STATUS": "OPEN", "POPULATION": 146, "COUNTY": "MECKLENBURG", "COUNTYFIPS": "37119", "COUNTRY": "USA", "LATITUDE": 35.119984807999998, "LONGITUDE": -80.714078412999996, "NAICS_CODE": "622110", "NAICS_DESC": "GENERAL MEDICAL AND SURGICAL HOSPITALS", "SOURCE": "https://www2.ncdhhs.gov/dhsr/reports.htm", "SOURCEDATE": "2018-08-10T00:00:00.000Z", "VAL_METHOD": "IMAGERY/OTHER", "VAL_DATE": "2014-02-10T00:00:00.000Z", "WEBSITE": "https://www.novanthealth.org/matthews-medical-center.aspx", "STATE_ID": "NOT AVAILABLE", "ALT_NAME": "MATTHEWS MEDICAL CENTER", "ST_FIPS": "37", "OWNER": "NON-PROFIT", "TTL_STAFF": -999, "BEDS": 146, "TRAUMA": "NOT AVAILABLE", "HELIPAD": "Y" }, "geometry": { "type": "Polygon", "coordinates": [ [ [ -80.770586, 35.037884 ], [ -80.820372, 35.063911 ], [ -80.830946899999986, 35.083278499999984 ], [ -80.7887546, 35.2023653 ], [ -80.785358800000012, 35.203734700000012 ], [ -80.7571949, 35.2099649 ], [ -80.7259774, 35.2081357 ], [ -80.6296887, 35.197900099999977 ], [ -80.6142963, 35.172309400000024 ], [ -80.5905826, 35.074792200000033 ], [ -80.5879006, 35.060468899999975 ], [ -80.63786, 35.042907 ], [ -80.770586, 35.037884 ] ] ] } },
{ "type": "Feature", "properties": { "OBJECTID": 1181, "ID": "0009228207", "NAME": "NOVANT HOSPITAL CHARLOTTE ORTHOPEDIC HOSPITAL", "ADDRESS": "1901 RANDOLPH RD", "CITY": "CHARLOTTE", "STATE": "NC", "ZIP": "28207", "ZIP4": "NOT AVAILABLE", "TELEPHONE": "(704) 316-2000", "TYPE": "GENERAL ACUTE CARE", "STATUS": "OPEN", "POPULATION": 80, "COUNTY": "MECKLENBURG", "COUNTYFIPS": "37119", "COUNTRY": "USA", "LATITUDE": 35.210797601000003, "LONGITUDE": -80.823521516, "NAICS_CODE": "622110", "NAICS_DESC": "GENERAL MEDICAL AND SURGICAL HOSPITALS", "SOURCE": "https://www2.ncdhhs.gov/dhsr/reports.htm", "SOURCEDATE": "2018-08-10T00:00:00.000Z", "VAL_METHOD": "IMAGERY/OTHER", "VAL_DATE": "2014-02-10T00:00:00.000Z", "WEBSITE": "https://www.novanthealth.org/charlotte-orthopedic-hospital.aspx", "STATE_ID": "NOT AVAILABLE", "ALT_NAME": "CHARLOTTE ORTHOPEDIC HOSPITAL", "ST_FIPS": "37", "OWNER": "NON-PROFIT", "TTL_STAFF": -999, "BEDS": 80, "TRAUMA": "NOT AVAILABLE", "HELIPAD": "Y" }, "geometry": { "type": "Polygon", "coordinates": [ [ [ -80.853072, 35.117669 ], [ -80.8556243, 35.118144400000013 ], [ -80.858179, 35.119833 ], [ -80.9116398, 35.165072400000035 ], [ -80.930758, 35.188712 ], [ -80.93757, 35.197533 ], [ -80.9443226, 35.2329842 ], [ -80.9432991, 35.235377100000044 ], [ -80.911284, 35.289426100000028 ], [ -80.9111669, 35.289525199999972 ], [ -80.8484285, 35.3339202 ], [ -80.7461499, 35.2673258 ], [ -80.7077874, 35.207179799999956 ], [ -80.709795, 35.195322 ], [ -80.7278366, 35.151258499999948 ], [ -80.7797911, 35.118729899999948 ], [ -80.7800938, 35.118657299999988 ], [ -80.853072, 35.117669 ] ] ] } },
{ "type": "Feature", "properties": { "OBJECTID": 1182, "ID": "0009728144", "NAME": "NOVANT HEALTH ROWAN MEDICAL CENTER", "ADDRESS": "612 MOCKSVILLE AVE", "CITY": "SALISBURY", "STATE": "NC", "ZIP": "28144", "ZIP4": "NOT AVAILABLE", "TELEPHONE": "(704) 210-5000", "TYPE": "GENERAL ACUTE CARE", "STATUS": "OPEN", "POPULATION": 268, "COUNTY": "ROWAN", "COUNTYFIPS": "37159", "COUNTRY": "USA", "LATITUDE": 35.681269842000098, "LONGITUDE": -80.470707938000004, "NAICS_CODE": "622110", "NAICS_DESC": "GENERAL MEDICAL AND SURGICAL HOSPITALS", "SOURCE": "https://www2.ncdhhs.gov/dhsr/reports.htm", "SOURCEDATE": "2018-08-10T00:00:00.000Z", "VAL_METHOD": "IMAGERY/OTHER", "VAL_DATE": "2014-02-10T00:00:00.000Z", "WEBSITE": "https://www.novanthealth.org/rowan-medical-center.aspx", "STATE_ID": "NOT AVAILABLE", "ALT_NAME": "ROWAN REGIONAL MEDICAL CENTER", "ST_FIPS": "37", "OWNER": "NON-PROFIT", "TTL_STAFF": -999, "BEDS": 268, "TRAUMA": "NOT AVAILABLE", "HELIPAD": "Y" }, "geometry": { "type": "Polygon", "coordinates": [ [ [ -80.5361841, 35.596002399999975 ], [ -80.5430013, 35.60198130000002 ], [ -80.5669154, 35.655655200000034 ], [ -80.5876528, 35.715494099999979 ], [ -80.569224, 35.754165 ], [ -80.5101576, 35.764939300000044 ], [ -80.4792307, 35.76086 ], [ -80.3905371, 35.722894 ], [ -80.3755289, 35.6948289 ], [ -80.3620693, 35.6344796 ], [ -80.36219, 35.633104100000025 ], [ -80.3924759, 35.616999 ], [ -80.4387138, 35.6031982 ], [ -80.4644879, 35.601045100000022 ], [ -80.4717551, 35.600474800000022 ], [ -80.5361841, 35.596002399999975 ] ] ] } },
{ "type": "Feature", "properties": { "OBJECTID": 1185, "ID": "0008728086", "NAME": "CAROLINAS HEALTHCARE SYSTEM KINGS MOUNTAIN", "ADDRESS": "706 WEST KING STREET", "CITY": "KINGS MOUNTAIN", "STATE": "NC", "ZIP": "28086", "ZIP4": "NOT AVAILABLE", "TELEPHONE": "(704) 739-3601", "TYPE": "GENERAL ACUTE CARE", "STATUS": "OPEN", "POPULATION": 102, "COUNTY": "CLEVELAND", "COUNTYFIPS": "37045", "COUNTRY": "USA", "LATITUDE": 35.241560535000097, "LONGITUDE": -81.357057955000002, "NAICS_CODE": "622110", "NAICS_DESC": "GENERAL MEDICAL AND SURGICAL HOSPITALS", "SOURCE": "https://www2.ncdhhs.gov/dhsr/reports.htm", "SOURCEDATE": "2018-08-10T00:00:00.000Z", "VAL_METHOD": "IMAGERY/OTHER", "VAL_DATE": "2014-02-10T00:00:00.000Z", "WEBSITE": "http://www.carolinashealthcare.org/kings-mountain", "STATE_ID": "NOT AVAILABLE", "ALT_NAME": "KINGS MOUNTAIN HOSPITAL", "ST_FIPS": "37", "OWNER": "NON-PROFIT", "TTL_STAFF": -999, "BEDS": 102, "TRAUMA": "NOT AVAILABLE", "HELIPAD": "Y" }, "geometry": { "type": "Polygon", "coordinates": [ [ [ -81.4057101, 35.164111400000031 ], [ -81.442158600000013, 35.1733188 ], [ -81.49202080000002, 35.270399900000022 ], [ -81.4919527, 35.270517800000015 ], [ -81.4918766, 35.270649400000046 ], [ -81.4371643, 35.3000717 ], [ -81.382202, 35.31434 ], [ -81.3660806, 35.3173824 ], [ -81.301036, 35.28169 ], [ -81.298667, 35.252401 ], [ -81.3263288, 35.174570199999955 ], [ -81.359615, 35.1673699 ], [ -81.4057101, 35.164111400000031 ] ] ] } },
{ "type": "Feature", "properties": { "OBJECTID": 1187, "ID": "0000527103", "NAME": "NOVANT HEALTH MEDICAL PARK HOSPITAL", "ADDRESS": "1950 SOUTH HAWTHORNE RD", "CITY": "WINSTON SALEM", "STATE": "NC", "ZIP": "27103", "ZIP4": "NOT AVAILABLE", "TELEPHONE": "(336) 718-0600", "TYPE": "GENERAL ACUTE CARE", "STATUS": "OPEN", "POPULATION": 22, "COUNTY": "FORSYTH", "COUNTYFIPS": "37067", "COUNTRY": "USA", "LATITUDE": 36.078945147000098, "LONGITUDE": -80.296194462999907, "NAICS_CODE": "622110", "NAICS_DESC": "GENERAL MEDICAL AND SURGICAL HOSPITALS", "SOURCE": "https://www2.ncdhhs.gov/dhsr/reports.htm", "SOURCEDATE": "2018-08-10T00:00:00.000Z", "VAL_METHOD": "IMAGERY/OTHER", "VAL_DATE": "2014-02-10T00:00:00.000Z", "WEBSITE": "http://www.novanthealth.org", "STATE_ID": "NOT AVAILABLE", "ALT_NAME": "NOT AVAILABLE", "ST_FIPS": "37", "OWNER": "NON-PROFIT", "TTL_STAFF": -999, "BEDS": 22, "TRAUMA": "NOT AVAILABLE", "HELIPAD": "Y" }, "geometry": { "type": "Polygon", "coordinates": [ [ [ -80.374157, 36.002627099999977 ], [ -80.4116486, 36.0116492 ], [ -80.4182962, 36.013829099999981 ], [ -80.444102, 36.087235 ], [ -80.440675, 36.10079 ], [ -80.341265, 36.153739 ], [ -80.334232, 36.15641 ], [ -80.2769224, 36.1664866 ], [ -80.276747, 36.166472 ], [ -80.1611403, 36.1128331 ], [ -80.156569, 36.0550412 ], [ -80.1826429, 36.039296299999975 ], [ -80.2644047, 35.9935271 ], [ -80.271031, 35.9907788 ], [ -80.374157, 36.002627099999977 ] ] ] } },
{ "type": "Feature", "properties": { "OBJECTID": 1189, "ID": "0010728752", "NAME": "MCDOWELL HOSPITAL", "ADDRESS": "430 RANKIN DRIVE", "CITY": "MARION", "STATE": "NC", "ZIP": "28752", "ZIP4": "NOT AVAILABLE", "TELEPHONE": "(828) 659-5000", "TYPE": "GENERAL ACUTE CARE", "STATUS": "OPEN", "POPULATION": 65, "COUNTY": "MCDOWELL", "COUNTYFIPS": "37111", "COUNTRY": "USA", "LATITUDE": 35.66339557, "LONGITUDE": -82.02847628000001, "NAICS_CODE": "622110", "NAICS_DESC": "GENERAL MEDICAL AND SURGICAL HOSPITALS", "SOURCE": "https://www2.ncdhhs.gov/dhsr/reports.htm", "SOURCEDATE": "2018-08-10T00:00:00.000Z", "VAL_METHOD": "IMAGERY", "VAL_DATE": "2014-02-10T00:00:00.000Z", "WEBSITE": "http://www.mcdhospital.org", "STATE_ID": "NOT AVAILABLE", "ALT_NAME": "NOT AVAILABLE", "ST_FIPS": "37", "OWNER": "NON-PROFIT", "TTL_STAFF": -999, "BEDS": 65, "TRAUMA": "NOT AVAILABLE", "HELIPAD": "Y" }, "geometry": { "type": "Polygon", "coordinates": [ [ [ -82.035378, 35.592305 ], [ -82.109803, 35.609388 ], [ -82.144507, 35.626638 ], [ -82.1550427, 35.6417552 ], [ -82.1577328, 35.646104800000018 ], [ -82.061624, 35.742038 ], [ -82.0571081, 35.74579050000002 ], [ -82.051688, 35.75027 ], [ -82.0426308, 35.754491900000041 ], [ -81.953193, 35.713587 ], [ -81.9421037, 35.708216700000037 ], [ -81.938442, 35.705683 ], [ -81.9074206, 35.683325599999968 ], [ -81.9216, 35.646158 ], [ -81.971741, 35.594759 ], [ -81.982626400000015, 35.586481499999934 ], [ -82.035378, 35.592305 ] ] ] } },
{ "type": "Feature", "properties": { "OBJECTID": 1190, "ID": "0000228791", "NAME": "MARGARET R. PARDEE MEMORIAL HOSPITAL", "ADDRESS": "800 NORTH JUSTICE STREET", "CITY": "HENDERSONVILLE", "STATE": "NC", "ZIP": "28791", "ZIP4": "NOT AVAILABLE", "TELEPHONE": "(828) 696-1000", "TYPE": "GENERAL ACUTE CARE", "STATUS": "OPEN", "POPULATION": 222, "COUNTY": "HENDERSON", "COUNTYFIPS": "37089", "COUNTRY": "USA", "LATITUDE": 35.320314361999998, "LONGITUDE": -82.467080417999995, "NAICS_CODE": "622110", "NAICS_DESC": "GENERAL MEDICAL AND SURGICAL HOSPITALS", "SOURCE": "https://www2.ncdhhs.gov/dhsr/reports.htm", "SOURCEDATE": "2018-08-10T00:00:00.000Z", "VAL_METHOD": "IMAGERY/OTHER", "VAL_DATE": "2014-02-10T00:00:00.000Z", "WEBSITE": "http://www.pardeehospital.org", "STATE_ID": "NOT AVAILABLE", "ALT_NAME": "NOT AVAILABLE", "ST_FIPS": "37", "OWNER": "GOVERNMENT - LOCAL", "TTL_STAFF": -999, "BEDS": 222, "TRAUMA": "NOT AVAILABLE", "HELIPAD": "Y" }, "geometry": { "type": "Polygon", "coordinates": [ [ [ -82.518951, 35.248389599999982 ], [ -82.5724063, 35.3314041 ], [ -82.554202, 35.380943 ], [ -82.553517, 35.381673 ], [ -82.513974, 35.409155 ], [ -82.513721, 35.409162 ], [ -82.3885468, 35.3986827 ], [ -82.369114, 35.376739 ], [ -82.368992, 35.376347 ], [ -82.3647827, 35.332754 ], [ -82.3646837, 35.322573200000029 ], [ -82.364703, 35.32126 ], [ -82.376981, 35.288454 ], [ -82.40452, 35.251233 ], [ -82.4269873, 35.24851809999997 ], [ -82.518951, 35.248389599999982 ] ] ] } },
{ "type": "Feature", "properties": { "OBJECTID": 1191, "ID": "0007628721", "NAME": "HAYWOOD REGIONAL MEDICAL CENTER", "ADDRESS": "262 LEROY GEORGE DRIVE", "CITY": "CLYDE", "STATE": "NC", "ZIP": "28721", "ZIP4": "NOT AVAILABLE", "TELEPHONE": "(828) 456-7311", "TYPE": "GENERAL ACUTE CARE", "STATUS": "OPEN", "POPULATION": 190, "COUNTY": "HAYWOOD", "COUNTYFIPS": "37087", "COUNTRY": "USA", "LATITUDE": 35.525381277000101, "LONGITUDE": -82.942508883999906, "NAICS_CODE": "622110", "NAICS_DESC": "GENERAL MEDICAL AND SURGICAL HOSPITALS", "SOURCE": "https://www2.ncdhhs.gov/dhsr/reports.htm", "SOURCEDATE": "2018-08-10T00:00:00.000Z", "VAL_METHOD": "IMAGERY/OTHER", "VAL_DATE": "2014-02-10T00:00:00.000Z", "WEBSITE": "http://www.myhaywoodregional.com/", "STATE_ID": "NOT AVAILABLE", "ALT_NAME": "MEDWEST - HAYWOOD", "ST_FIPS": "37", "OWNER": "GOVERNMENT - DISTRICT/AUTHORITY", "TTL_STAFF": -999, "BEDS": 190, "TRAUMA": "NOT AVAILABLE", "HELIPAD": "Y" }, "geometry": { "type": "Polygon", "coordinates": [ [ [ -83.0517814, 35.454925199999977 ], [ -83.057924, 35.516494299999962 ], [ -83.0501295, 35.525418700000017 ], [ -83.036241, 35.540467 ], [ -82.9819116, 35.5853401 ], [ -82.9698886, 35.590416900000037 ], [ -82.9337952, 35.597845 ], [ -82.8072126, 35.556458700000043 ], [ -82.80741230000001, 35.5526161 ], [ -82.8380434, 35.5216722 ], [ -82.9292079, 35.47424920000001 ], [ -82.9441291, 35.4675295 ], [ -83.0026684, 35.453021799999966 ], [ -83.017254, 35.45244 ], [ -83.0517814, 35.454925199999977 ] ] ] } },
{ "type": "Feature", "properties": { "OBJECTID": 1193, "ID": "0007827261", "NAME": "HIGH POINT REGIONAL HEALTH SYSTEM", "ADDRESS": "601 NORTH ELM STREET", "CITY": "HIGH POINT", "STATE": "NC", "ZIP": "27261", "ZIP4": "NOT AVAILABLE", "TELEPHONE": "(336) 878-6000", "TYPE": "GENERAL ACUTE CARE", "STATUS": "OPEN", "POPULATION": 384, "COUNTY": "GUILFORD", "COUNTYFIPS": "37081", "COUNTRY": "USA", "LATITUDE": 35.962823799, "LONGITUDE": -80.013394317000007, "NAICS_CODE": "622110", "NAICS_DESC": "GENERAL MEDICAL AND SURGICAL HOSPITALS", "SOURCE": "https://www2.ncdhhs.gov/dhsr/reports.htm", "SOURCEDATE": "2018-08-10T00:00:00.000Z", "VAL_METHOD": "IMAGERY/OTHER", "VAL_DATE": "2014-02-10T00:00:00.000Z", "WEBSITE": "http://www.highpointregional.com", "STATE_ID": "NOT AVAILABLE", "ALT_NAME": "NOT AVAILABLE", "ST_FIPS": "37", "OWNER": "NON-PROFIT", "TTL_STAFF": -999, "BEDS": 384, "TRAUMA": "LEVEL III", "HELIPAD": "Y" }, "geometry": { "type": "Polygon", "coordinates": [ [ [ -80.0697393, 35.896090800000039 ], [ -80.0830073, 35.905709900000019 ], [ -80.0888528, 35.920824 ], [ -80.092501, 36.023624 ], [ -80.054908, 36.043533 ], [ -80.011939, 36.053194 ], [ -79.96187190000002, 36.0525915 ], [ -79.942876, 36.038796 ], [ -79.8979174, 35.9823885 ], [ -79.914141900000018, 35.93463430000002 ], [ -79.920451, 35.919607699999965 ], [ -79.934278, 35.916169 ], [ -80.0697393, 35.896090800000039 ] ] ] } },
{ "type": "Feature", "properties": { "OBJECTID": 1194, "ID": "0006028687", "NAME": "DAVIS REGIONAL MEDICAL CENTER", "ADDRESS": "218 OLD MOCKSVILLE ROAD", "CITY": "STATESVILLE", "STATE": "NC", "ZIP": "28687", "ZIP4": "NOT AVAILABLE", "TELEPHONE": "(704) 873-0281", "TYPE": "GENERAL ACUTE CARE", "STATUS": "OPEN", "POPULATION": 149, "COUNTY": "IREDELL", "COUNTYFIPS": "37097", "COUNTRY": "USA", "LATITUDE": 35.818428674000103, "LONGITUDE": -80.828714738000002, "NAICS_CODE": "622110", "NAICS_DESC": "GENERAL MEDICAL AND SURGICAL HOSPITALS", "SOURCE": "https://www2.ncdhhs.gov/dhsr/reports.htm", "SOURCEDATE": "2018-08-10T00:00:00.000Z", "VAL_METHOD": "IMAGERY/OTHER", "VAL_DATE": "2014-02-10T00:00:00.000Z", "WEBSITE": "http://www.davisregional.com", "STATE_ID": "NOT AVAILABLE", "ALT_NAME": "NOT AVAILABLE", "ST_FIPS": "37", "OWNER": "PROPRIETARY", "TTL_STAFF": -999, "BEDS": 149, "TRAUMA": "NOT AVAILABLE", "HELIPAD": "Y" }, "geometry": { "type": "Polygon", "coordinates": [ [ [ -80.850704, 35.716476 ], [ -81.000859, 35.77154 ], [ -80.967988, 35.816766 ], [ -80.93429, 35.860136 ], [ -80.85484, 35.922541 ], [ -80.852796, 35.923191 ], [ -80.741956, 35.903061 ], [ -80.7081429, 35.885282899999979 ], [ -80.7055667, 35.883520799999957 ], [ -80.697847, 35.858437 ], [ -80.729033700000016, 35.79214 ], [ -80.738703, 35.780632 ], [ -80.850704, 35.716476 ] ] ] } },
{ "type": "Feature", "properties": { "OBJECTID": 1195, "ID": "0008328677", "NAME": "IREDELL MEMORIAL HOSPITAL, INCORPORATED", "ADDRESS": "557 BROOKDALE DRIVE", "CITY": "STATESVILLE", "STATE": "NC", "ZIP": "28677", "ZIP4": "NOT AVAILABLE", "TELEPHONE": "(704) 878-4500", "TYPE": "GENERAL ACUTE CARE", "STATUS": "OPEN", "POPULATION": 247, "COUNTY": "IREDELL", "COUNTYFIPS": "37097", "COUNTRY": "USA", "LATITUDE": 35.799261529, "LONGITUDE": -80.878068336999902, "NAICS_CODE": "622110", "NAICS_DESC": "GENERAL MEDICAL AND SURGICAL HOSPITALS", "SOURCE": "https://www2.ncdhhs.gov/dhsr/reports.htm", "SOURCEDATE": "2018-08-10T00:00:00.000Z", "VAL_METHOD": "IMAGERY/OTHER", "VAL_DATE": "2014-02-10T00:00:00.000Z", "WEBSITE": "http://www.iredellmemorial.org", "STATE_ID": "NOT AVAILABLE", "ALT_NAME": "NOT AVAILABLE", "ST_FIPS": "37", "OWNER": "NON-PROFIT", "TTL_STAFF": -999, "BEDS": 247, "TRAUMA": "NOT AVAILABLE", "HELIPAD": "Y" }, "geometry": { "type": "Polygon", "coordinates": [ [ [ -80.8963446, 35.7138379 ], [ -80.9011453, 35.715597699999925 ], [ -80.9439123, 35.73516 ], [ -81.003464, 35.769389 ], [ -81.011372, 35.781244 ], [ -81.00245, 35.816872 ], [ -80.964559, 35.861875 ], [ -80.941808, 35.875624 ], [ -80.85484, 35.922541 ], [ -80.792229, 35.867727 ], [ -80.7564227, 35.823687699999972 ], [ -80.761714, 35.80363 ], [ -80.792217, 35.758567200000023 ], [ -80.801921, 35.747519 ], [ -80.836746, 35.708068 ], [ -80.8963446, 35.7138379 ] ] ] } },
{ "type": "Feature", "properties": { "OBJECTID": 1197, "ID": "0003528605", "NAME": "BLOWING ROCK HOSPITAL", "ADDRESS": "418 CHESTNUT STREET", "CITY": "BLOWING ROCK", "STATE": "NC", "ZIP": "28605", "ZIP4": "NOT AVAILABLE", "TELEPHONE": "(828) 295-3136", "TYPE": "GENERAL ACUTE CARE", "STATUS": "OPEN", "POPULATION": 100, "COUNTY": "WATAUGA", "COUNTYFIPS": "37189", "COUNTRY": "USA", "LATITUDE": 36.128916886000098, "LONGITUDE": -81.677914821999906, "NAICS_CODE": "622110", "NAICS_DESC": "GENERAL MEDICAL AND SURGICAL HOSPITALS", "SOURCE": "https://www2.ncdhhs.gov/dhsr/reports.htm", "SOURCEDATE": "2018-08-10T00:00:00.000Z", "VAL_METHOD": "IMAGERY", "VAL_DATE": "2019-05-09T00:00:00.000Z", "WEBSITE": "https://apprhs.org/locations/blowing-rock-hospital", "STATE_ID": "NOT AVAILABLE", "ALT_NAME": "NOT AVAILABLE", "ST_FIPS": "37", "OWNER": "NON-PROFIT", "TTL_STAFF": -999, "BEDS": 100, "TRAUMA": "NOT AVAILABLE", "HELIPAD": "N" }, "geometry": { "type": "Polygon", "coordinates": [ [ [ -81.764008, 36.1174971 ], [ -81.7688326, 36.1190505 ], [ -81.770745, 36.123042 ], [ -81.7507503, 36.1703998 ], [ -81.7506838, 36.17048430000002 ], [ -81.7473169, 36.173700900000014 ], [ -81.7261497, 36.190992499999936 ], [ -81.7210687, 36.1917957 ], [ -81.655135, 36.199573 ], [ -81.652177, 36.1994 ], [ -81.610047, 36.167175 ], [ -81.6075472, 36.157807900000023 ], [ -81.6076243, 36.156273699999979 ], [ -81.621966, 36.143555600000013 ], [ -81.6579809, 36.1183864 ], [ -81.764008, 36.1174971 ] ] ] } },
{ "type": "Feature", "properties": { "OBJECTID": 1198, "ID": "0002828170", "NAME": "ANSON COMMUNITY HOSPITAL", "ADDRESS": "500 MORVEN RD", "CITY": "WADESBORO", "STATE": "NC", "ZIP": "28170", "ZIP4": "NOT AVAILABLE", "TELEPHONE": "(704) 694-5131", "TYPE": "GENERAL ACUTE CARE", "STATUS": "CLOSED", "POPULATION": 147, "COUNTY": "ANSON", "COUNTYFIPS": "37007", "COUNTRY": "USA", "LATITUDE": 34.961429174000003, "LONGITUDE": -80.075940023000001, "NAICS_CODE": "622110", "NAICS_DESC": "GENERAL MEDICAL AND SURGICAL HOSPITALS", "SOURCE": "https://www2.ncdhhs.gov/dhsr/data/hllist.pdf", "SOURCEDATE": "2012-07-03T00:00:00.000Z", "VAL_METHOD": "IMAGERY/OTHER", "VAL_DATE": "2019-05-09T00:00:00.000Z", "WEBSITE": "http://www.carolinashealthcare.org/anson-community-hospital", "STATE_ID": "NOT AVAILABLE", "ALT_NAME": "NOT AVAILABLE", "ST_FIPS": "37", "OWNER": "GOVERNMENT - DISTRICT/AUTHORITY", "TTL_STAFF": -999, "BEDS": 147, "TRAUMA": "NOT AVAILABLE", "HELIPAD": "N" }, "geometry": { "type": "Polygon", "coordinates": [ [ [ -80.0917731, 34.872199300000041 ], [ -80.1525975, 34.90326780000003 ], [ -80.1998745, 35.002697199999929 ], [ -80.1530619, 35.0430306 ], [ -80.0881329, 35.0487883 ], [ -80.0741165, 35.04913280000001 ], [ -79.9889528, 35.025452500000014 ], [ -79.9403439, 34.959909399999944 ], [ -79.9403986, 34.9597494 ], [ -80.0087272, 34.881621499999966 ], [ -80.0917731, 34.872199300000041 ] ] ] } },
{ "type": "Feature", "properties": { "OBJECTID": 1203, "ID": "0005228646", "NAME": "CHARLES A. CANNON, JR. MEMORIAL HOSPITAL", "ADDRESS": "434 HOSPITAL DRIVE", "CITY": "LINVILLE", "STATE": "NC", "ZIP": "28646", "ZIP4": "NOT AVAILABLE", "TELEPHONE": "(828) 737-7000", "TYPE": "GENERAL ACUTE CARE", "STATUS": "OPEN", "POPULATION": 50, "COUNTY": "AVERY", "COUNTYFIPS": "37011", "COUNTRY": "USA", "LATITUDE": 36.060317924000103, "LONGITUDE": -81.889357114999896, "NAICS_CODE": "622110", "NAICS_DESC": "GENERAL MEDICAL AND SURGICAL HOSPITALS", "SOURCE": "https://www2.ncdhhs.gov/dhsr/reports.htm", "SOURCEDATE": "2018-08-10T00:00:00.000Z", "VAL_METHOD": "IMAGERY", "VAL_DATE": "2014-02-10T00:00:00.000Z", "WEBSITE": "https://apprhs.org/locations/cannon-memorial-hospital", "STATE_ID": "NOT AVAILABLE", "ALT_NAME": "NOT AVAILABLE", "ST_FIPS": "37", "OWNER": "NON-PROFIT", "TTL_STAFF": -999, "BEDS": 50, "TRAUMA": "NOT AVAILABLE", "HELIPAD": "Y" }, "geometry": { "type": "Polygon", "coordinates": [ [ [ -81.87776, 35.988976499999971 ], [ -81.934093, 36.012174 ], [ -81.9643247, 36.0533212 ], [ -81.9641723, 36.059658700000021 ], [ -81.954607, 36.107636 ], [ -81.950606, 36.112111 ], [ -81.9348682, 36.129593299999982 ], [ -81.851542, 36.137947799999964 ], [ -81.8422585, 36.1381255 ], [ -81.8179541, 36.133174500000045 ], [ -81.8174928, 36.131515799999981 ], [ -81.8239172, 36.0886722 ], [ -81.8281136, 36.070160099999974 ], [ -81.87776, 35.988976499999971 ] ] ] } },
{ "type": "Feature", "properties": { "OBJECTID": 1205, "ID": "0004028813", "NAME": "CAREPARTNERS REHABILITATION HOSPITAL", "ADDRESS": "68 SWEETEN CREEK ROAD", "CITY": "ASHEVILLE", "STATE": "NC", "ZIP": "28813", "ZIP4": "NOT AVAILABLE", "TELEPHONE": "(828) 274-2400", "TYPE": "REHABILITATION", "STATUS": "OPEN", "POPULATION": 80, "COUNTY": "BUNCOMBE", "COUNTYFIPS": "37021", "COUNTRY": "USA", "LATITUDE": 35.562271092000103, "LONGITUDE": -82.53131981, "NAICS_CODE": "622310", "NAICS_DESC": "REHABILITATION HOSPITALS (EXCEPT ALCOHOLISM, DRUG ADDICTION)", "SOURCE": "https://www2.ncdhhs.gov/dhsr/reports.htm", "SOURCEDATE": "2018-08-10T00:00:00.000Z", "VAL_METHOD": "IMAGERY", "VAL_DATE": "2014-02-10T00:00:00.000Z", "WEBSITE": "http://www.carepartners.org", "STATE_ID": "NOT AVAILABLE", "ALT_NAME": "NOT AVAILABLE", "ST_FIPS": "37", "OWNER": "NON-PROFIT", "TTL_STAFF": -999, "BEDS": 80, "TRAUMA": "NOT AVAILABLE", "HELIPAD": "N" }, "geometry": { "type": "Polygon", "coordinates": [ [ [ -82.5116806, 35.460640499999982 ], [ -82.5480295, 35.480018199999989 ], [ -82.6041266, 35.515036 ], [ -82.652750700000013, 35.5478012 ], [ -82.6531064, 35.551411300000012 ], [ -82.6536712, 35.5599597 ], [ -82.594682, 35.638142 ], [ -82.5806714, 35.652355300000025 ], [ -82.580478700000015, 35.652347599999985 ], [ -82.5478279, 35.6466305 ], [ -82.5419265, 35.644900300000018 ], [ -82.3979968, 35.602534 ], [ -82.3974288, 35.60115739999997 ], [ -82.4198011, 35.523231800000026 ], [ -82.4199524, 35.5230001 ], [ -82.4838885, 35.472897199999984 ], [ -82.5116806, 35.460640499999982 ] ] ] } },
{ "type": "Feature", "properties": { "OBJECTID": 1206, "ID": "0007228655", "NAME": "CAROLINAS HEALTHCARE SYSTEM BLUE RIDGE", "ADDRESS": "2201 SOUTH STERLING ST", "CITY": "MORGANTON", "STATE": "NC", "ZIP": "28655", "ZIP4": "NOT AVAILABLE", "TELEPHONE": "(828) 580-5000", "TYPE": "GENERAL ACUTE CARE", "STATUS": "OPEN", "POPULATION": 315, "COUNTY": "BURKE", "COUNTYFIPS": "37023", "COUNTRY": "USA", "LATITUDE": 35.726391173000003, "LONGITUDE": -81.654492278999996, "NAICS_CODE": "622110", "NAICS_DESC": "GENERAL MEDICAL AND SURGICAL HOSPITALS", "SOURCE": "https://www2.ncdhhs.gov/dhsr/reports.htm", "SOURCEDATE": "2018-08-10T00:00:00.000Z", "VAL_METHOD": "IMAGERY/OTHER", "VAL_DATE": "2014-02-10T00:00:00.000Z", "WEBSITE": "http://www.blueridgehealth.org/morganton.html", "STATE_ID": "NOT AVAILABLE", "ALT_NAME": "NOT AVAILABLE", "ST_FIPS": "37", "OWNER": "NON-PROFIT", "TTL_STAFF": -999, "BEDS": 315, "TRAUMA": "NOT AVAILABLE", "HELIPAD": "Y" }, "geometry": { "type": "Polygon", "coordinates": [ [ [ -81.6470765, 35.652846100000012 ], [ -81.7425731, 35.666704700000054 ], [ -81.8121274, 35.691056700000019 ], [ -81.8125481, 35.692859499999962 ], [ -81.8127816, 35.69397170000002 ], [ -81.8107568, 35.6971932 ], [ -81.7848441, 35.728062 ], [ -81.7448454, 35.7683894 ], [ -81.6893436, 35.791047099999986 ], [ -81.6748164, 35.7950535 ], [ -81.5767715, 35.766642799999985 ], [ -81.5250434, 35.7503127 ], [ -81.5182612, 35.745389300000028 ], [ -81.5162555, 35.743421800000043 ], [ -81.5148784, 35.740737 ], [ -81.5383508, 35.674989 ], [ -81.6035997, 35.648606600000022 ], [ -81.6470765, 35.652846100000012 ] ] ] } },
{ "type": "Feature", "properties": { "OBJECTID": 1209, "ID": "0014128170", "NAME": "CAROLINAS HEALTHCARE SYSTEM - ANSON", "ADDRESS": "2301 US HIGHWAY 74 WEST", "CITY": "WADESBORO", "STATE": "NC", "ZIP": "28170", "ZIP4": "NOT AVAILABLE", "TELEPHONE": "(704) 694-5131", "TYPE": "GENERAL ACUTE CARE", "STATUS": "OPEN", "POPULATION": 15, "COUNTY": "ANSON", "COUNTYFIPS": "37007", "COUNTRY": "USA", "LATITUDE": 34.977721881999997, "LONGITUDE": -80.110085620999897, "NAICS_CODE": "622110", "NAICS_DESC": "GENERAL MEDICAL AND SURGICAL HOSPITALS", "SOURCE": "https://www2.ncdhhs.gov/dhsr/reports.htm", "SOURCEDATE": "2018-08-10T00:00:00.000Z", "VAL_METHOD": "IMAGERY/OTHER", "VAL_DATE": "2016-01-25T00:00:00.000Z", "WEBSITE": "http://www.carolinashealthcare.org/anson", "STATE_ID": "NOT AVAILABLE", "ALT_NAME": "NOT AVAILABLE", "ST_FIPS": "37", "OWNER": "GOVERNMENT - DISTRICT/AUTHORITY", "TTL_STAFF": -999, "BEDS": 15, "TRAUMA": "NOT AVAILABLE", "HELIPAD": "Y" }, "geometry": { "type": "Polygon", "coordinates": [ [ [ -80.0809854, 34.9016844 ], [ -80.1303156, 34.9135256 ], [ -80.2488054, 34.991964299999985 ], [ -80.2488723, 34.992144199999977 ], [ -80.1937296, 35.063402800000013 ], [ -80.1025503, 35.0874401 ], [ -79.9929279, 35.003594200000023 ], [ -79.9836842, 34.962270500000024 ], [ -79.9836896, 34.962099500000015 ], [ -80.0391755, 34.916856699999975 ], [ -80.0809854, 34.9016844 ] ] ] } },
{ "type": "Feature", "properties": { "OBJECTID": 1210, "ID": "0014328086", "NAME": "CAROLINAS CONTINUECARE AT KINGS MOUNTAIN", "ADDRESS": "706 WEST KING STREET", "CITY": "KINGS MOUNTAIN", "STATE": "NC", "ZIP": "28086", "ZIP4": "NOT AVAILABLE", "TELEPHONE": "(980) 487-5520", "TYPE": "LONG TERM CARE", "STATUS": "OPEN", "POPULATION": 28, "COUNTY": "CLEVELAND", "COUNTYFIPS": "37045", "COUNTRY": "USA", "LATITUDE": 35.241865106, "LONGITUDE": -81.356548749999902, "NAICS_CODE": "622310", "NAICS_DESC": "SPECIALTY (EXCEPT PSYCHIATRIC AND SUBSTANCE ABUSE) HOSPITALS", "SOURCE": "https://www2.ncdhhs.gov/dhsr/reports.htm", "SOURCEDATE": "2018-08-10T00:00:00.000Z", "VAL_METHOD": "IMAGERY/OTHER", "VAL_DATE": "2016-01-26T00:00:00.000Z", "WEBSITE": "http://continuecare.org/kings-mountain/", "STATE_ID": "NOT AVAILABLE", "ALT_NAME": "NOT AVAILABLE", "ST_FIPS": "37", "OWNER": "NON-PROFIT", "TTL_STAFF": -999, "BEDS": 28, "TRAUMA": "NOT AVAILABLE", "HELIPAD": "Y" }, "geometry": { "type": "Polygon", "coordinates": [ [ [ -81.4057101, 35.164111400000031 ], [ -81.442158600000013, 35.1733188 ], [ -81.49202080000002, 35.270399900000022 ], [ -81.4919527, 35.270517800000015 ], [ -81.4918766, 35.270649400000046 ], [ -81.4371643, 35.3000717 ], [ -81.382202, 35.31434 ], [ -81.3660806, 35.3173824 ], [ -81.301036, 35.28169 ], [ -81.298667, 35.252401 ], [ -81.3263288, 35.174570199999955 ], [ -81.359615, 35.1673699 ], [ -81.4057101, 35.164111400000031 ] ] ] } },
{ "type": "Feature", "properties": { "OBJECTID": 1211, "ID": "0014528025", "NAME": "CAROLINAS REHABILITATION - NORTHEAST", "ADDRESS": "487 LAKE CONCORD ROAD", "CITY": "CONCORD", "STATE": "NC", "ZIP": "28025", "ZIP4": "NOT AVAILABLE", "TELEPHONE": "(704) 355-3398", "TYPE": "REHABILITATION", "STATUS": "OPEN", "POPULATION": 40, "COUNTY": "CABARRUS", "COUNTYFIPS": "37025", "COUNTRY": "USA", "LATITUDE": 35.442816061000002, "LONGITUDE": -80.600843650999906, "NAICS_CODE": "622310", "NAICS_DESC": "REHABILITATION HOSPITALS (EXCEPT ALCOHOLISM, DRUG ADDICTION)", "SOURCE": "https://www2.ncdhhs.gov/dhsr/reports.htm", "SOURCEDATE": "2018-08-10T00:00:00.000Z", "VAL_METHOD": "IMAGERY/OTHER", "VAL_DATE": "2016-01-26T00:00:00.000Z", "WEBSITE": "http://www.carolinashealthcare.org/rehabilitation", "STATE_ID": "NOT AVAILABLE", "ALT_NAME": "NOT AVAILABLE", "ST_FIPS": "37", "OWNER": "NON-PROFIT", "TTL_STAFF": -999, "BEDS": 40, "TRAUMA": "NOT AVAILABLE", "HELIPAD": "N" }, "geometry": { "type": "Polygon", "coordinates": [ [ [ -80.7151279, 35.36949 ], [ -80.727545, 35.408383799999989 ], [ -80.727719, 35.441037 ], [ -80.697372, 35.47345 ], [ -80.6576806, 35.506186200000045 ], [ -80.6520871, 35.510683200000045 ], [ -80.6185071, 35.536408399999985 ], [ -80.6169394, 35.537596100000037 ], [ -80.6039283, 35.539289599999961 ], [ -80.543215, 35.5252458 ], [ -80.5339195, 35.522173399999986 ], [ -80.5304866, 35.520964899999981 ], [ -80.5289764, 35.5203946 ], [ -80.5244274, 35.5185643 ], [ -80.490329, 35.415322 ], [ -80.542135, 35.362033 ], [ -80.5998032, 35.357092099999967 ], [ -80.669008, 35.364106 ], [ -80.7151279, 35.36949 ] ] ] } },
{ "type": "Feature", "properties": { "OBJECTID": 2197, "ID": "0002128233", "NAME": "NOVANT HEALTH PRESBYTERIAN MEDICAL CENTER", "ADDRESS": "200 HAWTHORNE LANE", "CITY": "CHARLOTTE", "STATE": "NC", "ZIP": "28233", "ZIP4": "NOT AVAILABLE", "TELEPHONE": "(704) 384-4000", "TYPE": "GENERAL ACUTE CARE", "STATUS": "OPEN", "POPULATION": 661, "COUNTY": "MECKLENBURG", "COUNTYFIPS": "37119", "COUNTRY": "USA", "LATITUDE": 35.211838192000101, "LONGITUDE": -80.824164440999894, "NAICS_CODE": "622110", "NAICS_DESC": "GENERAL MEDICAL AND SURGICAL HOSPITALS", "SOURCE": "https://www2.ncdhhs.gov/dhsr/reports.htm", "SOURCEDATE": "2018-08-10T00:00:00.000Z", "VAL_METHOD": "IMAGERY/OTHER", "VAL_DATE": "2014-02-10T00:00:00.000Z", "WEBSITE": "https://www.novanthealth.org/presbyterian-medical-center.aspx", "STATE_ID": "NOT AVAILABLE", "ALT_NAME": "PRESBYTERIAN MEDICAL CENTER", "ST_FIPS": "37", "OWNER": "NON-PROFIT", "TTL_STAFF": -999, "BEDS": 661, "TRAUMA": "LEVEL III", "HELIPAD": "Y" }, "geometry": { "type": "Polygon", "coordinates": [ [ [ -80.853072, 35.117669 ], [ -80.8556243, 35.118144400000013 ], [ -80.858179, 35.119833 ], [ -80.9116398, 35.165072400000035 ], [ -80.930758, 35.188712 ], [ -80.93757, 35.197533 ], [ -80.9443226, 35.2329842 ], [ -80.9432991, 35.235377100000044 ], [ -80.911284, 35.289426100000028 ], [ -80.9111669, 35.289525199999972 ], [ -80.8484285, 35.3339202 ], [ -80.7461499, 35.2673258 ], [ -80.7077874, 35.207179799999956 ], [ -80.709795, 35.195322 ], [ -80.7278366, 35.151258499999948 ], [ -80.7797911, 35.118729899999948 ], [ -80.7800938, 35.118657299999988 ], [ -80.853072, 35.117669 ] ] ] } },
{ "type": "Feature", "properties": { "OBJECTID": 2199, "ID": "0011228690", "NAME": "VALDESE GENERAL HOSPITAL, INC.", "ADDRESS": "720 MALCOLM BOULEVARD", "CITY": "VALDESE", "STATE": "NC", "ZIP": "28690", "ZIP4": "NOT AVAILABLE", "TELEPHONE": "(828) 874-2251", "TYPE": "GENERAL ACUTE CARE", "STATUS": "CLOSED", "POPULATION": 131, "COUNTY": "BURKE", "COUNTYFIPS": "37023", "COUNTRY": "USA", "LATITUDE": 35.748123859000003, "LONGITUDE": -81.523419917999902, "NAICS_CODE": "622110", "NAICS_DESC": "GENERAL MEDICAL AND SURGICAL HOSPITALS", "SOURCE": "https://www2.ncdhhs.gov/dhsr/data/hllist.pdf", "SOURCEDATE": "2012-07-03T00:00:00.000Z", "VAL_METHOD": "IMAGERY/OTHER", "VAL_DATE": "2014-02-10T00:00:00.000Z", "WEBSITE": "http://www.blueridgehealth.org", "STATE_ID": "NOT AVAILABLE", "ALT_NAME": "CAROLINAS HEALTHCARE SYSTEM BLUE RIDGE VALDESE", "ST_FIPS": "37", "OWNER": "NON-PROFIT", "TTL_STAFF": -999, "BEDS": 131, "TRAUMA": "NOT AVAILABLE", "HELIPAD": "Y" }, "geometry": { "type": "Polygon", "coordinates": [ [ [ -81.5277204, 35.6463548 ], [ -81.6722867, 35.71392890000002 ], [ -81.6780379, 35.717821500000028 ], [ -81.6725985, 35.732854599999982 ], [ -81.5867569, 35.776272900000031 ], [ -81.5732119, 35.7796382 ], [ -81.5685842, 35.779710600000023 ], [ -81.47508, 35.7807593 ], [ -81.4666529, 35.780523 ], [ -81.4359788, 35.76921 ], [ -81.4253146, 35.760657299999984 ], [ -81.3853901, 35.706217699999932 ], [ -81.392018, 35.702072 ], [ -81.5277204, 35.6463548 ] ] ] } },
{ "type": "Feature", "properties": { "OBJECTID": 2201, "ID": "0004528256", "NAME": "CAROLINAS HEALTHCARE SYSTEM UNIVERSITY", "ADDRESS": "8800 NORTH TRYON STREET", "CITY": "CHARLOTTE", "STATE": "NC", "ZIP": "28256", "ZIP4": "NOT AVAILABLE", "TELEPHONE": "(704) 863-6000", "TYPE": "GENERAL ACUTE CARE", "STATUS": "OPEN", "POPULATION": 100, "COUNTY": "MECKLENBURG", "COUNTYFIPS": "37119", "COUNTRY": "USA", "LATITUDE": 35.306757427000001, "LONGITUDE": -80.747047941999895, "NAICS_CODE": "622110", "NAICS_DESC": "GENERAL MEDICAL AND SURGICAL HOSPITALS", "SOURCE": "https://www2.ncdhhs.gov/dhsr/reports.htm", "SOURCEDATE": "2018-08-10T00:00:00.000Z", "VAL_METHOD": "IMAGERY/OTHER", "VAL_DATE": "2014-02-10T00:00:00.000Z", "WEBSITE": "https://www.carolinashealthcare.org/locations/carolinas-healthcare-system-university", "STATE_ID": "NOT AVAILABLE", "ALT_NAME": "CAROLINAS MEDICAL CENTER UNIVERSITY", "ST_FIPS": "37", "OWNER": "GOVERNMENT - DISTRICT/AUTHORITY", "TTL_STAFF": -999, "BEDS": 100, "TRAUMA": "NOT AVAILABLE", "HELIPAD": "Y" }, "geometry": { "type": "Polygon", "coordinates": [ [ [ -80.7541547, 35.217937899999988 ], [ -80.8367367, 35.2385966 ], [ -80.881999, 35.259871 ], [ -80.8814294, 35.2655741 ], [ -80.8624523, 35.3488671 ], [ -80.8419423, 35.3647341 ], [ -80.8093041, 35.37973 ], [ -80.7870619, 35.387217099999987 ], [ -80.781409, 35.388875 ], [ -80.7565891, 35.387477500000017 ], [ -80.6457763, 35.3288975 ], [ -80.6394202, 35.324420200000027 ], [ -80.6390373, 35.3241187 ], [ -80.6507827, 35.2488798 ], [ -80.720295, 35.219082 ], [ -80.7541547, 35.217937899999988 ] ] ] } },
{ "type": "Feature", "properties": { "OBJECTID": 2207, "ID": "0007028601", "NAME": "FRYE REGIONAL MEDICAL CENTER", "ADDRESS": "420 NORTH CENTER ST", "CITY": "HICKORY", "STATE": "NC", "ZIP": "28601", "ZIP4": "NOT AVAILABLE", "TELEPHONE": "(828) 315-5000", "TYPE": "GENERAL ACUTE CARE", "STATUS": "OPEN", "POPULATION": 355, "COUNTY": "CATAWBA", "COUNTYFIPS": "37035", "COUNTRY": "USA", "LATITUDE": 35.737346474, "LONGITUDE": -81.337270844000003, "NAICS_CODE": "622110", "NAICS_DESC": "GENERAL MEDICAL AND SURGICAL HOSPITALS", "SOURCE": "https://www2.ncdhhs.gov/dhsr/reports.htm", "SOURCEDATE": "2018-08-10T00:00:00.000Z", "VAL_METHOD": "IMAGERY/OTHER", "VAL_DATE": "2013-10-01T00:00:00.000Z", "WEBSITE": "http://www.fryemedctr.com", "STATE_ID": "NOT AVAILABLE", "ALT_NAME": "NOT AVAILABLE", "ST_FIPS": "37", "OWNER": "PROPRIETARY", "TTL_STAFF": -999, "BEDS": 355, "TRAUMA": "NOT AVAILABLE", "HELIPAD": "N" }, "geometry": { "type": "Polygon", "coordinates": [ [ [ -81.298907, 35.635798 ], [ -81.380373, 35.65874 ], [ -81.390437, 35.662949 ], [ -81.401838, 35.670925 ], [ -81.4384704, 35.710185799999962 ], [ -81.4387418, 35.715684100000033 ], [ -81.4386904, 35.716113800000031 ], [ -81.4362932, 35.7335558 ], [ -81.4183715, 35.760125499999972 ], [ -81.4115437, 35.764303200000029 ], [ -81.338113, 35.793604 ], [ -81.3043762, 35.80254 ], [ -81.271901, 35.802054 ], [ -81.239194, 35.776966 ], [ -81.2038813, 35.721940499999988 ], [ -81.214886, 35.70455 ], [ -81.298907, 35.635798 ] ] ] } },
{ "type": "Feature", "properties": { "OBJECTID": 2208, "ID": "0009828139", "NAME": "RUTHERFORD HOSPITAL, INC.", "ADDRESS": "288 SOUTH RIDGECREST AVE.", "CITY": "RUTHERFORDTON", "STATE": "NC", "ZIP": "28139", "ZIP4": "NOT AVAILABLE", "TELEPHONE": "(828) 286-5000", "TYPE": "GENERAL ACUTE CARE", "STATUS": "OPEN", "POPULATION": 143, "COUNTY": "RUTHERFORD", "COUNTYFIPS": "37161", "COUNTRY": "USA", "LATITUDE": 35.36235121, "LONGITUDE": -81.96559595, "NAICS_CODE": "622110", "NAICS_DESC": "GENERAL MEDICAL AND SURGICAL HOSPITALS", "SOURCE": "https://www2.ncdhhs.gov/dhsr/reports.htm", "SOURCEDATE": "2018-08-10T00:00:00.000Z", "VAL_METHOD": "IMAGERY/OTHER", "VAL_DATE": "2014-02-10T00:00:00.000Z", "WEBSITE": "http://www.rutherfordhosp.org", "STATE_ID": "NOT AVAILABLE", "ALT_NAME": "NOT AVAILABLE", "ST_FIPS": "37", "OWNER": "NON-PROFIT", "TTL_STAFF": -999, "BEDS": 143, "TRAUMA": "NOT AVAILABLE", "HELIPAD": "Y" }, "geometry": { "type": "Polygon", "coordinates": [ [ [ -82.0061458, 35.288159099999987 ], [ -82.0114248, 35.291263399999984 ], [ -82.05237630000002, 35.330985199999958 ], [ -82.052415, 35.331089 ], [ -82.05048, 35.410039199999979 ], [ -82.0469021, 35.418849600000044 ], [ -81.9797835, 35.452361199999949 ], [ -81.8912341, 35.440480699999959 ], [ -81.8606239, 35.330490199999971 ], [ -81.8602484, 35.327286599999944 ], [ -81.8609032, 35.3248496 ], [ -81.866042800000017, 35.3139254 ], [ -81.8987075, 35.2822011 ], [ -81.8990119, 35.2819069 ], [ -81.9467053, 35.281919699999968 ], [ -82.0061458, 35.288159099999987 ] ] ] } },
{ "type": "Feature", "properties": { "OBJECTID": 2211, "ID": "0003828645", "NAME": "CALDWELL MEMORIAL HOSPITAL", "ADDRESS": "321 MULBERRY STREET SW", "CITY": "LENOIR", "STATE": "NC", "ZIP": "28645", "ZIP4": "NOT AVAILABLE", "TELEPHONE": "(828) 757-5100", "TYPE": "GENERAL ACUTE CARE", "STATUS": "OPEN", "POPULATION": 110, "COUNTY": "CALDWELL", "COUNTYFIPS": "37027", "COUNTRY": "USA", "LATITUDE": 35.910606527, "LONGITUDE": -81.535161384999995, "NAICS_CODE": "622110", "NAICS_DESC": "GENERAL MEDICAL AND SURGICAL HOSPITALS", "SOURCE": "https://www2.ncdhhs.gov/dhsr/reports.htm", "SOURCEDATE": "2018-08-10T00:00:00.000Z", "VAL_METHOD": "IMAGERY", "VAL_DATE": "2014-02-10T00:00:00.000Z", "WEBSITE": "http://www.caldwell-mem.org", "STATE_ID": "NOT AVAILABLE", "ALT_NAME": "NOT AVAILABLE", "ST_FIPS": "37", "OWNER": "NON-PROFIT", "TTL_STAFF": -999, "BEDS": 110, "TRAUMA": "NOT AVAILABLE", "HELIPAD": "Y" }, "geometry": { "type": "Polygon", "coordinates": [ [ [ -81.6319543, 35.83591940000003 ], [ -81.63007850000001, 35.85881890000006 ], [ -81.6146261, 35.9259 ], [ -81.583813, 35.987449 ], [ -81.5719584, 35.993513500000013 ], [ -81.57169020000002, 35.993578700000015 ], [ -81.4290885, 35.97148390000001 ], [ -81.4264223, 35.909584300000013 ], [ -81.455361, 35.831122200000031 ], [ -81.6319543, 35.83591940000003 ] ] ] } },
{ "type": "Feature", "properties": { "OBJECTID": 2212, "ID": "0005927028", "NAME": "DAVIE COUNTY HOSPITAL", "ADDRESS": "223 HOSPITAL STREET", "CITY": "MOCKSVILLE", "STATE": "NC", "ZIP": "27028", "ZIP4": "NOT AVAILABLE", "TELEPHONE": "(336) 751-8100", "TYPE": "GENERAL ACUTE CARE", "STATUS": "CLOSED", "POPULATION": 81, "COUNTY": "DAVIE", "COUNTYFIPS": "37059", "COUNTRY": "USA", "LATITUDE": 35.899376197000002, "LONGITUDE": -80.571791415999897, "NAICS_CODE": "622110", "NAICS_DESC": "GENERAL MEDICAL AND SURGICAL HOSPITALS", "SOURCE": "https://www2.ncdhhs.gov/dhsr/data/hllist.pdf", "SOURCEDATE": "2016-01-25T00:00:00.000Z", "VAL_METHOD": "IMAGERY/OTHER", "VAL_DATE": "2019-05-09T00:00:00.000Z", "WEBSITE": "http://www.daviehospital.org", "STATE_ID": "NOT AVAILABLE", "ALT_NAME": "NOT AVAILABLE", "ST_FIPS": "37", "OWNER": "NON-PROFIT", "TTL_STAFF": -999, "BEDS": 81, "TRAUMA": "NOT AVAILABLE", "HELIPAD": "N" }, "geometry": { "type": "Polygon", "coordinates": [ [ [ -80.549434, 35.8171467 ], [ -80.5898371, 35.822695799999948 ], [ -80.656822, 35.857975 ], [ -80.678657, 35.91314 ], [ -80.639887, 35.993426 ], [ -80.639046, 35.994566 ], [ -80.61923, 36.002846 ], [ -80.4858597, 35.990933 ], [ -80.4403079, 35.87509330000006 ], [ -80.5157997, 35.8150723 ], [ -80.549434, 35.8171467 ] ] ] } },
{ "type": "Feature", "properties": { "OBJECTID": 2214, "ID": "0009027293", "NAME": "LEXINGTON MEMORIAL HOSPITAL", "ADDRESS": "250 HOSPITAL DRIVE", "CITY": "LEXINGTON", "STATE": "NC", "ZIP": "27293", "ZIP4": "NOT AVAILABLE", "TELEPHONE": "(336) 248-5161", "TYPE": "GENERAL ACUTE CARE", "STATUS": "OPEN", "POPULATION": 94, "COUNTY": "DAVIDSON", "COUNTYFIPS": "37057", "COUNTRY": "USA", "LATITUDE": 35.806150151000097, "LONGITUDE": -80.2867354159999, "NAICS_CODE": "622110", "NAICS_DESC": "GENERAL MEDICAL AND SURGICAL HOSPITALS", "SOURCE": "https://www2.ncdhhs.gov/dhsr/reports.htm", "SOURCEDATE": "2018-08-10T00:00:00.000Z", "VAL_METHOD": "IMAGERY/OTHER", "VAL_DATE": "2014-02-10T00:00:00.000Z", "WEBSITE": "http://lexington.wakehealth.edu/", "STATE_ID": "NOT AVAILABLE", "ALT_NAME": "NOT AVAILABLE", "ST_FIPS": "37", "OWNER": "NON-PROFIT", "TTL_STAFF": -999, "BEDS": 94, "TRAUMA": "NOT AVAILABLE", "HELIPAD": "Y" }, "geometry": { "type": "Polygon", "coordinates": [ [ [ -80.3934437, 35.7220735 ], [ -80.3930532, 35.746833100000025 ], [ -80.3740507, 35.85944150000001 ], [ -80.3254232, 35.886541 ], [ -80.256392, 35.8985087 ], [ -80.2336623, 35.887206899999967 ], [ -80.1890867, 35.8548924 ], [ -80.1790981, 35.808789299999972 ], [ -80.1939066, 35.779184 ], [ -80.235206, 35.7453833 ], [ -80.305733, 35.7143193 ], [ -80.3934437, 35.7220735 ] ] ] } },
{ "type": "Feature", "properties": { "OBJECTID": 2216, "ID": "0002328719", "NAME": "CHEROKEE INDIAN HOSPITAL AUTHORITY", "ADDRESS": "1 HOSPITAL ROAD", "CITY": "CHEROKEE", "STATE": "NC", "ZIP": "28719", "ZIP4": "NOT AVAILABLE", "TELEPHONE": "(828) 497-9163", "TYPE": "CRITICAL ACCESS", "STATUS": "OPEN", "POPULATION": 28, "COUNTY": "SWAIN", "COUNTYFIPS": "37173", "COUNTRY": "USA", "LATITUDE": 35.484854972999997, "LONGITUDE": -83.323384402000002, "NAICS_CODE": "622110", "NAICS_DESC": "GENERAL MEDICAL AND SURGICAL HOSPITALS", "SOURCE": "https://www.ihs.gov/findhealthcare/", "SOURCEDATE": "2018-09-27T00:00:00.000Z", "VAL_METHOD": "IMAGERY/OTHER", "VAL_DATE": "2015-04-29T00:00:00.000Z", "WEBSITE": "www.cherokee-hmd.com/?", "STATE_ID": "NOT AVAILABLE", "ALT_NAME": "NOT AVAILABLE", "ST_FIPS": "37", "OWNER": "NON-PROFIT", "TTL_STAFF": -999, "BEDS": 28, "TRAUMA": "NOT AVAILABLE", "HELIPAD": "Y" }, "geometry": { "type": "Polygon", "coordinates": [ [ [ -83.3603443, 35.4658201 ], [ -83.3626266, 35.474850699999983 ], [ -83.3627727, 35.488552300000045 ], [ -83.3607522, 35.491344300000058 ], [ -83.3098153, 35.552896100000012 ], [ -83.3091867, 35.5529619 ], [ -83.2849658, 35.548928500000017 ], [ -83.2753718, 35.527191800000011 ], [ -83.2764356, 35.5201754 ], [ -83.2951489, 35.487961700000028 ], [ -83.3115351, 35.471379 ], [ -83.3183494, 35.468936499999984 ], [ -83.3524783, 35.4649895 ], [ -83.3603443, 35.4658201 ] ] ] } },
{ "type": "Feature", "properties": { "OBJECTID": 2217, "ID": "0010428002", "NAME": "CAROLINAS HEALTHCARE SYSTEM STANLY", "ADDRESS": "301 YADKIN STREET", "CITY": "ALBEMARLE", "STATE": "NC", "ZIP": "28002", "ZIP4": "NOT AVAILABLE", "TELEPHONE": "(704) 984-4347", "TYPE": "GENERAL ACUTE CARE", "STATUS": "OPEN", "POPULATION": 109, "COUNTY": "STANLY", "COUNTYFIPS": "37167", "COUNTRY": "USA", "LATITUDE": 35.364443197000099, "LONGITUDE": -80.194822664999904, "NAICS_CODE": "622110", "NAICS_DESC": "GENERAL MEDICAL AND SURGICAL HOSPITALS", "SOURCE": "https://www2.ncdhhs.gov/dhsr/reports.htm", "SOURCEDATE": "2018-08-10T00:00:00.000Z", "VAL_METHOD": "IMAGERY", "VAL_DATE": "2014-02-10T00:00:00.000Z", "WEBSITE": "http://www.stanly.org", "STATE_ID": "NOT AVAILABLE", "ALT_NAME": "STANLY REGIONAL MEDICAL CENTER", "ST_FIPS": "37", "OWNER": "GOVERNMENT - DISTRICT/AUTHORITY", "TTL_STAFF": -999, "BEDS": 109, "TRAUMA": "NOT AVAILABLE", "HELIPAD": "Y" }, "geometry": { "type": "Polygon", "coordinates": [ [ [ -80.2037121, 35.269499899999964 ], [ -80.284793, 35.291073 ], [ -80.287158, 35.292614 ], [ -80.2883554, 35.293419899999989 ], [ -80.315406, 35.381094 ], [ -80.2532631, 35.4648348 ], [ -80.194931, 35.453443 ], [ -80.139373, 35.431832 ], [ -80.125233, 35.423736 ], [ -80.105522, 35.407739 ], [ -80.104332, 35.406277 ], [ -80.1004336, 35.3140043 ], [ -80.168646, 35.273373 ], [ -80.2037121, 35.269499899999964 ] ] ] } },
{ "type": "Feature", "properties": { "OBJECTID": 2422, "ID": "0002230525", "NAME": "MOUNTAIN LAKES MEDICAL CENTER", "ADDRESS": "196 RIDGECREST CIRCLE", "CITY": "CLAYTON", "STATE": "GA", "ZIP": "30525", "ZIP4": "NOT AVAILABLE", "TELEPHONE": "NOT AVAILABLE", "TYPE": "CRITICAL ACCESS", "STATUS": "OPEN", "POPULATION": 25, "COUNTY": "RABUN", "COUNTYFIPS": "13241", "COUNTRY": "USA", "LATITUDE": 34.883667631000002, "LONGITUDE": -83.414690143000001, "NAICS_CODE": "622110", "NAICS_DESC": "GENERAL MEDICAL AND SURGICAL HOSPITALS", "SOURCE": "http://www.gamap2care.info/", "SOURCEDATE": "2018-08-09T00:00:00.000Z", "VAL_METHOD": "IMAGERY", "VAL_DATE": "2013-10-16T00:00:00.000Z", "WEBSITE": "http://mountainlakesmedicalcenter.com/main.html", "STATE_ID": "17", "ALT_NAME": "NOT AVAILABLE", "ST_FIPS": "13", "OWNER": "GOVERNMENT - DISTRICT/AUTHORITY", "TTL_STAFF": -999, "BEDS": 25, "TRAUMA": "NOT AVAILABLE", "HELIPAD": "N" }, "geometry": { "type": "Polygon", "coordinates": [ [ [ -83.4256377, 34.807458599999975 ], [ -83.524513, 34.844279700000037 ], [ -83.525106, 34.84489 ], [ -83.5436623, 34.866707100000013 ], [ -83.5447255, 34.8684136 ], [ -83.5443148, 34.869644700000016 ], [ -83.54042, 34.872878 ], [ -83.4697603, 34.9157724 ], [ -83.3864677, 34.957770199999985 ], [ -83.317671, 34.887807700000025 ], [ -83.3314777, 34.8366018 ], [ -83.4254114, 34.80749 ], [ -83.4256377, 34.807458599999975 ] ] ] } },
{ "type": "Feature", "properties": { "OBJECTID": 2470, "ID": "0006129615", "NAME": "GHS PATEWOOD MEMORIAL HOSPITAL", "ADDRESS": "175 PATEWOOD DR", "CITY": "GREENVILLE", "STATE": "SC", "ZIP": "29615", "ZIP4": "NOT AVAILABLE", "TELEPHONE": "(864) 797-1000", "TYPE": "GENERAL ACUTE CARE", "STATUS": "OPEN", "POPULATION": 72, "COUNTY": "GREENVILLE", "COUNTYFIPS": "45045", "COUNTRY": "USA", "LATITUDE": 34.851513464000099, "LONGITUDE": -82.327608085999898, "NAICS_CODE": "622110", "NAICS_DESC": "GENERAL MEDICAL AND SURGICAL HOSPITALS", "SOURCE": "http://www.scdhec.gov/Health/FHPF/HealthFacilityRegulationsLicensing/HealthcareFacilityLicensing/LicensedFacilitiesbyType/", "SOURCEDATE": "2018-08-10T00:00:00.000Z", "VAL_METHOD": "IMAGERY/OTHER", "VAL_DATE": "2014-02-10T00:00:00.000Z", "WEBSITE": "http://www.ghs.org/patewood", "STATE_ID": "38785674", "ALT_NAME": "NOT AVAILABLE", "ST_FIPS": "45", "OWNER": "PROPRIETARY", "TTL_STAFF": -999, "BEDS": 72, "TRAUMA": "NOT AVAILABLE", "HELIPAD": "N" }, "geometry": { "type": "Polygon", "coordinates": [ [ [ -82.281989, 34.734598 ], [ -82.297196, 34.736674 ], [ -82.420018, 34.791196 ], [ -82.42382, 34.845548 ], [ -82.417826, 34.870521 ], [ -82.39821, 34.890064 ], [ -82.385017, 34.901155 ], [ -82.3844033, 34.901496 ], [ -82.366764, 34.907149 ], [ -82.3269154, 34.909289400000041 ], [ -82.311901, 34.907918 ], [ -82.2840296, 34.9033069 ], [ -82.197789, 34.883654 ], [ -82.2100456, 34.8030618 ], [ -82.21531, 34.794136 ], [ -82.256905, 34.743626 ], [ -82.268415, 34.733655 ], [ -82.274239, 34.733942 ], [ -82.279279, 34.734315 ], [ -82.281989, 34.734598 ] ] ] } },
{ "type": "Feature", "properties": { "OBJECTID": 2473, "ID": "0001629340", "NAME": "MARY BLACK HEALTH SYSTEM GAFFNEY", "ADDRESS": "1530 N LIMESTONE ST", "CITY": "GAFFNEY", "STATE": "SC", "ZIP": "29340", "ZIP4": "NOT AVAILABLE", "TELEPHONE": "(864) 487-1500", "TYPE": "GENERAL ACUTE CARE", "STATUS": "OPEN", "POPULATION": 125, "COUNTY": "CHEROKEE", "COUNTYFIPS": "45021", "COUNTRY": "USA", "LATITUDE": 35.089879298, "LONGITUDE": -81.634372673000001, "NAICS_CODE": "622110", "NAICS_DESC": "GENERAL MEDICAL AND SURGICAL HOSPITALS", "SOURCE": "http://www.scdhec.gov/Health/FHPF/HealthFacilityRegulationsLicensing/HealthcareFacilityLicensing/LicensedFacilitiesbyType/", "SOURCEDATE": "2018-08-10T00:00:00.000Z", "VAL_METHOD": "IMAGERY/OTHER", "VAL_DATE": "2014-02-10T00:00:00.000Z", "WEBSITE": "http://maryblackgaffney.com/mary-black-gaffney/home.aspx", "STATE_ID": "38783446", "ALT_NAME": "GAFFNEY MEDICAL CENTER", "ST_FIPS": "45", "OWNER": "PROPRIETARY", "TTL_STAFF": -999, "BEDS": 125, "TRAUMA": "NOT AVAILABLE", "HELIPAD": "Y" }, "geometry": { "type": "Polygon", "coordinates": [ [ [ -81.6516945, 34.99544010000001 ], [ -81.691158900000019, 35.003900899999984 ], [ -81.7204873, 35.019465800000013 ], [ -81.7593825, 35.069258899999973 ], [ -81.761417, 35.072451 ], [ -81.7616767, 35.0735932 ], [ -81.761745, 35.075866 ], [ -81.7326248, 35.126716799999983 ], [ -81.675764, 35.1733582 ], [ -81.576236, 35.172969 ], [ -81.563903, 35.172452 ], [ -81.501556400000013, 35.1441767 ], [ -81.5525232, 35.0508282 ], [ -81.57719, 35.016238 ], [ -81.6516945, 34.99544010000001 ] ] ] } },
{ "type": "Feature", "properties": { "OBJECTID": 2481, "ID": "0005929650", "NAME": "CAROLINA CENTER FOR BEHAVIORAL HEALTH", "ADDRESS": "2700 E PHILLIPS RD", "CITY": "GREER", "STATE": "SC", "ZIP": "29650", "ZIP4": "NOT AVAILABLE", "TELEPHONE": "(864) 235-2335", "TYPE": "PSYCHIATRIC", "STATUS": "OPEN", "POPULATION": 130, "COUNTY": "GREENVILLE", "COUNTYFIPS": "45045", "COUNTRY": "USA", "LATITUDE": 34.864857115000099, "LONGITUDE": -82.229157983999997, "NAICS_CODE": "622210", "NAICS_DESC": "PSYCHIATRIC AND SUBSTANCE ABUSE HOSPITALS", "SOURCE": "http://www.scdhec.gov/Health/FHPF/HealthFacilityRegulationsLicensing/HealthcareFacilityLicensing/LicensedFacilitiesbyType/", "SOURCEDATE": "2018-08-10T00:00:00.000Z", "VAL_METHOD": "IMAGERY/OTHER", "VAL_DATE": "2014-02-10T00:00:00.000Z", "WEBSITE": "http://www.thecarolinacenter.com", "STATE_ID": "38781392", "ALT_NAME": "NOT AVAILABLE", "ST_FIPS": "45", "OWNER": "PROPRIETARY", "TTL_STAFF": -999, "BEDS": 130, "TRAUMA": "NOT AVAILABLE", "HELIPAD": "N" }, "geometry": { "type": "Polygon", "coordinates": [ [ [ -82.209423, 34.813001 ], [ -82.210139100000021, 34.813427 ], [ -82.225416, 34.8519419 ], [ -82.2262641, 34.8562256 ], [ -82.233022, 34.930174 ], [ -82.227262, 34.934673 ], [ -82.225849, 34.935519 ], [ -82.2223638, 34.937393699999987 ], [ -82.1901432, 34.937625699999984 ], [ -82.098573, 34.919551 ], [ -82.0987923, 34.906748500000013 ], [ -82.1255343, 34.8640878 ], [ -82.163926, 34.811207 ], [ -82.19866, 34.812553 ], [ -82.209423, 34.813001 ] ] ] } },
{ "type": "Feature", "properties": { "OBJECTID": 2482, "ID": "0009329646", "NAME": "GREENWOOD REGIONAL REHABILITATION HOSPITAL", "ADDRESS": "1530 PKWY", "CITY": "GREENWOOD", "STATE": "SC", "ZIP": "29646", "ZIP4": "NOT AVAILABLE", "TELEPHONE": "(864) 330-1800", "TYPE": "REHABILITATION", "STATUS": "OPEN", "POPULATION": 46, "COUNTY": "GREENWOOD", "COUNTYFIPS": "45047", "COUNTRY": "USA", "LATITUDE": 34.16941166, "LONGITUDE": -82.156795363999905, "NAICS_CODE": "622310", "NAICS_DESC": "REHABILITATION HOSPITALS (EXCEPT ALCOHOLISM, DRUG ADDICTION)", "SOURCE": "http://www.scdhec.gov/Health/FHPF/HealthFacilityRegulationsLicensing/HealthcareFacilityLicensing/LicensedFacilitiesbyType/", "SOURCEDATE": "2018-08-10T00:00:00.000Z", "VAL_METHOD": "IMAGERY", "VAL_DATE": "2013-10-02T00:00:00.000Z", "WEBSITE": "http://www.grrh.ernesthealth.com", "STATE_ID": "38785720", "ALT_NAME": "NOT AVAILABLE", "ST_FIPS": "45", "OWNER": "PROPRIETARY", "TTL_STAFF": -999, "BEDS": 46, "TRAUMA": "NOT AVAILABLE", "HELIPAD": "N" }, "geometry": { "type": "Polygon", "coordinates": [ [ [ -82.133094, 34.083308 ], [ -82.1880363, 34.097729400000013 ], [ -82.2355709, 34.135311599999987 ], [ -82.2486287, 34.189927099999963 ], [ -82.219969, 34.253194 ], [ -82.219429, 34.253436 ], [ -82.179161, 34.253906899999983 ], [ -82.13478, 34.249453 ], [ -82.1014027, 34.2399151 ], [ -82.058059, 34.197757 ], [ -82.0467341, 34.169880400000011 ], [ -82.060876, 34.146634 ], [ -82.09674, 34.09333 ], [ -82.133094, 34.083308 ] ] ] } },
{ "type": "Feature", "properties": { "OBJECTID": 2565, "ID": "0003028801", "NAME": "ASHEVILLE SPECIALTY HOSPITAL", "ADDRESS": "428 BILTMORE AVE", "CITY": "ASHEVILLE", "STATE": "NC", "ZIP": "28801", "ZIP4": "NOT AVAILABLE", "TELEPHONE": "(828) 213-5400", "TYPE": "LONG TERM CARE", "STATUS": "OPEN", "POPULATION": 34, "COUNTY": "BUNCOMBE", "COUNTYFIPS": "37021", "COUNTRY": "USA", "LATITUDE": 35.580556693000098, "LONGITUDE": -82.54999055, "NAICS_CODE": "622310", "NAICS_DESC": "SPECIALTY (EXCEPT PSYCHIATRIC AND SUBSTANCE ABUSE) HOSPITALS", "SOURCE": "https://www2.ncdhhs.gov/dhsr/reports.htm", "SOURCEDATE": "2018-08-10T00:00:00.000Z", "VAL_METHOD": "IMAGERY", "VAL_DATE": "2014-02-10T00:00:00.000Z", "WEBSITE": "http://www.missionhospitals.org/acute-care", "STATE_ID": "NOT AVAILABLE", "ALT_NAME": "NOT AVAILABLE", "ST_FIPS": "37", "OWNER": "PROPRIETARY", "TTL_STAFF": -999, "BEDS": 34, "TRAUMA": "NOT AVAILABLE", "HELIPAD": "N" }, "geometry": { "type": "Polygon", "coordinates": [ [ [ -82.5244823, 35.479832600000051 ], [ -82.606956199999985, 35.518363899999954 ], [ -82.652750700000013, 35.5478012 ], [ -82.6477005, 35.61455940000004 ], [ -82.5923279, 35.685643799999973 ], [ -82.5720002, 35.685409800000031 ], [ -82.5077648, 35.655172500000013 ], [ -82.4318955, 35.593471200000025 ], [ -82.441043, 35.5423529 ], [ -82.499992, 35.489732499999974 ], [ -82.5180018, 35.481927700000014 ], [ -82.5244823, 35.479832600000051 ] ] ] } },
{ "type": "Feature", "properties": { "OBJECTID": 6220, "ID": "0006724210", "NAME": "JOHNSTON MEMORIAL HOSPITAL", "ADDRESS": "351 COURT STREET NE", "CITY": "ABINGDON", "STATE": "VA", "ZIP": "24210", "ZIP4": "NOT AVAILABLE", "TELEPHONE": "(540) 676-7000", "TYPE": "GENERAL ACUTE CARE", "STATUS": "CLOSED", "POPULATION": 135, "COUNTY": "WASHINGTON", "COUNTYFIPS": "51191", "COUNTRY": "USA", "LATITUDE": 36.714176306000098, "LONGITUDE": -81.971249790999906, "NAICS_CODE": "622110", "NAICS_DESC": "GENERAL MEDICAL AND SURGICAL HOSPITALS", "SOURCE": "http://www.vdh.virginia.gov/OLC/acutecare/hospitals.htm", "SOURCEDATE": "2016-08-16T00:00:00.000Z", "VAL_METHOD": "IMAGERY", "VAL_DATE": "2014-02-10T00:00:00.000Z", "WEBSITE": "www.jmh.org", "STATE_ID": "NOT AVAILABLE", "ALT_NAME": "NOT AVAILABLE", "ST_FIPS": "51", "OWNER": "NON-PROFIT", "TTL_STAFF": -999, "BEDS": 135, "TRAUMA": "NOT AVAILABLE", "HELIPAD": "N" }, "geometry": { "type": "Polygon", "coordinates": [ [ [ -82.085766707279063, 36.643041574766727 ], [ -82.085236771332589, 36.653037641499346 ], [ -82.073198343592665, 36.739468205467453 ], [ -82.066687550459406, 36.765223967449238 ], [ -82.066612550816842, 36.765274967392578 ], [ -81.948779648051257, 36.782610083651129 ], [ -81.91840560823627, 36.778442011166227 ], [ -81.833811475400026, 36.764283788867225 ], [ -81.83379947467067, 36.763954788404426 ], [ -81.862141532113171, 36.672382379041473 ], [ -81.961008271405404, 36.633304633075717 ], [ -81.997681332530476, 36.632874701553789 ], [ -82.085766707279063, 36.643041574766727 ] ] ] } },
{ "type": "Feature", "properties": { "OBJECTID": 6248, "ID": "0003229614", "NAME": "W J BARGE MEMORIAL HOSPITAL", "ADDRESS": "1700 WADE HAMPTON BLVD", "CITY": "GREENVILLE", "STATE": "SC", "ZIP": "29614", "ZIP4": "NOT AVAILABLE", "TELEPHONE": "(864) 770-1352", "TYPE": "GENERAL ACUTE CARE", "STATUS": "CLOSED", "POPULATION": 79, "COUNTY": "GREENVILLE", "COUNTYFIPS": "45045", "COUNTRY": "USA", "LATITUDE": 34.8730143390001, "LONGITUDE": -82.361846357000005, "NAICS_CODE": "622110", "NAICS_DESC": "GENERAL MEDICAL AND SURGICAL HOSPITALS", "SOURCE": "http://www.scdhec.gov/Health/FHPF/HealthFacilityRegulationsLicensing/HealthcareFacilityLicensing/LicensedFacilitiesbyType/", "SOURCEDATE": "2012-07-03T00:00:00.000Z", "VAL_METHOD": "IMAGERY", "VAL_DATE": "2013-10-02T00:00:00.000Z", "WEBSITE": "http://www.bju.edu/about-bju/campus-map/barge/", "STATE_ID": "38783250", "ALT_NAME": "NOT AVAILABLE", "ST_FIPS": "45", "OWNER": "PROPRIETARY", "TTL_STAFF": -999, "BEDS": 79, "TRAUMA": "NOT AVAILABLE", "HELIPAD": "N" }, "geometry": { "type": "Polygon", "coordinates": [ [ [ -82.381427, 34.784969 ], [ -82.383955, 34.785439 ], [ -82.4295594, 34.800865400000035 ], [ -82.4530976, 34.8332038 ], [ -82.459629, 34.846186 ], [ -82.455135, 34.883033 ], [ -82.454178, 34.890605 ], [ -82.448723, 34.920937 ], [ -82.434763, 34.93803 ], [ -82.433895, 34.938386 ], [ -82.3511849, 34.9549221 ], [ -82.281451, 34.945649 ], [ -82.275617, 34.943542 ], [ -82.267644, 34.939049 ], [ -82.267575, 34.938882 ], [ -82.250977, 34.86200370000001 ], [ -82.250378, 34.855255 ], [ -82.2524659, 34.818458600000035 ], [ -82.2699348, 34.7896128 ], [ -82.2712986, 34.7884847 ], [ -82.272899, 34.787328 ], [ -82.2850244, 34.78666149999998 ], [ -82.373915, 34.784642 ], [ -82.381427, 34.784969 ] ] ] } },
{ "type": "Feature", "properties": { "OBJECTID": 6249, "ID": "0009229601", "NAME": "ST FRANCIS-DOWNTOWN", "ADDRESS": "1 SAINT FRANCIS DR", "CITY": "GREENVILLE", "STATE": "SC", "ZIP": "29601", "ZIP4": "NOT AVAILABLE", "TELEPHONE": "(864) 255-1000", "TYPE": "GENERAL ACUTE CARE", "STATUS": "OPEN", "POPULATION": 245, "COUNTY": "GREENVILLE", "COUNTYFIPS": "45045", "COUNTRY": "USA", "LATITUDE": 34.8404389680001, "LONGITUDE": -82.421390421999902, "NAICS_CODE": "622110", "NAICS_DESC": "GENERAL MEDICAL AND SURGICAL HOSPITALS", "SOURCE": "http://www.scdhec.gov/Health/FHPF/HealthFacilityRegulationsLicensing/HealthcareFacilityLicensing/LicensedFacilitiesbyType/", "SOURCEDATE": "2018-08-10T00:00:00.000Z", "VAL_METHOD": "IMAGERY/OTHER", "VAL_DATE": "2014-02-10T00:00:00.000Z", "WEBSITE": "http://www.stfrancishealth.org/find-a-facility-st-francis-downtown.html", "STATE_ID": "38781333", "ALT_NAME": "NOT AVAILABLE", "ST_FIPS": "45", "OWNER": "NON-PROFIT", "TTL_STAFF": -999, "BEDS": 245, "TRAUMA": "NOT AVAILABLE", "HELIPAD": "N" }, "geometry": { "type": "Polygon", "coordinates": [ [ [ -82.436384, 34.740509 ], [ -82.4548426, 34.7531891 ], [ -82.484998, 34.832317 ], [ -82.485764, 34.836158 ], [ -82.4904505, 34.878342100000012 ], [ -82.489739, 34.896618 ], [ -82.489033, 34.899337 ], [ -82.462801, 34.9153067 ], [ -82.462006599999981, 34.915685100000019 ], [ -82.43295, 34.922408 ], [ -82.391707, 34.915534 ], [ -82.333359500000014, 34.903484700000021 ], [ -82.305665, 34.856579 ], [ -82.294358, 34.829586400000032 ], [ -82.3868584, 34.770357500000017 ], [ -82.436384, 34.740509 ] ] ] } },
{ "type": "Feature", "properties": { "OBJECTID": 6250, "ID": "0009429651", "NAME": "PELHAM MEDICAL CENTER", "ADDRESS": "250 WESTMORELAND RD", "CITY": "GREER", "STATE": "SC", "ZIP": "29651", "ZIP4": "NOT AVAILABLE", "TELEPHONE": "(864) 530-2366", "TYPE": "GENERAL ACUTE CARE", "STATUS": "OPEN", "POPULATION": 48, "COUNTY": "SPARTANBURG", "COUNTYFIPS": "45083", "COUNTRY": "USA", "LATITUDE": 34.862483583, "LONGITUDE": -82.218591297000003, "NAICS_CODE": "622110", "NAICS_DESC": "GENERAL MEDICAL AND SURGICAL HOSPITALS", "SOURCE": "http://www.scdhec.gov/Health/FHPF/HealthFacilityRegulationsLicensing/HealthcareFacilityLicensing/LicensedFacilitiesbyType/", "SOURCEDATE": "2018-08-10T00:00:00.000Z", "VAL_METHOD": "IMAGERY/OTHER", "VAL_DATE": "2014-02-10T00:00:00.000Z", "WEBSITE": "https://www.spartanburgregional.com/locations/pelham-medical-center/", "STATE_ID": "41102094", "ALT_NAME": "VILLAGE HOSPITAL", "ST_FIPS": "45", "OWNER": "GOVERNMENT - DISTRICT/AUTHORITY", "TTL_STAFF": -999, "BEDS": 48, "TRAUMA": "NOT AVAILABLE", "HELIPAD": "Y" }, "geometry": { "type": "Polygon", "coordinates": [ [ [ -82.217217, 34.808126 ], [ -82.2262641, 34.8562256 ], [ -82.234441, 34.929898 ], [ -82.233685, 34.931193 ], [ -82.232584, 34.932452 ], [ -82.226473, 34.937732 ], [ -82.222276, 34.939473600000035 ], [ -82.1901432, 34.937625699999984 ], [ -82.188413, 34.937319 ], [ -82.098573, 34.919551 ], [ -82.096116, 34.9068595 ], [ -82.1244462, 34.863259 ], [ -82.163926, 34.811207 ], [ -82.19311, 34.807883 ], [ -82.210251, 34.807582 ], [ -82.217217, 34.808126 ] ] ] } },
{ "type": "Feature", "properties": { "OBJECTID": 6251, "ID": "0006329379", "NAME": "UNION MEDICAL CENTER", "ADDRESS": "322 W SOUTH ST", "CITY": "UNION", "STATE": "SC", "ZIP": "29379", "ZIP4": "NOT AVAILABLE", "TELEPHONE": "(864) 427-0351", "TYPE": "GENERAL ACUTE CARE", "STATUS": "OPEN", "POPULATION": 143, "COUNTY": "UNION", "COUNTYFIPS": "45087", "COUNTRY": "USA", "LATITUDE": 34.712160133000097, "LONGITUDE": -81.629300788999998, "NAICS_CODE": "622110", "NAICS_DESC": "GENERAL MEDICAL AND SURGICAL HOSPITALS", "SOURCE": "http://www.scdhec.gov/Health/FHPF/HealthFacilityRegulationsLicensing/HealthcareFacilityLicensing/LicensedFacilitiesbyType/", "SOURCEDATE": "2018-08-10T00:00:00.000Z", "VAL_METHOD": "IMAGERY/OTHER", "VAL_DATE": "2013-10-03T00:00:00.000Z", "WEBSITE": "http://www.wallacethomson.com", "STATE_ID": "38782553", "ALT_NAME": "WALLACE THOMSON HOSPITAL", "ST_FIPS": "45", "OWNER": "GOVERNMENT - DISTRICT/AUTHORITY", "TTL_STAFF": -999, "BEDS": 143, "TRAUMA": "NOT AVAILABLE", "HELIPAD": "N" }, "geometry": { "type": "Polygon", "coordinates": [ [ [ -81.5985021, 34.628330799999972 ], [ -81.6688112, 34.644335400000031 ], [ -81.7317028, 34.6758143 ], [ -81.7197392, 34.7163478 ], [ -81.6815755, 34.810739600000019 ], [ -81.6813782, 34.810872199999977 ], [ -81.6396813, 34.803613399999954 ], [ -81.5310154, 34.760644200000051 ], [ -81.5307653, 34.748421300000011 ], [ -81.5345702, 34.6618612 ], [ -81.5646355, 34.641483800000017 ], [ -81.5985021, 34.628330799999972 ] ] ] } },
{ "type": "Feature", "properties": { "OBJECTID": 6254, "ID": "0009029621", "NAME": "ANMED HEALTH REHABILITATION HOSPITAL", "ADDRESS": "1 SPRING BACK WAY", "CITY": "ANDERSON", "STATE": "SC", "ZIP": "29621", "ZIP4": "NOT AVAILABLE", "TELEPHONE": "(864) 716-2600", "TYPE": "GENERAL ACUTE CARE", "STATUS": "OPEN", "POPULATION": 60, "COUNTY": "ANDERSON", "COUNTYFIPS": "45007", "COUNTRY": "USA", "LATITUDE": 34.537741394000101, "LONGITUDE": -82.628032672000003, "NAICS_CODE": "622110", "NAICS_DESC": "GENERAL MEDICAL AND SURGICAL HOSPITALS", "SOURCE": "http://www.scdhec.gov/Health/FHPF/HealthFacilityRegulationsLicensing/HealthcareFacilityLicensing/LicensedFacilitiesbyType/", "SOURCEDATE": "2018-08-10T00:00:00.000Z", "VAL_METHOD": "IMAGERY/OTHER", "VAL_DATE": "2013-10-03T00:00:00.000Z", "WEBSITE": "http://www.anmedrehab.com", "STATE_ID": "38785051", "ALT_NAME": "NOT AVAILABLE", "ST_FIPS": "45", "OWNER": "PROPRIETARY", "TTL_STAFF": -999, "BEDS": 60, "TRAUMA": "NOT AVAILABLE", "HELIPAD": "N" }, "geometry": { "type": "Polygon", "coordinates": [ [ [ -82.665036, 34.450962 ], [ -82.668046, 34.451316 ], [ -82.6891245, 34.460871099999984 ], [ -82.704114, 34.478921 ], [ -82.736611, 34.518808 ], [ -82.734649, 34.529361 ], [ -82.730462, 34.540037 ], [ -82.715409, 34.572716 ], [ -82.713021, 34.576521 ], [ -82.647919, 34.625371 ], [ -82.631614, 34.633128 ], [ -82.6049422, 34.6410266 ], [ -82.593299, 34.64384 ], [ -82.568246, 34.615587 ], [ -82.549518, 34.587471 ], [ -82.548937, 34.569151 ], [ -82.5512222, 34.513888700000031 ], [ -82.5753319, 34.4763041 ], [ -82.5775901, 34.473191799999988 ], [ -82.601412, 34.461185 ], [ -82.638921, 34.44958 ], [ -82.665036, 34.450962 ] ] ] } },
{ "type": "Feature", "properties": { "OBJECTID": 6312, "ID": "0010337601", "NAME": "QUILLEN REHABILITATION HOSPITAL", "ADDRESS": "2511 WESLEY STREET", "CITY": "JOHNSON CITY", "STATE": "TN", "ZIP": "37601", "ZIP4": "NOT AVAILABLE", "TELEPHONE": "(423) 283-0700", "TYPE": "REHABILITATION", "STATUS": "OPEN", "POPULATION": 36, "COUNTY": "WASHINGTON", "COUNTYFIPS": "47179", "COUNTRY": "USA", "LATITUDE": 36.35377858, "LONGITUDE": -82.3717817, "NAICS_CODE": "622310", "NAICS_DESC": "REHABILITATION HOSPITALS (EXCEPT ALCOHOLISM, DRUG ADDICTION)", "SOURCE": "https://apps.health.tn.gov/FacilityListings", "SOURCEDATE": "2018-08-10T00:00:00.000Z", "VAL_METHOD": "IMAGERY", "VAL_DATE": "2014-02-10T00:00:00.000Z", "WEBSITE": "http://www.quillenrehabilitationhospital.com/", "STATE_ID": "629696", "ALT_NAME": "JAMES H. & CECILE C. QUILLEN REHAB HOSPITAL", "ST_FIPS": "47", "OWNER": "NON-PROFIT", "TTL_STAFF": -999, "BEDS": 36, "TRAUMA": "NOT AVAILABLE", "HELIPAD": "N" }, "geometry": { "type": "Polygon", "coordinates": [ [ [ -82.4083575, 36.273885799999981 ], [ -82.4654897, 36.300452299999975 ], [ -82.4919389, 36.402543399999949 ], [ -82.4919859, 36.403490099999964 ], [ -82.4920395, 36.405166300000026 ], [ -82.4829708, 36.415901 ], [ -82.4773801, 36.420230799999985 ], [ -82.4649464, 36.42225209999998 ], [ -82.3145002, 36.429445699999988 ], [ -82.3135387, 36.4287291 ], [ -82.3089796, 36.416524599999974 ], [ -82.2777484, 36.327110900000037 ], [ -82.2947102, 36.29384670000006 ], [ -82.3183164, 36.269056300000031 ], [ -82.388263, 36.271906 ], [ -82.4083575, 36.273885799999981 ] ] ] } },
{ "type": "Feature", "properties": { "OBJECTID": 6313, "ID": "0010437604", "NAME": "WOODRIDGE PSYCHIATRIC HOSPITAL", "ADDRESS": "403 STATE OF FRANKLIN", "CITY": "JOHNSON CITY", "STATE": "TN", "ZIP": "37604", "ZIP4": "NOT AVAILABLE", "TELEPHONE": "(423) 431-7111", "TYPE": "PSYCHIATRIC", "STATUS": "OPEN", "POPULATION": 84, "COUNTY": "WASHINGTON", "COUNTYFIPS": "47179", "COUNTRY": "USA", "LATITUDE": 36.307733075999998, "LONGITUDE": -82.387721842000005, "NAICS_CODE": "622210", "NAICS_DESC": "PSYCHIATRIC AND SUBSTANCE ABUSE HOSPITALS", "SOURCE": "https://apps.health.tn.gov/FacilityListings", "SOURCEDATE": "2018-08-10T00:00:00.000Z", "VAL_METHOD": "IMAGERY/OTHER", "VAL_DATE": "2014-03-12T00:00:00.000Z", "WEBSITE": "http://www.msha.com/hospitals/woodridge_hospital_l_johnson_city_tn.aspx", "STATE_ID": "634949", "ALT_NAME": "NOT AVAILABLE", "ST_FIPS": "47", "OWNER": "NON-PROFIT", "TTL_STAFF": -999, "BEDS": 84, "TRAUMA": "NOT AVAILABLE", "HELIPAD": "Y" }, "geometry": { "type": "Polygon", "coordinates": [ [ [ -82.430442, 36.239206 ], [ -82.4574586, 36.245164299999971 ], [ -82.5139568, 36.284184900000035 ], [ -82.5140891, 36.284277700000018 ], [ -82.514687, 36.2900396 ], [ -82.4733671, 36.405024 ], [ -82.4151407, 36.402750099999977 ], [ -82.351629, 36.399320800000012 ], [ -82.351462, 36.399172700000022 ], [ -82.2764714, 36.329420900000024 ], [ -82.2750091, 36.326945 ], [ -82.2855773, 36.2968601 ], [ -82.2867818, 36.294211299999986 ], [ -82.3086531, 36.267447 ], [ -82.3199147, 36.260101300000024 ], [ -82.3233765, 36.258515 ], [ -82.4126437, 36.2396066 ], [ -82.430442, 36.239206 ] ] ] } },
{ "type": "Feature", "properties": { "OBJECTID": 6314, "ID": "0010537601", "NAME": "JOHNSON CITY SPECIALTY HOSPITAL", "ADDRESS": "203 EAST WATAUGA AVENUE", "CITY": "JOHNSON CITY", "STATE": "TN", "ZIP": "37601", "ZIP4": "NOT AVAILABLE", "TELEPHONE": "(423) 434-1400", "TYPE": "GENERAL ACUTE CARE", "STATUS": "CLOSED", "POPULATION": 49, "COUNTY": "WASHINGTON", "COUNTYFIPS": "47179", "COUNTRY": "USA", "LATITUDE": 36.323710071999997, "LONGITUDE": -82.354531312999896, "NAICS_CODE": "622110", "NAICS_DESC": "GENERAL MEDICAL AND SURGICAL HOSPITALS", "SOURCE": "http://tnmap.state.tn.us/portal/metadata.asp", "SOURCEDATE": "2012-06-11T00:00:00.000Z", "VAL_METHOD": "IMAGERY/OTHER", "VAL_DATE": "2014-02-12T00:00:00.000Z", "WEBSITE": "tricities.selectspecialtyhospitals.com/?", "STATE_ID": "633115", "ALT_NAME": "NOT AVAILABLE", "ST_FIPS": "47", "OWNER": "PROPRIETARY", "TTL_STAFF": -999, "BEDS": 49, "TRAUMA": "NOT AVAILABLE", "HELIPAD": "N" }, "geometry": { "type": "Polygon", "coordinates": [ [ [ -82.41305060000002, 36.257536 ], [ -82.4256248, 36.260646900000033 ], [ -82.429065, 36.261506 ], [ -82.4807957, 36.290693899999951 ], [ -82.4815034, 36.293597900000016 ], [ -82.4808191, 36.409191199999981 ], [ -82.4767367, 36.411056199999955 ], [ -82.4729222, 36.4116535 ], [ -82.3385651, 36.408462400000019 ], [ -82.2893951, 36.3765974 ], [ -82.2496971, 36.3439174 ], [ -82.2490175, 36.3420329 ], [ -82.2484566, 36.3404469 ], [ -82.245581, 36.319981 ], [ -82.2846759, 36.260992600000023 ], [ -82.3010786, 36.250838 ], [ -82.41305060000002, 36.257536 ] ] ] } },
{ "type": "Feature", "properties": { "OBJECTID": 6833, "ID": "0016637604", "NAME": "FRANKLIN WOODS COMMUNITY HOSPITAL", "ADDRESS": "300 MED TECH PARKWAY", "CITY": "JOHNSON CITY", "STATE": "TN", "ZIP": "37604", "ZIP4": "NOT AVAILABLE", "TELEPHONE": "(423) 302-1000", "TYPE": "GENERAL ACUTE CARE", "STATUS": "OPEN", "POPULATION": 80, "COUNTY": "WASHINGTON", "COUNTYFIPS": "47179", "COUNTRY": "USA", "LATITUDE": 36.336303832000098, "LONGITUDE": -82.402064466, "NAICS_CODE": "622110", "NAICS_DESC": "GENERAL MEDICAL AND SURGICAL HOSPITALS", "SOURCE": "https://apps.health.tn.gov/FacilityListings", "SOURCEDATE": "2018-08-10T00:00:00.000Z", "VAL_METHOD": "IMAGERY", "VAL_DATE": "2016-11-16T00:00:00.000Z", "WEBSITE": "https://www.mountainstateshealth.com/fwch", "STATE_ID": "NOT AVAILABLE", "ALT_NAME": "NOT AVAILABLE", "ST_FIPS": "47", "OWNER": "NON-PROFIT", "TTL_STAFF": -999, "BEDS": 80, "TRAUMA": "NOT AVAILABLE", "HELIPAD": "N" }, "geometry": { "type": "Polygon", "coordinates": [ [ [ -82.4256248, 36.260646900000033 ], [ -82.4843232, 36.285914300000044 ], [ -82.491726, 36.294184799999982 ], [ -82.495804600000014, 36.3908378 ], [ -82.4957333, 36.395016199999986 ], [ -82.4920395, 36.405166300000026 ], [ -82.4887536, 36.4136612 ], [ -82.4814519, 36.42147880000001 ], [ -82.4760214, 36.424198600000011 ], [ -82.426592700000015, 36.422237400000043 ], [ -82.3279166, 36.416207300000018 ], [ -82.3277409, 36.416065299999964 ], [ -82.3030578, 36.327042 ], [ -82.306859, 36.297707 ], [ -82.3186123, 36.280111799999979 ], [ -82.378786, 36.2614 ], [ -82.4098124, 36.259798600000018 ], [ -82.4256248, 36.260646900000033 ] ] ] } },
{ "type": "Feature", "properties": { "OBJECTID": 6944, "ID": "0001529646", "NAME": "SELF REGIONAL HEALTHCARE", "ADDRESS": "1325 SPRING ST", "CITY": "GREENWOOD", "STATE": "SC", "ZIP": "29646", "ZIP4": "NOT AVAILABLE", "TELEPHONE": "(864) 725-4111", "TYPE": "GENERAL ACUTE CARE", "STATUS": "OPEN", "POPULATION": 354, "COUNTY": "GREENWOOD", "COUNTYFIPS": "45047", "COUNTRY": "USA", "LATITUDE": 34.175643616000102, "LONGITUDE": -82.156578189999905, "NAICS_CODE": "622110", "NAICS_DESC": "GENERAL MEDICAL AND SURGICAL HOSPITALS", "SOURCE": "http://www.scdhec.gov/Health/FHPF/HealthFacilityRegulationsLicensing/HealthcareFacilityLicensing/LicensedFacilitiesbyType/", "SOURCEDATE": "2018-08-10T00:00:00.000Z", "VAL_METHOD": "IMAGERY/OTHER", "VAL_DATE": "2013-10-02T00:00:00.000Z", "WEBSITE": "http://www.selfregional.org", "STATE_ID": "38785285", "ALT_NAME": "NOT AVAILABLE", "ST_FIPS": "45", "OWNER": "GOVERNMENT - LOCAL", "TTL_STAFF": -999, "BEDS": 354, "TRAUMA": "LEVEL III", "HELIPAD": "N" }, "geometry": { "type": "Polygon", "coordinates": [ [ [ -82.125087, 34.081574 ], [ -82.133094, 34.083308 ], [ -82.1880363, 34.097729400000013 ], [ -82.2355709, 34.135311599999987 ], [ -82.2649158, 34.189440600000047 ], [ -82.2648035, 34.18975319999997 ], [ -82.227541, 34.263985 ], [ -82.2266588, 34.2643199 ], [ -82.18026, 34.26309 ], [ -82.130851, 34.255548 ], [ -82.099383, 34.246719899999981 ], [ -82.058059, 34.197757 ], [ -82.043938, 34.171548 ], [ -82.0434357, 34.17042409999997 ], [ -82.049494, 34.145825 ], [ -82.094753, 34.095268 ], [ -82.09674, 34.09333 ], [ -82.101419, 34.090986 ], [ -82.125087, 34.081574 ] ] ] } },
{ "type": "Feature", "properties": { "OBJECTID": 6945, "ID": "0000129605", "NAME": "GHS GREENVILLE MEMORIAL HOSPITAL", "ADDRESS": "701 GROVE RD", "CITY": "GREENVILLE", "STATE": "SC", "ZIP": "29605", "ZIP4": "NOT AVAILABLE", "TELEPHONE": "(864) 455-7114", "TYPE": "GENERAL ACUTE CARE", "STATUS": "OPEN", "POPULATION": 845, "COUNTY": "GREENVILLE", "COUNTYFIPS": "45045", "COUNTRY": "USA", "LATITUDE": 34.81864389, "LONGITUDE": -82.412648587000007, "NAICS_CODE": "622110", "NAICS_DESC": "GENERAL MEDICAL AND SURGICAL HOSPITALS", "SOURCE": "http://www.scdhec.gov/Health/FHPF/HealthFacilityRegulationsLicensing/HealthcareFacilityLicensing/LicensedFacilitiesbyType/", "SOURCEDATE": "2018-08-10T00:00:00.000Z", "VAL_METHOD": "IMAGERY/OTHER", "VAL_DATE": "2014-02-10T00:00:00.000Z", "WEBSITE": "http://www.ghs.org/greenvillememorial", "STATE_ID": "38783931", "ALT_NAME": "NOT AVAILABLE", "ST_FIPS": "45", "OWNER": "PROPRIETARY", "TTL_STAFF": -999, "BEDS": 845, "TRAUMA": "LEVEL I", "HELIPAD": "Y" }, "geometry": { "type": "Polygon", "coordinates": [ [ [ -82.440903, 34.712908 ], [ -82.452914, 34.718581 ], [ -82.460591, 34.728646 ], [ -82.484998, 34.832317 ], [ -82.485764, 34.836158 ], [ -82.4847148, 34.851700500000028 ], [ -82.482384, 34.87185 ], [ -82.468498, 34.890299 ], [ -82.417023, 34.902032 ], [ -82.345291, 34.894144 ], [ -82.3222176, 34.858454699999989 ], [ -82.3130746, 34.841161799999973 ], [ -82.311294, 34.837702099999973 ], [ -82.3252533, 34.8051 ], [ -82.342266, 34.775127 ], [ -82.3821093, 34.723296100000042 ], [ -82.3874197, 34.7185732 ], [ -82.440903, 34.712908 ] ] ] } },
{ "type": "Feature", "properties": { "OBJECTID": 6946, "ID": "0001829615", "NAME": "ST FRANCIS-EASTSIDE", "ADDRESS": "125 COMMONWEALTH DR", "CITY": "GREENVILLE", "STATE": "SC", "ZIP": "29615", "ZIP4": "NOT AVAILABLE", "TELEPHONE": "(864) 675-4000", "TYPE": "GENERAL ACUTE CARE", "STATUS": "OPEN", "POPULATION": 93, "COUNTY": "GREENVILLE", "COUNTYFIPS": "45045", "COUNTRY": "USA", "LATITUDE": 34.851285814999997, "LONGITUDE": -82.322549183999996, "NAICS_CODE": "622110", "NAICS_DESC": "GENERAL MEDICAL AND SURGICAL HOSPITALS", "SOURCE": "http://www.scdhec.gov/Health/FHPF/HealthFacilityRegulationsLicensing/HealthcareFacilityLicensing/LicensedFacilitiesbyType/", "SOURCEDATE": "2018-08-10T00:00:00.000Z", "VAL_METHOD": "IMAGERY/OTHER", "VAL_DATE": "2014-02-10T00:00:00.000Z", "WEBSITE": "http://www.stfrancishealth.org/find-a-facility-st-francis-eastside.html", "STATE_ID": "38781282", "ALT_NAME": "NOT AVAILABLE", "ST_FIPS": "45", "OWNER": "NON-PROFIT", "TTL_STAFF": -999, "BEDS": 93, "TRAUMA": "NOT AVAILABLE", "HELIPAD": "N" }, "geometry": { "type": "Polygon", "coordinates": [ [ [ -82.2762071, 34.7422199 ], [ -82.292837, 34.747066699999955 ], [ -82.40662, 34.792501 ], [ -82.433431, 34.846378 ], [ -82.4292281, 34.870755100000039 ], [ -82.409625, 34.89468 ], [ -82.390891, 34.913849 ], [ -82.362281, 34.917689 ], [ -82.351077, 34.919121 ], [ -82.316444, 34.919758 ], [ -82.310936, 34.919263 ], [ -82.288169, 34.916762 ], [ -82.270261, 34.912767 ], [ -82.2151751, 34.885749900000022 ], [ -82.208149, 34.879147400000015 ], [ -82.221951, 34.806899 ], [ -82.225669, 34.801711 ], [ -82.263642, 34.750569 ], [ -82.2762071, 34.7422199 ] ] ] } },
{ "type": "Feature", "properties": { "OBJECTID": 6950, "ID": "0009529650", "NAME": "GHS GREER MEMORIAL HOSPITAL", "ADDRESS": "830 S BUNCOMBE RD", "CITY": "GREER", "STATE": "SC", "ZIP": "29650", "ZIP4": "NOT AVAILABLE", "TELEPHONE": "(864) 797-8001", "TYPE": "GENERAL ACUTE CARE", "STATUS": "OPEN", "POPULATION": 82, "COUNTY": "GREENVILLE", "COUNTYFIPS": "45045", "COUNTRY": "USA", "LATITUDE": 34.920043972000002, "LONGITUDE": -82.244231201999995, "NAICS_CODE": "622110", "NAICS_DESC": "GENERAL MEDICAL AND SURGICAL HOSPITALS", "SOURCE": "http://www.scdhec.gov/Health/FHPF/HealthFacilityRegulationsLicensing/HealthcareFacilityLicensing/LicensedFacilitiesbyType/", "SOURCEDATE": "2018-08-10T00:00:00.000Z", "VAL_METHOD": "IMAGERY/OTHER", "VAL_DATE": "2014-02-10T00:00:00.000Z", "WEBSITE": "http://www.ghs.org/greermemorial", "STATE_ID": "41089405", "ALT_NAME": "NOT AVAILABLE", "ST_FIPS": "45", "OWNER": "PROPRIETARY", "TTL_STAFF": -999, "BEDS": 82, "TRAUMA": "LEVEL III", "HELIPAD": "Y" }, "geometry": { "type": "Polygon", "coordinates": [ [ [ -82.2269983, 34.847534300000014 ], [ -82.2682452, 34.8558977 ], [ -82.284466, 34.859984 ], [ -82.29449, 34.862773 ], [ -82.3228748, 34.8764149 ], [ -82.334571, 34.912318 ], [ -82.328389, 34.969863 ], [ -82.325202, 34.972222 ], [ -82.279530200000011, 35.001882200000018 ], [ -82.245243, 34.990427 ], [ -82.1733345, 34.959466299999981 ], [ -82.1662242, 34.9526648 ], [ -82.16087, 34.933924 ], [ -82.153029, 34.89409 ], [ -82.153832, 34.886797 ], [ -82.2269983, 34.847534300000014 ] ] ] } },
{ "type": "Feature", "properties": { "OBJECTID": 6958, "ID": "0000229307", "NAME": "MARY BLACK HEALTH SYSTEM SPARTANBURG", "ADDRESS": "1700 SKYLYN DR", "CITY": "SPARTANBURG", "STATE": "SC", "ZIP": "29307", "ZIP4": "NOT AVAILABLE", "TELEPHONE": "(803) 573-3034", "TYPE": "GENERAL ACUTE CARE", "STATUS": "OPEN", "POPULATION": 207, "COUNTY": "SPARTANBURG", "COUNTYFIPS": "45083", "COUNTRY": "USA", "LATITUDE": 34.978408167000097, "LONGITUDE": -81.895519534000002, "NAICS_CODE": "622110", "NAICS_DESC": "GENERAL MEDICAL AND SURGICAL HOSPITALS", "SOURCE": "http://www.scdhec.gov/Health/FHPF/HealthFacilityRegulationsLicensing/HealthcareFacilityLicensing/LicensedFacilitiesbyType/", "SOURCEDATE": "2018-08-10T00:00:00.000Z", "VAL_METHOD": "IMAGERY/OTHER", "VAL_DATE": "2013-10-03T00:00:00.000Z", "WEBSITE": "http://www.maryblackhealthsystem.com", "STATE_ID": "38783019", "ALT_NAME": "NOT AVAILABLE", "ST_FIPS": "45", "OWNER": "PROPRIETARY", "TTL_STAFF": -999, "BEDS": 207, "TRAUMA": "NOT AVAILABLE", "HELIPAD": "Y" }, "geometry": { "type": "Polygon", "coordinates": [ [ [ -81.94757, 34.906617599999983 ], [ -81.976172300000016, 34.923376800000035 ], [ -81.9831476, 34.936561 ], [ -82.001937, 34.998255 ], [ -82.0017007, 34.9984664 ], [ -81.990048, 35.007128 ], [ -81.947704, 35.034335 ], [ -81.8755568, 35.071450499999955 ], [ -81.8181797, 35.04787869999997 ], [ -81.8133686, 35.045261799999942 ], [ -81.802121, 35.016027 ], [ -81.79839, 35.005121 ], [ -81.818436, 34.953737 ], [ -81.837295, 34.925444 ], [ -81.839249, 34.923524 ], [ -81.839607, 34.923175 ], [ -81.8839675, 34.905161700000022 ], [ -81.94757, 34.906617599999983 ] ] ] } },
{ "type": "Feature", "properties": { "OBJECTID": 6959, "ID": "0007229303", "NAME": "SPARTANBURG REGIONAL MEDICAL CENTER", "ADDRESS": "101 E WOOD ST", "CITY": "SPARTANBURG", "STATE": "SC", "ZIP": "29303", "ZIP4": "NOT AVAILABLE", "TELEPHONE": "(864) 560-6000", "TYPE": "GENERAL ACUTE CARE", "STATUS": "OPEN", "POPULATION": 540, "COUNTY": "SPARTANBURG", "COUNTYFIPS": "45083", "COUNTRY": "USA", "LATITUDE": 34.966600454000101, "LONGITUDE": -81.939464492999903, "NAICS_CODE": "622110", "NAICS_DESC": "GENERAL MEDICAL AND SURGICAL HOSPITALS", "SOURCE": "http://www.scdhec.gov/Health/FHPF/HealthFacilityRegulationsLicensing/HealthcareFacilityLicensing/LicensedFacilitiesbyType/", "SOURCEDATE": "2018-08-10T00:00:00.000Z", "VAL_METHOD": "IMAGERY/OTHER", "VAL_DATE": "2014-02-10T00:00:00.000Z", "WEBSITE": "http://www.spartanburgregional.com", "STATE_ID": "38785325", "ALT_NAME": "NOT AVAILABLE", "ST_FIPS": "45", "OWNER": "GOVERNMENT - DISTRICT/AUTHORITY", "TTL_STAFF": -999, "BEDS": 540, "TRAUMA": "LEVEL I", "HELIPAD": "Y" }, "geometry": { "type": "Polygon", "coordinates": [ [ [ -81.9573, 34.88851 ], [ -81.989562, 34.8989 ], [ -82.008519, 34.915055 ], [ -82.058483, 34.958702 ], [ -82.034573, 35.026938 ], [ -82.0335208, 35.027996499999986 ], [ -81.9871287, 35.05020480000001 ], [ -81.9395485, 35.062001800000012 ], [ -81.8802255, 35.0629993 ], [ -81.834016, 35.036211900000019 ], [ -81.8307722, 34.9941753 ], [ -81.837295, 34.925444 ], [ -81.8810428, 34.89841650000001 ], [ -81.9573, 34.88851 ] ] ] } },
{ "type": "Feature", "properties": { "OBJECTID": 6962, "ID": "0001729732", "NAME": "PIEDMONT MEDICAL CENTER", "ADDRESS": "222 S HERLONG AVE", "CITY": "ROCK HILL", "STATE": "SC", "ZIP": "29732", "ZIP4": "NOT AVAILABLE", "TELEPHONE": "(803) 329-1234", "TYPE": "GENERAL ACUTE CARE", "STATUS": "OPEN", "POPULATION": 288, "COUNTY": "YORK", "COUNTYFIPS": "45091", "COUNTRY": "USA", "LATITUDE": 34.956609448999998, "LONGITUDE": -81.05177374, "NAICS_CODE": "622110", "NAICS_DESC": "GENERAL MEDICAL AND SURGICAL HOSPITALS", "SOURCE": "http://www.scdhec.gov/Health/FHPF/HealthFacilityRegulationsLicensing/HealthcareFacilityLicensing/LicensedFacilitiesbyType/", "SOURCEDATE": "2018-08-10T00:00:00.000Z", "VAL_METHOD": "IMAGERY/OTHER", "VAL_DATE": "2014-02-10T00:00:00.000Z", "WEBSITE": "http://www.piedmontmedicalcenter.com", "STATE_ID": "38782357", "ALT_NAME": "NOT AVAILABLE", "ST_FIPS": "45", "OWNER": "PROPRIETARY", "TTL_STAFF": -999, "BEDS": 288, "TRAUMA": "LEVEL III", "HELIPAD": "Y" }, "geometry": { "type": "Polygon", "coordinates": [ [ [ -81.0178786, 34.8697749 ], [ -81.056345, 34.875776 ], [ -81.09719, 34.885173 ], [ -81.1300369, 34.89742 ], [ -81.140851, 34.903867 ], [ -81.168675, 34.973223 ], [ -81.147351299999983, 34.9974803 ], [ -81.1034095, 35.028484599999985 ], [ -81.102579, 35.028492 ], [ -80.9676418, 35.0233466 ], [ -80.952844, 35.001612 ], [ -80.955063, 34.95262 ], [ -80.9586008, 34.904638199999972 ], [ -80.969237, 34.892622 ], [ -81.0178786, 34.8697749 ] ] ] } },
{ "type": "Feature", "properties": { "OBJECTID": 6965, "ID": "0000529621", "NAME": "ANMED HEALTH MEDICAL CENTER", "ADDRESS": "800 N FANT ST", "CITY": "ANDERSON", "STATE": "SC", "ZIP": "29621", "ZIP4": "NOT AVAILABLE", "TELEPHONE": "(864) 512-1109", "TYPE": "GENERAL ACUTE CARE", "STATUS": "OPEN", "POPULATION": 461, "COUNTY": "ANDERSON", "COUNTYFIPS": "45007", "COUNTRY": "USA", "LATITUDE": 34.511484238999998, "LONGITUDE": -82.646486750999898, "NAICS_CODE": "622110", "NAICS_DESC": "GENERAL MEDICAL AND SURGICAL HOSPITALS", "SOURCE": "http://www.scdhec.gov/Health/FHPF/HealthFacilityRegulationsLicensing/HealthcareFacilityLicensing/LicensedFacilitiesbyType/", "SOURCEDATE": "2018-08-10T00:00:00.000Z", "VAL_METHOD": "IMAGERY/OTHER", "VAL_DATE": "2014-02-10T00:00:00.000Z", "WEBSITE": "http://www.anmedhealth.org", "STATE_ID": "38783542", "ALT_NAME": "NOT AVAILABLE", "ST_FIPS": "45", "OWNER": "NON-PROFIT", "TTL_STAFF": -999, "BEDS": 423, "TRAUMA": "LEVEL II", "HELIPAD": "Y" }, "geometry": { "type": "Polygon", "coordinates": [ [ [ -82.674532, 34.418573 ], [ -82.674651, 34.418629 ], [ -82.721001, 34.441656 ], [ -82.74909, 34.488212 ], [ -82.753524, 34.495771 ], [ -82.7606628, 34.5111943 ], [ -82.7398646, 34.552716100000048 ], [ -82.735218, 34.558977 ], [ -82.7165669, 34.580677600000016 ], [ -82.6334608, 34.60394359999998 ], [ -82.610525, 34.608649 ], [ -82.553114, 34.561816 ], [ -82.541859, 34.513844 ], [ -82.5439491, 34.479002399999978 ], [ -82.558936, 34.461885 ], [ -82.595547, 34.425351 ], [ -82.674532, 34.418573 ] ] ] } },
{ "type": "Feature", "properties": { "OBJECTID": 6982, "ID": "0007529108", "NAME": "NEWBERRY COUNTY MEMORIAL HOSPITAL", "ADDRESS": "2669 KINARD ST", "CITY": "NEWBERRY", "STATE": "SC", "ZIP": "29108", "ZIP4": "NOT AVAILABLE", "TELEPHONE": "(803) 276-7570", "TYPE": "GENERAL ACUTE CARE", "STATUS": "OPEN", "POPULATION": 90, "COUNTY": "NEWBERRY", "COUNTYFIPS": "45071", "COUNTRY": "USA", "LATITUDE": 34.290428352, "LONGITUDE": -81.606423418000006, "NAICS_CODE": "622110", "NAICS_DESC": "GENERAL MEDICAL AND SURGICAL HOSPITALS", "SOURCE": "http://www.scdhec.gov/Health/FHPF/HealthFacilityRegulationsLicensing/HealthcareFacilityLicensing/LicensedFacilitiesbyType/", "SOURCEDATE": "2018-08-10T00:00:00.000Z", "VAL_METHOD": "IMAGERY", "VAL_DATE": "2014-02-10T00:00:00.000Z", "WEBSITE": "http://www.newberryhospital.org", "STATE_ID": "38782319", "ALT_NAME": "NOT AVAILABLE", "ST_FIPS": "45", "OWNER": "GOVERNMENT - LOCAL", "TTL_STAFF": -999, "BEDS": 90, "TRAUMA": "NOT AVAILABLE", "HELIPAD": "Y" }, "geometry": { "type": "Polygon", "coordinates": [ [ [ -81.6216472, 34.2079469 ], [ -81.6778798, 34.22185759999995 ], [ -81.6911793, 34.252917399999973 ], [ -81.6941829, 34.3401086 ], [ -81.6832538, 34.383000699999954 ], [ -81.611909, 34.37312680000003 ], [ -81.538409, 34.346885399999962 ], [ -81.5221218, 34.336931499999963 ], [ -81.5022195, 34.2997325 ], [ -81.5008463, 34.289801299999979 ], [ -81.507375, 34.266979 ], [ -81.5319195, 34.210523 ], [ -81.6216472, 34.2079469 ] ] ] } },
{ "type": "Feature", "properties": { "OBJECTID": 6983, "ID": "0009629671", "NAME": "CANNON MEMORIAL HOSPITAL", "ADDRESS": "123 WG ACKER DR", "CITY": "PICKENS", "STATE": "SC", "ZIP": "29671", "ZIP4": "NOT AVAILABLE", "TELEPHONE": "(864) 878-4791", "TYPE": "GENERAL ACUTE CARE", "STATUS": "OPEN", "POPULATION": 55, "COUNTY": "PICKENS", "COUNTYFIPS": "45077", "COUNTRY": "USA", "LATITUDE": 34.8741442910001, "LONGITUDE": -82.707156010999896, "NAICS_CODE": "622110", "NAICS_DESC": "GENERAL MEDICAL AND SURGICAL HOSPITALS", "SOURCE": "http://www.scdhec.gov/Health/FHPF/HealthFacilityRegulationsLicensing/HealthcareFacilityLicensing/LicensedFacilitiesbyType/", "SOURCEDATE": "2018-08-10T00:00:00.000Z", "VAL_METHOD": "IMAGERY/OTHER", "VAL_DATE": "2014-02-10T00:00:00.000Z", "WEBSITE": "http://www.cannonhospital.org", "STATE_ID": "38785752", "ALT_NAME": "NOT AVAILABLE", "ST_FIPS": "45", "OWNER": "NON-PROFIT", "TTL_STAFF": -999, "BEDS": 55, "TRAUMA": "NOT AVAILABLE", "HELIPAD": "N" }, "geometry": { "type": "Polygon", "coordinates": [ [ [ -82.691809, 34.781054 ], [ -82.700481, 34.7832942 ], [ -82.823566, 34.841685 ], [ -82.80667, 34.90541 ], [ -82.8059799, 34.9076426 ], [ -82.743029, 34.960146 ], [ -82.690034, 34.956554 ], [ -82.665638, 34.953501 ], [ -82.634601, 34.930471 ], [ -82.612187, 34.90377 ], [ -82.597855, 34.884054 ], [ -82.611655, 34.836029 ], [ -82.612575, 34.833782 ], [ -82.614366, 34.830679 ], [ -82.614923, 34.830067 ], [ -82.683108, 34.783331 ], [ -82.691809, 34.781054 ] ] ] } },
{ "type": "Feature", "properties": { "OBJECTID": 6986, "ID": "0004829690", "NAME": "GHS NORTH GREENVILLE LONG TERM ACUTE CARE HOSPITAL", "ADDRESS": "807 N MAIN ST", "CITY": "TRAVELERS REST", "STATE": "SC", "ZIP": "29690", "ZIP4": "NOT AVAILABLE", "TELEPHONE": "(864) 455-9224", "TYPE": "LONG TERM CARE", "STATUS": "OPEN", "POPULATION": 45, "COUNTY": "GREENVILLE", "COUNTYFIPS": "45045", "COUNTRY": "USA", "LATITUDE": 34.975469343, "LONGITUDE": -82.455961015999904, "NAICS_CODE": "622310", "NAICS_DESC": "SPECIALTY (EXCEPT PSYCHIATRIC AND SUBSTANCE ABUSE) HOSPITALS", "SOURCE": "http://www.scdhec.gov/Health/FHPF/HealthFacilityRegulationsLicensing/HealthcareFacilityLicensing/LicensedFacilitiesbyType/", "SOURCEDATE": "2018-08-10T00:00:00.000Z", "VAL_METHOD": "IMAGERY/OTHER", "VAL_DATE": "2014-02-10T00:00:00.000Z", "WEBSITE": "http://www.ghs.org/ngh", "STATE_ID": "38783131", "ALT_NAME": "NOT AVAILABLE", "ST_FIPS": "45", "OWNER": "NON-PROFIT", "TTL_STAFF": -999, "BEDS": 45, "TRAUMA": "NOT AVAILABLE", "HELIPAD": "N" }, "geometry": { "type": "Polygon", "coordinates": [ [ [ -82.468498, 34.890299 ], [ -82.499904, 34.922674 ], [ -82.515138, 34.949517 ], [ -82.539322, 35.022228 ], [ -82.514309, 35.048939 ], [ -82.514231, 35.048978 ], [ -82.4277436, 35.059588 ], [ -82.415701, 35.050501 ], [ -82.39606, 35.032409 ], [ -82.368613, 35.002675 ], [ -82.361626, 34.989538 ], [ -82.358151, 34.960404 ], [ -82.356879, 34.947495 ], [ -82.4057024, 34.889614100000017 ], [ -82.468498, 34.890299 ] ] ] } },
{ "type": "Feature", "properties": { "OBJECTID": 6987, "ID": "0006229303", "NAME": "SPARTANBURG HOSPITAL FOR RESTORATIVE CARE", "ADDRESS": "389 SERPENTINE DR", "CITY": "SPARTANBURG", "STATE": "SC", "ZIP": "29303", "ZIP4": "NOT AVAILABLE", "TELEPHONE": "(864) 560-3263", "TYPE": "LONG TERM CARE", "STATUS": "OPEN", "POPULATION": 97, "COUNTY": "SPARTANBURG", "COUNTYFIPS": "45083", "COUNTRY": "USA", "LATITUDE": 34.96619278, "LONGITUDE": -81.936063860999994, "NAICS_CODE": "622310", "NAICS_DESC": "SPECIALTY (EXCEPT PSYCHIATRIC AND SUBSTANCE ABUSE) HOSPITALS", "SOURCE": "http://www.scdhec.gov/Health/FHPF/HealthFacilityRegulationsLicensing/HealthcareFacilityLicensing/LicensedFacilitiesbyType/", "SOURCEDATE": "2018-08-10T00:00:00.000Z", "VAL_METHOD": "IMAGERY/OTHER", "VAL_DATE": "2014-02-10T00:00:00.000Z", "WEBSITE": "http://www.srhs.com", "STATE_ID": "38781915", "ALT_NAME": "NOT AVAILABLE", "ST_FIPS": "45", "OWNER": "GOVERNMENT - DISTRICT/AUTHORITY", "TTL_STAFF": -999, "BEDS": 97, "TRAUMA": "NOT AVAILABLE", "HELIPAD": "N" }, "geometry": { "type": "Polygon", "coordinates": [ [ [ -81.956558, 34.886622 ], [ -81.958821300000011, 34.887035799999971 ], [ -81.9929518, 34.8975935 ], [ -82.058483, 34.958702 ], [ -82.034573, 35.026938 ], [ -82.0336583, 35.02792460000002 ], [ -82.0335208, 35.027996499999986 ], [ -82.00263, 35.041626 ], [ -81.9847853, 35.0482588 ], [ -81.9338626, 35.062039 ], [ -81.8802255, 35.0629993 ], [ -81.879887, 35.062823 ], [ -81.834016, 35.036211900000019 ], [ -81.8268273, 34.9945548 ], [ -81.8315066, 34.9248302 ], [ -81.883225, 34.895442 ], [ -81.956558, 34.886622 ] ] ] } },
{ "type": "Feature", "properties": { "OBJECTID": 6989, "ID": "0004729690", "NAME": "SPRINGBROOK BEHAVIORAL HEALTH SYSTEM", "ADDRESS": "1 HAVENWOOD LN", "CITY": "TRAVELERS REST", "STATE": "SC", "ZIP": "29690", "ZIP4": "NOT AVAILABLE", "TELEPHONE": "(864) 834-8013", "TYPE": "PSYCHIATRIC", "STATUS": "OPEN", "POPULATION": 44, "COUNTY": "GREENVILLE", "COUNTYFIPS": "45045", "COUNTRY": "USA", "LATITUDE": 34.964071101999998, "LONGITUDE": -82.454732473999997, "NAICS_CODE": "622210", "NAICS_DESC": "PSYCHIATRIC AND SUBSTANCE ABUSE HOSPITALS", "SOURCE": "http://www.scdhec.gov/Health/FHPF/HealthFacilityRegulationsLicensing/HealthcareFacilityLicensing/LicensedFacilitiesbyType/", "SOURCEDATE": "2018-08-10T00:00:00.000Z", "VAL_METHOD": "IMAGERY/OTHER", "VAL_DATE": "2014-02-10T00:00:00.000Z", "WEBSITE": "http://www.springbrookbehavioral.com", "STATE_ID": "38782639", "ALT_NAME": "NOT AVAILABLE", "ST_FIPS": "45", "OWNER": "PROPRIETARY", "TTL_STAFF": -999, "BEDS": 44, "TRAUMA": "NOT AVAILABLE", "HELIPAD": "N" }, "geometry": { "type": "Polygon", "coordinates": [ [ [ -82.4683469, 34.878431600000027 ], [ -82.475695, 34.88457 ], [ -82.4927335, 34.9007563 ], [ -82.505761, 34.913244 ], [ -82.5250556, 34.939 ], [ -82.5187613, 34.977774900000014 ], [ -82.505377, 35.022368 ], [ -82.500354, 35.024706 ], [ -82.4285768, 35.050155199999978 ], [ -82.4284195, 35.050128900000011 ], [ -82.396615, 35.031511 ], [ -82.368613, 35.002675 ], [ -82.361626, 34.989538 ], [ -82.358151, 34.960404 ], [ -82.356879, 34.947495 ], [ -82.398925, 34.888949 ], [ -82.404793, 34.881629 ], [ -82.4683469, 34.878431600000027 ] ] ] } },
{ "type": "Feature", "properties": { "OBJECTID": 6992, "ID": "0007029621", "NAME": "PATRICK B HARRIS PSYCHIATRIC HOSPITAL", "ADDRESS": "130 HWY 252", "CITY": "ANDERSON", "STATE": "SC", "ZIP": "29621", "ZIP4": "NOT AVAILABLE", "TELEPHONE": "(864) 231-2600", "TYPE": "PSYCHIATRIC", "STATUS": "OPEN", "POPULATION": 200, "COUNTY": "ANDERSON", "COUNTYFIPS": "45007", "COUNTRY": "USA", "LATITUDE": 34.477767311000001, "LONGITUDE": -82.567357571999906, "NAICS_CODE": "622210", "NAICS_DESC": "PSYCHIATRIC AND SUBSTANCE ABUSE HOSPITALS", "SOURCE": "http://www.scdhec.gov/Health/FHPF/HealthFacilityRegulationsLicensing/HealthcareFacilityLicensing/LicensedFacilitiesbyType/", "SOURCEDATE": "2018-08-10T00:00:00.000Z", "VAL_METHOD": "IMAGERY", "VAL_DATE": "2014-02-10T00:00:00.000Z", "WEBSITE": "http://www.patrickbharrispsychiatrichospital.com/index.htm", "STATE_ID": "38784132", "ALT_NAME": "NOT AVAILABLE", "ST_FIPS": "45", "OWNER": "GOVERNMENT - STATE", "TTL_STAFF": -999, "BEDS": 200, "TRAUMA": "NOT AVAILABLE", "HELIPAD": "N" }, "geometry": { "type": "Polygon", "coordinates": [ [ [ -82.553249, 34.406297 ], [ -82.620388, 34.4326 ], [ -82.659218600000017, 34.466747400000031 ], [ -82.6641384, 34.4716538 ], [ -82.67052, 34.50046 ], [ -82.669775, 34.503192 ], [ -82.6584122, 34.5165815 ], [ -82.652108, 34.520996 ], [ -82.57736, 34.550491 ], [ -82.5720826, 34.5516131 ], [ -82.561031, 34.553651 ], [ -82.494863, 34.541601 ], [ -82.4717533, 34.532031599999975 ], [ -82.47103, 34.517462 ], [ -82.473962, 34.438553 ], [ -82.477593, 34.428225 ], [ -82.548122, 34.407212 ], [ -82.553249, 34.406297 ] ] ] } },
{ "type": "Feature", "properties": { "OBJECTID": 7000, "ID": "0003929732", "NAME": "HEALTHSOUTH REHABILITATION HOSPITAL OF ROCK HILL", "ADDRESS": "1795 DR FRANK GASTON BLVD", "CITY": "ROCK HILL", "STATE": "SC", "ZIP": "29732", "ZIP4": "NOT AVAILABLE", "TELEPHONE": "(803) 326-3500", "TYPE": "REHABILITATION", "STATUS": "OPEN", "POPULATION": 46, "COUNTY": "YORK", "COUNTYFIPS": "45091", "COUNTRY": "USA", "LATITUDE": 34.958689731000099, "LONGITUDE": -81.052590945999995, "NAICS_CODE": "622310", "NAICS_DESC": "REHABILITATION HOSPITALS (EXCEPT ALCOHOLISM, DRUG ADDICTION)", "SOURCE": "http://www.scdhec.gov/Health/FHPF/HealthFacilityRegulationsLicensing/HealthcareFacilityLicensing/LicensedFacilitiesbyType/", "SOURCEDATE": "2018-08-10T00:00:00.000Z", "VAL_METHOD": "IMAGERY/OTHER", "VAL_DATE": "2013-10-03T00:00:00.000Z", "WEBSITE": "http://www.healthsouthrockhill.com", "STATE_ID": "38781236", "ALT_NAME": "NOT AVAILABLE", "ST_FIPS": "45", "OWNER": "PROPRIETARY", "TTL_STAFF": -999, "BEDS": 46, "TRAUMA": "NOT AVAILABLE", "HELIPAD": "N" }, "geometry": { "type": "Polygon", "coordinates": [ [ [ -81.0251344, 34.879663699999973 ], [ -81.080262, 34.895262 ], [ -81.124794, 34.908917 ], [ -81.149402, 34.965246 ], [ -81.1445083, 34.996907800000017 ], [ -81.10346, 35.025033 ], [ -81.0479514, 35.023938799999982 ], [ -81.015425, 35.020279 ], [ -81.006113, 35.016833 ], [ -80.9726358, 35.003259200000016 ], [ -80.966021, 34.999614 ], [ -80.9616244, 34.995414 ], [ -80.961032, 34.958888 ], [ -80.9708978, 34.9114705 ], [ -80.973363, 34.907782 ], [ -80.9802797, 34.901223199999961 ], [ -80.981472, 34.900248 ], [ -80.995440800000011, 34.892772200000024 ], [ -81.0251344, 34.879663699999973 ] ] ] } },
{ "type": "Feature", "properties": { "OBJECTID": 4067, "ID": "0014728217", "NAME": "CAROLINA CONTINUECARE AT UNIVERSITY", "ADDRESS": "8800 NORTH TRYON ST, 4TH FLOOR", "CITY": "CHARLOTTE", "STATE": "NC", "ZIP": "28217", "ZIP4": "NOT AVAILABLE", "TELEPHONE": "(704) 863-8300", "TYPE": "LONG TERM CARE", "STATUS": "OPEN", "POPULATION": 35, "COUNTY": "MECKLENBURG", "COUNTYFIPS": "37119", "COUNTRY": "USA", "LATITUDE": 35.306757427000001, "LONGITUDE": -80.747726087999993, "NAICS_CODE": "622310", "NAICS_DESC": "SPECIALTY (EXCEPT PSYCHIATRIC AND SUBSTANCE ABUSE) HOSPITALS", "SOURCE": "https://www2.ncdhhs.gov/dhsr/reports.htm", "SOURCEDATE": "2018-08-10T00:00:00.000Z", "VAL_METHOD": "IMAGERY/OTHER", "VAL_DATE": "2016-01-28T00:00:00.000Z", "WEBSITE": "http://continuecare.org/charlotte/", "STATE_ID": "NOT AVAILABLE", "ALT_NAME": "NOT AVAILABLE", "ST_FIPS": "37", "OWNER": "NON-PROFIT", "TTL_STAFF": -999, "BEDS": 35, "TRAUMA": "NOT AVAILABLE", "HELIPAD": "Y" }, "geometry": { "type": "Polygon", "coordinates": [ [ [ -80.7541547, 35.217937899999988 ], [ -80.8367367, 35.2385966 ], [ -80.881999, 35.259871 ], [ -80.8814294, 35.2655741 ], [ -80.8624523, 35.3488671 ], [ -80.8419423, 35.3647341 ], [ -80.8093041, 35.37973 ], [ -80.7870619, 35.387217099999987 ], [ -80.781409, 35.388875 ], [ -80.7565891, 35.387477500000017 ], [ -80.6457763, 35.3288975 ], [ -80.6394202, 35.324420200000027 ], [ -80.6390373, 35.3241187 ], [ -80.6507827, 35.2488798 ], [ -80.720295, 35.219082 ], [ -80.7541547, 35.217937899999988 ] ] ] } },
{ "type": "Feature", "properties": { "OBJECTID": 4068, "ID": "0014828210", "NAME": "CAROLINA CONTINUECARE AT PINEVILLE", "ADDRESS": "10648 PARK ROAD, 3RD FLOOR", "CITY": "CHARLOTTE", "STATE": "NC", "ZIP": "28210", "ZIP4": "NOT AVAILABLE", "TELEPHONE": "(704) 667-8050", "TYPE": "LONG TERM CARE", "STATUS": "OPEN", "POPULATION": 40, "COUNTY": "MECKLENBURG", "COUNTYFIPS": "37119", "COUNTRY": "USA", "LATITUDE": 35.090827210999997, "LONGITUDE": -80.871225576000001, "NAICS_CODE": "622310", "NAICS_DESC": "SPECIALTY (EXCEPT PSYCHIATRIC AND SUBSTANCE ABUSE) HOSPITALS", "SOURCE": "https://www2.ncdhhs.gov/dhsr/reports.htm", "SOURCEDATE": "2018-08-10T00:00:00.000Z", "VAL_METHOD": "IMAGERY/OTHER", "VAL_DATE": "2016-01-28T00:00:00.000Z", "WEBSITE": "http://continuecare.org/pineville/", "STATE_ID": "NOT AVAILABLE", "ALT_NAME": "NOT AVAILABLE", "ST_FIPS": "37", "OWNER": "NON-PROFIT", "TTL_STAFF": -999, "BEDS": 40, "TRAUMA": "NOT AVAILABLE", "HELIPAD": "Y" }, "geometry": { "type": "Polygon", "coordinates": [ [ [ -80.8523011, 34.993772300000025 ], [ -80.8636251, 34.9959854 ], [ -80.8699948, 35.0003235 ], [ -80.9774974, 35.108739399999969 ], [ -80.983413, 35.140661 ], [ -80.985368, 35.151623200000031 ], [ -80.9854272, 35.154127399999986 ], [ -80.9849788, 35.165800100000013 ], [ -80.9844406, 35.167248 ], [ -80.9725, 35.189448 ], [ -80.9685317, 35.196524700000012 ], [ -80.8839949, 35.194947399999968 ], [ -80.8364579, 35.181277700000024 ], [ -80.8094638, 35.17016660000003 ], [ -80.7568428, 35.111475399999982 ], [ -80.7469018, 35.074759700000037 ], [ -80.748724, 35.057422 ], [ -80.770468, 35.035105 ], [ -80.8523011, 34.993772300000025 ] ] ] } },
{ "type": "Feature", "properties": { "OBJECTID": 4069, "ID": "0014927103", "NAME": "SELECT SPECIALTY HOSPITAL - WINSTON SALEM", "ADDRESS": "3333 SILAS CREEK PARKWAY, 6TH FLOOR", "CITY": "WINSTON SALEM", "STATE": "NC", "ZIP": "27103", "ZIP4": "NOT AVAILABLE", "TELEPHONE": "(336) 760-4668", "TYPE": "GENERAL ACUTE CARE", "STATUS": "OPEN", "POPULATION": 42, "COUNTY": "FORSYTH", "COUNTYFIPS": "37067", "COUNTRY": "USA", "LATITUDE": 36.074722361000099, "LONGITUDE": -80.297522726999901, "NAICS_CODE": "622110", "NAICS_DESC": "GENERAL MEDICAL AND SURGICAL HOSPITALS", "SOURCE": "https://www2.ncdhhs.gov/dhsr/reports.htm", "SOURCEDATE": "2018-08-10T00:00:00.000Z", "VAL_METHOD": "IMAGERY/OTHER", "VAL_DATE": "2016-02-22T00:00:00.000Z", "WEBSITE": "http://winstonsalem.selectspecialtyhospitals.com/", "STATE_ID": "NOT AVAILABLE", "ALT_NAME": "NOT AVAILABLE", "ST_FIPS": "37", "OWNER": "PROPRIETARY", "TTL_STAFF": -999, "BEDS": 42, "TRAUMA": "NOT AVAILABLE", "HELIPAD": "Y" }, "geometry": { "type": "Polygon", "coordinates": [ [ [ -80.3700688, 35.996045 ], [ -80.4182962, 36.013829099999981 ], [ -80.425421, 36.025104 ], [ -80.447241, 36.083911 ], [ -80.440675, 36.10079 ], [ -80.334232, 36.15641 ], [ -80.276747, 36.166472 ], [ -80.183651500000011, 36.1188322 ], [ -80.156224, 36.065104 ], [ -80.155884, 36.063404 ], [ -80.156569, 36.0550412 ], [ -80.172527, 36.033014 ], [ -80.22961, 36.003421 ], [ -80.2673338, 35.9877048 ], [ -80.2729595, 35.987074700000015 ], [ -80.302619300000018, 35.989296299999971 ], [ -80.3700688, 35.996045 ] ] ] } },
{ "type": "Feature", "properties": { "OBJECTID": 4331, "ID": "0001537821", "NAME": "TENNOVA HEALTHCARE - NEWPORT MEDICAL CENTER", "ADDRESS": "435 SECOND STREET", "CITY": "NEWPORT", "STATE": "TN", "ZIP": "37821", "ZIP4": "NOT AVAILABLE", "TELEPHONE": "(423) 625-2200", "TYPE": "GENERAL ACUTE CARE", "STATUS": "OPEN", "POPULATION": 74, "COUNTY": "COCKE", "COUNTYFIPS": "47029", "COUNTRY": "USA", "LATITUDE": 35.964203916000002, "LONGITUDE": -83.182198673000002, "NAICS_CODE": "622110", "NAICS_DESC": "GENERAL MEDICAL AND SURGICAL HOSPITALS", "SOURCE": "https://apps.health.tn.gov/FacilityListings", "SOURCEDATE": "2018-08-10T00:00:00.000Z", "VAL_METHOD": "IMAGERY/OTHER", "VAL_DATE": "2014-02-10T00:00:00.000Z", "WEBSITE": "http://www.tennovaeast.com/locations/newport-medical-center", "STATE_ID": "991172", "ALT_NAME": "NOT AVAILABLE", "ST_FIPS": "47", "OWNER": "PROPRIETARY", "TTL_STAFF": -999, "BEDS": 74, "TRAUMA": "NOT AVAILABLE", "HELIPAD": "N" }, "geometry": { "type": "Polygon", "coordinates": [ [ [ -83.18748140000001, 35.860913 ], [ -83.2233661, 35.8717593 ], [ -83.2415001, 35.885020599999976 ], [ -83.286301, 35.952758 ], [ -83.288308, 35.9625243 ], [ -83.2806037, 35.985959499999986 ], [ -83.2455667, 36.0283375 ], [ -83.242774, 36.030003 ], [ -83.1731053, 36.039800099999979 ], [ -83.152623, 36.033871 ], [ -83.0872823, 36.014561200000024 ], [ -83.0799674, 36.0094091 ], [ -83.0753205, 36.0054846 ], [ -83.0752907, 36.0052848 ], [ -83.083509, 35.948537399999971 ], [ -83.1851243, 35.861634200000019 ], [ -83.18748140000001, 35.860913 ] ] ] } },
{ "type": "Feature", "properties": { "OBJECTID": 4684, "ID": "0008828117", "NAME": "LAKE NORMAN REGIONAL MEDICAL CENTER", "ADDRESS": "171 FAIRVIEW ROAD", "CITY": "MOORESVILLE", "STATE": "NC", "ZIP": "28117", "ZIP4": "NOT AVAILABLE", "TELEPHONE": "(704) 660-4010", "TYPE": "GENERAL ACUTE CARE", "STATUS": "OPEN", "POPULATION": 105, "COUNTY": "IREDELL", "COUNTYFIPS": "37097", "COUNTRY": "USA", "LATITUDE": 35.549204783999997, "LONGITUDE": -80.853572295999996, "NAICS_CODE": "622110", "NAICS_DESC": "GENERAL MEDICAL AND SURGICAL HOSPITALS", "SOURCE": "https://www2.ncdhhs.gov/dhsr/reports.htm", "SOURCEDATE": "2018-08-10T00:00:00.000Z", "VAL_METHOD": "IMAGERY/OTHER", "VAL_DATE": "2014-02-10T00:00:00.000Z", "WEBSITE": "http://www.lnrmc.com", "STATE_ID": "NOT AVAILABLE", "ALT_NAME": "NOT AVAILABLE", "ST_FIPS": "37", "OWNER": "PROPRIETARY", "TTL_STAFF": -999, "BEDS": 105, "TRAUMA": "NOT AVAILABLE", "HELIPAD": "Y" }, "geometry": { "type": "Polygon", "coordinates": [ [ [ -80.8962003, 35.515675 ], [ -80.899677, 35.516229599999988 ], [ -80.932121, 35.551351 ], [ -80.9455273, 35.604471799999985 ], [ -80.8624062, 35.6826188 ], [ -80.8564314, 35.683653600000035 ], [ -80.78178, 35.624315 ], [ -80.7709749, 35.6010667 ], [ -80.7708675, 35.5506007 ], [ -80.7710892, 35.5459835 ], [ -80.7912123, 35.513646599999987 ], [ -80.796102200000021, 35.506908 ], [ -80.7968822, 35.506666500000037 ], [ -80.8392455, 35.509879900000016 ], [ -80.8962003, 35.515675 ] ] ] } },
{ "type": "Feature", "properties": { "OBJECTID": 478, "ID": "0008637862", "NAME": "LECONTE MEDICAL CENTER", "ADDRESS": "742 MIDDLE CREEK ROAD", "CITY": "SEVIERVILLE", "STATE": "TN", "ZIP": "37862", "ZIP4": "NOT AVAILABLE", "TELEPHONE": "(865) 429-6618", "TYPE": "GENERAL ACUTE CARE", "STATUS": "OPEN", "POPULATION": 79, "COUNTY": "SEVIER", "COUNTYFIPS": "47155", "COUNTRY": "USA", "LATITUDE": 35.855923212999997, "LONGITUDE": -83.535219976999898, "NAICS_CODE": "622110", "NAICS_DESC": "GENERAL MEDICAL AND SURGICAL HOSPITALS", "SOURCE": "https://apps.health.tn.gov/FacilityListings", "SOURCEDATE": "2018-08-10T00:00:00.000Z", "VAL_METHOD": "IMAGERY", "VAL_DATE": "2014-02-10T00:00:00.000Z", "WEBSITE": "http://www.lecontemedicalcenter.com", "STATE_ID": "931555", "ALT_NAME": "NOT AVAILABLE", "ST_FIPS": "47", "OWNER": "NON-PROFIT", "TTL_STAFF": -999, "BEDS": 79, "TRAUMA": "NOT AVAILABLE", "HELIPAD": "Y" }, "geometry": { "type": "Polygon", "coordinates": [ [ [ -83.5418592, 35.774815799999949 ], [ -83.5502302, 35.7757915 ], [ -83.5982335, 35.7936276 ], [ -83.637381, 35.849065 ], [ -83.6371481, 35.852739800000016 ], [ -83.6364564, 35.8570837 ], [ -83.621241, 35.8823167 ], [ -83.5859683, 35.933501799999988 ], [ -83.5833542, 35.9352916 ], [ -83.58312770000002, 35.935302800000017 ], [ -83.4426832, 35.892042100000047 ], [ -83.4416538, 35.8820978 ], [ -83.4701558, 35.822244499999933 ], [ -83.473599, 35.818931 ], [ -83.4983599, 35.802169600000049 ], [ -83.5418592, 35.774815799999949 ] ] ] } },
{ "type": "Feature", "properties": { "OBJECTID": 652, "ID": "0010237604", "NAME": "JOHNSON CITY MEDICAL CENTER", "ADDRESS": "400 NORTH STATE OF FRANKLIN ROAD", "CITY": "JOHNSON CITY", "STATE": "TN", "ZIP": "37604", "ZIP4": "NOT AVAILABLE", "TELEPHONE": "(423) 431-6111", "TYPE": "GENERAL ACUTE CARE", "STATUS": "OPEN", "POPULATION": 514, "COUNTY": "WASHINGTON", "COUNTYFIPS": "47179", "COUNTRY": "USA", "LATITUDE": 36.307843099000003, "LONGITUDE": -82.384562638000006, "NAICS_CODE": "622110", "NAICS_DESC": "GENERAL MEDICAL AND SURGICAL HOSPITALS", "SOURCE": "https://apps.health.tn.gov/FacilityListings", "SOURCEDATE": "2018-08-10T00:00:00.000Z", "VAL_METHOD": "IMAGERY/OTHER", "VAL_DATE": "2014-02-10T00:00:00.000Z", "WEBSITE": "http://www.msha.com", "STATE_ID": "635798", "ALT_NAME": "NOT AVAILABLE", "ST_FIPS": "47", "OWNER": "NON-PROFIT", "TTL_STAFF": -999, "BEDS": 514, "TRAUMA": "LEVEL I", "HELIPAD": "Y" }, "geometry": { "type": "Polygon", "coordinates": [ [ [ -82.4367984, 36.236495 ], [ -82.4574586, 36.245164299999971 ], [ -82.5139568, 36.284184900000035 ], [ -82.5140891, 36.284277700000018 ], [ -82.5133763, 36.289965500000029 ], [ -82.5049714, 36.305869599999987 ], [ -82.4298948, 36.393943399999976 ], [ -82.4151407, 36.402750099999977 ], [ -82.3533153, 36.3981397 ], [ -82.3531521, 36.397998800000011 ], [ -82.305259, 36.354905 ], [ -82.2750091, 36.326945 ], [ -82.2855773, 36.2968601 ], [ -82.2868573, 36.294832399999976 ], [ -82.3086531, 36.267447 ], [ -82.3199147, 36.260101300000024 ], [ -82.4126437, 36.2396066 ], [ -82.4367984, 36.236495 ] ] ] } },
{ "type": "Feature", "properties": { "OBJECTID": 838, "ID": "0148224211", "NAME": "JOHNSTON MEMORIAL HOSPITAL", "ADDRESS": "16000 JOHNSTON MEMORIAL DRIVE", "CITY": "ABINGDON", "STATE": "VA", "ZIP": "24211", "ZIP4": "NOT AVAILABLE", "TELEPHONE": "(276) 258-1000", "TYPE": "GENERAL ACUTE CARE", "STATUS": "OPEN", "POPULATION": 116, "COUNTY": "WASHINGTON", "COUNTYFIPS": "51191", "COUNTRY": "USA", "LATITUDE": 36.722913394000003, "LONGITUDE": -81.912121460999998, "NAICS_CODE": "622110", "NAICS_DESC": "GENERAL MEDICAL AND SURGICAL HOSPITALS", "SOURCE": "http://www.vhi.org", "SOURCEDATE": "2018-08-09T00:00:00.000Z", "VAL_METHOD": "IMAGERY/OTHER", "VAL_DATE": "2015-03-26T00:00:00.000Z", "WEBSITE": "www.jmh.org", "STATE_ID": "NOT AVAILABLE", "ALT_NAME": "NOT AVAILABLE", "ST_FIPS": "51", "OWNER": "NON-PROFIT", "TTL_STAFF": -999, "BEDS": 116, "TRAUMA": "NOT AVAILABLE", "HELIPAD": "Y" }, "geometry": { "type": "Polygon", "coordinates": [ [ [ -81.973008760814608, 36.655088449431616 ], [ -82.034158924916767, 36.671040330012296 ], [ -82.035635117561057, 36.671648031233609 ], [ -82.043158181295155, 36.67480683848239 ], [ -82.04273801160906, 36.680829972310562 ], [ -82.018271487667377, 36.712478056089651 ], [ -81.983935656481933, 36.743072156084281 ], [ -81.936804619385768, 36.766125055546915 ], [ -81.884466572606527, 36.781914931738562 ], [ -81.839894537001285, 36.789717836009487 ], [ -81.780191446120796, 36.78014268171156 ], [ -81.772974409754923, 36.770605644551289 ], [ -81.846279147389751, 36.654791484993972 ], [ -81.849117151786245, 36.654682490519029 ], [ -81.973008760814608, 36.655088449431616 ] ] ] } },
{ "type": "Feature", "properties": { "OBJECTID": 7002, "ID": "0011029303", "NAME": "SPARTANBURG REHABILITATION INSTITUTE", "ADDRESS": "160 HAROLD FLEMING CT", "CITY": "SPARTANBURG", "STATE": "SC", "ZIP": "29303", "ZIP4": "4226", "TELEPHONE": "(864) 594-9600", "TYPE": "REHABILITATION", "STATUS": "OPEN", "POPULATION": 40, "COUNTY": "SPARTANBURG", "COUNTYFIPS": "45083", "COUNTRY": "USA", "LATITUDE": 34.989657431000097, "LONGITUDE": -81.942460233999995, "NAICS_CODE": "622310", "NAICS_DESC": "REHABILITATION HOSPITALS (EXCEPT ALCOHOLISM, DRUG ADDICTION)", "SOURCE": "http://www.scdhec.gov/Health/FHPF/HealthFacilityRegulationsLicensing/HealthcareFacilityLicensing/LicensedFacilitiesbyType/", "SOURCEDATE": "2018-08-10T00:00:00.000Z", "VAL_METHOD": "IMAGERY", "VAL_DATE": "2016-10-27T00:00:00.000Z", "WEBSITE": "http://sri.ernesthealth.com/", "STATE_ID": "NOT AVAILABLE", "ALT_NAME": "NOT AVAILABLE", "ST_FIPS": "45", "OWNER": "PROPRIETARY", "TTL_STAFF": -999, "BEDS": 40, "TRAUMA": "NOT AVAILABLE", "HELIPAD": "N" }, "geometry": { "type": "Polygon", "coordinates": [ [ [ -81.935729, 34.915719 ], [ -81.969973, 34.920113 ], [ -81.9762895, 34.92184 ], [ -82.002123, 34.932749 ], [ -82.0676482, 34.9614554 ], [ -82.0421232, 35.029402100000013 ], [ -82.0019489, 35.064951199999975 ], [ -81.980539, 35.070045 ], [ -81.9303717, 35.080362499999971 ], [ -81.9285967, 35.080378099999976 ], [ -81.9275808, 35.0803449 ], [ -81.8663581, 35.0776628 ], [ -81.8137752, 35.050163499999982 ], [ -81.811813, 35.044441 ], [ -81.811827, 35.034314 ], [ -81.8787665, 34.9296675 ], [ -81.882421, 34.927749 ], [ -81.8884441, 34.925781900000018 ], [ -81.935729, 34.915719 ] ] ] } },
{ "type": "Feature", "properties": { "OBJECTID": 7006, "ID": "0002129672", "NAME": "GHS OCONEE MEMORIAL HOSPITAL", "ADDRESS": "298 MEMORIAL DR", "CITY": "SENECA", "STATE": "SC", "ZIP": "29672", "ZIP4": "NOT AVAILABLE", "TELEPHONE": "(864) 885-7191", "TYPE": "GENERAL ACUTE CARE", "STATUS": "OPEN", "POPULATION": 169, "COUNTY": "OCONEE", "COUNTYFIPS": "45073", "COUNTRY": "USA", "LATITUDE": 34.695530690000098, "LONGITUDE": -82.98721979, "NAICS_CODE": "622110", "NAICS_DESC": "GENERAL MEDICAL AND SURGICAL HOSPITALS", "SOURCE": "http://www.scdhec.gov/Health/FHPF/HealthFacilityRegulationsLicensing/HealthcareFacilityLicensing/LicensedFacilitiesbyType/", "SOURCEDATE": "2018-08-10T00:00:00.000Z", "VAL_METHOD": "IMAGERY/OTHER", "VAL_DATE": "2014-02-10T00:00:00.000Z", "WEBSITE": "https://www.ghs.org/locations/oconee-medical-campus/", "STATE_ID": "38783172", "ALT_NAME": "NOT AVAILABLE", "ST_FIPS": "45", "OWNER": "PROPRIETARY", "TTL_STAFF": -999, "BEDS": 169, "TRAUMA": "NOT AVAILABLE", "HELIPAD": "N" }, "geometry": { "type": "Polygon", "coordinates": [ [ [ -83.04621, 34.614637 ], [ -83.087996, 34.649466 ], [ -83.094932, 34.656669 ], [ -83.098082, 34.661741 ], [ -83.099348, 34.664374 ], [ -83.1016945, 34.669779200000022 ], [ -83.071863900000011, 34.766306599999979 ], [ -83.0705891, 34.767597800000011 ], [ -83.068655, 34.769533 ], [ -83.060614, 34.774023 ], [ -83.024687, 34.776152 ], [ -82.960707, 34.778002 ], [ -82.9496525, 34.774344600000028 ], [ -82.942877, 34.770727 ], [ -82.879736, 34.72198 ], [ -82.8566465, 34.692698700000037 ], [ -82.8595247, 34.6848583 ], [ -82.924231, 34.629202 ], [ -82.982565, 34.611811 ], [ -83.04621, 34.614637 ] ] ] } },
{ "type": "Feature", "properties": { "OBJECTID": 7026, "ID": "0010137650", "NAME": "UNICOI COUNTY MEMORIAL HOSPITAL", "ADDRESS": "100 GREENWAY CIRCLE", "CITY": "ERWIN", "STATE": "TN", "ZIP": "37650", "ZIP4": "NOT AVAILABLE", "TELEPHONE": "(423) 743-3141", "TYPE": "GENERAL ACUTE CARE", "STATUS": "OPEN", "POPULATION": 83, "COUNTY": "UNICOI", "COUNTYFIPS": "47171", "COUNTRY": "USA", "LATITUDE": 36.133620719000099, "LONGITUDE": -82.413051582999998, "NAICS_CODE": "622110", "NAICS_DESC": "GENERAL MEDICAL AND SURGICAL HOSPITALS", "SOURCE": "https://apps.health.tn.gov/FacilityListings", "SOURCEDATE": "2018-08-10T00:00:00.000Z", "VAL_METHOD": "IMAGERY", "VAL_DATE": "2014-02-10T00:00:00.000Z", "WEBSITE": "http://www.ucmhnet.org", "STATE_ID": "687194", "ALT_NAME": "NOT AVAILABLE", "ST_FIPS": "47", "OWNER": "NON-PROFIT", "TTL_STAFF": -999, "BEDS": 83, "TRAUMA": "NOT AVAILABLE", "HELIPAD": "Y" }, "geometry": { "type": "Polygon", "coordinates": [ [ [ -82.5149158, 36.048829 ], [ -82.5156133, 36.051554499999959 ], [ -82.5162252, 36.054036300000028 ], [ -82.5166248, 36.069294400000018 ], [ -82.512977, 36.086048 ], [ -82.4410094, 36.157380700000026 ], [ -82.3489783, 36.218895 ], [ -82.3401294, 36.2213361 ], [ -82.338682500000019, 36.220963200000014 ], [ -82.3383689, 36.220771200000016 ], [ -82.337461, 36.192612399999973 ], [ -82.3442429, 36.139296899999941 ], [ -82.3620768, 36.124017599999981 ], [ -82.5149158, 36.048829 ] ] ] } },
{ "type": "Feature", "properties": { "OBJECTID": 7256, "ID": "0001137643", "NAME": "SYCAMORE SHOALS HOSPITAL", "ADDRESS": "1501 WEST ELK AVENUE", "CITY": "ELIZABETHTON", "STATE": "TN", "ZIP": "37643", "ZIP4": "NOT AVAILABLE", "TELEPHONE": "(423) 542-1300", "TYPE": "GENERAL ACUTE CARE", "STATUS": "OPEN", "POPULATION": 121, "COUNTY": "CARTER", "COUNTYFIPS": "47019", "COUNTRY": "USA", "LATITUDE": 36.345867056000003, "LONGITUDE": -82.250001671000007, "NAICS_CODE": "622110", "NAICS_DESC": "GENERAL MEDICAL AND SURGICAL HOSPITALS", "SOURCE": "https://apps.health.tn.gov/FacilityListings", "SOURCEDATE": "2018-08-10T00:00:00.000Z", "VAL_METHOD": "IMAGERY", "VAL_DATE": "2014-02-10T00:00:00.000Z", "WEBSITE": "http://www.msha.com/hospitals/sycamore_shoals_hospital_l_elizabethton_tn.aspx", "STATE_ID": "98917", "ALT_NAME": "NOT AVAILABLE", "ST_FIPS": "47", "OWNER": "NON-PROFIT", "TTL_STAFF": -999, "BEDS": 121, "TRAUMA": "NOT AVAILABLE", "HELIPAD": "N" }, "geometry": { "type": "Polygon", "coordinates": [ [ [ -82.3185066, 36.273369 ], [ -82.3482773, 36.3034894 ], [ -82.3562819, 36.317158699999943 ], [ -82.3563578, 36.327370100000046 ], [ -82.3460157, 36.335964700000034 ], [ -82.2470892, 36.4109546 ], [ -82.2449837, 36.4122313 ], [ -82.208349, 36.402301 ], [ -82.1530892, 36.3772195 ], [ -82.1547667, 36.34510970000003 ], [ -82.1555465, 36.3416346 ], [ -82.1715943, 36.286669399999973 ], [ -82.1744242, 36.284428800000043 ], [ -82.235985, 36.272737 ], [ -82.3185066, 36.273369 ] ] ] } },
{ "type": "Feature", "properties": { "OBJECTID": 7287, "ID": "0003537683", "NAME": "JOHNSON COUNTY HEALTH CENTER", "ADDRESS": "1901 SOUTH SHADY STREET", "CITY": "MOUNTAIN CITY", "STATE": "TN", "ZIP": "37683", "ZIP4": "NOT AVAILABLE", "TELEPHONE": "(423) 727-1100", "TYPE": "GENERAL ACUTE CARE", "STATUS": "OPEN", "POPULATION": -999, "COUNTY": "JOHNSON", "COUNTYFIPS": "47091", "COUNTRY": "USA", "LATITUDE": 36.453555952000002, "LONGITUDE": -81.797680627999995, "NAICS_CODE": "622110", "NAICS_DESC": "GENERAL MEDICAL AND SURGICAL HOSPITALS", "SOURCE": "https://apps.health.tn.gov/FacilityListings", "SOURCEDATE": "2018-08-10T00:00:00.000Z", "VAL_METHOD": "IMAGERY", "VAL_DATE": "2014-02-10T00:00:00.000Z", "WEBSITE": "http://www.msha.com/hospitals/johnson_county_community_hospital_l_mountain_city_tn.aspx", "STATE_ID": "121885", "ALT_NAME": "NOT AVAILABLE", "ST_FIPS": "47", "OWNER": "NON-PROFIT", "TTL_STAFF": -999, "BEDS": -999, "TRAUMA": "NOT AVAILABLE", "HELIPAD": "Y" }, "geometry": { "type": "Polygon", "coordinates": [ [ [ -81.7521461, 36.3510893 ], [ -81.8695837, 36.389782699999977 ], [ -81.8871797, 36.451879599999927 ], [ -81.87780570000001, 36.467612500000016 ], [ -81.841016, 36.512255 ], [ -81.8263765, 36.520042700000026 ], [ -81.7783958, 36.538905199999974 ], [ -81.6960054, 36.4921129 ], [ -81.69726, 36.484941 ], [ -81.70168, 36.473276 ], [ -81.7446059, 36.364250499999983 ], [ -81.7511009, 36.352708299999961 ], [ -81.7521461, 36.3510893 ] ] ] } },
{ "type": "Feature", "properties": { "OBJECTID": 7297, "ID": "0014537684", "NAME": "JAMES H. QUILLEN VA MEDICAL CENTER", "ADDRESS": "809 LAMONT ST", "CITY": "MOUNTAIN HOME", "STATE": "TN", "ZIP": "37684", "ZIP4": "NOT AVAILABLE", "TELEPHONE": "(423) 926-1171", "TYPE": "MILITARY", "STATUS": "OPEN", "POPULATION": -999, "COUNTY": "WASHINGTON", "COUNTYFIPS": "47179", "COUNTRY": "USA", "LATITUDE": 36.3091379580001, "LONGITUDE": -82.370206331999995, "NAICS_CODE": "622110", "NAICS_DESC": "GENERAL MEDICAL AND SURGICAL HOSPITALS", "SOURCE": "https://www.va.gov/directory/guide/allstate.asp", "SOURCEDATE": "2018-09-26T00:00:00.000Z", "VAL_METHOD": "IMAGERY/OTHER", "VAL_DATE": "2015-05-29T00:00:00.000Z", "WEBSITE": "http://www.mountainhome.va.gov/", "STATE_ID": "NOT AVAILABLE", "ALT_NAME": "NOT AVAILABLE", "ST_FIPS": "47", "OWNER": "GOVERNMENT - FEDERAL", "TTL_STAFF": -999, "BEDS": -999, "TRAUMA": "NOT AVAILABLE", "HELIPAD": "N" }, "geometry": { "type": "Polygon", "coordinates": [ [ [ -82.430442, 36.239206 ], [ -82.4531078, 36.249985 ], [ -82.4548405, 36.2513088 ], [ -82.4971205, 36.2931001 ], [ -82.4971759, 36.293256399999976 ], [ -82.4298604, 36.384237599999935 ], [ -82.4115206, 36.3923005 ], [ -82.3556916, 36.396030200000048 ], [ -82.35547080000002, 36.3959241 ], [ -82.3062255, 36.359662900000025 ], [ -82.2696898, 36.328835599999977 ], [ -82.2819616, 36.298448899999954 ], [ -82.2841053, 36.293904400000038 ], [ -82.3086531, 36.267447 ], [ -82.3199147, 36.260101300000024 ], [ -82.3233765, 36.258515 ], [ -82.430442, 36.239206 ] ] ] } },
{ "type": "Feature", "properties": { "OBJECTID": 5066, "ID": "0006827103", "NAME": "NOVANT HEALTH FORSYTH MEDICAL CENTER", "ADDRESS": "3333 SILAS CREEK PKWY", "CITY": "WINSTON SALEM", "STATE": "NC", "ZIP": "27103", "ZIP4": "NOT AVAILABLE", "TELEPHONE": "(336) 718-5000", "TYPE": "GENERAL ACUTE CARE", "STATUS": "OPEN", "POPULATION": 919, "COUNTY": "FORSYTH", "COUNTYFIPS": "37067", "COUNTRY": "USA", "LATITUDE": 36.075550413000002, "LONGITUDE": -80.297287159999897, "NAICS_CODE": "622110", "NAICS_DESC": "GENERAL MEDICAL AND SURGICAL HOSPITALS", "SOURCE": "https://www2.ncdhhs.gov/dhsr/reports.htm", "SOURCEDATE": "2018-08-10T00:00:00.000Z", "VAL_METHOD": "IMAGERY/OTHER", "VAL_DATE": "2014-02-10T00:00:00.000Z", "WEBSITE": "https://www.novanthealth.org/forsyth-medical-center.aspx", "STATE_ID": "NOT AVAILABLE", "ALT_NAME": "NOT AVAILABLE", "ST_FIPS": "37", "OWNER": "NON-PROFIT", "TTL_STAFF": -999, "BEDS": 919, "TRAUMA": "NOT AVAILABLE", "HELIPAD": "Y" }, "geometry": { "type": "Polygon", "coordinates": [ [ [ -80.374157, 36.002627099999977 ], [ -80.382357, 36.003842 ], [ -80.4116486, 36.0116492 ], [ -80.4182962, 36.013829099999981 ], [ -80.447241, 36.083911 ], [ -80.440675, 36.10079 ], [ -80.334216, 36.159338 ], [ -80.2769224, 36.1664866 ], [ -80.276747, 36.166472 ], [ -80.164335, 36.111499700000017 ], [ -80.156569, 36.0550412 ], [ -80.1826429, 36.039296299999975 ], [ -80.2644047, 35.9935271 ], [ -80.2704757, 35.990207100000013 ], [ -80.2726361, 35.989726399999981 ], [ -80.374157, 36.002627099999977 ] ] ] } },
{ "type": "Feature", "properties": { "OBJECTID": 5070, "ID": "0004228207", "NAME": "CAROLINAS MEDICAL CENTER-MERCY", "ADDRESS": "2001 VAIL AVE", "CITY": "CHARLOTTE", "STATE": "NC", "ZIP": "28207", "ZIP4": "NOT AVAILABLE", "TELEPHONE": "(704) 304-5000", "TYPE": "GENERAL ACUTE CARE", "STATUS": "OPEN", "POPULATION": 305, "COUNTY": "MECKLENBURG", "COUNTYFIPS": "37119", "COUNTRY": "USA", "LATITUDE": 35.210155172, "LONGITUDE": -80.821029091999904, "NAICS_CODE": "622110", "NAICS_DESC": "GENERAL MEDICAL AND SURGICAL HOSPITALS", "SOURCE": "https://www2.ncdhhs.gov/dhsr/reports.htm", "SOURCEDATE": "2018-08-10T00:00:00.000Z", "VAL_METHOD": "IMAGERY/OTHER", "VAL_DATE": "2013-09-26T00:00:00.000Z", "WEBSITE": "http://www.carolinashealthcare.org/cmc-mercy", "STATE_ID": "NOT AVAILABLE", "ALT_NAME": "NOT AVAILABLE", "ST_FIPS": "37", "OWNER": "GOVERNMENT - DISTRICT/AUTHORITY", "TTL_STAFF": -999, "BEDS": 305, "TRAUMA": "NOT AVAILABLE", "HELIPAD": "Y" }, "geometry": { "type": "Polygon", "coordinates": [ [ [ -80.856433900000013, 35.115175499999985 ], [ -80.8565737, 35.1152039 ], [ -80.859448, 35.117375 ], [ -80.93757, 35.197533 ], [ -80.9430995, 35.235366600000027 ], [ -80.9238384, 35.264722599999978 ], [ -80.906388, 35.281007 ], [ -80.8480416, 35.331230900000023 ], [ -80.7475343, 35.266613299999989 ], [ -80.7114411, 35.2074562 ], [ -80.7114021, 35.207309300000041 ], [ -80.713535, 35.196333 ], [ -80.7286322, 35.1519071 ], [ -80.7793969, 35.117373299999976 ], [ -80.779513, 35.117347100000046 ], [ -80.856433900000013, 35.115175499999985 ] ] ] } },
{ "type": "Feature", "properties": { "OBJECTID": 5071, "ID": "0012528210", "NAME": "CAROLINAS HEALTHCARE SYSTEM PINEVILLE", "ADDRESS": "10628 PARK RD", "CITY": "CHARLOTTE", "STATE": "NC", "ZIP": "28210", "ZIP4": "NOT AVAILABLE", "TELEPHONE": "(704) 543-2025", "TYPE": "GENERAL ACUTE CARE", "STATUS": "OPEN", "POPULATION": 206, "COUNTY": "MECKLENBURG", "COUNTYFIPS": "37119", "COUNTRY": "USA", "LATITUDE": 35.092012183000101, "LONGITUDE": -80.871618186999996, "NAICS_CODE": "622110", "NAICS_DESC": "GENERAL MEDICAL AND SURGICAL HOSPITALS", "SOURCE": "https://www2.ncdhhs.gov/dhsr/reports.htm", "SOURCEDATE": "2018-08-10T00:00:00.000Z", "VAL_METHOD": "IMAGERY/OTHER", "VAL_DATE": "2014-02-10T00:00:00.000Z", "WEBSITE": "https://www.carolinashealthcare.org/locations/carolinas-healthcare-system-pineville", "STATE_ID": "NOT AVAILABLE", "ALT_NAME": "CAROLINAS MEDICAL CENTER-PINEVILLE", "ST_FIPS": "37", "OWNER": "GOVERNMENT - DISTRICT/AUTHORITY", "TTL_STAFF": -999, "BEDS": 206, "TRAUMA": "NOT AVAILABLE", "HELIPAD": "Y" }, "geometry": { "type": "Polygon", "coordinates": [ [ [ -80.8492333, 34.992217699999983 ], [ -80.8637516, 34.994680199999983 ], [ -80.8699948, 35.0003235 ], [ -80.8906387, 35.019768 ], [ -80.9774974, 35.108739399999969 ], [ -80.9843157, 35.1359441 ], [ -80.98632, 35.154776 ], [ -80.9849788, 35.165800100000013 ], [ -80.9844406, 35.167248 ], [ -80.9725, 35.189448 ], [ -80.9685317, 35.196524700000012 ], [ -80.8817285, 35.197774200000019 ], [ -80.812159, 35.166819 ], [ -80.7972816, 35.1519864 ], [ -80.7568428, 35.111475399999982 ], [ -80.7469018, 35.074759700000037 ], [ -80.747588, 35.056831 ], [ -80.770468, 35.035105 ], [ -80.8492333, 34.992217699999983 ] ] ] } },
{ "type": "Feature", "properties": { "OBJECTID": 5072, "ID": "0002628744", "NAME": "ANGEL MEDICAL CENTER", "ADDRESS": "120 RIVERVIEW STREET", "CITY": "FRANKLIN", "STATE": "NC", "ZIP": "28744", "ZIP4": "NOT AVAILABLE", "TELEPHONE": "(828) 524-8411", "TYPE": "GENERAL ACUTE CARE", "STATUS": "OPEN", "POPULATION": 59, "COUNTY": "MACON", "COUNTYFIPS": "37113", "COUNTRY": "USA", "LATITUDE": 35.184661415999997, "LONGITUDE": -83.378688919999902, "NAICS_CODE": "622110", "NAICS_DESC": "GENERAL MEDICAL AND SURGICAL HOSPITALS", "SOURCE": "https://www2.ncdhhs.gov/dhsr/reports.htm", "SOURCEDATE": "2018-08-10T00:00:00.000Z", "VAL_METHOD": "IMAGERY/OTHER", "VAL_DATE": "2014-02-10T00:00:00.000Z", "WEBSITE": "http://www.angelmed.org", "STATE_ID": "NOT AVAILABLE", "ALT_NAME": "NOT AVAILABLE", "ST_FIPS": "37", "OWNER": "GOVERNMENT - DISTRICT/AUTHORITY", "TTL_STAFF": -999, "BEDS": 59, "TRAUMA": "NOT AVAILABLE", "HELIPAD": "Y" }, "geometry": { "type": "Polygon", "coordinates": [ [ [ -83.386571100000012, 35.086863700000045 ], [ -83.4870363, 35.136311700000029 ], [ -83.4874437, 35.138108099999982 ], [ -83.4782222, 35.16645860000002 ], [ -83.4606041, 35.2168728 ], [ -83.4277296, 35.267566399999978 ], [ -83.4100252, 35.272328700000038 ], [ -83.4014654, 35.27326859999998 ], [ -83.3184564, 35.2613039 ], [ -83.3105536, 35.259687600000035 ], [ -83.3065179, 35.248578400000028 ], [ -83.2988173, 35.222072 ], [ -83.294418599999986, 35.142095400000038 ], [ -83.386571100000012, 35.086863700000045 ] ] ] } },
{ "type": "Feature", "properties": { "OBJECTID": 5073, "ID": "0007928741", "NAME": "HIGHLANDS-CASHIERS HOSPITAL", "ADDRESS": "190 HOSPITAL DRIVE", "CITY": "HIGHLANDS", "STATE": "NC", "ZIP": "28741", "ZIP4": "NOT AVAILABLE", "TELEPHONE": "(828) 526-1200", "TYPE": "GENERAL ACUTE CARE", "STATUS": "OPEN", "POPULATION": 24, "COUNTY": "MACON", "COUNTYFIPS": "37113", "COUNTRY": "USA", "LATITUDE": 35.0865865110001, "LONGITUDE": -83.185891128999998, "NAICS_CODE": "622110", "NAICS_DESC": "GENERAL MEDICAL AND SURGICAL HOSPITALS", "SOURCE": "https://www2.ncdhhs.gov/dhsr/reports.htm", "SOURCEDATE": "2018-08-10T00:00:00.000Z", "VAL_METHOD": "IMAGERY", "VAL_DATE": "2014-03-12T00:00:00.000Z", "WEBSITE": "http://www.hchospital.org", "STATE_ID": "NOT AVAILABLE", "ALT_NAME": "NOT AVAILABLE", "ST_FIPS": "37", "OWNER": "NON-PROFIT", "TTL_STAFF": -999, "BEDS": 24, "TRAUMA": "NOT AVAILABLE", "HELIPAD": "Y" }, "geometry": { "type": "Polygon", "coordinates": [ [ [ -83.1855541, 35.015641500000044 ], [ -83.2085078, 35.021801199999942 ], [ -83.256163500000014, 35.0374993 ], [ -83.2492148, 35.0769278 ], [ -83.2345717, 35.119167 ], [ -83.2211861, 35.1465537 ], [ -83.1530607, 35.099176199999981 ], [ -83.147796, 35.093277 ], [ -83.146962200000019, 35.091658799999955 ], [ -83.1441143, 35.082003 ], [ -83.1447639, 35.078725099999957 ], [ -83.185221, 35.016136099999983 ], [ -83.1855541, 35.015641500000044 ] ] ] } },
{ "type": "Feature", "properties": { "OBJECTID": 5075, "ID": "0007528779", "NAME": "HARRIS REGIONAL HOSPITAL", "ADDRESS": "68 HOSPITAL RD", "CITY": "SYLVA", "STATE": "NC", "ZIP": "28779", "ZIP4": "NOT AVAILABLE", "TELEPHONE": "(828) 586-7000", "TYPE": "GENERAL ACUTE CARE", "STATUS": "OPEN", "POPULATION": 86, "COUNTY": "JACKSON", "COUNTYFIPS": "37099", "COUNTRY": "USA", "LATITUDE": 35.386010888000001, "LONGITUDE": -83.203001373000006, "NAICS_CODE": "622110", "NAICS_DESC": "GENERAL MEDICAL AND SURGICAL HOSPITALS", "SOURCE": "https://www2.ncdhhs.gov/dhsr/reports.htm", "SOURCEDATE": "2018-08-10T00:00:00.000Z", "VAL_METHOD": "IMAGERY/OTHER", "VAL_DATE": "2014-02-10T00:00:00.000Z", "WEBSITE": "http://www.myharrisregional.com/", "STATE_ID": "NOT AVAILABLE", "ALT_NAME": "NOT AVAILABLE", "ST_FIPS": "37", "OWNER": "NON-PROFIT", "TTL_STAFF": -999, "BEDS": 86, "TRAUMA": "NOT AVAILABLE", "HELIPAD": "Y" }, "geometry": { "type": "Polygon", "coordinates": [ [ [ -83.1810986, 35.2974417 ], [ -83.1855893, 35.2994329 ], [ -83.2571464, 35.333897099999987 ], [ -83.2572719, 35.333969600000017 ], [ -83.296157799999989, 35.38329 ], [ -83.2945566, 35.3897939 ], [ -83.28506, 35.39329 ], [ -83.20345, 35.4186393 ], [ -83.170573200000021, 35.428394099999963 ], [ -83.1034981, 35.432913 ], [ -83.0903854, 35.433025499999985 ], [ -83.0904321, 35.432868800000016 ], [ -83.1116802, 35.3915881 ], [ -83.1220289, 35.377461 ], [ -83.180638, 35.29774230000001 ], [ -83.1810986, 35.2974417 ] ] ] } },
{ "type": "Feature", "properties": { "OBJECTID": 5078, "ID": "0011628607", "NAME": "WATAUGA MEDICAL CENTER, INC.", "ADDRESS": "336 DEERFIELD ROAD", "CITY": "BOONE", "STATE": "NC", "ZIP": "28607", "ZIP4": "NOT AVAILABLE", "TELEPHONE": "(828) 262-4100", "TYPE": "GENERAL ACUTE CARE", "STATUS": "OPEN", "POPULATION": 117, "COUNTY": "WATAUGA", "COUNTYFIPS": "37189", "COUNTRY": "USA", "LATITUDE": 36.198468858000098, "LONGITUDE": -81.651529354999994, "NAICS_CODE": "622110", "NAICS_DESC": "GENERAL MEDICAL AND SURGICAL HOSPITALS", "SOURCE": "https://www2.ncdhhs.gov/dhsr/reports.htm", "SOURCEDATE": "2018-08-10T00:00:00.000Z", "VAL_METHOD": "IMAGERY/OTHER", "VAL_DATE": "2014-02-10T00:00:00.000Z", "WEBSITE": "https://apprhs.org/locations/watauga-medical-center", "STATE_ID": "NOT AVAILABLE", "ALT_NAME": "NOT AVAILABLE", "ST_FIPS": "37", "OWNER": "NON-PROFIT", "TTL_STAFF": -999, "BEDS": 117, "TRAUMA": "NOT AVAILABLE", "HELIPAD": "Y" }, "geometry": { "type": "Polygon", "coordinates": [ [ [ -81.670238700000013, 36.120666900000039 ], [ -81.6724027, 36.1214717 ], [ -81.710353900000015, 36.140006700000022 ], [ -81.7115307, 36.141206799999985 ], [ -81.757981599999979, 36.190841 ], [ -81.7453362, 36.236804400000047 ], [ -81.7314905, 36.2429808 ], [ -81.659627300000011, 36.254958399999971 ], [ -81.6481913, 36.2547407 ], [ -81.6159797, 36.2533768 ], [ -81.561929, 36.23557370000001 ], [ -81.5618582, 36.2353964 ], [ -81.5745283, 36.180669600000016 ], [ -81.576914, 36.177153200000021 ], [ -81.6029845, 36.1533263 ], [ -81.652892, 36.124749199999968 ], [ -81.653487, 36.1244593 ], [ -81.670238700000013, 36.120666900000039 ] ] ] } },
{ "type": "Feature", "properties": { "OBJECTID": 5084, "ID": "0010328722", "NAME": "ST. LUKE'S HOSPITAL", "ADDRESS": "101 HOSPITAL DRIVE", "CITY": "COLUMBUS", "STATE": "NC", "ZIP": "28722", "ZIP4": "NOT AVAILABLE", "TELEPHONE": "(828) 894-3311", "TYPE": "GENERAL ACUTE CARE", "STATUS": "OPEN", "POPULATION": 35, "COUNTY": "POLK", "COUNTYFIPS": "37149", "COUNTRY": "USA", "LATITUDE": 35.239467940000097, "LONGITUDE": -82.212624081999905, "NAICS_CODE": "622110", "NAICS_DESC": "GENERAL MEDICAL AND SURGICAL HOSPITALS", "SOURCE": "https://www2.ncdhhs.gov/dhsr/reports.htm", "SOURCEDATE": "2018-08-10T00:00:00.000Z", "VAL_METHOD": "IMAGERY/OTHER", "VAL_DATE": "2014-02-10T00:00:00.000Z", "WEBSITE": "http://www.saintlukeshospital.com", "STATE_ID": "NOT AVAILABLE", "ALT_NAME": "NOT AVAILABLE", "ST_FIPS": "37", "OWNER": "NON-PROFIT", "TTL_STAFF": -999, "BEDS": 35, "TRAUMA": "NOT AVAILABLE", "HELIPAD": "Y" }, "geometry": { "type": "Polygon", "coordinates": [ [ [ -82.22781, 35.184995 ], [ -82.3181905, 35.221947600000028 ], [ -82.1732288, 35.301707700000051 ], [ -82.1678095, 35.3021783 ], [ -82.1663089, 35.3022374 ], [ -82.1564194, 35.30104860000003 ], [ -82.1152739, 35.286281300000027 ], [ -82.1104855, 35.282960100000032 ], [ -82.1535518, 35.225245299999983 ], [ -82.1817116, 35.203126400000038 ], [ -82.22781, 35.184995 ] ] ] } },
{ "type": "Feature", "properties": { "OBJECTID": 5085, "ID": "0005028602", "NAME": "CATAWBA VALLEY MEDICAL CENTER", "ADDRESS": "810 FAIRGROVE CHURCH ROAD", "CITY": "HICKORY", "STATE": "NC", "ZIP": "28602", "ZIP4": "NOT AVAILABLE", "TELEPHONE": "(828) 326-3800", "TYPE": "GENERAL ACUTE CARE", "STATUS": "OPEN", "POPULATION": 258, "COUNTY": "CATAWBA", "COUNTYFIPS": "37035", "COUNTRY": "USA", "LATITUDE": 35.713855570000099, "LONGITUDE": -81.267341912999896, "NAICS_CODE": "622110", "NAICS_DESC": "GENERAL MEDICAL AND SURGICAL HOSPITALS", "SOURCE": "https://www2.ncdhhs.gov/dhsr/reports.htm", "SOURCEDATE": "2018-08-10T00:00:00.000Z", "VAL_METHOD": "IMAGERY/OTHER", "VAL_DATE": "2014-02-10T00:00:00.000Z", "WEBSITE": "http://www.catawbavalleymc.org", "STATE_ID": "NOT AVAILABLE", "ALT_NAME": "NOT AVAILABLE", "ST_FIPS": "37", "OWNER": "GOVERNMENT - LOCAL", "TTL_STAFF": -999, "BEDS": 258, "TRAUMA": "NOT AVAILABLE", "HELIPAD": "Y" }, "geometry": { "type": "Polygon", "coordinates": [ [ [ -81.289564, 35.636569 ], [ -81.321003, 35.64421 ], [ -81.377734, 35.680502 ], [ -81.396582, 35.694996 ], [ -81.39818, 35.698339 ], [ -81.4020233, 35.717894600000022 ], [ -81.383111, 35.737657 ], [ -81.368680600000019, 35.749831299999961 ], [ -81.3685469, 35.749940599999974 ], [ -81.317259, 35.786655 ], [ -81.29363, 35.790304 ], [ -81.260315, 35.788742 ], [ -81.172611, 35.766783 ], [ -81.171084, 35.766003 ], [ -81.127662, 35.739015 ], [ -81.12571, 35.727779 ], [ -81.128341, 35.718048 ], [ -81.185942, 35.663793 ], [ -81.22376, 35.63467 ], [ -81.2673906, 35.635414699999977 ], [ -81.289564, 35.636569 ] ] ] } },
{ "type": "Feature", "properties": { "OBJECTID": 5087, "ID": "0003628777", "NAME": "BLUE RIDGE REGIONAL HOSPITAL, INC", "ADDRESS": "125 HOSPITAL DRIVE", "CITY": "SPRUCE PINE", "STATE": "NC", "ZIP": "28777", "ZIP4": "NOT AVAILABLE", "TELEPHONE": "(828) 765-4201", "TYPE": "GENERAL ACUTE CARE", "STATUS": "OPEN", "POPULATION": 46, "COUNTY": "MITCHELL", "COUNTYFIPS": "37121", "COUNTRY": "USA", "LATITUDE": 35.910989999000002, "LONGITUDE": -82.062774344999994, "NAICS_CODE": "622110", "NAICS_DESC": "GENERAL MEDICAL AND SURGICAL HOSPITALS", "SOURCE": "https://www2.ncdhhs.gov/dhsr/reports.htm", "SOURCEDATE": "2018-08-10T00:00:00.000Z", "VAL_METHOD": "IMAGERY/OTHER", "VAL_DATE": "2014-02-10T00:00:00.000Z", "WEBSITE": "http://www.spchospital.org", "STATE_ID": "NOT AVAILABLE", "ALT_NAME": "NOT AVAILABLE", "ST_FIPS": "37", "OWNER": "NON-PROFIT", "TTL_STAFF": -999, "BEDS": 46, "TRAUMA": "NOT AVAILABLE", "HELIPAD": "Y" }, "geometry": { "type": "Polygon", "coordinates": [ [ [ -82.0721653, 35.849368700000063 ], [ -82.078946, 35.8530427 ], [ -82.1447087, 35.895761699999973 ], [ -82.1453512, 35.897017199999972 ], [ -82.1481855, 35.9194552 ], [ -82.1481341, 35.98382180000003 ], [ -82.094152, 35.987849 ], [ -81.9843635, 35.984894 ], [ -81.9706369, 35.958726100000035 ], [ -81.9672175, 35.8982874 ], [ -81.9732161, 35.889920799999963 ], [ -82.0495078, 35.852407 ], [ -82.0721653, 35.849368700000063 ] ] ] } },
{ "type": "Feature", "properties": { "OBJECTID": 5088, "ID": "0006527371", "NAME": "FIRSTHEALTH MONTGOMERY MEMORIAL HOSPITAL", "ADDRESS": "520 ALLEN STREET", "CITY": "TROY", "STATE": "NC", "ZIP": "27371", "ZIP4": "NOT AVAILABLE", "TELEPHONE": "(910) 572-1301", "TYPE": "GENERAL ACUTE CARE", "STATUS": "OPEN", "POPULATION": 37, "COUNTY": "MONTGOMERY", "COUNTYFIPS": "37123", "COUNTRY": "USA", "LATITUDE": 35.364811234999998, "LONGITUDE": -79.890368296999995, "NAICS_CODE": "622110", "NAICS_DESC": "GENERAL MEDICAL AND SURGICAL HOSPITALS", "SOURCE": "https://www2.ncdhhs.gov/dhsr/reports.htm", "SOURCEDATE": "2018-08-10T00:00:00.000Z", "VAL_METHOD": "IMAGERY", "VAL_DATE": "2014-02-10T00:00:00.000Z", "WEBSITE": "http://www.firsthealth.org", "STATE_ID": "NOT AVAILABLE", "ALT_NAME": "NOT AVAILABLE", "ST_FIPS": "37", "OWNER": "NON-PROFIT", "TTL_STAFF": -999, "BEDS": 37, "TRAUMA": "NOT AVAILABLE", "HELIPAD": "N" }, "geometry": { "type": "Polygon", "coordinates": [ [ [ -79.88768, 35.279258 ], [ -79.966578, 35.291388 ], [ -79.997876, 35.310155 ], [ -79.994031, 35.40989 ], [ -79.934659, 35.433422 ], [ -79.870036, 35.457952 ], [ -79.7697544, 35.3614932 ], [ -79.7696311, 35.360626300000035 ], [ -79.770215, 35.357694 ], [ -79.799741, 35.310118 ], [ -79.854527, 35.2755387 ], [ -79.88768, 35.279258 ] ] ] } },
{ "type": "Feature", "properties": { "OBJECTID": 5091, "ID": "0005828017", "NAME": "CRAWLEY MEMORIAL HOSPITAL", "ADDRESS": "315 WEST COLLEGE AVENUE", "CITY": "SHELBY", "STATE": "NC", "ZIP": "28017", "ZIP4": "NOT AVAILABLE", "TELEPHONE": "(704) 434-9466", "TYPE": "GENERAL ACUTE CARE", "STATUS": "CLOSED", "POPULATION": 60, "COUNTY": "CLEVELAND", "COUNTYFIPS": "37045", "COUNTRY": "USA", "LATITUDE": 35.249853092000002, "LONGITUDE": -81.676410587999996, "NAICS_CODE": "622110", "NAICS_DESC": "GENERAL MEDICAL AND SURGICAL HOSPITALS", "SOURCE": "https://www2.ncdhhs.gov/dhsr/data/hllist.pdf", "SOURCEDATE": "2012-07-03T00:00:00.000Z", "VAL_METHOD": "IMAGERY/OTHER", "VAL_DATE": "2014-02-10T00:00:00.000Z", "WEBSITE": "http://www.clevelandcountyhealthcaresystem.com/crawleymemorial.html", "STATE_ID": "NOT AVAILABLE", "ALT_NAME": "NOT AVAILABLE", "ST_FIPS": "37", "OWNER": "NON-PROFIT", "TTL_STAFF": -999, "BEDS": 60, "TRAUMA": "NOT AVAILABLE", "HELIPAD": "N" }, "geometry": { "type": "Polygon", "coordinates": [ [ [ -81.6755698, 35.1499414 ], [ -81.6837194, 35.157279 ], [ -81.754803, 35.222553 ], [ -81.7666438, 35.248034800000028 ], [ -81.7702314, 35.264742799999972 ], [ -81.7516643, 35.289988799999954 ], [ -81.7195847, 35.3170735 ], [ -81.679601, 35.33672 ], [ -81.652717, 35.329942 ], [ -81.6061722, 35.312300300000032 ], [ -81.596085, 35.307093 ], [ -81.574317, 35.29514 ], [ -81.5504962, 35.263066200000011 ], [ -81.551633, 35.259605 ], [ -81.5667141, 35.244221800000041 ], [ -81.6602967, 35.1625735 ], [ -81.6755698, 35.1499414 ] ] ] } },
{ "type": "Feature", "properties": { "OBJECTID": 5096, "ID": "0008928805", "NAME": "CHARLES GEORGE VA MEDICAL CENTER", "ADDRESS": "1100 TUNNEL RD", "CITY": "ASHEVILLE", "STATE": "NC", "ZIP": "28805", "ZIP4": "NOT AVAILABLE", "TELEPHONE": "(828) 298-7911", "TYPE": "MILITARY", "STATUS": "OPEN", "POPULATION": -999, "COUNTY": "BUNCOMBE", "COUNTYFIPS": "37021", "COUNTRY": "USA", "LATITUDE": 35.588613788000004, "LONGITUDE": -82.483540852000004, "NAICS_CODE": "622110", "NAICS_DESC": "GENERAL MEDICAL AND SURGICAL HOSPITALS", "SOURCE": "https://www.va.gov/directory/guide/allstate.asp", "SOURCEDATE": "2018-09-26T00:00:00.000Z", "VAL_METHOD": "IMAGERY/OTHER", "VAL_DATE": "2015-05-22T00:00:00.000Z", "WEBSITE": "http://www.asheville.va.gov/", "STATE_ID": "NOT AVAILABLE", "ALT_NAME": "NOT AVAILABLE", "ST_FIPS": "37", "OWNER": "GOVERNMENT - FEDERAL", "TTL_STAFF": -999, "BEDS": -999, "TRAUMA": "NOT AVAILABLE", "HELIPAD": "N" }, "geometry": { "type": "Polygon", "coordinates": [ [ [ -82.5184325, 35.5104784 ], [ -82.5966095, 35.557776699999977 ], [ -82.6073433, 35.582096700000051 ], [ -82.6079294, 35.5846873 ], [ -82.606647900000013, 35.5924306 ], [ -82.6065012, 35.593310500000065 ], [ -82.5872582, 35.634059399999963 ], [ -82.5804064, 35.642061700000021 ], [ -82.4781177, 35.6642993 ], [ -82.4715781, 35.663267 ], [ -82.4423412, 35.652025 ], [ -82.361395, 35.609179 ], [ -82.363575, 35.595353699999947 ], [ -82.4310939, 35.533745699999976 ], [ -82.5184325, 35.5104784 ] ] ] } },
{ "type": "Feature", "properties": { "OBJECTID": 5097, "ID": "0009028144", "NAME": "W. G. (BILL) HEFNER VA MEDICAL CENTER", "ADDRESS": "1601 BRENNER AVE", "CITY": "SALISBURY", "STATE": "NC", "ZIP": "28144", "ZIP4": "NOT AVAILABLE", "TELEPHONE": "(704) 638-9000", "TYPE": "MILITARY", "STATUS": "OPEN", "POPULATION": -999, "COUNTY": "ROWAN", "COUNTYFIPS": "37159", "COUNTRY": "USA", "LATITUDE": 35.684199841000101, "LONGITUDE": -80.488157759000003, "NAICS_CODE": "622110", "NAICS_DESC": "GENERAL MEDICAL AND SURGICAL HOSPITALS", "SOURCE": "https://www.va.gov/directory/guide/allstate.asp", "SOURCEDATE": "2018-09-26T00:00:00.000Z", "VAL_METHOD": "IMAGERY/OTHER", "VAL_DATE": "2015-05-22T00:00:00.000Z", "WEBSITE": "http://www.salisbury.va.gov/", "STATE_ID": "NOT AVAILABLE", "ALT_NAME": "NOT AVAILABLE", "ST_FIPS": "37", "OWNER": "GOVERNMENT - FEDERAL", "TTL_STAFF": -999, "BEDS": -999, "TRAUMA": "NOT AVAILABLE", "HELIPAD": "Y" }, "geometry": { "type": "Polygon", "coordinates": [ [ [ -80.5361841, 35.596002399999975 ], [ -80.5462671, 35.599463 ], [ -80.6001055, 35.6503189 ], [ -80.606438, 35.7205657 ], [ -80.6064368, 35.720878800000023 ], [ -80.5809577, 35.763202200000038 ], [ -80.579389400000011, 35.7644067 ], [ -80.5067386, 35.777783700000036 ], [ -80.468059, 35.753293400000011 ], [ -80.4319831, 35.7239627 ], [ -80.3944864, 35.693362199999967 ], [ -80.388457, 35.651326600000012 ], [ -80.393641799999983, 35.642503599999955 ], [ -80.3947946, 35.64055650000001 ], [ -80.4182257, 35.625377599999972 ], [ -80.4269654, 35.620588 ], [ -80.4440593, 35.611621400000033 ], [ -80.4644879, 35.601045100000022 ], [ -80.5361841, 35.596002399999975 ] ] ] } },
{ "type": "Feature", "properties": { "OBJECTID": 5469, "ID": "0004128093", "NAME": "CAROLINAS MEDICAL CENTER-LINCOLN", "ADDRESS": "433 MCALISTER ROAD", "CITY": "LINCOLNTON", "STATE": "NC", "ZIP": "28093", "ZIP4": "NOT AVAILABLE", "TELEPHONE": "(704) 735-3071", "TYPE": "GENERAL ACUTE CARE", "STATUS": "OPEN", "POPULATION": 101, "COUNTY": "LINCOLN", "COUNTYFIPS": "37109", "COUNTRY": "USA", "LATITUDE": 35.489918139000103, "LONGITUDE": -81.203598579999905, "NAICS_CODE": "622110", "NAICS_DESC": "GENERAL MEDICAL AND SURGICAL HOSPITALS", "SOURCE": "https://www2.ncdhhs.gov/dhsr/reports.htm", "SOURCEDATE": "2018-08-10T00:00:00.000Z", "VAL_METHOD": "IMAGERY", "VAL_DATE": "2014-02-10T00:00:00.000Z", "WEBSITE": "http://www.carolinashealthcare.org/body.cfm?id=7626", "STATE_ID": "NOT AVAILABLE", "ALT_NAME": "NOT AVAILABLE", "ST_FIPS": "37", "OWNER": "GOVERNMENT - DISTRICT/AUTHORITY", "TTL_STAFF": -999, "BEDS": 101, "TRAUMA": "NOT AVAILABLE", "HELIPAD": "Y" }, "geometry": { "type": "Polygon", "coordinates": [ [ [ -81.204418, 35.396294 ], [ -81.3014924, 35.421504 ], [ -81.304034, 35.426474399999982 ], [ -81.3064441, 35.456954100000033 ], [ -81.291752, 35.501657 ], [ -81.251188, 35.548635 ], [ -81.24493, 35.554467 ], [ -81.2383621, 35.557032500000027 ], [ -81.166006600000017, 35.5551612 ], [ -81.11732, 35.547128 ], [ -81.1051502, 35.5436912 ], [ -81.0971256, 35.475660899999987 ], [ -81.130952, 35.420997 ], [ -81.204418, 35.396294 ] ] ] } },
{ "type": "Feature", "properties": { "OBJECTID": 5726, "ID": "0007128053", "NAME": "CAROMONT REGIONAL MEDICAL CENTER", "ADDRESS": "2525 COURT DRIVE", "CITY": "GASTONIA", "STATE": "NC", "ZIP": "28053", "ZIP4": "NOT AVAILABLE", "TELEPHONE": "(704) 834-2121", "TYPE": "GENERAL ACUTE CARE", "STATUS": "OPEN", "POPULATION": 435, "COUNTY": "GASTON", "COUNTYFIPS": "37071", "COUNTRY": "USA", "LATITUDE": 35.272661502000098, "LONGITUDE": -81.139263827999997, "NAICS_CODE": "622110", "NAICS_DESC": "GENERAL MEDICAL AND SURGICAL HOSPITALS", "SOURCE": "https://www2.ncdhhs.gov/dhsr/reports.htm", "SOURCEDATE": "2018-08-10T00:00:00.000Z", "VAL_METHOD": "IMAGERY/OTHER", "VAL_DATE": "2014-02-10T00:00:00.000Z", "WEBSITE": "http://www.caromont.org", "STATE_ID": "NOT AVAILABLE", "ALT_NAME": "GASTON MEMORIAL HOSPITAL", "ST_FIPS": "37", "OWNER": "NON-PROFIT", "TTL_STAFF": -999, "BEDS": 435, "TRAUMA": "LEVEL III", "HELIPAD": "Y" }, "geometry": { "type": "Polygon", "coordinates": [ [ [ -81.171815, 35.19698 ], [ -81.200344300000012, 35.213567600000019 ], [ -81.259186, 35.256446 ], [ -81.267206, 35.269383 ], [ -81.270416, 35.27617 ], [ -81.27026, 35.278048 ], [ -81.262781, 35.287587 ], [ -81.22889, 35.326997 ], [ -81.206335, 35.340224 ], [ -81.159082, 35.350988 ], [ -81.093202, 35.353463 ], [ -81.091616, 35.352783 ], [ -81.020778, 35.278418 ], [ -81.019104, 35.275636 ], [ -81.011264, 35.250202 ], [ -81.014791, 35.24073 ], [ -81.015435, 35.239276 ], [ -81.074704, 35.203329 ], [ -81.1184168, 35.194526399999944 ], [ -81.130181, 35.192645 ], [ -81.171815, 35.19698 ] ] ] } },
{ "type": "Feature", "properties": { "OBJECTID": 5727, "ID": "0005528150", "NAME": "CAROLINAS HEALTHCARE SYSTEM CLEVELAND", "ADDRESS": "201 EAST GROVER ST", "CITY": "SHELBY", "STATE": "NC", "ZIP": "28150", "ZIP4": "NOT AVAILABLE", "TELEPHONE": "(704) 487-3245", "TYPE": "GENERAL ACUTE CARE", "STATUS": "OPEN", "POPULATION": 241, "COUNTY": "CLEVELAND", "COUNTYFIPS": "37045", "COUNTRY": "USA", "LATITUDE": 35.3029042430001, "LONGITUDE": -81.536394213999998, "NAICS_CODE": "622110", "NAICS_DESC": "GENERAL MEDICAL AND SURGICAL HOSPITALS", "SOURCE": "https://www2.ncdhhs.gov/dhsr/reports.htm", "SOURCEDATE": "2018-08-10T00:00:00.000Z", "VAL_METHOD": "IMAGERY/OTHER", "VAL_DATE": "2014-02-10T00:00:00.000Z", "WEBSITE": "http://www.carolinashealthcare.org/cleveland", "STATE_ID": "NOT AVAILABLE", "ALT_NAME": "CLEVELAND REGIONAL MEDICAL CENTER", "ST_FIPS": "37", "OWNER": "NON-PROFIT", "TTL_STAFF": -999, "BEDS": 241, "TRAUMA": "LEVEL III", "HELIPAD": "Y" }, "geometry": { "type": "Polygon", "coordinates": [ [ [ -81.5627871, 35.2103841 ], [ -81.611813, 35.23869 ], [ -81.6246951, 35.250762300000012 ], [ -81.6380562, 35.268557199999975 ], [ -81.6556349, 35.292747 ], [ -81.6553104, 35.293693799999964 ], [ -81.6528442, 35.3007194 ], [ -81.6081768, 35.379009200000041 ], [ -81.573915, 35.394518 ], [ -81.5426847, 35.400360099999986 ], [ -81.501032, 35.401895 ], [ -81.431639, 35.360528 ], [ -81.4428925, 35.243779 ], [ -81.5077132, 35.2215592 ], [ -81.529753, 35.214614 ], [ -81.5627871, 35.2103841 ] ] ] } },
{ "type": "Feature", "properties": { "OBJECTID": 5730, "ID": "0001227157", "NAME": "NORTH CAROLINA BAPTIST HOSPITAL", "ADDRESS": "MEDICAL CENTER BLVD", "CITY": "WINSTON SALEM", "STATE": "NC", "ZIP": "27157", "ZIP4": "NOT AVAILABLE", "TELEPHONE": "(336) 716-4750", "TYPE": "GENERAL ACUTE CARE", "STATUS": "OPEN", "POPULATION": 872, "COUNTY": "FORSYTH", "COUNTYFIPS": "37067", "COUNTRY": "USA", "LATITUDE": 36.089649608000101, "LONGITUDE": -80.268174833000003, "NAICS_CODE": "622110", "NAICS_DESC": "GENERAL MEDICAL AND SURGICAL HOSPITALS", "SOURCE": "https://www2.ncdhhs.gov/dhsr/reports.htm", "SOURCEDATE": "2018-08-10T00:00:00.000Z", "VAL_METHOD": "IMAGERY/OTHER", "VAL_DATE": "2014-02-10T00:00:00.000Z", "WEBSITE": "http://www.wakehealth.edu/", "STATE_ID": "NOT AVAILABLE", "ALT_NAME": "NOT AVAILABLE", "ST_FIPS": "37", "OWNER": "NON-PROFIT", "TTL_STAFF": -999, "BEDS": 872, "TRAUMA": "LEVEL I", "HELIPAD": "Y" }, "geometry": { "type": "Polygon", "coordinates": [ [ [ -80.2729595, 35.987074700000015 ], [ -80.2751383, 35.987381500000033 ], [ -80.4051066, 36.0238099 ], [ -80.406766, 36.087468100000038 ], [ -80.4054066, 36.0893143 ], [ -80.348263, 36.137983 ], [ -80.318459, 36.157999 ], [ -80.2775553, 36.1853242 ], [ -80.2602486, 36.1862239 ], [ -80.1537029, 36.148777800000026 ], [ -80.1200345, 36.112198300000017 ], [ -80.156569, 36.0550412 ], [ -80.172527, 36.033014 ], [ -80.22961, 36.003421 ], [ -80.2673338, 35.9877048 ], [ -80.2729595, 35.987074700000015 ] ] ] } },
{ "type": "Feature", "properties": { "OBJECTID": 5733, "ID": "0004728203", "NAME": "CAROLINAS REHABILITATION", "ADDRESS": "1100 BLYTHE BLVD", "CITY": "CHARLOTTE", "STATE": "NC", "ZIP": "28203", "ZIP4": "NOT AVAILABLE", "TELEPHONE": "(704) 355-4300", "TYPE": "REHABILITATION", "STATUS": "OPEN", "POPULATION": 70, "COUNTY": "MECKLENBURG", "COUNTYFIPS": "37119", "COUNTRY": "USA", "LATITUDE": 35.201884954000001, "LONGITUDE": -80.838717822000007, "NAICS_CODE": "622310", "NAICS_DESC": "REHABILITATION HOSPITALS (EXCEPT ALCOHOLISM, DRUG ADDICTION)", "SOURCE": "https://www2.ncdhhs.gov/dhsr/reports.htm", "SOURCEDATE": "2018-08-10T00:00:00.000Z", "VAL_METHOD": "IMAGERY/OTHER", "VAL_DATE": "2014-02-10T00:00:00.000Z", "WEBSITE": "http://www.carolinashealthcare.org/carolinas-rehab", "STATE_ID": "NOT AVAILABLE", "ALT_NAME": "NOT AVAILABLE", "ST_FIPS": "37", "OWNER": "NON-PROFIT", "TTL_STAFF": -999, "BEDS": 70, "TRAUMA": "LEVEL I", "HELIPAD": "Y" }, "geometry": { "type": "Polygon", "coordinates": [ [ [ -80.8583997, 35.107979899999975 ], [ -80.9075005, 35.138113899999965 ], [ -80.923187, 35.154632 ], [ -80.948222, 35.192192 ], [ -80.94928, 35.2355437 ], [ -80.930329, 35.267095 ], [ -80.8472569, 35.312331799999988 ], [ -80.8388094, 35.310601400000074 ], [ -80.7982304, 35.289983899999989 ], [ -80.769015, 35.265974199999988 ], [ -80.7307668, 35.202598400000056 ], [ -80.7307799, 35.202465 ], [ -80.7424312, 35.166926599999982 ], [ -80.776965, 35.125224 ], [ -80.780273199999982, 35.121796500000031 ], [ -80.8583997, 35.107979899999975 ] ] ] } },
{ "type": "Feature", "properties": { "OBJECTID": 5738, "ID": "0004428111", "NAME": "CAROLINAS HEALTHCARE SYSTEM UNION", "ADDRESS": "600 HOSPITAL DRIVE", "CITY": "MONROE", "STATE": "NC", "ZIP": "28111", "ZIP4": "NOT AVAILABLE", "TELEPHONE": "(704) 283-3100", "TYPE": "GENERAL ACUTE CARE", "STATUS": "OPEN", "POPULATION": 227, "COUNTY": "UNION", "COUNTYFIPS": "37179", "COUNTRY": "USA", "LATITUDE": 34.9757067890001, "LONGITUDE": -80.522842413999996, "NAICS_CODE": "622110", "NAICS_DESC": "GENERAL MEDICAL AND SURGICAL HOSPITALS", "SOURCE": "https://www2.ncdhhs.gov/dhsr/reports.htm", "SOURCEDATE": "2018-08-10T00:00:00.000Z", "VAL_METHOD": "IMAGERY/OTHER", "VAL_DATE": "2014-02-10T00:00:00.000Z", "WEBSITE": "http://www.carolinashealthcare.org/cmc-uniong", "STATE_ID": "NOT AVAILABLE", "ALT_NAME": "CAROLINAS MEDICAL CENTER-UNION", "ST_FIPS": "37", "OWNER": "GOVERNMENT - DISTRICT/AUTHORITY", "TTL_STAFF": -999, "BEDS": 227, "TRAUMA": "NOT AVAILABLE", "HELIPAD": "Y" }, "geometry": { "type": "Polygon", "coordinates": [ [ [ -80.541669, 34.881178 ], [ -80.5449055, 34.882441900000018 ], [ -80.6057827, 34.926553800000029 ], [ -80.630999, 34.956405 ], [ -80.6455223, 35.002173700000021 ], [ -80.6302615, 35.05859350000005 ], [ -80.630062, 35.05866 ], [ -80.592878, 35.070171 ], [ -80.53184, 35.087816 ], [ -80.4674918, 35.083010799999983 ], [ -80.4473621, 35.06527449999998 ], [ -80.423142, 35.041233 ], [ -80.3952708, 34.984576100000041 ], [ -80.403249, 34.909119 ], [ -80.452927, 34.8786452 ], [ -80.541669, 34.881178 ] ] ] } },
{ "type": "Feature", "properties": { "OBJECTID": 5742, "ID": "0009427204", "NAME": "RANDOLPH HOSPITAL", "ADDRESS": "364 WHITE OAK STREET", "CITY": "ASHEBORO", "STATE": "NC", "ZIP": "27204", "ZIP4": "NOT AVAILABLE", "TELEPHONE": "(336) 625-5151", "TYPE": "GENERAL ACUTE CARE", "STATUS": "OPEN", "POPULATION": 145, "COUNTY": "RANDOLPH", "COUNTYFIPS": "37151", "COUNTRY": "USA", "LATITUDE": 35.711444614000101, "LONGITUDE": -79.814228041999996, "NAICS_CODE": "622110", "NAICS_DESC": "GENERAL MEDICAL AND SURGICAL HOSPITALS", "SOURCE": "https://www2.ncdhhs.gov/dhsr/reports.htm", "SOURCEDATE": "2018-08-10T00:00:00.000Z", "VAL_METHOD": "IMAGERY/OTHER", "VAL_DATE": "2014-02-10T00:00:00.000Z", "WEBSITE": "http://www.randolphhospital.org", "STATE_ID": "NOT AVAILABLE", "ALT_NAME": "NOT AVAILABLE", "ST_FIPS": "37", "OWNER": "NON-PROFIT", "TTL_STAFF": -999, "BEDS": 145, "TRAUMA": "NOT AVAILABLE", "HELIPAD": "Y" }, "geometry": { "type": "Polygon", "coordinates": [ [ [ -79.8151289, 35.590765799999978 ], [ -79.922593, 35.653922 ], [ -79.927327, 35.673223 ], [ -79.9240646, 35.7264266 ], [ -79.912238, 35.754329 ], [ -79.860919, 35.823407 ], [ -79.860412, 35.823656 ], [ -79.8556143, 35.825581500000027 ], [ -79.8268719, 35.829545499999988 ], [ -79.814099, 35.825187 ], [ -79.812637, 35.82428 ], [ -79.729262, 35.759248 ], [ -79.7077824, 35.739502399999949 ], [ -79.6974383, 35.726094400000029 ], [ -79.712287, 35.664444 ], [ -79.7144152, 35.658568399999972 ], [ -79.721467, 35.6444162 ], [ -79.8151289, 35.590765799999978 ] ] ] } },
{ "type": "Feature", "properties": { "OBJECTID": 5745, "ID": "0004328025", "NAME": "CAROLINAS HEALTHCARE SYSTEM NORTHEAST", "ADDRESS": "920 CHURCH ST N", "CITY": "CONCORD", "STATE": "NC", "ZIP": "28025", "ZIP4": "NOT AVAILABLE", "TELEPHONE": "(704) 783-3000", "TYPE": "GENERAL ACUTE CARE", "STATUS": "OPEN", "POPULATION": 457, "COUNTY": "CABARRUS", "COUNTYFIPS": "37025", "COUNTRY": "USA", "LATITUDE": 35.436106422000101, "LONGITUDE": -80.602508044000004, "NAICS_CODE": "622110", "NAICS_DESC": "GENERAL MEDICAL AND SURGICAL HOSPITALS", "SOURCE": "https://www2.ncdhhs.gov/dhsr/reports.htm", "SOURCEDATE": "2018-08-10T00:00:00.000Z", "VAL_METHOD": "IMAGERY/OTHER", "VAL_DATE": "2014-02-10T00:00:00.000Z", "WEBSITE": "http://www.carolinashealthcare.org/northeast", "STATE_ID": "NOT AVAILABLE", "ALT_NAME": "NOT AVAILABLE", "ST_FIPS": "37", "OWNER": "NON-PROFIT", "TTL_STAFF": -999, "BEDS": 457, "TRAUMA": "LEVEL III", "HELIPAD": "Y" }, "geometry": { "type": "Polygon", "coordinates": [ [ [ -80.6734896, 35.359972300000017 ], [ -80.713021, 35.368134700000056 ], [ -80.7151279, 35.36949 ], [ -80.7165309, 35.370591 ], [ -80.7307874, 35.408240700000043 ], [ -80.728137, 35.441942 ], [ -80.697725, 35.473201 ], [ -80.677948, 35.491647 ], [ -80.657796300000015, 35.509448600000013 ], [ -80.6168242, 35.534178299999958 ], [ -80.6058946, 35.536164 ], [ -80.5370614, 35.5228757 ], [ -80.5356184, 35.5225929 ], [ -80.5339195, 35.522173399999986 ], [ -80.5304866, 35.520964899999981 ], [ -80.5289764, 35.5203946 ], [ -80.490329, 35.415322 ], [ -80.534686, 35.352649 ], [ -80.5754638, 35.351938499999982 ], [ -80.597675, 35.353011 ], [ -80.6734896, 35.359972300000017 ] ] ] } },
{ "type": "Feature", "properties": { "OBJECTID": 5746, "ID": "0000628801", "NAME": "MEMORIAL MISSION HOSPITAL AND ASHEVILLE SURGERY CENTER", "ADDRESS": "509 BILTMORE AVE", "CITY": "ASHEVILLE", "STATE": "NC", "ZIP": "28801", "ZIP4": "NOT AVAILABLE", "TELEPHONE": "(828) 213-1111", "TYPE": "GENERAL ACUTE CARE", "STATUS": "OPEN", "POPULATION": 763, "COUNTY": "BUNCOMBE", "COUNTYFIPS": "37021", "COUNTRY": "USA", "LATITUDE": 35.576572566000003, "LONGITUDE": -82.549143219000001, "NAICS_CODE": "622110", "NAICS_DESC": "GENERAL MEDICAL AND SURGICAL HOSPITALS", "SOURCE": "https://www2.ncdhhs.gov/dhsr/reports.htm", "SOURCEDATE": "2018-08-10T00:00:00.000Z", "VAL_METHOD": "IMAGERY/OTHER", "VAL_DATE": "2014-02-10T00:00:00.000Z", "WEBSITE": "http://www.missionhospitals.org", "STATE_ID": "NOT AVAILABLE", "ALT_NAME": "NOT AVAILABLE", "ST_FIPS": "37", "OWNER": "NON-PROFIT", "TTL_STAFF": -999, "BEDS": 763, "TRAUMA": "LEVEL II", "HELIPAD": "Y" }, "geometry": { "type": "Polygon", "coordinates": [ [ [ -82.5237089, 35.4774939 ], [ -82.6041266, 35.515036 ], [ -82.652750700000013, 35.5478012 ], [ -82.6531064, 35.551411300000012 ], [ -82.6536712, 35.5599597 ], [ -82.6422919, 35.6124279 ], [ -82.5941644, 35.6781597 ], [ -82.5904121, 35.682788700000046 ], [ -82.5714552, 35.6828638 ], [ -82.5080241, 35.6460814 ], [ -82.4281973, 35.594064100000033 ], [ -82.439553900000021, 35.540912800000015 ], [ -82.4968208, 35.487291400000039 ], [ -82.5176629, 35.4793081 ], [ -82.5237089, 35.4774939 ] ] ] } },
{ "type": "Feature", "properties": { "OBJECTID": 3229, "ID": "0005829605", "NAME": "SHRINERS' HOSPITAL FOR CHILDREN-GREENVILLE", "ADDRESS": "950 W FARIS RD", "CITY": "GREENVILLE", "STATE": "SC", "ZIP": "29605", "ZIP4": "NOT AVAILABLE", "TELEPHONE": "(864) 255-7942", "TYPE": "CHILDREN", "STATUS": "OPEN", "POPULATION": 50, "COUNTY": "GREENVILLE", "COUNTYFIPS": "45045", "COUNTRY": "USA", "LATITUDE": 34.817249494000102, "LONGITUDE": -82.413178097, "NAICS_CODE": "622110", "NAICS_DESC": "GENERAL MEDICAL AND SURGICAL HOSPITALS", "SOURCE": "http://www.scdhec.gov/Health/FHPF/HealthFacilityRegulationsLicensing/HealthcareFacilityLicensing/LicensedFacilitiesbyType/", "SOURCEDATE": "2018-08-10T00:00:00.000Z", "VAL_METHOD": "IMAGERY/OTHER", "VAL_DATE": "2014-02-10T00:00:00.000Z", "WEBSITE": "http://www.shrinershospitalsforchildren.org/Hospitals/Locations/Greenville.aspx", "STATE_ID": "38783290", "ALT_NAME": "NOT AVAILABLE", "ST_FIPS": "45", "OWNER": "NON-PROFIT", "TTL_STAFF": -999, "BEDS": 50, "TRAUMA": "NOT AVAILABLE", "HELIPAD": "Y" }, "geometry": { "type": "Polygon", "coordinates": [ [ [ -82.445852, 34.722684 ], [ -82.452533, 34.723501 ], [ -82.455925, 34.733046 ], [ -82.484998, 34.832317 ], [ -82.485764, 34.836158 ], [ -82.4847148, 34.851700500000028 ], [ -82.4803933, 34.866339 ], [ -82.475582, 34.877557 ], [ -82.469052, 34.887478 ], [ -82.411028, 34.896078 ], [ -82.409004, 34.895835 ], [ -82.354680500000015, 34.887989200000057 ], [ -82.3513609, 34.8873347 ], [ -82.332121, 34.86622140000005 ], [ -82.3255952, 34.857546799999987 ], [ -82.3168687, 34.8416614 ], [ -82.3105222, 34.824673100000012 ], [ -82.3211205, 34.803500599999985 ], [ -82.337682, 34.774944 ], [ -82.393897, 34.72342 ], [ -82.445852, 34.722684 ] ] ] } },
{ "type": "Feature", "properties": { "OBJECTID": 3230, "ID": "0002229681", "NAME": "GHS HILLCREST MEMORIAL HOSPITAL", "ADDRESS": "729 SE MAIN ST", "CITY": "SIMPSONVILLE", "STATE": "SC", "ZIP": "29681", "ZIP4": "NOT AVAILABLE", "TELEPHONE": "(864) 454-6151", "TYPE": "GENERAL ACUTE CARE", "STATUS": "OPEN", "POPULATION": 43, "COUNTY": "GREENVILLE", "COUNTYFIPS": "45045", "COUNTRY": "USA", "LATITUDE": 34.720185613000098, "LONGITUDE": -82.248230203999995, "NAICS_CODE": "622110", "NAICS_DESC": "GENERAL MEDICAL AND SURGICAL HOSPITALS", "SOURCE": "http://www.scdhec.gov/Health/FHPF/HealthFacilityRegulationsLicensing/HealthcareFacilityLicensing/LicensedFacilitiesbyType/", "SOURCEDATE": "2018-08-10T00:00:00.000Z", "VAL_METHOD": "IMAGERY/OTHER", "VAL_DATE": "2014-02-10T00:00:00.000Z", "WEBSITE": "http://www.ghs.org/hillcrest", "STATE_ID": "38782923", "ALT_NAME": "NOT AVAILABLE", "ST_FIPS": "45", "OWNER": "PROPRIETARY", "TTL_STAFF": -999, "BEDS": 43, "TRAUMA": "NOT AVAILABLE", "HELIPAD": "Y" }, "geometry": { "type": "Polygon", "coordinates": [ [ [ -82.245518, 34.626544 ], [ -82.269399, 34.633196 ], [ -82.311628, 34.647402 ], [ -82.396595, 34.72378 ], [ -82.3111316, 34.837892 ], [ -82.2917819, 34.835910400000031 ], [ -82.181409, 34.784833 ], [ -82.1322191, 34.6335829 ], [ -82.133245, 34.631512 ], [ -82.133675, 34.631308 ], [ -82.245518, 34.626544 ] ] ] } },
{ "type": "Feature", "properties": { "OBJECTID": 3236, "ID": "0002529720", "NAME": "SPRINGS MEMORIAL HOSPITAL", "ADDRESS": "800 W MEETING ST", "CITY": "LANCASTER", "STATE": "SC", "ZIP": "29720", "ZIP4": "NOT AVAILABLE", "TELEPHONE": "(803) 286-1481", "TYPE": "GENERAL ACUTE CARE", "STATUS": "OPEN", "POPULATION": 211, "COUNTY": "LANCASTER", "COUNTYFIPS": "45057", "COUNTRY": "USA", "LATITUDE": 34.717687073, "LONGITUDE": -80.787721373999901, "NAICS_CODE": "622110", "NAICS_DESC": "GENERAL MEDICAL AND SURGICAL HOSPITALS", "SOURCE": "http://www.scdhec.gov/Health/FHPF/HealthFacilityRegulationsLicensing/HealthcareFacilityLicensing/LicensedFacilitiesbyType/", "SOURCEDATE": "2018-08-10T00:00:00.000Z", "VAL_METHOD": "IMAGERY/OTHER", "VAL_DATE": "2014-02-10T00:00:00.000Z", "WEBSITE": "http://www.springsmemorial.com", "STATE_ID": "38783860", "ALT_NAME": "NOT AVAILABLE", "ST_FIPS": "45", "OWNER": "PROPRIETARY", "TTL_STAFF": -999, "BEDS": 211, "TRAUMA": "NOT AVAILABLE", "HELIPAD": "Y" }, "geometry": { "type": "Polygon", "coordinates": [ [ [ -80.802984, 34.634017 ], [ -80.811743, 34.635904 ], [ -80.8379813, 34.648770500000019 ], [ -80.8459011, 34.6604347 ], [ -80.8660204, 34.70914579999998 ], [ -80.8737255, 34.74084830000001 ], [ -80.8738593, 34.760936 ], [ -80.8006472, 34.80724649999997 ], [ -80.8004466, 34.807285199999988 ], [ -80.7283104, 34.815014600000048 ], [ -80.663234800000012, 34.73823180000003 ], [ -80.672701, 34.70244 ], [ -80.6996332, 34.6459251 ], [ -80.7008432, 34.6451736 ], [ -80.802984, 34.634017 ] ] ] } },
{ "type": "Feature", "properties": { "OBJECTID": 3237, "ID": "0003429302", "NAME": "CHILDREN'S REHABILITATION CENTER", "ADDRESS": "355 CEDAR SPRINGS RD", "CITY": "SPARTANBURG", "STATE": "SC", "ZIP": "29302", "ZIP4": "NOT AVAILABLE", "TELEPHONE": "(864) 577-7521", "TYPE": "GENERAL ACUTE CARE", "STATUS": "OPEN", "POPULATION": 11, "COUNTY": "SPARTANBURG", "COUNTYFIPS": "45083", "COUNTRY": "USA", "LATITUDE": 34.9101138, "LONGITUDE": -81.880447333999896, "NAICS_CODE": "622110", "NAICS_DESC": "GENERAL MEDICAL AND SURGICAL HOSPITALS", "SOURCE": "http://www.scdhec.gov/Health/FHPF/HealthFacilityRegulationsLicensing/HealthcareFacilityLicensing/LicensedFacilitiesbyType/", "SOURCEDATE": "2018-08-10T00:00:00.000Z", "VAL_METHOD": "IMAGERY", "VAL_DATE": "2013-10-03T00:00:00.000Z", "WEBSITE": "http://www.scsdb.org/site/default.aspx?PageID=1", "STATE_ID": "38782678", "ALT_NAME": "NOT AVAILABLE", "ST_FIPS": "45", "OWNER": "GOVERNMENT - STATE", "TTL_STAFF": -999, "BEDS": 11, "TRAUMA": "NOT AVAILABLE", "HELIPAD": "N" }, "geometry": { "type": "Polygon", "coordinates": [ [ [ -81.8690394, 34.82465210000003 ], [ -81.9451531, 34.851544699999977 ], [ -81.963431300000011, 34.859255 ], [ -81.9644118, 34.860304 ], [ -81.970418, 34.891062 ], [ -81.9721922, 34.920552500000028 ], [ -81.955335, 34.964535 ], [ -81.942255, 34.975945 ], [ -81.9421783, 34.9759512 ], [ -81.934428, 34.976473 ], [ -81.92571, 34.976536 ], [ -81.877454, 34.976219800000031 ], [ -81.860432, 34.970227 ], [ -81.840216, 34.961482 ], [ -81.802009, 34.939966 ], [ -81.797067, 34.933825 ], [ -81.7873921, 34.905339300000044 ], [ -81.7868926, 34.895970800000036 ], [ -81.7870481, 34.89582560000003 ], [ -81.865923, 34.826667 ], [ -81.8690394, 34.82465210000003 ] ] ] } },
{ "type": "Feature", "properties": { "OBJECTID": 3241, "ID": "0003129706", "NAME": "CHESTER REGIONAL MEDICAL CENTER", "ADDRESS": "1 MEDICAL PARK DR", "CITY": "CHESTER", "STATE": "SC", "ZIP": "29706", "ZIP4": "NOT AVAILABLE", "TELEPHONE": "(803) 581-3151", "TYPE": "GENERAL ACUTE CARE", "STATUS": "OPEN", "POPULATION": 82, "COUNTY": "CHESTER", "COUNTYFIPS": "45023", "COUNTRY": "USA", "LATITUDE": 34.684482416999998, "LONGITUDE": -81.183153282000006, "NAICS_CODE": "622110", "NAICS_DESC": "GENERAL MEDICAL AND SURGICAL HOSPITALS", "SOURCE": "http://www.scdhec.gov/Health/FHPF/HealthFacilityRegulationsLicensing/HealthcareFacilityLicensing/LicensedFacilitiesbyType/", "SOURCEDATE": "2018-08-10T00:00:00.000Z", "VAL_METHOD": "IMAGERY/OTHER", "VAL_DATE": "2014-02-10T00:00:00.000Z", "WEBSITE": "http://www.chospital.org", "STATE_ID": "38785511", "ALT_NAME": "NOT AVAILABLE", "ST_FIPS": "45", "OWNER": "PROPRIETARY", "TTL_STAFF": -999, "BEDS": 82, "TRAUMA": "NOT AVAILABLE", "HELIPAD": "Y" }, "geometry": { "type": "Polygon", "coordinates": [ [ [ -81.1743229, 34.594847700000024 ], [ -81.244864800000016, 34.6287111 ], [ -81.2886557, 34.661156799999986 ], [ -81.2942013, 34.722266399999988 ], [ -81.2446832, 34.764431100000024 ], [ -81.1964909, 34.770403499999979 ], [ -81.1427824, 34.758030300000016 ], [ -81.1041389, 34.737301699999968 ], [ -81.0936061, 34.7187716 ], [ -81.0794315, 34.664498600000023 ], [ -81.0799888, 34.662498400000018 ], [ -81.1149669, 34.6151429 ], [ -81.1741312, 34.594845699999972 ], [ -81.1743229, 34.594847700000024 ] ] ] } },
{ "type": "Feature", "properties": { "OBJECTID": 3242, "ID": "0000729325", "NAME": "GHS LAURENS COUNTY HOSPITAL", "ADDRESS": "22725 HWY 76 E", "CITY": "CLINTON", "STATE": "SC", "ZIP": "29325", "ZIP4": "NOT AVAILABLE", "TELEPHONE": "(864) 833-9100", "TYPE": "GENERAL ACUTE CARE", "STATUS": "OPEN", "POPULATION": 76, "COUNTY": "LAURENS", "COUNTYFIPS": "45059", "COUNTRY": "USA", "LATITUDE": 34.481470795000099, "LONGITUDE": -81.940821967000005, "NAICS_CODE": "622110", "NAICS_DESC": "GENERAL MEDICAL AND SURGICAL HOSPITALS", "SOURCE": "http://www.scdhec.gov/Health/FHPF/HealthFacilityRegulationsLicensing/HealthcareFacilityLicensing/LicensedFacilitiesbyType/", "SOURCEDATE": "2018-08-10T00:00:00.000Z", "VAL_METHOD": "IMAGERY/OTHER", "VAL_DATE": "2014-02-10T00:00:00.000Z", "WEBSITE": "http://www.ghs.org/laurens", "STATE_ID": "38784433", "ALT_NAME": "NOT AVAILABLE", "ST_FIPS": "45", "OWNER": "PROPRIETARY", "TTL_STAFF": -999, "BEDS": 76, "TRAUMA": "NOT AVAILABLE", "HELIPAD": "Y" }, "geometry": { "type": "Polygon", "coordinates": [ [ [ -81.9423725, 34.392660099999965 ], [ -81.9425888, 34.3927344 ], [ -82.045766, 34.46466 ], [ -82.0480795, 34.496829 ], [ -82.0478936, 34.4994568 ], [ -82.044037500000016, 34.526569900000048 ], [ -82.0015174, 34.5383895 ], [ -81.9556211, 34.5390368 ], [ -81.935465, 34.538317 ], [ -81.9188399, 34.537636100000014 ], [ -81.850194, 34.512774 ], [ -81.8360918, 34.501332100000013 ], [ -81.838574600000015, 34.449226799999984 ], [ -81.8755755, 34.414814800000016 ], [ -81.930913, 34.396012300000031 ], [ -81.9423725, 34.392660099999965 ] ] ] } },
{ "type": "Feature", "properties": { "OBJECTID": 3244, "ID": "0001929621", "NAME": "ANMED HEALTH NORTH WOMEN'S AND CHILDREN'S HOSPITAL", "ADDRESS": "2000 E GREENVILLE ST", "CITY": "ANDERSON", "STATE": "SC", "ZIP": "29621", "ZIP4": "NOT AVAILABLE", "TELEPHONE": "(864) 512-4801", "TYPE": "GENERAL ACUTE CARE", "STATUS": "OPEN", "POPULATION": 72, "COUNTY": "ANDERSON", "COUNTYFIPS": "45007", "COUNTRY": "USA", "LATITUDE": 34.545571426000002, "LONGITUDE": -82.628881113999995, "NAICS_CODE": "622110", "NAICS_DESC": "GENERAL MEDICAL AND SURGICAL HOSPITALS", "SOURCE": "http://www.scdhec.gov/Health/FHPF/HealthFacilityRegulationsLicensing/HealthcareFacilityLicensing/LicensedFacilitiesbyType/", "SOURCEDATE": "2018-08-10T00:00:00.000Z", "VAL_METHOD": "IMAGERY/OTHER", "VAL_DATE": "2014-02-10T00:00:00.000Z", "WEBSITE": "http://www.anmedhealth.org", "STATE_ID": "38785540", "ALT_NAME": "NOT AVAILABLE", "ST_FIPS": "45", "OWNER": "NON-PROFIT", "TTL_STAFF": -999, "BEDS": 72, "TRAUMA": "NOT AVAILABLE", "HELIPAD": "Y" }, "geometry": { "type": "Polygon", "coordinates": [ [ [ -82.666562, 34.455789 ], [ -82.682519, 34.467882 ], [ -82.700061, 34.481753 ], [ -82.7030222, 34.484301899999984 ], [ -82.7387236, 34.518159 ], [ -82.736456, 34.531787 ], [ -82.729936, 34.551991 ], [ -82.718822, 34.57258 ], [ -82.714236, 34.578978 ], [ -82.683193, 34.600776 ], [ -82.647919, 34.625371 ], [ -82.631614, 34.633128 ], [ -82.596574, 34.645753 ], [ -82.5923847, 34.646359700000019 ], [ -82.566325, 34.619154 ], [ -82.550734, 34.591167 ], [ -82.549518, 34.587471 ], [ -82.548937, 34.569151 ], [ -82.556634, 34.514152 ], [ -82.5577723, 34.510798900000026 ], [ -82.570854, 34.493014 ], [ -82.587368, 34.476878 ], [ -82.592229, 34.472976 ], [ -82.605393, 34.466085 ], [ -82.639395, 34.455186 ], [ -82.649434, 34.454016 ], [ -82.666562, 34.455789 ] ] ] } },
{ "type": "Feature", "properties": { "OBJECTID": 3251, "ID": "0002029640", "NAME": "BAPTIST EASLEY HOSPITAL", "ADDRESS": "200 FLEETWOOD DR", "CITY": "EASLEY", "STATE": "SC", "ZIP": "29640", "ZIP4": "NOT AVAILABLE", "TELEPHONE": "(864) 442-7606", "TYPE": "GENERAL ACUTE CARE", "STATUS": "OPEN", "POPULATION": 109, "COUNTY": "PICKENS", "COUNTYFIPS": "45077", "COUNTRY": "USA", "LATITUDE": 34.840658998000002, "LONGITUDE": -82.606852986999996, "NAICS_CODE": "622110", "NAICS_DESC": "GENERAL MEDICAL AND SURGICAL HOSPITALS", "SOURCE": "http://www.scdhec.gov/Health/FHPF/HealthFacilityRegulationsLicensing/HealthcareFacilityLicensing/LicensedFacilitiesbyType/", "SOURCEDATE": "2018-08-10T00:00:00.000Z", "VAL_METHOD": "IMAGERY/OTHER", "VAL_DATE": "2014-02-10T00:00:00.000Z", "WEBSITE": "http://www.baptisteasley.org", "STATE_ID": "38780880", "ALT_NAME": "NOT AVAILABLE", "ST_FIPS": "45", "OWNER": "NON-PROFIT", "TTL_STAFF": -999, "BEDS": 109, "TRAUMA": "NOT AVAILABLE", "HELIPAD": "Y" }, "geometry": { "type": "Polygon", "coordinates": [ [ [ -82.638436, 34.764329 ], [ -82.657326, 34.766798399999985 ], [ -82.672185, 34.772151 ], [ -82.679879, 34.775115 ], [ -82.691855, 34.788041 ], [ -82.705701, 34.8608 ], [ -82.704792, 34.877719 ], [ -82.70389, 34.880501 ], [ -82.702851, 34.882144 ], [ -82.619706, 34.918026 ], [ -82.591704, 34.929288100000036 ], [ -82.564807, 34.92843 ], [ -82.494057, 34.869285 ], [ -82.485916, 34.85622 ], [ -82.483839, 34.851548 ], [ -82.488509, 34.829191 ], [ -82.534114, 34.775545 ], [ -82.5612626, 34.7705329 ], [ -82.638436, 34.764329 ] ] ] } },
{ "type": "Feature", "properties": { "OBJECTID": 3253, "ID": "0010929601", "NAME": "REGENCY HOSPITAL OF GREENVILLE", "ADDRESS": "1 SAINT FRANCIS DR", "CITY": "GREENVILLE", "STATE": "SC", "ZIP": "29601", "ZIP4": "3999", "TELEPHONE": "(864) 255-1401", "TYPE": "LONG TERM CARE", "STATUS": "OPEN", "POPULATION": 32, "COUNTY": "GREENVILLE", "COUNTYFIPS": "45045", "COUNTRY": "USA", "LATITUDE": 34.840686431999998, "LONGITUDE": -82.421418975999998, "NAICS_CODE": "622310", "NAICS_DESC": "SPECIALTY (EXCEPT PSYCHIATRIC AND SUBSTANCE ABUSE) HOSPITALS", "SOURCE": "http://www.scdhec.gov/Health/FHPF/HealthFacilityRegulationsLicensing/HealthcareFacilityLicensing/LicensedFacilitiesbyType/", "SOURCEDATE": "2018-08-10T00:00:00.000Z", "VAL_METHOD": "IMAGERY", "VAL_DATE": "2016-10-27T00:00:00.000Z", "WEBSITE": "http://greenville.regencyhospital.com/", "STATE_ID": "NOT AVAILABLE", "ALT_NAME": "NOT AVAILABLE", "ST_FIPS": "45", "OWNER": "PROPRIETARY", "TTL_STAFF": -999, "BEDS": 32, "TRAUMA": "NOT AVAILABLE", "HELIPAD": "N" }, "geometry": { "type": "Polygon", "coordinates": [ [ [ -82.440653, 34.745539 ], [ -82.4549153, 34.754374899999981 ], [ -82.484998, 34.832317 ], [ -82.485764, 34.836158 ], [ -82.4904505, 34.878342100000012 ], [ -82.489739, 34.896618 ], [ -82.489033, 34.899337 ], [ -82.462801, 34.9153067 ], [ -82.462006599999981, 34.915685100000019 ], [ -82.429424, 34.918428 ], [ -82.391707, 34.915534 ], [ -82.37288, 34.911152 ], [ -82.334204, 34.900977 ], [ -82.308607, 34.856418 ], [ -82.3005742, 34.831521900000013 ], [ -82.3031642, 34.82932330000002 ], [ -82.353836, 34.792726 ], [ -82.3776313, 34.778228200000022 ], [ -82.440653, 34.745539 ] ] ] } },
{ "type": "Feature", "properties": { "OBJECTID": 3256, "ID": "0010829720", "NAME": "REBOUND BEHAVIORAL HEALTH", "ADDRESS": "134 E REBOUND RD", "CITY": "LANCASTER", "STATE": "SC", "ZIP": "29720", "ZIP4": "7712", "TELEPHONE": "(803) 313-3700", "TYPE": "PSYCHIATRIC", "STATUS": "OPEN", "POPULATION": 42, "COUNTY": "LANCASTER", "COUNTYFIPS": "15057", "COUNTRY": "USA", "LATITUDE": 34.862069515000002, "LONGITUDE": -80.802395034, "NAICS_CODE": "622210", "NAICS_DESC": "PSYCHIATRIC AND SUBSTANCE ABUSE HOSPITALS", "SOURCE": "http://www.scdhec.gov/Health/FHPF/HealthFacilityRegulationsLicensing/HealthcareFacilityLicensing/LicensedFacilitiesbyType/", "SOURCEDATE": "2018-08-10T00:00:00.000Z", "VAL_METHOD": "IMAGERY", "VAL_DATE": "2016-10-27T00:00:00.000Z", "WEBSITE": "http://www.reboundbehavioralhealth.com/", "STATE_ID": "NOT AVAILABLE", "ALT_NAME": "NOT AVAILABLE", "ST_FIPS": "45", "OWNER": "PROPRIETARY", "TTL_STAFF": -999, "BEDS": 42, "TRAUMA": "NOT AVAILABLE", "HELIPAD": "N" }, "geometry": { "type": "Polygon", "coordinates": [ [ [ -80.794749, 34.767607 ], [ -80.8397721, 34.786790500000031 ], [ -80.8771722, 34.8141688 ], [ -80.8752213, 34.8252631 ], [ -80.8496352, 34.9525702 ], [ -80.8051269, 34.949118 ], [ -80.7882446, 34.942705 ], [ -80.738624, 34.905513 ], [ -80.738643, 34.904562 ], [ -80.7756751, 34.777362400000023 ], [ -80.7846217, 34.769050699999966 ], [ -80.7867689, 34.768593399999972 ], [ -80.794616, 34.767607 ], [ -80.794749, 34.767607 ] ] ] } },
{ "type": "Feature", "properties": { "OBJECTID": 3276, "ID": "0010937601", "NAME": "NORTH SIDE HOSPITAL", "ADDRESS": "401 PRINCETON ROAD", "CITY": "JOHNSON CITY", "STATE": "TN", "ZIP": "37601", "ZIP4": "NOT AVAILABLE", "TELEPHONE": "(423) 854-5600", "TYPE": "GENERAL ACUTE CARE", "STATUS": "CLOSED", "POPULATION": 139, "COUNTY": "WASHINGTON", "COUNTYFIPS": "47179", "COUNTRY": "USA", "LATITUDE": 36.3518154510001, "LONGITUDE": -82.373191446000007, "NAICS_CODE": "622110", "NAICS_DESC": "GENERAL MEDICAL AND SURGICAL HOSPITALS", "SOURCE": "http://tnmap.state.tn.us/portal/metadata.asp", "SOURCEDATE": "2012-06-11T00:00:00.000Z", "VAL_METHOD": "IMAGERY", "VAL_DATE": "2014-02-12T00:00:00.000Z", "WEBSITE": "NOT AVAILABLE", "STATE_ID": "630087", "ALT_NAME": "NOT AVAILABLE", "ST_FIPS": "47", "OWNER": "NON-PROFIT", "TTL_STAFF": -999, "BEDS": 139, "TRAUMA": "NOT AVAILABLE", "HELIPAD": "N" }, "geometry": { "type": "Polygon", "coordinates": [ [ [ -82.412941, 36.27049 ], [ -82.4699511, 36.297931200000015 ], [ -82.4703705, 36.2991971 ], [ -82.4929786, 36.393398600000012 ], [ -82.4920395, 36.405166300000026 ], [ -82.4847865, 36.414595 ], [ -82.4755736, 36.4220501 ], [ -82.3179171, 36.429193500000039 ], [ -82.3135387, 36.4287291 ], [ -82.2750091, 36.326945 ], [ -82.2917965, 36.295493700000016 ], [ -82.3179253, 36.26572 ], [ -82.387263, 36.267806 ], [ -82.412941, 36.27049 ] ] ] } },
{ "type": "Feature", "properties": { "OBJECTID": 3510, "ID": "0010927360", "NAME": "NOVANT HEALTH THOMASVILLE MEDICAL CENTER", "ADDRESS": "207 OLD LEXINGTON ROAD", "CITY": "THOMASVILLE", "STATE": "NC", "ZIP": "27360", "ZIP4": "NOT AVAILABLE", "TELEPHONE": "(336) 472-2000", "TYPE": "GENERAL ACUTE CARE", "STATUS": "OPEN", "POPULATION": 149, "COUNTY": "DAVIDSON", "COUNTYFIPS": "37057", "COUNTRY": "USA", "LATITUDE": 35.879885118000097, "LONGITUDE": -80.111479564000007, "NAICS_CODE": "622110", "NAICS_DESC": "GENERAL MEDICAL AND SURGICAL HOSPITALS", "SOURCE": "https://www2.ncdhhs.gov/dhsr/reports.htm", "SOURCEDATE": "2018-08-10T00:00:00.000Z", "VAL_METHOD": "IMAGERY/OTHER", "VAL_DATE": "2014-02-10T00:00:00.000Z", "WEBSITE": "https://www.novanthealth.org/thomasville-medical-center.aspx", "STATE_ID": "NOT AVAILABLE", "ALT_NAME": "THOMASVILLE MEDICAL CENTER", "ST_FIPS": "37", "OWNER": "NON-PROFIT", "TTL_STAFF": -999, "BEDS": 149, "TRAUMA": "NOT AVAILABLE", "HELIPAD": "N" }, "geometry": { "type": "Polygon", "coordinates": [ [ [ -80.1877191, 35.8062061 ], [ -80.1915024, 35.8076983 ], [ -80.1991896, 35.812175299999979 ], [ -80.2357057, 35.8349688 ], [ -80.2355949, 35.835250099999989 ], [ -80.184452, 35.9247742 ], [ -80.1327617, 35.977861900000036 ], [ -80.1313076, 35.978250100000047 ], [ -80.033917, 35.944547 ], [ -80.027508, 35.939371 ], [ -80.0230267, 35.929726600000016 ], [ -80.0047771, 35.873969300000013 ], [ -80.040434, 35.831051 ], [ -80.0453057, 35.8265326 ], [ -80.0951498, 35.798313 ], [ -80.1877191, 35.8062061 ] ] ] } },
{ "type": "Feature", "properties": { "OBJECTID": 3513, "ID": "0004828012", "NAME": "CAROLINAS REHABILITATION - MOUNT HOLLY", "ADDRESS": "275 BEATTY DRIVE", "CITY": "BELMONT", "STATE": "NC", "ZIP": "28012", "ZIP4": "NOT AVAILABLE", "TELEPHONE": "(704) 355-3398", "TYPE": "REHABILITATION", "STATUS": "OPEN", "POPULATION": 40, "COUNTY": "GASTON", "COUNTYFIPS": "37071", "COUNTRY": "USA", "LATITUDE": 35.263157962000001, "LONGITUDE": -81.030128712999996, "NAICS_CODE": "622310", "NAICS_DESC": "REHABILITATION HOSPITALS (EXCEPT ALCOHOLISM, DRUG ADDICTION)", "SOURCE": "https://www2.ncdhhs.gov/dhsr/reports.htm", "SOURCEDATE": "2018-08-10T00:00:00.000Z", "VAL_METHOD": "IMAGERY/OTHER", "VAL_DATE": "2013-09-26T00:00:00.000Z", "WEBSITE": "http://www.carolinashealthcare.org/carolinas-rehab", "STATE_ID": "NOT AVAILABLE", "ALT_NAME": "NOT AVAILABLE", "ST_FIPS": "37", "OWNER": "GOVERNMENT - LOCAL", "TTL_STAFF": -999, "BEDS": 40, "TRAUMA": "NOT AVAILABLE", "HELIPAD": "N" }, "geometry": { "type": "Polygon", "coordinates": [ [ [ -81.022589, 35.196128 ], [ -81.076053, 35.205856 ], [ -81.123002, 35.243254 ], [ -81.14625, 35.267599 ], [ -81.052259, 35.326568 ], [ -81.035474, 35.33476 ], [ -80.997086, 35.332292 ], [ -80.996931, 35.331951 ], [ -81.011264, 35.250202 ], [ -81.020491, 35.200525 ], [ -81.022589, 35.196128 ] ] ] } },
{ "type": "Feature", "properties": { "OBJECTID": 3514, "ID": "0004628232", "NAME": "CAROLINAS MEDICAL CENTER", "ADDRESS": "1000 BLYTHE BOULEVARD", "CITY": "CHARLOTTE", "STATE": "NC", "ZIP": "28232", "ZIP4": "NOT AVAILABLE", "TELEPHONE": "(704) 355-2000", "TYPE": "GENERAL ACUTE CARE", "STATUS": "OPEN", "POPULATION": 1023, "COUNTY": "MECKLENBURG", "COUNTYFIPS": "37119", "COUNTRY": "USA", "LATITUDE": 35.203899886000002, "LONGITUDE": -80.838901796000002, "NAICS_CODE": "622110", "NAICS_DESC": "GENERAL MEDICAL AND SURGICAL HOSPITALS", "SOURCE": "https://www2.ncdhhs.gov/dhsr/reports.htm", "SOURCEDATE": "2018-08-10T00:00:00.000Z", "VAL_METHOD": "IMAGERY/OTHER", "VAL_DATE": "2014-02-10T00:00:00.000Z", "WEBSITE": "http://www.carolinasmedicalcenter.org", "STATE_ID": "NOT AVAILABLE", "ALT_NAME": "NOT AVAILABLE", "ST_FIPS": "37", "OWNER": "GOVERNMENT - DISTRICT/AUTHORITY", "TTL_STAFF": -999, "BEDS": 1023, "TRAUMA": "LEVEL I", "HELIPAD": "Y" }, "geometry": { "type": "Polygon", "coordinates": [ [ [ -80.8579578, 35.110335700000036 ], [ -80.8580799, 35.110351900000026 ], [ -80.9075005, 35.138113899999965 ], [ -80.923187, 35.154632 ], [ -80.949184, 35.191794 ], [ -80.94928, 35.2355437 ], [ -80.931678, 35.268197 ], [ -80.9303806, 35.269394099999964 ], [ -80.8480189, 35.3289061 ], [ -80.7966946, 35.292596100000011 ], [ -80.760252, 35.263268 ], [ -80.7259073, 35.202593399999962 ], [ -80.7259075, 35.202438500000021 ], [ -80.7408357, 35.164378 ], [ -80.776039, 35.125278 ], [ -80.780273199999982, 35.121796500000031 ], [ -80.8572175, 35.110299800000014 ], [ -80.8579578, 35.110335700000036 ] ] ] } },
{ "type": "Feature", "properties": { "OBJECTID": 3515, "ID": "0001728732", "NAME": "PARK RIDGE HOSPITAL", "ADDRESS": "100 HOSPITAL DRIVE", "CITY": "HENDERSONVILLE", "STATE": "NC", "ZIP": "28732", "ZIP4": "NOT AVAILABLE", "TELEPHONE": "(828) 684-8501", "TYPE": "GENERAL ACUTE CARE", "STATUS": "OPEN", "POPULATION": 103, "COUNTY": "HENDERSON", "COUNTYFIPS": "37089", "COUNTRY": "USA", "LATITUDE": 35.390043302000002, "LONGITUDE": -82.488193011000007, "NAICS_CODE": "622110", "NAICS_DESC": "GENERAL MEDICAL AND SURGICAL HOSPITALS", "SOURCE": "https://www2.ncdhhs.gov/dhsr/reports.htm", "SOURCEDATE": "2018-08-10T00:00:00.000Z", "VAL_METHOD": "IMAGERY", "VAL_DATE": "2014-02-10T00:00:00.000Z", "WEBSITE": "http://www.parkridgehealth.org", "STATE_ID": "NOT AVAILABLE", "ALT_NAME": "NOT AVAILABLE", "ST_FIPS": "37", "OWNER": "NON-PROFIT", "TTL_STAFF": -999, "BEDS": 103, "TRAUMA": "NOT AVAILABLE", "HELIPAD": "Y" }, "geometry": { "type": "Polygon", "coordinates": [ [ [ -82.466477, 35.31204 ], [ -82.468822, 35.312862 ], [ -82.536863, 35.352229 ], [ -82.586576, 35.399156 ], [ -82.580979, 35.419028699999963 ], [ -82.5219217, 35.4730122 ], [ -82.5160215, 35.475355899999968 ], [ -82.438146, 35.449063 ], [ -82.431209, 35.444692 ], [ -82.3885468, 35.3986827 ], [ -82.387785, 35.394 ], [ -82.405353, 35.342285 ], [ -82.410816, 35.329509 ], [ -82.466477, 35.31204 ] ] ] } },
{ "type": "Feature", "properties": { "OBJECTID": 3519, "ID": "0011028712", "NAME": "TRANSYLVANIA COMMUNITY HOSPITAL, INC. AND BRIDGEWAY", "ADDRESS": "P O BOX 1116", "CITY": "BREVARD", "STATE": "NC", "ZIP": "28712", "ZIP4": "NOT AVAILABLE", "TELEPHONE": "(828) 884-9111", "TYPE": "GENERAL ACUTE CARE", "STATUS": "OPEN", "POPULATION": 94, "COUNTY": "TRANSYLVANIA", "COUNTYFIPS": "37175", "COUNTRY": "USA", "LATITUDE": 35.256139104000098, "LONGITUDE": -82.711910288, "NAICS_CODE": "622110", "NAICS_DESC": "GENERAL MEDICAL AND SURGICAL HOSPITALS", "SOURCE": "https://www2.ncdhhs.gov/dhsr/reports.htm", "SOURCEDATE": "2018-08-10T00:00:00.000Z", "VAL_METHOD": "IMAGERY/OTHER", "VAL_DATE": "2014-03-12T00:00:00.000Z", "WEBSITE": "http://www.trhospital.org", "STATE_ID": "NOT AVAILABLE", "ALT_NAME": "NOT AVAILABLE", "ST_FIPS": "37", "OWNER": "NON-PROFIT", "TTL_STAFF": -999, "BEDS": 94, "TRAUMA": "NOT AVAILABLE", "HELIPAD": "Y" }, "geometry": { "type": "Polygon", "coordinates": [ [ [ -82.79039, 35.186898500000012 ], [ -82.7908918, 35.188719400000011 ], [ -82.7915544, 35.1944142 ], [ -82.7905878, 35.203407300000016 ], [ -82.7703045, 35.291878 ], [ -82.6884822, 35.32236 ], [ -82.6599024, 35.330216699999973 ], [ -82.647301, 35.328953 ], [ -82.621639, 35.306535 ], [ -82.620766, 35.305367 ], [ -82.6222327, 35.248100899999962 ], [ -82.6263727, 35.238776699999988 ], [ -82.72643, 35.180088 ], [ -82.7322353, 35.180571599999972 ], [ -82.79039, 35.186898500000012 ] ] ] } },
{ "type": "Feature", "properties": { "OBJECTID": 3520, "ID": "0010628713", "NAME": "SWAIN COMMUNITY HOSPITAL", "ADDRESS": "45 PLATEAU ST", "CITY": "BRYSON CITY", "STATE": "NC", "ZIP": "28713", "ZIP4": "NOT AVAILABLE", "TELEPHONE": "(828) 488-2155", "TYPE": "GENERAL ACUTE CARE", "STATUS": "OPEN", "POPULATION": 48, "COUNTY": "SWAIN", "COUNTYFIPS": "37173", "COUNTRY": "USA", "LATITUDE": 35.434485493000103, "LONGITUDE": -83.444792567999997, "NAICS_CODE": "622110", "NAICS_DESC": "GENERAL MEDICAL AND SURGICAL HOSPITALS", "SOURCE": "https://www2.ncdhhs.gov/dhsr/reports.htm", "SOURCEDATE": "2018-08-10T00:00:00.000Z", "VAL_METHOD": "IMAGERY", "VAL_DATE": "2014-02-10T00:00:00.000Z", "WEBSITE": "http://www.myswaincommunity.com/", "STATE_ID": "NOT AVAILABLE", "ALT_NAME": "NOT AVAILABLE", "ST_FIPS": "37", "OWNER": "NON-PROFIT", "TTL_STAFF": -999, "BEDS": 48, "TRAUMA": "NOT AVAILABLE", "HELIPAD": "Y" }, "geometry": { "type": "Polygon", "coordinates": [ [ [ -83.5073534, 35.362887199999989 ], [ -83.5347786, 35.373912 ], [ -83.5240155, 35.393443400000066 ], [ -83.4965594, 35.436325300000028 ], [ -83.4740835, 35.465986200000025 ], [ -83.46661, 35.467357 ], [ -83.3901471, 35.4740311 ], [ -83.3896034, 35.473971399999982 ], [ -83.3658088, 35.460070800000025 ], [ -83.3641229, 35.457984599999982 ], [ -83.3588564, 35.434440799999976 ], [ -83.3692102, 35.424029100000013 ], [ -83.4525119, 35.375188800000032 ], [ -83.4673767, 35.367486800000023 ], [ -83.4966594, 35.363029499999989 ], [ -83.497823900000014, 35.362887399999977 ], [ -83.5073534, 35.362887199999989 ] ] ] } },
{ "type": "Feature", "properties": { "OBJECTID": 3799, "ID": "0014428603", "NAME": "ALEXANDER HOSPITAL", "ADDRESS": "PO BOX 2568", "CITY": "HICKORY", "STATE": "NC", "ZIP": "28603", "ZIP4": "NOT AVAILABLE", "TELEPHONE": "(828) 377-4745", "TYPE": "GENERAL ACUTE CARE", "STATUS": "OPEN", "POPULATION": 25, "COUNTY": "ALEXANDER", "COUNTYFIPS": "37003", "COUNTRY": "USA", "LATITUDE": 35.695534197000001, "LONGITUDE": -81.291151430999903, "NAICS_CODE": "622110", "NAICS_DESC": "GENERAL MEDICAL AND SURGICAL HOSPITALS", "SOURCE": "https://www2.ncdhhs.gov/dhsr/reports.htm", "SOURCEDATE": "2018-08-10T00:00:00.000Z", "VAL_METHOD": "IMAGERY/OTHER", "VAL_DATE": "2019-04-16T00:00:00.000Z", "WEBSITE": "http://www.fryemedctr.com/en-US/Pages/default.aspx", "STATE_ID": "NOT AVAILABLE", "ALT_NAME": "NOT AVAILABLE", "ST_FIPS": "37", "OWNER": "PROPRIETARY", "TTL_STAFF": -999, "BEDS": 25, "TRAUMA": "NOT AVAILABLE", "HELIPAD": "N" }, "geometry": { "type": "Polygon", "coordinates": [ [ [ -81.254994, 35.5998618 ], [ -81.328887, 35.61533 ], [ -81.3297551, 35.615559399999967 ], [ -81.405275, 35.688924 ], [ -81.410881, 35.695667 ], [ -81.4128423, 35.702725 ], [ -81.4005506, 35.729110700000028 ], [ -81.3960762, 35.734250700000025 ], [ -81.373409, 35.755331 ], [ -81.360727, 35.76339 ], [ -81.315504, 35.784721 ], [ -81.29368, 35.786632 ], [ -81.26141, 35.784466 ], [ -81.1850816, 35.749942899999986 ], [ -81.134534, 35.726405 ], [ -81.226044, 35.628483 ], [ -81.2514222, 35.602512499999975 ], [ -81.254994, 35.5998618 ] ] ] } },
{ "type": "Feature", "properties": { "OBJECTID": 3923, "ID": "0177827006", "NAME": "DAVIE MEDICAL CENTER", "ADDRESS": "MEDICAL CENTER BLVD", "CITY": "BERMUDA RUN", "STATE": "NC", "ZIP": "27006", "ZIP4": "NOT AVAILABLE", "TELEPHONE": "(336) 751-8100", "TYPE": "GENERAL ACUTE CARE", "STATUS": "OPEN", "POPULATION": 50, "COUNTY": "DAVIE", "COUNTYFIPS": "37059", "COUNTRY": "USA", "LATITUDE": 36.009403894000101, "LONGITUDE": -80.447589687999894, "NAICS_CODE": "622110", "NAICS_DESC": "GENERAL MEDICAL AND SURGICAL HOSPITALS", "SOURCE": "https://www2.ncdhhs.gov/dhsr/reports.htm", "SOURCEDATE": "2018-08-10T00:00:00.000Z", "VAL_METHOD": "IMAGERY/OTHER", "VAL_DATE": "2019-05-09T00:00:00.000Z", "WEBSITE": "https://www.wakehealth.edu/Davie-Medical-Center/", "STATE_ID": "NOT AVAILABLE", "ALT_NAME": "NOT AVAILABLE", "ST_FIPS": "37", "OWNER": "NON-PROFIT", "TTL_STAFF": -999, "BEDS": 50, "TRAUMA": "NOT AVAILABLE", "HELIPAD": "N" }, "geometry": { "type": "Polygon", "coordinates": [ [ [ -80.5448115, 35.913548 ], [ -80.595706, 35.920276 ], [ -80.5945745, 35.927996399999962 ], [ -80.571859, 36.015776 ], [ -80.556302, 36.027013 ], [ -80.5281171, 36.047224499999977 ], [ -80.4657331, 36.057110900000026 ], [ -80.4166286, 36.014764100000072 ], [ -80.386536, 35.964596 ], [ -80.383898500000015, 35.931728599999964 ], [ -80.399481, 35.920447 ], [ -80.399711, 35.92034 ], [ -80.409621, 35.917595 ], [ -80.5448115, 35.913548 ] ] ] } },
{ "type": "Feature", "properties": { "OBJECTID": 3926, "ID": "0178827104", "NAME": "OLD VINEYARD YOUTH SERVICES", "ADDRESS": "3637 OLD VINEYARD ROAD", "CITY": "WINSTON SALEM", "STATE": "NC", "ZIP": "27104", "ZIP4": "NOT AVAILABLE", "TELEPHONE": "(336) 794-3550", "TYPE": "PSYCHIATRIC", "STATUS": "OPEN", "POPULATION": -999, "COUNTY": "FORSYTH", "COUNTYFIPS": "37067", "COUNTRY": "USA", "LATITUDE": 36.078334382000001, "LONGITUDE": -80.318573817999905, "NAICS_CODE": "622210", "NAICS_DESC": "PSYCHIATRIC AND SUBSTANCE ABUSE HOSPITALS", "SOURCE": "https://www2.ncdhhs.gov/dhsr/reports.htm", "SOURCEDATE": "2018-08-10T00:00:00.000Z", "VAL_METHOD": "IMAGERY/OTHER", "VAL_DATE": "2019-05-09T00:00:00.000Z", "WEBSITE": "http://oldvineyardbhs.com/", "STATE_ID": "NOT AVAILABLE", "ALT_NAME": "OLD VINEYARD BEHAVIORAL HEALTH SERVICES", "ST_FIPS": "37", "OWNER": "PROPRIETARY", "TTL_STAFF": -999, "BEDS": -999, "TRAUMA": "NOT AVAILABLE", "HELIPAD": "N" }, "geometry": { "type": "Polygon", "coordinates": [ [ [ -80.4118074, 36.014424400000024 ], [ -80.414916, 36.015522 ], [ -80.468079, 36.101195 ], [ -80.46787, 36.101288 ], [ -80.4675647, 36.101416700000016 ], [ -80.372795, 36.135488 ], [ -80.2862163, 36.152442899999969 ], [ -80.2836215, 36.1517977 ], [ -80.242127, 36.130902 ], [ -80.1910471, 36.103395499999948 ], [ -80.1828886, 36.0672572 ], [ -80.1814982, 36.060398199999966 ], [ -80.195007, 36.045707 ], [ -80.2622361, 36.009723 ], [ -80.334109, 36.004851 ], [ -80.4118074, 36.014424400000024 ] ] ] } },
{ "type": "Feature", "properties": { "OBJECTID": 3930, "ID": "0176828211", "NAME": "CAROLINAS MEDICAL CENTER FOR MENTAL HEALTH", "ADDRESS": "501 BILLINGSLEY RD", "CITY": "CHARLOTTE", "STATE": "NC", "ZIP": "28211", "ZIP4": "NOT AVAILABLE", "TELEPHONE": "(704) 444-2400", "TYPE": "PSYCHIATRIC", "STATUS": "OPEN", "POPULATION": 132, "COUNTY": "MECKLENBURG", "COUNTYFIPS": "37119", "COUNTRY": "USA", "LATITUDE": 35.192050170000101, "LONGITUDE": -80.803893975999998, "NAICS_CODE": "622210", "NAICS_DESC": "PSYCHIATRIC AND SUBSTANCE ABUSE HOSPITALS", "SOURCE": "https://www2.ncdhhs.gov/dhsr/reports.htm", "SOURCEDATE": "2018-08-10T00:00:00.000Z", "VAL_METHOD": "IMAGERY/OTHER", "VAL_DATE": "2019-05-09T00:00:00.000Z", "WEBSITE": "https://www.carolinashealthcare.org/locations/detail/Carolinas-HealthCare-System-Behavioral-Health--Charlotte", "STATE_ID": "NOT AVAILABLE", "ALT_NAME": "CAROLINAS HEALTHCARE SYSTEM BEHAVIORAL HEALTH CHARLOTTE", "ST_FIPS": "37", "OWNER": "NON-PROFIT", "TTL_STAFF": -999, "BEDS": 132, "TRAUMA": "NOT AVAILABLE", "HELIPAD": "N" }, "geometry": { "type": "Polygon", "coordinates": [ [ [ -80.8579578, 35.110335700000036 ], [ -80.8580799, 35.110351900000026 ], [ -80.862806, 35.115367 ], [ -80.86498, 35.118042 ], [ -80.8870775, 35.1632214 ], [ -80.909721, 35.209897 ], [ -80.9080819, 35.225377599999973 ], [ -80.8949945, 35.246883 ], [ -80.8822576, 35.267578199999974 ], [ -80.8467682, 35.280977900000011 ], [ -80.767103, 35.272956900000011 ], [ -80.742288, 35.254472 ], [ -80.7370405, 35.2501034 ], [ -80.6915747, 35.211666300000033 ], [ -80.6915615, 35.2115151 ], [ -80.696766, 35.189456 ], [ -80.7166003, 35.139159900000024 ], [ -80.745396, 35.119105 ], [ -80.7791791, 35.102466299999982 ], [ -80.8079917, 35.10517950000002 ], [ -80.8579578, 35.110335700000036 ] ] ] } },
{ "type": "Feature", "properties": { "OBJECTID": 3931, "ID": "0179128210", "NAME": "STRATEGIC BEHAVIORAL CENTER CHARLOTTE", "ADDRESS": "1715 SHARON ROAD WEST", "CITY": "CHARLOTTE", "STATE": "NC", "ZIP": "28210", "ZIP4": "NOT AVAILABLE", "TELEPHONE": "(704) 944-0650", "TYPE": "PSYCHIATRIC", "STATUS": "OPEN", "POPULATION": 60, "COUNTY": "MECKLENBURG", "COUNTYFIPS": "37119", "COUNTRY": "USA", "LATITUDE": 35.1208566970001, "LONGITUDE": -80.871603917999906, "NAICS_CODE": "622210", "NAICS_DESC": "PSYCHIATRIC AND SUBSTANCE ABUSE HOSPITALS", "SOURCE": "https://www2.ncdhhs.gov/dhsr/reports.htm", "SOURCEDATE": "2018-08-10T00:00:00.000Z", "VAL_METHOD": "IMAGERY/OTHER", "VAL_DATE": "2018-02-26T00:00:00.000Z", "WEBSITE": "http://sbccharlotte.com/", "STATE_ID": "MHH0977", "ALT_NAME": "NOT AVAILABLE", "ST_FIPS": "37", "OWNER": "PROPRIETARY", "TTL_STAFF": -999, "BEDS": 60, "TRAUMA": "NOT AVAILABLE", "HELIPAD": "N" }, "geometry": { "type": "Polygon", "coordinates": [ [ [ -80.849583, 35.0326675 ], [ -80.8938471, 35.044390400000019 ], [ -80.962244, 35.1150747 ], [ -80.9623215, 35.1152067 ], [ -80.970795, 35.1542 ], [ -80.9691564, 35.172527099999989 ], [ -80.9211359, 35.197842 ], [ -80.8934385, 35.209632 ], [ -80.8647421, 35.214005099999973 ], [ -80.857003, 35.214699 ], [ -80.854568, 35.21457 ], [ -80.804526, 35.175775 ], [ -80.80291, 35.174122 ], [ -80.789412, 35.158896 ], [ -80.78825, 35.126586 ], [ -80.788905, 35.111762 ], [ -80.803274, 35.060621 ], [ -80.8080336, 35.051408 ], [ -80.8365471, 35.037244 ], [ -80.8462059, 35.033464499999958 ], [ -80.849583, 35.0326675 ] ] ] } },
{ "type": "Feature", "properties": { "OBJECTID": 3995, "ID": "0181228719", "NAME": "UNITY HEALING CENTER", "ADDRESS": "448 SEQUOYAH TRAIL DR", "CITY": "CHEROKEE", "STATE": "NC", "ZIP": "28719", "ZIP4": "NOT AVAILABLE", "TELEPHONE": "(828) 497-3958", "TYPE": "REHABILITATION", "STATUS": "OPEN", "POPULATION": -999, "COUNTY": "CHEROKEE", "COUNTYFIPS": "37173", "COUNTRY": "USA", "LATITUDE": 35.48234511, "LONGITUDE": -83.318549547999993, "NAICS_CODE": "622310", "NAICS_DESC": "REHABILITATION HOSPITALS (EXCEPT ALCOHOLISM, DRUG ADDICTION)", "SOURCE": "https://www.ihs.gov/findhealthcare/", "SOURCEDATE": "2018-09-27T00:00:00.000Z", "VAL_METHOD": "IMAGERY/OTHER", "VAL_DATE": "2019-04-17T00:00:00.000Z", "WEBSITE": "http://www.ihs.gov/Nashville/index.cfm?module=dsp_nsh_unity", "STATE_ID": "NOT AVAILABLE", "ALT_NAME": "NOT AVAILABLE", "ST_FIPS": "37", "OWNER": "NOT AVAILABLE", "TTL_STAFF": -999, "BEDS": -999, "TRAUMA": "NOT AVAILABLE", "HELIPAD": "N" }, "geometry": { "type": "Polygon", "coordinates": [ [ [ -83.3603443, 35.4658201 ], [ -83.3626266, 35.474850699999983 ], [ -83.3627727, 35.488552300000045 ], [ -83.3623437, 35.493862400000026 ], [ -83.3115171, 35.55541910000003 ], [ -83.2832426, 35.5553918 ], [ -83.2753718, 35.527191800000011 ], [ -83.2764356, 35.5201754 ], [ -83.2951489, 35.487961700000028 ], [ -83.3115351, 35.471379 ], [ -83.3183494, 35.468936499999984 ], [ -83.3524783, 35.4649895 ], [ -83.3603443, 35.4658201 ] ] ] } }
]
}
