{
"type": "FeatureCollection",
"crs": { "type": "name", "properties": { "name": "urn:ogc:def:crs:OGC:1.3:CRS84" } },
"features": [
{ "type": "Feature", "properties": { "OBJECTID": 1088, "ID": "0091951555", "NAME": "ALEGENT HEALTH COMMUNITY MEMORIAL HOSPITAL", "ADDRESS": "631 N 8TH ST", "CITY": "MISSOURI VALLEY", "STATE": "IA", "ZIP": "51555", "ZIP4": "NOT AVAILABLE", "TELEPHONE": "(712) 642-2784", "TYPE": "CRITICAL ACCESS", "STATUS": "OPEN", "POPULATION": 25, "COUNTY": "HARRISON", "COUNTYFIPS": "19085", "COUNTRY": "USA", "LATITUDE": 41.5629436460001, "LONGITUDE": -95.885618469999898, "NAICS_CODE": "622110", "NAICS_DESC": "GENERAL MEDICAL AND SURGICAL HOSPITALS", "SOURCE": "https://dia-hfd.iowa.gov/DIA_HFD/CTLEntitySearch.do", "SOURCEDATE": "2018-08-09T00:00:00.000Z", "VAL_METHOD": "IMAGERY/OTHER", "VAL_DATE": "2016-04-15T00:00:00.000Z", "WEBSITE": "http://www.alegentcreighton.com/community-memorial", "STATE_ID": "NOT AVAILABLE", "ALT_NAME": "NOT AVAILABLE", "ST_FIPS": "19", "OWNER": "NOT AVAILABLE", "TTL_STAFF": -999, "BEDS": 25, "TRAUMA": "LEVEL IV", "HELIPAD": "Y" }, "geometry": { "type": "Polygon", "coordinates": [ [ [ -95.875256, 41.457291 ], [ -95.937238, 41.49188 ], [ -95.975496, 41.521097 ], [ -95.994776, 41.55095 ], [ -95.997304, 41.559468 ], [ -95.997286, 41.560072 ], [ -95.992608, 41.61983 ], [ -95.991414, 41.622776 ], [ -95.916526, 41.646485 ], [ -95.897044, 41.649136 ], [ -95.790492, 41.643057 ], [ -95.789171, 41.640962 ], [ -95.750851, 41.578814 ], [ -95.7846812, 41.5209199 ], [ -95.872067, 41.458088 ], [ -95.875256, 41.457291 ] ] ] } },
{ "type": "Feature", "properties": { "OBJECTID": 1222, "ID": "0009468509", "NAME": "LINCOLN REGIONAL CENTER", "ADDRESS": "FOLSOM & WEST PROSPECTOR", "CITY": "LINCOLN", "STATE": "NE", "ZIP": "68509", "ZIP4": "NOT AVAILABLE", "TELEPHONE": "(402) 471-4444", "TYPE": "PSYCHIATRIC", "STATUS": "OPEN", "POPULATION": 200, "COUNTY": "LANCASTER", "COUNTYFIPS": "31109", "COUNTRY": "USA", "LATITUDE": 40.780780629, "LONGITUDE": -96.733925005999893, "NAICS_CODE": "622210", "NAICS_DESC": "PSYCHIATRIC AND SUBSTANCE ABUSE HOSPITALS", "SOURCE": "http://dhhs.ne.gov/publichealth/Documents/Hospital%20Roster.pdf", "SOURCEDATE": "2018-08-09T00:00:00.000Z", "VAL_METHOD": "IMAGERY", "VAL_DATE": "2014-02-10T00:00:00.000Z", "WEBSITE": "http://www.hhs.state.ne.us/beh/rc", "STATE_ID": "NOT AVAILABLE", "ALT_NAME": "NOT AVAILABLE", "ST_FIPS": "31", "OWNER": "GOVERNMENT - STATE", "TTL_STAFF": -999, "BEDS": 200, "TRAUMA": "NOT AVAILABLE", "HELIPAD": "N" }, "geometry": { "type": "Polygon", "coordinates": [ [ [ -96.723877299999984, 40.668537599999951 ], [ -96.7427, 40.668441 ], [ -96.8455332, 40.7413032 ], [ -96.872974, 40.784874 ], [ -96.853787, 40.813872 ], [ -96.834900200000021, 40.8284479 ], [ -96.815269, 40.842845 ], [ -96.787116400000016, 40.863380899999989 ], [ -96.7200545, 40.886130699999967 ], [ -96.676007, 40.8899761 ], [ -96.6249834, 40.813415 ], [ -96.6060375, 40.769810699999958 ], [ -96.6060375, 40.769658100000015 ], [ -96.6127545, 40.7406303 ], [ -96.69054, 40.682919 ], [ -96.723877299999984, 40.668537599999951 ] ] ] } },
{ "type": "Feature", "properties": { "OBJECTID": 1223, "ID": "0009968131", "NAME": "LASTING HOPE RECOVERY CENTER", "ADDRESS": "415 SOUTH 25TH AVENUE", "CITY": "OMAHA", "STATE": "NE", "ZIP": "68131", "ZIP4": "NOT AVAILABLE", "TELEPHONE": "(402) 717-5300", "TYPE": "PSYCHIATRIC", "STATUS": "OPEN", "POPULATION": 64, "COUNTY": "DOUGLAS", "COUNTYFIPS": "31055", "COUNTRY": "USA", "LATITUDE": 41.255864907000003, "LONGITUDE": -95.948519226000002, "NAICS_CODE": "622210", "NAICS_DESC": "PSYCHIATRIC AND SUBSTANCE ABUSE HOSPITALS", "SOURCE": "http://dhhs.ne.gov/publichealth/Documents/Hospital%20Roster.pdf", "SOURCEDATE": "2018-08-09T00:00:00.000Z", "VAL_METHOD": "IMAGERY", "VAL_DATE": "2014-02-10T00:00:00.000Z", "WEBSITE": "http://www.chihealth.com/lasting_hope_recovery_center", "STATE_ID": "NOT AVAILABLE", "ALT_NAME": "NOT AVAILABLE", "ST_FIPS": "31", "OWNER": "NON-PROFIT", "TTL_STAFF": -999, "BEDS": 64, "TRAUMA": "NOT AVAILABLE", "HELIPAD": "N" }, "geometry": { "type": "Polygon", "coordinates": [ [ [ -95.926787, 41.15466 ], [ -95.939006, 41.155582 ], [ -95.9666949, 41.1582623 ], [ -95.9886461, 41.1616757 ], [ -96.043082, 41.187656 ], [ -96.0958715, 41.216232900000023 ], [ -96.0858198, 41.2404305 ], [ -96.0464269, 41.3104247 ], [ -96.046363400000018, 41.310519600000056 ], [ -96.046057, 41.310964 ], [ -96.0240043, 41.3292178 ], [ -95.978572, 41.345903 ], [ -95.964863, 41.347222 ], [ -95.959099, 41.345013 ], [ -95.9135299, 41.3173176 ], [ -95.9062372, 41.308104800000017 ], [ -95.9024617, 41.301198900000017 ], [ -95.900738, 41.2949811 ], [ -95.911118900000019, 41.172908 ], [ -95.915835, 41.163656 ], [ -95.920296100000016, 41.15903489999998 ], [ -95.9239792, 41.1557522 ], [ -95.926787, 41.15466 ] ] ] } },
{ "type": "Feature", "properties": { "OBJECTID": 1225, "ID": "0006468729", "NAME": "AVERA CREIGHTON HOSPITAL", "ADDRESS": "1503 MAIN ST", "CITY": "CREIGHTON", "STATE": "NE", "ZIP": "68729", "ZIP4": "NOT AVAILABLE", "TELEPHONE": "(402) 358-5700", "TYPE": "CRITICAL ACCESS", "STATUS": "OPEN", "POPULATION": 23, "COUNTY": "KNOX", "COUNTYFIPS": "31107", "COUNTRY": "USA", "LATITUDE": 42.465918343000098, "LONGITUDE": -97.916897935999899, "NAICS_CODE": "622110", "NAICS_DESC": "GENERAL MEDICAL AND SURGICAL HOSPITALS", "SOURCE": "http://dhhs.ne.gov/publichealth/Documents/Hospital%20Roster.pdf", "SOURCEDATE": "2018-08-09T00:00:00.000Z", "VAL_METHOD": "IMAGERY", "VAL_DATE": "2014-02-10T00:00:00.000Z", "WEBSITE": "http://www.avera.org/creighton/", "STATE_ID": "281331", "ALT_NAME": "NOT AVAILABLE", "ST_FIPS": "31", "OWNER": "NON-PROFIT", "TTL_STAFF": -999, "BEDS": 23, "TRAUMA": "LEVEL IV", "HELIPAD": "Y" }, "geometry": { "type": "Polygon", "coordinates": [ [ [ -97.8928211, 42.3502209 ], [ -97.927083, 42.364433 ], [ -98.029496, 42.407705 ], [ -98.049264, 42.437257 ], [ -98.0662342, 42.466403100000015 ], [ -98.072817, 42.480813 ], [ -98.033243, 42.524562 ], [ -97.940209, 42.568231 ], [ -97.8663569, 42.589763700000042 ], [ -97.8653543, 42.5899909 ], [ -97.720301, 42.466906 ], [ -97.739817, 42.452395 ], [ -97.8928211, 42.3502209 ] ] ] } },
{ "type": "Feature", "properties": { "OBJECTID": 1346, "ID": "0004151104", "NAME": "MARIAN BEHAVIORAL HEALTH CENTER", "ADDRESS": "2101 COURT STREET", "CITY": "SIOUX CITY", "STATE": "IA", "ZIP": "51104", "ZIP4": "NOT AVAILABLE", "TELEPHONE": "(712) 279-2010", "TYPE": "PSYCHIATRIC", "STATUS": "CLOSED", "POPULATION": -999, "COUNTY": "WOODBURY", "COUNTYFIPS": "19193", "COUNTRY": "USA", "LATITUDE": 42.513473445000002, "LONGITUDE": -96.396444505000005, "NAICS_CODE": "622110", "NAICS_DESC": "GENERAL MEDICAL AND SURGICAL HOSPITALS", "SOURCE": "ftp://ftp.igsb.uiowa.edu/gis_library/IA_State/Infrastructure/", "SOURCEDATE": "2012-06-05T00:00:00.000Z", "VAL_METHOD": "IMAGERY", "VAL_DATE": "2014-03-12T00:00:00.000Z", "WEBSITE": "NOT AVAILABLE", "STATE_ID": "NOT AVAILABLE", "ALT_NAME": "NOT AVAILABLE", "ST_FIPS": "19", "OWNER": "NOT AVAILABLE", "TTL_STAFF": -999, "BEDS": -999, "TRAUMA": "NOT AVAILABLE", "HELIPAD": "N" }, "geometry": { "type": "Polygon", "coordinates": [ [ [ -96.368256400000021, 42.4006759 ], [ -96.44116480000001, 42.449266899999969 ], [ -96.489264600000013, 42.51422679999996 ], [ -96.490215, 42.516036 ], [ -96.4873796, 42.520562799999965 ], [ -96.460989, 42.561946200000037 ], [ -96.390317, 42.590889 ], [ -96.379044, 42.59274 ], [ -96.2728591, 42.547557600000026 ], [ -96.2962434, 42.4753041 ], [ -96.368256400000021, 42.4006759 ] ] ] } },
{ "type": "Feature", "properties": { "OBJECTID": 1703, "ID": "0105168410", "NAME": "CHI HEALTH ST MARY'S", "ADDRESS": "1301 GRUNDMAN BLVD", "CITY": "NEBRASKA CITY", "STATE": "NE", "ZIP": "68410", "ZIP4": "NOT AVAILABLE", "TELEPHONE": "(402) 873-3321", "TYPE": "CRITICAL ACCESS", "STATUS": "OPEN", "POPULATION": 18, "COUNTY": "OTOE", "COUNTYFIPS": "31131", "COUNTRY": "USA", "LATITUDE": 40.679973703000002, "LONGITUDE": -95.862392815999996, "NAICS_CODE": "622110", "NAICS_DESC": "GENERAL MEDICAL AND SURGICAL HOSPITALS", "SOURCE": "http://dhhs.ne.gov/publichealth/Documents/Hospital%20Roster.pdf", "SOURCEDATE": "2018-08-09T00:00:00.000Z", "VAL_METHOD": "IMAGERY/OTHER", "VAL_DATE": "2015-02-18T00:00:00.000Z", "WEBSITE": "http://chihealthstmarys.com/", "STATE_ID": "NOT AVAILABLE", "ALT_NAME": "NOT AVAILABLE", "ST_FIPS": "31", "OWNER": "NON-PROFIT", "TTL_STAFF": -999, "BEDS": 18, "TRAUMA": "LEVEL IV", "HELIPAD": "Y" }, "geometry": { "type": "Polygon", "coordinates": [ [ [ -95.859218, 40.552049299999986 ], [ -96.0300303, 40.671530500000017 ], [ -96.0305638, 40.672473 ], [ -96.0300733, 40.676671399999989 ], [ -95.902115, 40.7695991 ], [ -95.883081, 40.759606 ], [ -95.782705300000018, 40.612041500000025 ], [ -95.859218, 40.552049299999986 ] ] ] } },
{ "type": "Feature", "properties": { "OBJECTID": 1704, "ID": "0002468701", "NAME": "FAITH REGIONAL HEALTH SERVICES", "ADDRESS": "2700 WEST NORFOLK AVE", "CITY": "NORFOLK", "STATE": "NE", "ZIP": "68701", "ZIP4": "NOT AVAILABLE", "TELEPHONE": "(402) 371-4880", "TYPE": "GENERAL ACUTE CARE", "STATUS": "OPEN", "POPULATION": 111, "COUNTY": "MADISON", "COUNTYFIPS": "31119", "COUNTRY": "USA", "LATITUDE": 42.033892832, "LONGITUDE": -97.452684177999998, "NAICS_CODE": "622110", "NAICS_DESC": "GENERAL MEDICAL AND SURGICAL HOSPITALS", "SOURCE": "http://dhhs.ne.gov/publichealth/Documents/Hospital%20Roster.pdf", "SOURCEDATE": "2018-08-09T00:00:00.000Z", "VAL_METHOD": "IMAGERY/OTHER", "VAL_DATE": "2014-03-12T00:00:00.000Z", "WEBSITE": "http://www.frhs.org", "STATE_ID": "280125", "ALT_NAME": "NOT AVAILABLE", "ST_FIPS": "31", "OWNER": "NON-PROFIT", "TTL_STAFF": -999, "BEDS": 111, "TRAUMA": "LEVEL III", "HELIPAD": "Y" }, "geometry": { "type": "Polygon", "coordinates": [ [ [ -97.426357, 41.902456 ], [ -97.426568, 41.902456 ], [ -97.657271, 42.025194 ], [ -97.504143, 42.119687 ], [ -97.475852, 42.13408 ], [ -97.426238, 42.148797 ], [ -97.406931, 42.134366 ], [ -97.330036, 42.076629 ], [ -97.329434, 42.076111 ], [ -97.2715661, 42.018567900000015 ], [ -97.271565800000019, 42.018393799999963 ], [ -97.310369, 41.974933 ], [ -97.426357, 41.902456 ] ] ] } },
{ "type": "Feature", "properties": { "OBJECTID": 1723, "ID": "0004468071", "NAME": "WINNEBAGO HOSPITAL", "ADDRESS": "US HIGHWAY 77-75", "CITY": "WINNEBAGO", "STATE": "NE", "ZIP": "68071", "ZIP4": "NOT AVAILABLE", "TELEPHONE": "(402) 878-2231", "TYPE": "CRITICAL ACCESS", "STATUS": "OPEN", "POPULATION": -999, "COUNTY": "THURSTON", "COUNTYFIPS": "31173", "COUNTRY": "USA", "LATITUDE": 42.2325135990001, "LONGITUDE": -96.470632941999995, "NAICS_CODE": "622110", "NAICS_DESC": "GENERAL MEDICAL AND SURGICAL HOSPITALS", "SOURCE": "https://www.ihs.gov/findhealthcare/", "SOURCEDATE": "2018-09-27T00:00:00.000Z", "VAL_METHOD": "IMAGERY/OTHER", "VAL_DATE": "2018-05-08T00:00:00.000Z", "WEBSITE": "http://www.ihs.gov/aberdeen/winnebago/", "STATE_ID": "NOT AVAILABLE", "ALT_NAME": "NOT AVAILABLE", "ST_FIPS": "31", "OWNER": "GOVERNMENT - FEDERAL", "TTL_STAFF": -999, "BEDS": -999, "TRAUMA": "NOT AVAILABLE", "HELIPAD": "Y" }, "geometry": { "type": "Polygon", "coordinates": [ [ [ -96.4669415, 42.118812799999951 ], [ -96.5016135, 42.118918399999963 ], [ -96.504287, 42.1191682 ], [ -96.58521, 42.205809 ], [ -96.609505, 42.234794 ], [ -96.51384, 42.321207 ], [ -96.4713433, 42.3429619 ], [ -96.340668, 42.25555 ], [ -96.3564325, 42.14745060000002 ], [ -96.374433, 42.126966 ], [ -96.4669415, 42.118812799999951 ] ] ] } },
{ "type": "Feature", "properties": { "OBJECTID": 1877, "ID": "0106368130", "NAME": "CHI HEALTH LAKESIDE", "ADDRESS": "16901 LAKESIDE HILLS CT", "CITY": "OMAHA", "STATE": "NE", "ZIP": "68130", "ZIP4": "NOT AVAILABLE", "TELEPHONE": "(402) 717-8000", "TYPE": "GENERAL ACUTE CARE", "STATUS": "OPEN", "POPULATION": 157, "COUNTY": "DOUGLAS", "COUNTYFIPS": "31055", "COUNTRY": "USA", "LATITUDE": 41.2377526450001, "LONGITUDE": -96.180395, "NAICS_CODE": "622110", "NAICS_DESC": "GENERAL MEDICAL AND SURGICAL HOSPITALS", "SOURCE": "http://dhhs.ne.gov/publichealth/Documents/Hospital%20Roster.pdf", "SOURCEDATE": "2018-08-09T00:00:00.000Z", "VAL_METHOD": "IMAGERY/OTHER", "VAL_DATE": "2015-02-18T00:00:00.000Z", "WEBSITE": "http://www.chihealth.com/chi-health-lakeside", "STATE_ID": "NOT AVAILABLE", "ALT_NAME": "NOT AVAILABLE", "ST_FIPS": "31", "OWNER": "NON-PROFIT", "TTL_STAFF": -999, "BEDS": 157, "TRAUMA": "NOT AVAILABLE", "HELIPAD": "Y" }, "geometry": { "type": "Polygon", "coordinates": [ [ [ -96.1798502, 41.139853099999989 ], [ -96.2156717, 41.151177100000019 ], [ -96.2343079, 41.161386800000031 ], [ -96.3303381, 41.2337911 ], [ -96.3113548, 41.2772831 ], [ -96.2997328, 41.2942421 ], [ -96.2344213, 41.320845200000015 ], [ -96.177615100000011, 41.342782900000039 ], [ -96.1388624, 41.318921799999963 ], [ -96.1006282, 41.291987399999989 ], [ -96.0812565, 41.277744400000017 ], [ -96.0621124, 41.263282799999971 ], [ -96.0585587, 41.248787 ], [ -96.056797, 41.234317 ], [ -96.0621261, 41.212402600000019 ], [ -96.080804, 41.198425 ], [ -96.1113818, 41.1761198 ], [ -96.119622, 41.170257 ], [ -96.1388379, 41.158093900000033 ], [ -96.160508600000014, 41.146981499999967 ], [ -96.1798502, 41.139853099999989 ] ] ] } },
{ "type": "Feature", "properties": { "OBJECTID": 2227, "ID": "0104868506", "NAME": "MADONNA REHABILITATION HOSPITAL", "ADDRESS": "5401 SOUTH ST", "CITY": "LINCOLN", "STATE": "NE", "ZIP": "68506", "ZIP4": "NOT AVAILABLE", "TELEPHONE": "(402) 413-3000", "TYPE": "REHABILITATION", "STATUS": "OPEN", "POPULATION": 146, "COUNTY": "LANCASTER", "COUNTYFIPS": "31109", "COUNTRY": "USA", "LATITUDE": 40.790183348, "LONGITUDE": -96.6470106149999, "NAICS_CODE": "622310", "NAICS_DESC": "REHABILITATION HOSPITALS (EXCEPT ALCOHOLISM, DRUG ADDICTION)", "SOURCE": "http://dhhs.ne.gov/publichealth/Documents/Hospital%20Roster.pdf", "SOURCEDATE": "2018-08-09T00:00:00.000Z", "VAL_METHOD": "IMAGERY/OTHER", "VAL_DATE": "2015-02-18T00:00:00.000Z", "WEBSITE": "http://www.madonna.org", "STATE_ID": "NOT AVAILABLE", "ALT_NAME": "NOT AVAILABLE", "ST_FIPS": "31", "OWNER": "NON-PROFIT", "TTL_STAFF": -999, "BEDS": 146, "TRAUMA": "NOT AVAILABLE", "HELIPAD": "N" }, "geometry": { "type": "Polygon", "coordinates": [ [ [ -96.6456612, 40.69528319999997 ], [ -96.6483151, 40.695466600000032 ], [ -96.6675943, 40.697362099999978 ], [ -96.745669, 40.741224 ], [ -96.7664702, 40.782678100000012 ], [ -96.772725, 40.799211 ], [ -96.7660655, 40.812407 ], [ -96.7652541, 40.813793 ], [ -96.7176129, 40.8662972 ], [ -96.6435771, 40.893050300000013 ], [ -96.6434193, 40.893039500000015 ], [ -96.6069326, 40.8751666 ], [ -96.5209762, 40.821942 ], [ -96.511550700000015, 40.787591 ], [ -96.513373500000014, 40.7840222 ], [ -96.520925, 40.769604 ], [ -96.5619887, 40.7122463 ], [ -96.6256447, 40.696130399999973 ], [ -96.6456612, 40.69528319999997 ] ] ] } },
{ "type": "Feature", "properties": { "OBJECTID": 2228, "ID": "0000968410", "NAME": "ST MARY'S COMMUNITY HOSPITAL", "ADDRESS": "1314  3RD AVE", "CITY": "NEBRASKA CITY", "STATE": "NE", "ZIP": "68410", "ZIP4": "NOT AVAILABLE", "TELEPHONE": "(402) 873-3321", "TYPE": "CRITICAL ACCESS", "STATUS": "CLOSED", "POPULATION": 18, "COUNTY": "OTOE", "COUNTYFIPS": "31131", "COUNTRY": "USA", "LATITUDE": 40.679785767000098, "LONGITUDE": -95.8621545029999, "NAICS_CODE": "622110", "NAICS_DESC": "GENERAL MEDICAL AND SURGICAL HOSPITALS", "SOURCE": "http://dhhs.ne.gov/publichealth/Documents/Hospital%20Roster.pdf", "SOURCEDATE": "2012-07-12T00:00:00.000Z", "VAL_METHOD": "IMAGERY", "VAL_DATE": "2014-03-12T00:00:00.000Z", "WEBSITE": "http://www.stmaryshospitalnecity.org", "STATE_ID": "281342", "ALT_NAME": "NOT AVAILABLE", "ST_FIPS": "31", "OWNER": "NON-PROFIT", "TTL_STAFF": -999, "BEDS": 18, "TRAUMA": "LEVEL IV", "HELIPAD": "Y" }, "geometry": { "type": "Polygon", "coordinates": [ [ [ -95.859218, 40.552049299999986 ], [ -96.0300303, 40.671530500000017 ], [ -96.0305638, 40.672473 ], [ -96.0300733, 40.676671399999989 ], [ -95.902115, 40.7695991 ], [ -95.883081, 40.759606 ], [ -95.782705300000018, 40.612041500000025 ], [ -95.859218, 40.552049299999986 ] ] ] } },
{ "type": "Feature", "properties": { "OBJECTID": 2229, "ID": "0008968446", "NAME": "COMMUNITY MEMORIAL HOSPITAL", "ADDRESS": "1579 MIDLAND ST", "CITY": "SYRACUSE", "STATE": "NE", "ZIP": "68446", "ZIP4": "NOT AVAILABLE", "TELEPHONE": "(402) 269-2011", "TYPE": "CRITICAL ACCESS", "STATUS": "OPEN", "POPULATION": 18, "COUNTY": "OTOE", "COUNTYFIPS": "31131", "COUNTRY": "USA", "LATITUDE": 40.667305501000001, "LONGITUDE": -96.186851331, "NAICS_CODE": "622110", "NAICS_DESC": "GENERAL MEDICAL AND SURGICAL HOSPITALS", "SOURCE": "http://dhhs.ne.gov/publichealth/Documents/Hospital%20Roster.pdf", "SOURCEDATE": "2018-08-09T00:00:00.000Z", "VAL_METHOD": "IMAGERY", "VAL_DATE": "2014-03-12T00:00:00.000Z", "WEBSITE": "http://www.syracusecmh.org/", "STATE_ID": "281309", "ALT_NAME": "NOT AVAILABLE", "ST_FIPS": "31", "OWNER": "NON-PROFIT", "TTL_STAFF": -999, "BEDS": 18, "TRAUMA": "LEVEL IV", "HELIPAD": "Y" }, "geometry": { "type": "Polygon", "coordinates": [ [ [ -96.1796253, 40.537482299999972 ], [ -96.198406, 40.551933 ], [ -96.293342, 40.631566 ], [ -96.312613, 40.653293 ], [ -96.3318, 40.682297 ], [ -96.34948, 40.71129 ], [ -96.349477, 40.71147 ], [ -96.29266, 40.741511 ], [ -96.197484, 40.769694 ], [ -96.178501, 40.769636 ], [ -96.140185, 40.7550713 ], [ -95.992375, 40.682538299999976 ], [ -95.9922331, 40.675167199999976 ], [ -95.9921341, 40.6680341 ], [ -96.1796253, 40.537482299999972 ] ] ] } },
{ "type": "Feature", "properties": { "OBJECTID": 2316, "ID": "0006651040", "NAME": "BURGESS MEMORIAL HOSPITAL", "ADDRESS": "1600 DIAMOND AVENUE", "CITY": "ONAWA", "STATE": "IA", "ZIP": "51040", "ZIP4": "NOT AVAILABLE", "TELEPHONE": "(712) 423-2311", "TYPE": "CRITICAL ACCESS", "STATUS": "OPEN", "POPULATION": 25, "COUNTY": "MONONA", "COUNTYFIPS": "19133", "COUNTRY": "USA", "LATITUDE": 42.0255307420001, "LONGITUDE": -96.106395602000006, "NAICS_CODE": "622110", "NAICS_DESC": "GENERAL MEDICAL AND SURGICAL HOSPITALS", "SOURCE": "https://dia-hfd.iowa.gov/DIA_HFD/CTLEntitySearch.do", "SOURCEDATE": "2018-08-09T00:00:00.000Z", "VAL_METHOD": "IMAGERY/OTHER", "VAL_DATE": "2016-04-18T00:00:00.000Z", "WEBSITE": "http://www.burgesshc.org", "STATE_ID": "NOT AVAILABLE", "ALT_NAME": "NOT AVAILABLE", "ST_FIPS": "19", "OWNER": "NON-PROFIT", "TTL_STAFF": -999, "BEDS": 25, "TRAUMA": "LEVEL IV", "HELIPAD": "Y" }, "geometry": { "type": "Polygon", "coordinates": [ [ [ -96.089250800000016, 41.92327709999995 ], [ -96.108653, 41.931027 ], [ -96.241940699999986, 42.006879600000019 ], [ -96.2091412, 42.127824899999965 ], [ -96.2058376, 42.130655599999976 ], [ -96.186771, 42.127686 ], [ -96.136175, 42.11944 ], [ -96.097144, 42.111996 ], [ -96.016176, 42.082451 ], [ -95.966744, 42.019381699999968 ], [ -96.0308932, 41.9650004 ], [ -96.077487, 41.930257 ], [ -96.089250800000016, 41.92327709999995 ] ] ] } },
{ "type": "Feature", "properties": { "OBJECTID": 2329, "ID": "0004051104", "NAME": "ST. LUKES'S REGIONAL MEDICAL CENTER", "ADDRESS": "2720 STONE PARK BOULEVARD", "CITY": "SIOUX CITY", "STATE": "IA", "ZIP": "51104", "ZIP4": "NOT AVAILABLE", "TELEPHONE": "(712) 279-3500", "TYPE": "GENERAL ACUTE CARE", "STATUS": "OPEN", "POPULATION": 346, "COUNTY": "WOODBURY", "COUNTYFIPS": "19193", "COUNTRY": "USA", "LATITUDE": 42.519450173000102, "LONGITUDE": -96.405942017000001, "NAICS_CODE": "622110", "NAICS_DESC": "GENERAL MEDICAL AND SURGICAL HOSPITALS", "SOURCE": "https://dia-hfd.iowa.gov/DIA_HFD/CTLEntitySearch.do", "SOURCEDATE": "2018-08-09T00:00:00.000Z", "VAL_METHOD": "IMAGERY/OTHER", "VAL_DATE": "2016-04-15T00:00:00.000Z", "WEBSITE": "https://www.unitypoint.org/siouxcity/Default.aspx", "STATE_ID": "NOT AVAILABLE", "ALT_NAME": "NOT AVAILABLE", "ST_FIPS": "19", "OWNER": "NON-PROFIT", "TTL_STAFF": -999, "BEDS": 346, "TRAUMA": "LEVEL III", "HELIPAD": "Y" }, "geometry": { "type": "Polygon", "coordinates": [ [ [ -96.3814782, 42.4271047 ], [ -96.4200082, 42.449403099999955 ], [ -96.4674832, 42.4925079 ], [ -96.489867, 42.513736 ], [ -96.491444, 42.516005 ], [ -96.491731, 42.517662 ], [ -96.4744464, 42.5552 ], [ -96.4712974, 42.561533299999965 ], [ -96.429244, 42.591074500000012 ], [ -96.375536, 42.61345 ], [ -96.3192677, 42.547373899999975 ], [ -96.321088, 42.475443299999952 ], [ -96.3238881, 42.47014140000001 ], [ -96.3401862, 42.4441777 ], [ -96.3710517, 42.4274387 ], [ -96.3814782, 42.4271047 ] ] ] } },
{ "type": "Feature", "properties": { "OBJECTID": 2365, "ID": "0000668787", "NAME": "PROVIDENCE MEDICAL CENTER", "ADDRESS": "1200 PROVIDENCE RD", "CITY": "WAYNE", "STATE": "NE", "ZIP": "68787", "ZIP4": "NOT AVAILABLE", "TELEPHONE": "(402) 375-3800", "TYPE": "CRITICAL ACCESS", "STATUS": "OPEN", "POPULATION": 25, "COUNTY": "WAYNE", "COUNTYFIPS": "31179", "COUNTRY": "USA", "LATITUDE": 42.241919202000098, "LONGITUDE": -97.009230932999998, "NAICS_CODE": "622110", "NAICS_DESC": "GENERAL MEDICAL AND SURGICAL HOSPITALS", "SOURCE": "http://dhhs.ne.gov/publichealth/Documents/Hospital%20Roster.pdf", "SOURCEDATE": "2018-08-09T00:00:00.000Z", "VAL_METHOD": "IMAGERY/OTHER", "VAL_DATE": "2014-02-10T00:00:00.000Z", "WEBSITE": "http://www.providencemedical.com", "STATE_ID": "281345", "ALT_NAME": "NOT AVAILABLE", "ST_FIPS": "31", "OWNER": "NON-PROFIT", "TTL_STAFF": -999, "BEDS": 25, "TRAUMA": "NOT AVAILABLE", "HELIPAD": "Y" }, "geometry": { "type": "Polygon", "coordinates": [ [ [ -97.017993, 42.119531 ], [ -97.1723466, 42.235333300000022 ], [ -97.0763676, 42.322448400000013 ], [ -97.017745, 42.3658 ], [ -96.862191, 42.26099050000002 ], [ -96.842801, 42.235454 ], [ -96.8620836, 42.220984199999975 ], [ -96.881731, 42.206453 ], [ -97.017993, 42.119531 ] ] ] } },
{ "type": "Feature", "properties": { "OBJECTID": 2440, "ID": "0005657049", "NAME": "DUNES SURGICAL HOSPITAL", "ADDRESS": "600 NORTH SIOUX POINT ROAD", "CITY": "DAKOTA DUNES", "STATE": "SD", "ZIP": "57049", "ZIP4": "NOT AVAILABLE", "TELEPHONE": "(605) 232-3332", "TYPE": "SPECIAL", "STATUS": "OPEN", "POPULATION": 38, "COUNTY": "UNION", "COUNTYFIPS": "46127", "COUNTRY": "USA", "LATITUDE": 42.505582452000098, "LONGITUDE": -96.495745647999996, "NAICS_CODE": "622310", "NAICS_DESC": "SPECIALTY (EXCEPT PSYCHIATRIC AND SUBSTANCE ABUSE) HOSPITALS", "SOURCE": "https://apps.sd.gov/ph04lassnet/rptPH04LicenseList.Aspx", "SOURCEDATE": "2018-08-10T00:00:00.000Z", "VAL_METHOD": "IMAGERY", "VAL_DATE": "2013-12-27T00:00:00.000Z", "WEBSITE": "http://dunessurgicalhospital.com/", "STATE_ID": "NOT AVAILABLE", "ALT_NAME": "SIOUXLAND SURGERY CENTER LIMITED LIABILITY PARTNERSHIP", "ST_FIPS": "46", "OWNER": "PROPRIETARY", "TTL_STAFF": -999, "BEDS": 38, "TRAUMA": "NOT AVAILABLE", "HELIPAD": "N" }, "geometry": { "type": "Polygon", "coordinates": [ [ [ -96.4895271, 42.4834524 ], [ -96.501200600000018, 42.4862716 ], [ -96.5650001, 42.5470399 ], [ -96.5865155, 42.605118 ], [ -96.5788922, 42.607108399999959 ], [ -96.566896, 42.6087414 ], [ -96.546836, 42.6046401 ], [ -96.4968398, 42.572732800000026 ], [ -96.4785529, 42.5531223 ], [ -96.4679542, 42.489234499999966 ], [ -96.473774300000017, 42.484231699999974 ], [ -96.4895271, 42.4834524 ] ] ] } },
{ "type": "Feature", "properties": { "OBJECTID": 2441, "ID": "0006257078", "NAME": "LEWIS AND CLARK SPECIALTY HOSPITAL", "ADDRESS": "2601 FOX RUN PARKWAY", "CITY": "YANKTON", "STATE": "SD", "ZIP": "57078", "ZIP4": "NOT AVAILABLE", "TELEPHONE": "(605) 665-5100", "TYPE": "SPECIAL", "STATUS": "OPEN", "POPULATION": 10, "COUNTY": "YANKTON", "COUNTYFIPS": "46135", "COUNTRY": "USA", "LATITUDE": 42.900904406000102, "LONGITUDE": -97.400888331000004, "NAICS_CODE": "622310", "NAICS_DESC": "SPECIALTY (EXCEPT PSYCHIATRIC AND SUBSTANCE ABUSE) HOSPITALS", "SOURCE": "https://apps.sd.gov/ph04lassnet/rptPH04LicenseList.Aspx", "SOURCEDATE": "2018-08-10T00:00:00.000Z", "VAL_METHOD": "IMAGERY", "VAL_DATE": "2013-12-31T00:00:00.000Z", "WEBSITE": "http://www.lewisandclarkspecialty.com", "STATE_ID": "NOT AVAILABLE", "ALT_NAME": "NOT AVAILABLE", "ST_FIPS": "46", "OWNER": "PROPRIETARY", "TTL_STAFF": -999, "BEDS": 10, "TRAUMA": "NOT AVAILABLE", "HELIPAD": "N" }, "geometry": { "type": "Polygon", "coordinates": [ [ [ -97.456433, 42.849201300000033 ], [ -97.4821695, 42.8497895 ], [ -97.5197988, 42.869217399999989 ], [ -97.55594840000002, 42.908674199999972 ], [ -97.437352, 42.987769 ], [ -97.398663762450084, 43.012865070082974 ], [ -97.393755765783325, 43.012926071129044 ], [ -97.2400967, 42.8818955 ], [ -97.240082, 42.881608 ], [ -97.337675, 42.862768 ], [ -97.4515739, 42.849753 ], [ -97.456433, 42.849201300000033 ] ] ] } },
{ "type": "Feature", "properties": { "OBJECTID": 2967, "ID": "0002668144", "NAME": "NEBRASKA ORTHOPAEDIC HOSPITAL", "ADDRESS": "2808 SOUTH 143RD PLZ", "CITY": "OMAHA", "STATE": "NE", "ZIP": "68144", "ZIP4": "NOT AVAILABLE", "TELEPHONE": "(402) 609-1600", "TYPE": "SPECIAL", "STATUS": "OPEN", "POPULATION": 24, "COUNTY": "DOUGLAS", "COUNTYFIPS": "31055", "COUNTRY": "USA", "LATITUDE": 41.2328697720001, "LONGITUDE": -96.135637117000002, "NAICS_CODE": "622310", "NAICS_DESC": "ORTHOPEDIC HOSPITALS", "SOURCE": "http://dhhs.ne.gov/publichealth/Documents/Hospital%20Roster.pdf", "SOURCEDATE": "2018-08-09T00:00:00.000Z", "VAL_METHOD": "IMAGERY", "VAL_DATE": "2014-01-02T00:00:00.000Z", "WEBSITE": "http://www.nohmail.com", "STATE_ID": "280129", "ALT_NAME": "NOT AVAILABLE", "ST_FIPS": "31", "OWNER": "PROPRIETARY", "TTL_STAFF": -999, "BEDS": 24, "TRAUMA": "NOT AVAILABLE", "HELIPAD": "N" }, "geometry": { "type": "Polygon", "coordinates": [ [ [ -96.1483429, 41.13249409999996 ], [ -96.1798502, 41.139853099999989 ], [ -96.1964873, 41.1467786 ], [ -96.291657, 41.232958 ], [ -96.2778901, 41.263388 ], [ -96.2344883, 41.2920103 ], [ -96.153647, 41.336172100000027 ], [ -96.153308, 41.336257499999981 ], [ -96.1390454, 41.338091299999974 ], [ -96.1246156, 41.3356276 ], [ -96.0659596, 41.324776400000012 ], [ -95.9666494, 41.225980600000021 ], [ -95.973589, 41.219723 ], [ -95.975973, 41.218111 ], [ -96.035255, 41.18321 ], [ -96.1195656, 41.140266299999972 ], [ -96.1390291, 41.132510400000022 ], [ -96.1391795, 41.132510099999983 ], [ -96.1483429, 41.13249409999996 ] ] ] } },
{ "type": "Feature", "properties": { "OBJECTID": 2969, "ID": "0006368620", "NAME": "BOONE COUNTY HEALTH CENTER", "ADDRESS": "723 WEST FAIRVIEW ST", "CITY": "ALBION", "STATE": "NE", "ZIP": "68620", "ZIP4": "NOT AVAILABLE", "TELEPHONE": "(402) 395-2191", "TYPE": "CRITICAL ACCESS", "STATUS": "OPEN", "POPULATION": 25, "COUNTY": "BOONE", "COUNTYFIPS": "31011", "COUNTRY": "USA", "LATITUDE": 41.683040808999998, "LONGITUDE": -98.005740154999998, "NAICS_CODE": "622110", "NAICS_DESC": "GENERAL MEDICAL AND SURGICAL HOSPITALS", "SOURCE": "http://dhhs.ne.gov/publichealth/Documents/Hospital%20Roster.pdf", "SOURCEDATE": "2018-08-09T00:00:00.000Z", "VAL_METHOD": "IMAGERY", "VAL_DATE": "2014-02-10T00:00:00.000Z", "WEBSITE": "http://www.boonecohealth.org", "STATE_ID": "281334", "ALT_NAME": "NOT AVAILABLE", "ST_FIPS": "31", "OWNER": "GOVERNMENT - LOCAL", "TTL_STAFF": -999, "BEDS": 25, "TRAUMA": "NOT AVAILABLE", "HELIPAD": "Y" }, "geometry": { "type": "Polygon", "coordinates": [ [ [ -97.984421, 41.553499 ], [ -98.176244, 41.682846 ], [ -98.176203, 41.690068 ], [ -98.093734, 41.79997 ], [ -98.084666, 41.799698 ], [ -97.987366, 41.785291 ], [ -97.929234400000013, 41.756573500000016 ], [ -97.83073, 41.70477 ], [ -97.830759, 41.699197 ], [ -97.8849022, 41.569920300000021 ], [ -97.984421, 41.553499 ] ] ] } },
{ "type": "Feature", "properties": { "OBJECTID": 2970, "ID": "0005868047", "NAME": "PENDER COMMUNITY HOSPITAL", "ADDRESS": "100 HOSPITAL DRIVE", "CITY": "PENDER", "STATE": "NE", "ZIP": "68047", "ZIP4": "NOT AVAILABLE", "TELEPHONE": "(402) 385-3083", "TYPE": "CRITICAL ACCESS", "STATUS": "OPEN", "POPULATION": 21, "COUNTY": "THURSTON", "COUNTYFIPS": "31173", "COUNTRY": "USA", "LATITUDE": 42.10666503, "LONGITUDE": -96.710940421999993, "NAICS_CODE": "622110", "NAICS_DESC": "GENERAL MEDICAL AND SURGICAL HOSPITALS", "SOURCE": "http://dhhs.ne.gov/publichealth/Documents/Hospital%20Roster.pdf", "SOURCEDATE": "2018-08-09T00:00:00.000Z", "VAL_METHOD": "IMAGERY", "VAL_DATE": "2014-03-12T00:00:00.000Z", "WEBSITE": "http://www.pendercommunityhospital.com", "STATE_ID": "281349", "ALT_NAME": "NOT AVAILABLE", "ST_FIPS": "31", "OWNER": "GOVERNMENT - DISTRICT/AUTHORITY", "TTL_STAFF": -999, "BEDS": 21, "TRAUMA": "NOT AVAILABLE", "HELIPAD": "Y" }, "geometry": { "type": "Polygon", "coordinates": [ [ [ -96.709676, 41.974423 ], [ -96.729176, 41.98902 ], [ -96.842896, 42.090416 ], [ -96.842539, 42.134314 ], [ -96.8232191, 42.149011 ], [ -96.745581, 42.206378 ], [ -96.726229, 42.220412 ], [ -96.687233, 42.191593 ], [ -96.6678572, 42.17712139999994 ], [ -96.594254, 42.075194 ], [ -96.613701, 42.041977 ], [ -96.709676, 41.974423 ] ] ] } },
{ "type": "Feature", "properties": { "OBJECTID": 6204, "ID": "0006757069", "NAME": "SANFORD VERMILLION HOSPITAL", "ADDRESS": "20 SOUTH PLUM STREET", "CITY": "VERMILLION", "STATE": "SD", "ZIP": "57069", "ZIP4": "NOT AVAILABLE", "TELEPHONE": "(605) 677-3500", "TYPE": "CRITICAL ACCESS", "STATUS": "OPEN", "POPULATION": 25, "COUNTY": "CLAY", "COUNTYFIPS": "46027", "COUNTRY": "USA", "LATITUDE": 42.778658248000099, "LONGITUDE": -96.91929851, "NAICS_CODE": "622110", "NAICS_DESC": "GENERAL MEDICAL AND SURGICAL HOSPITALS", "SOURCE": "https://apps.sd.gov/ph04lassnet/rptPH04LicenseList.Aspx", "SOURCEDATE": "2018-08-10T00:00:00.000Z", "VAL_METHOD": "IMAGERY", "VAL_DATE": "2014-02-10T00:00:00.000Z", "WEBSITE": "http://www.sanfordvermillion.org", "STATE_ID": "NOT AVAILABLE", "ALT_NAME": "NOT AVAILABLE", "ST_FIPS": "46", "OWNER": "NON-PROFIT", "TTL_STAFF": -999, "BEDS": 25, "TRAUMA": "TRH", "HELIPAD": "Y" }, "geometry": { "type": "Polygon", "coordinates": [ [ [ -96.951327600000013, 42.718278599999969 ], [ -97.057162, 42.782932 ], [ -97.061918, 42.786779 ], [ -97.0750885, 42.844840099999971 ], [ -97.074877, 42.845055 ], [ -96.964167, 42.8665 ], [ -96.954253, 42.866584 ], [ -96.944315, 42.866591 ], [ -96.904411, 42.866387 ], [ -96.865112, 42.854802 ], [ -96.786079, 42.808031 ], [ -96.746757, 42.779019 ], [ -96.806521, 42.737916 ], [ -96.821288, 42.73517 ], [ -96.951327600000013, 42.718278599999969 ] ] ] } },
{ "type": "Feature", "properties": { "OBJECTID": 6400, "ID": "0008951537", "NAME": "MYRTUE MEMORIAL HOSPITAL", "ADDRESS": "1213 GARFIELD AVENUE", "CITY": "HARLAN", "STATE": "IA", "ZIP": "51537", "ZIP4": "NOT AVAILABLE", "TELEPHONE": "(712) 755-5161", "TYPE": "CRITICAL ACCESS", "STATUS": "OPEN", "POPULATION": 25, "COUNTY": "SHELBY", "COUNTYFIPS": "19165", "COUNTRY": "USA", "LATITUDE": 41.646982399000102, "LONGITUDE": -95.326837584000003, "NAICS_CODE": "622110", "NAICS_DESC": "GENERAL MEDICAL AND SURGICAL HOSPITALS", "SOURCE": "https://dia-hfd.iowa.gov/DIA_HFD/CTLEntitySearch.do", "SOURCEDATE": "2018-08-09T00:00:00.000Z", "VAL_METHOD": "IMAGERY/OTHER", "VAL_DATE": "2016-04-18T00:00:00.000Z", "WEBSITE": "http://myrtuemedical.org", "STATE_ID": "NOT AVAILABLE", "ALT_NAME": "NOT AVAILABLE", "ST_FIPS": "19", "OWNER": "GOVERNMENT - LOCAL", "TTL_STAFF": -999, "BEDS": 25, "TRAUMA": "LEVEL IV", "HELIPAD": "Y" }, "geometry": { "type": "Polygon", "coordinates": [ [ [ -95.33502, 41.556484 ], [ -95.383393, 41.578304 ], [ -95.4803, 41.645828 ], [ -95.344072, 41.746931 ], [ -95.325326, 41.746746 ], [ -95.209344, 41.67416 ], [ -95.169299, 41.645214 ], [ -95.292502143793996, 41.571117548071186 ], [ -95.322362, 41.556543 ], [ -95.33502, 41.556484 ] ] ] } },
{ "type": "Feature", "properties": { "OBJECTID": 6475, "ID": "0011851566", "NAME": "MONTGOMERY COUNTY MEMORIAL HOSPITAL", "ADDRESS": "2301 EASTERN AVENUE", "CITY": "RED OAK", "STATE": "IA", "ZIP": "51566", "ZIP4": "NOT AVAILABLE", "TELEPHONE": "(712) 623-7000", "TYPE": "CRITICAL ACCESS", "STATUS": "OPEN", "POPULATION": 25, "COUNTY": "MONTGOMERY", "COUNTYFIPS": "19137", "COUNTRY": "USA", "LATITUDE": 41.014317077000001, "LONGITUDE": -95.216522459000004, "NAICS_CODE": "622110", "NAICS_DESC": "GENERAL MEDICAL AND SURGICAL HOSPITALS", "SOURCE": "https://dia-hfd.iowa.gov/DIA_HFD/CTLEntitySearch.do", "SOURCEDATE": "2018-08-09T00:00:00.000Z", "VAL_METHOD": "IMAGERY", "VAL_DATE": "2016-04-18T00:00:00.000Z", "WEBSITE": "http://www.mcmh.org", "STATE_ID": "NOT AVAILABLE", "ALT_NAME": "NOT AVAILABLE", "ST_FIPS": "19", "OWNER": "GOVERNMENT - LOCAL", "TTL_STAFF": -999, "BEDS": 25, "TRAUMA": "LEVEL IV", "HELIPAD": "N" }, "geometry": { "type": "Polygon", "coordinates": [ [ [ -95.232441, 40.915867 ], [ -95.33726, 41.000799 ], [ -95.337816, 41.001525 ], [ -95.337153, 41.030875 ], [ -95.270204, 41.087488 ], [ -95.232697, 41.116416 ], [ -95.098888, 41.03793 ], [ -95.07979, 41.0161 ], [ -95.080375, 40.98399 ], [ -95.098839, 40.973356 ], [ -95.232441, 40.915867 ] ] ] } },
{ "type": "Feature", "properties": { "OBJECTID": 6608, "ID": "0003468025", "NAME": "FREMONT AREA MEDICAL CENTER", "ADDRESS": "450 EAST 23RD ST", "CITY": "FREMONT", "STATE": "NE", "ZIP": "68025", "ZIP4": "NOT AVAILABLE", "TELEPHONE": "(402) 721-1610", "TYPE": "GENERAL ACUTE CARE", "STATUS": "OPEN", "POPULATION": 81, "COUNTY": "DODGE", "COUNTYFIPS": "31053", "COUNTRY": "USA", "LATITUDE": 41.452416478000004, "LONGITUDE": -96.491765220999994, "NAICS_CODE": "622110", "NAICS_DESC": "GENERAL MEDICAL AND SURGICAL HOSPITALS", "SOURCE": "http://dhhs.ne.gov/publichealth/Documents/Hospital%20Roster.pdf", "SOURCEDATE": "2018-08-09T00:00:00.000Z", "VAL_METHOD": "IMAGERY", "VAL_DATE": "2014-02-10T00:00:00.000Z", "WEBSITE": "http://www.famc.org", "STATE_ID": "280077", "ALT_NAME": "NOT AVAILABLE", "ST_FIPS": "31", "OWNER": "GOVERNMENT - LOCAL", "TTL_STAFF": -999, "BEDS": 81, "TRAUMA": "NOT AVAILABLE", "HELIPAD": "Y" }, "geometry": { "type": "Polygon", "coordinates": [ [ [ -96.4254574, 41.393057400000011 ], [ -96.4455714, 41.393268099999965 ], [ -96.5033393, 41.3961867 ], [ -96.655177, 41.453841 ], [ -96.6302236, 41.480805799999942 ], [ -96.5020241, 41.5860708 ], [ -96.427995, 41.540735 ], [ -96.338754, 41.458539 ], [ -96.338735700000015, 41.4512864 ], [ -96.367386, 41.422179 ], [ -96.4254574, 41.393057400000011 ] ] ] } },
{ "type": "Feature", "properties": { "OBJECTID": 6609, "ID": "0010268105", "NAME": "DOUGLAS COUNTY COMMUNITY MENTAL HEALTH CENTER", "ADDRESS": "4102 WOOLWORTH AVE", "CITY": "OMAHA", "STATE": "NE", "ZIP": "68105", "ZIP4": "NOT AVAILABLE", "TELEPHONE": "(402) 444-7608", "TYPE": "PSYCHIATRIC", "STATUS": "OPEN", "POPULATION": 18, "COUNTY": "DOUGLAS", "COUNTYFIPS": "31055", "COUNTRY": "USA", "LATITUDE": 41.246065795000099, "LONGITUDE": -95.974405163, "NAICS_CODE": "622210", "NAICS_DESC": "PSYCHIATRIC AND SUBSTANCE ABUSE HOSPITALS", "SOURCE": "http://dhhs.ne.gov/publichealth/Documents/Hospital%20Roster.pdf", "SOURCEDATE": "2018-08-09T00:00:00.000Z", "VAL_METHOD": "IMAGERY", "VAL_DATE": "2014-02-10T00:00:00.000Z", "WEBSITE": "http://www.co.douglas.ne.us", "STATE_ID": "NOT AVAILABLE", "ALT_NAME": "NOT AVAILABLE", "ST_FIPS": "31", "OWNER": "GOVERNMENT - LOCAL", "TTL_STAFF": -999, "BEDS": 18, "TRAUMA": "NOT AVAILABLE", "HELIPAD": "N" }, "geometry": { "type": "Polygon", "coordinates": [ [ [ -95.9858217, 41.141298 ], [ -96.044378, 41.168866 ], [ -96.1005849, 41.20207179999997 ], [ -96.1159069, 41.212996499999988 ], [ -96.1161155, 41.213796199999948 ], [ -96.119587800000019, 41.234027399999967 ], [ -96.1195859, 41.234146299999978 ], [ -96.0649305, 41.319186500000029 ], [ -96.057308, 41.323648 ], [ -96.033384, 41.329651 ], [ -95.9732401, 41.3437422 ], [ -95.96932, 41.343959 ], [ -95.960893, 41.3410496 ], [ -95.957874, 41.339576 ], [ -95.9135299, 41.3173176 ], [ -95.9062372, 41.308104800000017 ], [ -95.911118900000019, 41.172908 ], [ -95.9178662, 41.1634507 ], [ -95.9261138, 41.156566100000013 ], [ -95.9858217, 41.141298 ] ] ] } },
{ "type": "Feature", "properties": { "OBJECTID": 6611, "ID": "0003368788", "NAME": "ST FRANCIS MEMORIAL HOSPITAL", "ADDRESS": "430 NORTH MONITOR ST", "CITY": "WEST POINT", "STATE": "NE", "ZIP": "68788", "ZIP4": "NOT AVAILABLE", "TELEPHONE": "(402) 372-2404", "TYPE": "CRITICAL ACCESS", "STATUS": "OPEN", "POPULATION": 25, "COUNTY": "CUMING", "COUNTYFIPS": "31039", "COUNTRY": "USA", "LATITUDE": 41.843451683000097, "LONGITUDE": -96.706060038000004, "NAICS_CODE": "622110", "NAICS_DESC": "GENERAL MEDICAL AND SURGICAL HOSPITALS", "SOURCE": "http://dhhs.ne.gov/publichealth/Documents/Hospital%20Roster.pdf", "SOURCEDATE": "2018-08-09T00:00:00.000Z", "VAL_METHOD": "IMAGERY", "VAL_DATE": "2014-02-10T00:00:00.000Z", "WEBSITE": "http://www.fcswp.org", "STATE_ID": "281322", "ALT_NAME": "NOT AVAILABLE", "ST_FIPS": "31", "OWNER": "NON-PROFIT", "TTL_STAFF": -999, "BEDS": 25, "TRAUMA": "LEVEL IV", "HELIPAD": "Y" }, "geometry": { "type": "Polygon", "coordinates": [ [ [ -96.7076853, 41.7036555 ], [ -96.7132058, 41.70457540000001 ], [ -96.8665534, 41.829849200000012 ], [ -96.8146537, 41.932242899999956 ], [ -96.813105, 41.933325 ], [ -96.787226, 41.945617 ], [ -96.709755, 41.959937 ], [ -96.690335, 41.945455 ], [ -96.671003, 41.93089 ], [ -96.574613, 41.857992 ], [ -96.55525, 41.828921 ], [ -96.684427, 41.720098 ], [ -96.7076853, 41.7036555 ] ] ] } },
{ "type": "Feature", "properties": { "OBJECTID": 6612, "ID": "0004868114", "NAME": "MIDWEST SURGICAL HOSPITAL LLC", "ADDRESS": "7915 FARNAM DRIVE", "CITY": "OMAHA", "STATE": "NE", "ZIP": "68114", "ZIP4": "NOT AVAILABLE", "TELEPHONE": "(402) 399-1900", "TYPE": "GENERAL ACUTE CARE", "STATUS": "OPEN", "POPULATION": 19, "COUNTY": "DOUGLAS", "COUNTYFIPS": "31055", "COUNTRY": "USA", "LATITUDE": 41.257670003000001, "LONGITUDE": -96.037552085999906, "NAICS_CODE": "622110", "NAICS_DESC": "GENERAL MEDICAL AND SURGICAL HOSPITALS", "SOURCE": "http://dhhs.ne.gov/publichealth/Documents/Hospital%20Roster.pdf", "SOURCEDATE": "2018-08-09T00:00:00.000Z", "VAL_METHOD": "IMAGERY", "VAL_DATE": "2014-01-02T00:00:00.000Z", "WEBSITE": "http://www.mwsurgicalhospital.com", "STATE_ID": "280131", "ALT_NAME": "NOT AVAILABLE", "ST_FIPS": "31", "OWNER": "PROPRIETARY", "TTL_STAFF": -999, "BEDS": 19, "TRAUMA": "NOT AVAILABLE", "HELIPAD": "N" }, "geometry": { "type": "Polygon", "coordinates": [ [ [ -96.042944, 41.159394 ], [ -96.044255, 41.159399 ], [ -96.101684600000013, 41.1905705 ], [ -96.1294338, 41.206208899999965 ], [ -96.1881935, 41.263089299999969 ], [ -96.0892945, 41.349861100000034 ], [ -96.0890714, 41.3499145 ], [ -96.06215, 41.350159 ], [ -96.0237598, 41.3401694 ], [ -96.004681399999981, 41.333214100000021 ], [ -95.96886, 41.310348 ], [ -95.9577667, 41.2995731 ], [ -95.9370985, 41.267951299999957 ], [ -95.9241513, 41.239402900000023 ], [ -95.92423, 41.234184 ], [ -95.933344, 41.222647199999948 ], [ -95.941775, 41.212242 ], [ -95.9485563, 41.205602200000037 ], [ -95.98564, 41.186641 ], [ -96.038987, 41.160413199999972 ], [ -96.041616, 41.159397 ], [ -96.042944, 41.159394 ] ] ] } },
{ "type": "Feature", "properties": { "OBJECTID": 6613, "ID": "0010168124", "NAME": "SELECT SPECIALTY HOSPITAL - OMAHA (CENTRAL CAMPUS)", "ADDRESS": "1870 SOUTH 75TH STREET", "CITY": "OMAHA", "STATE": "NE", "ZIP": "68124", "ZIP4": "NOT AVAILABLE", "TELEPHONE": "(402) 361-5755", "TYPE": "GENERAL ACUTE CARE", "STATUS": "OPEN", "POPULATION": 52, "COUNTY": "DOUGLAS", "COUNTYFIPS": "31055", "COUNTRY": "USA", "LATITUDE": 41.240845977, "LONGITUDE": -96.030207371000003, "NAICS_CODE": "622110", "NAICS_DESC": "GENERAL MEDICAL AND SURGICAL HOSPITALS", "SOURCE": "http://dhhs.ne.gov/publichealth/Documents/Hospital%20Roster.pdf", "SOURCEDATE": "2018-08-09T00:00:00.000Z", "VAL_METHOD": "IMAGERY/OTHER", "VAL_DATE": "2014-03-12T00:00:00.000Z", "WEBSITE": "http://www.selectspecialtyhospitals.com/company/locations/omahac entral.aspx", "STATE_ID": "NOT AVAILABLE", "ALT_NAME": "NOT AVAILABLE", "ST_FIPS": "31", "OWNER": "PROPRIETARY", "TTL_STAFF": -999, "BEDS": 52, "TRAUMA": "NOT AVAILABLE", "HELIPAD": "Y" }, "geometry": { "type": "Polygon", "coordinates": [ [ [ -96.0438, 41.148323 ], [ -96.063191700000019, 41.1544487 ], [ -96.1388857, 41.198113400000032 ], [ -96.1468848, 41.2053529 ], [ -96.1667524, 41.233346799999964 ], [ -96.154362, 41.263144100000012 ], [ -96.1197386, 41.292255499999982 ], [ -96.0750105, 41.327760400000017 ], [ -96.06513, 41.329747 ], [ -96.0472257, 41.329941199999979 ], [ -96.004648, 41.324832 ], [ -95.977599, 41.306674 ], [ -95.968549, 41.299539 ], [ -95.9470159, 41.282431200000012 ], [ -95.9331367, 41.268993600000016 ], [ -95.9266923, 41.260155499999946 ], [ -95.9221944, 41.25217929999998 ], [ -95.9180906, 41.243147499999985 ], [ -95.917172, 41.2297084 ], [ -95.917183, 41.228839 ], [ -95.933611, 41.197533 ], [ -95.939648, 41.193745 ], [ -95.97206, 41.176328099999949 ], [ -95.983296, 41.171634 ], [ -96.0218377, 41.15641630000006 ], [ -96.042942, 41.148564 ], [ -96.0438, 41.148323 ] ] ] } },
{ "type": "Feature", "properties": { "OBJECTID": 6618, "ID": "0003568601", "NAME": "COLUMBUS COMMUNITY HOSPITAL", "ADDRESS": "4600 38TH ST", "CITY": "COLUMBUS", "STATE": "NE", "ZIP": "68601", "ZIP4": "NOT AVAILABLE", "TELEPHONE": "(402) 564-7118", "TYPE": "GENERAL ACUTE CARE", "STATUS": "OPEN", "POPULATION": 51, "COUNTY": "PLATTE", "COUNTYFIPS": "31141", "COUNTRY": "USA", "LATITUDE": 41.4551780480001, "LONGITUDE": -97.384901080999995, "NAICS_CODE": "622110", "NAICS_DESC": "GENERAL MEDICAL AND SURGICAL HOSPITALS", "SOURCE": "http://dhhs.ne.gov/publichealth/Documents/Hospital%20Roster.pdf", "SOURCEDATE": "2018-08-09T00:00:00.000Z", "VAL_METHOD": "IMAGERY", "VAL_DATE": "2014-02-10T00:00:00.000Z", "WEBSITE": "http://www.columbushosp.org", "STATE_ID": "280111", "ALT_NAME": "NOT AVAILABLE", "ST_FIPS": "31", "OWNER": "NON-PROFIT", "TTL_STAFF": -999, "BEDS": 51, "TRAUMA": "LEVEL III", "HELIPAD": "Y" }, "geometry": { "type": "Polygon", "coordinates": [ [ [ -97.4834568, 41.3925276 ], [ -97.56115, 41.473119 ], [ -97.561165, 41.474988 ], [ -97.465541, 41.569593 ], [ -97.465322, 41.569593 ], [ -97.387612, 41.56936 ], [ -97.310777, 41.529955 ], [ -97.271922, 41.496659 ], [ -97.252512, 41.467601 ], [ -97.2333302, 41.438631099999981 ], [ -97.233337, 41.438441 ], [ -97.252519, 41.423985 ], [ -97.2816185, 41.402999900000012 ], [ -97.348824, 41.398961 ], [ -97.4834568, 41.3925276 ] ] ] } },
{ "type": "Feature", "properties": { "OBJECTID": 6628, "ID": "0002968632", "NAME": "BUTLER COUNTY HEALTH CARE CENTER", "ADDRESS": "372 SOUTH 9TH ST", "CITY": "DAVID CITY", "STATE": "NE", "ZIP": "68632", "ZIP4": "NOT AVAILABLE", "TELEPHONE": "(402) 367-1200", "TYPE": "CRITICAL ACCESS", "STATUS": "OPEN", "POPULATION": 20, "COUNTY": "BUTLER", "COUNTYFIPS": "31023", "COUNTRY": "USA", "LATITUDE": 41.246694513000101, "LONGITUDE": -97.122530307000005, "NAICS_CODE": "622110", "NAICS_DESC": "GENERAL MEDICAL AND SURGICAL HOSPITALS", "SOURCE": "http://dhhs.ne.gov/publichealth/Documents/Hospital%20Roster.pdf", "SOURCEDATE": "2018-08-09T00:00:00.000Z", "VAL_METHOD": "IMAGERY", "VAL_DATE": "2014-02-10T00:00:00.000Z", "WEBSITE": "http://www.bchccnet.org", "STATE_ID": "281332", "ALT_NAME": "NOT AVAILABLE", "ST_FIPS": "31", "OWNER": "GOVERNMENT - LOCAL", "TTL_STAFF": -999, "BEDS": 20, "TRAUMA": "NOT AVAILABLE", "HELIPAD": "Y" }, "geometry": { "type": "Polygon", "coordinates": [ [ [ -97.100537, 41.133499 ], [ -97.157908, 41.148201 ], [ -97.195902, 41.162936 ], [ -97.233925, 41.192257 ], [ -97.271995, 41.250522 ], [ -97.176642, 41.337478 ], [ -97.137931, 41.351227 ], [ -97.119625, 41.350948 ], [ -97.100397, 41.350546 ], [ -96.986507, 41.278464 ], [ -96.985371, 41.234686 ], [ -97.0044234, 41.206155100000018 ], [ -97.023252, 41.1911 ], [ -97.100537, 41.133499 ] ] ] } },
{ "type": "Feature", "properties": { "OBJECTID": 6629, "ID": "0003868045", "NAME": "OAKLAND MERCY HOSPITAL", "ADDRESS": "601 EAST SECOND ST", "CITY": "OAKLAND", "STATE": "NE", "ZIP": "68045", "ZIP4": "NOT AVAILABLE", "TELEPHONE": "(402) 685-5601", "TYPE": "CRITICAL ACCESS", "STATUS": "OPEN", "POPULATION": 18, "COUNTY": "BURT", "COUNTYFIPS": "31021", "COUNTRY": "USA", "LATITUDE": 41.834853545000001, "LONGITUDE": -96.459183713999906, "NAICS_CODE": "622110", "NAICS_DESC": "GENERAL MEDICAL AND SURGICAL HOSPITALS", "SOURCE": "http://dhhs.ne.gov/publichealth/Documents/Hospital%20Roster.pdf", "SOURCEDATE": "2018-08-09T00:00:00.000Z", "VAL_METHOD": "IMAGERY", "VAL_DATE": "2014-02-10T00:00:00.000Z", "WEBSITE": "http://www.oaklandhospital.org", "STATE_ID": "281321", "ALT_NAME": "NOT AVAILABLE", "ST_FIPS": "31", "OWNER": "NON-PROFIT", "TTL_STAFF": -999, "BEDS": 18, "TRAUMA": "LEVEL IV", "HELIPAD": "N" }, "geometry": { "type": "Polygon", "coordinates": [ [ [ -96.5022999, 41.712714 ], [ -96.540917, 41.741977 ], [ -96.613383, 41.829126 ], [ -96.576093, 41.867046 ], [ -96.473135, 41.951979 ], [ -96.463277, 41.952069 ], [ -96.424899, 41.937671 ], [ -96.328222, 41.857869099999974 ], [ -96.328199, 41.850571 ], [ -96.328167, 41.828846 ], [ -96.328184, 41.821691 ], [ -96.359319, 41.785341499999987 ], [ -96.362731, 41.781485299999986 ], [ -96.364135, 41.780514 ], [ -96.405567, 41.756349 ], [ -96.444297, 41.734755 ], [ -96.463447, 41.727251 ], [ -96.5022999, 41.712714 ] ] ] } },
{ "type": "Feature", "properties": { "OBJECTID": 6646, "ID": "0006968756", "NAME": "ANTELOPE MEMORIAL HOSPITAL", "ADDRESS": "102 WEST 9TH ST", "CITY": "NELIGH", "STATE": "NE", "ZIP": "68756", "ZIP4": "NOT AVAILABLE", "TELEPHONE": "(402) 887-4151", "TYPE": "CRITICAL ACCESS", "STATUS": "OPEN", "POPULATION": 25, "COUNTY": "ANTELOPE", "COUNTYFIPS": "31003", "COUNTRY": "USA", "LATITUDE": 42.134745962000103, "LONGITUDE": -98.030643964999996, "NAICS_CODE": "622110", "NAICS_DESC": "GENERAL MEDICAL AND SURGICAL HOSPITALS", "SOURCE": "http://dhhs.ne.gov/publichealth/Documents/Hospital%20Roster.pdf", "SOURCEDATE": "2018-08-09T00:00:00.000Z", "VAL_METHOD": "IMAGERY", "VAL_DATE": "2014-02-10T00:00:00.000Z", "WEBSITE": "http://www.amhne.org/", "STATE_ID": "281326", "ALT_NAME": "NOT AVAILABLE", "ST_FIPS": "31", "OWNER": "NON-PROFIT", "TTL_STAFF": -999, "BEDS": 25, "TRAUMA": "NOT AVAILABLE", "HELIPAD": "Y" }, "geometry": { "type": "Polygon", "coordinates": [ [ [ -98.046742, 42.010222 ], [ -98.084857, 42.016453 ], [ -98.184273, 42.118139 ], [ -98.194202, 42.167028 ], [ -98.192689, 42.174825 ], [ -98.191165, 42.175944 ], [ -98.125772, 42.219275 ], [ -98.029094, 42.277417 ], [ -97.951109, 42.205323 ], [ -97.89278, 42.133212 ], [ -97.927082, 42.060859 ], [ -98.046742, 42.010222 ] ] ] } },
{ "type": "Feature", "properties": { "OBJECTID": 6652, "ID": "0004968008", "NAME": "MEMORIAL COMMUNITY HOSPITAL", "ADDRESS": "810 NORTH 22ND ST", "CITY": "BLAIR", "STATE": "NE", "ZIP": "68008", "ZIP4": "NOT AVAILABLE", "TELEPHONE": "(402) 426-2182", "TYPE": "CRITICAL ACCESS", "STATUS": "OPEN", "POPULATION": 25, "COUNTY": "WASHINGTON", "COUNTYFIPS": "31177", "COUNTRY": "USA", "LATITUDE": 41.550586008000003, "LONGITUDE": -96.146344022999997, "NAICS_CODE": "622110", "NAICS_DESC": "GENERAL MEDICAL AND SURGICAL HOSPITALS", "SOURCE": "http://dhhs.ne.gov/publichealth/Documents/Hospital%20Roster.pdf", "SOURCEDATE": "2018-08-09T00:00:00.000Z", "VAL_METHOD": "IMAGERY", "VAL_DATE": "2014-02-10T00:00:00.000Z", "WEBSITE": "http://www.mchhs.org", "STATE_ID": "281359", "ALT_NAME": "NOT AVAILABLE", "ST_FIPS": "31", "OWNER": "NON-PROFIT", "TTL_STAFF": -999, "BEDS": 25, "TRAUMA": "LEVEL IV", "HELIPAD": "Y" }, "geometry": { "type": "Polygon", "coordinates": [ [ [ -96.1135159, 41.421477399999972 ], [ -96.13673, 41.422206 ], [ -96.2280012, 41.449977300000029 ], [ -96.309628, 41.538235 ], [ -96.22095, 41.675895 ], [ -96.212295, 41.675946 ], [ -96.144881, 41.65362 ], [ -96.085199, 41.583212 ], [ -96.031905, 41.507378 ], [ -96.0250043, 41.464500400000013 ], [ -96.0250057, 41.4626812 ], [ -96.026346, 41.460798 ], [ -96.1135159, 41.421477399999972 ] ] ] } },
{ "type": "Feature", "properties": { "OBJECTID": 6654, "ID": "0007968765", "NAME": "OSMOND GENERAL HOSPITAL", "ADDRESS": "402 NORTH MAPLE ST", "CITY": "OSMOND", "STATE": "NE", "ZIP": "68765", "ZIP4": "NOT AVAILABLE", "TELEPHONE": "(402) 748-3393", "TYPE": "CRITICAL ACCESS", "STATUS": "OPEN", "POPULATION": 25, "COUNTY": "PIERCE", "COUNTYFIPS": "31139", "COUNTRY": "USA", "LATITUDE": 42.360302747, "LONGITUDE": -97.59582364000001, "NAICS_CODE": "622110", "NAICS_DESC": "GENERAL MEDICAL AND SURGICAL HOSPITALS", "SOURCE": "http://dhhs.ne.gov/publichealth/Documents/Hospital%20Roster.pdf", "SOURCEDATE": "2018-08-09T00:00:00.000Z", "VAL_METHOD": "IMAGERY/OTHER", "VAL_DATE": "2014-02-10T00:00:00.000Z", "WEBSITE": "http://www.osmondhospital.com", "STATE_ID": "281347", "ALT_NAME": "NOT AVAILABLE", "ST_FIPS": "31", "OWNER": "NON-PROFIT", "TTL_STAFF": -999, "BEDS": 25, "TRAUMA": "NOT AVAILABLE", "HELIPAD": "N" }, "geometry": { "type": "Polygon", "coordinates": [ [ [ -97.601145, 42.235997 ], [ -97.6021046, 42.236551700000035 ], [ -97.790722200000019, 42.350811099999987 ], [ -97.71784, 42.394655 ], [ -97.659782, 42.423532 ], [ -97.627855, 42.438183 ], [ -97.5448644, 42.4674819 ], [ -97.543983, 42.467513300000014 ], [ -97.5438527, 42.4674807 ], [ -97.426117, 42.380545 ], [ -97.40667, 42.366111199999978 ], [ -97.44578, 42.336874 ], [ -97.601145, 42.235997 ] ] ] } },
{ "type": "Feature", "properties": { "OBJECTID": 6661, "ID": "0001768066", "NAME": "SAUNDERS MEDICAL CENTER", "ADDRESS": "1760 COUNTY RD J", "CITY": "WAHOO", "STATE": "NE", "ZIP": "68066", "ZIP4": "NOT AVAILABLE", "TELEPHONE": "(402) 443-4191", "TYPE": "CRITICAL ACCESS", "STATUS": "OPEN", "POPULATION": 16, "COUNTY": "SAUNDERS", "COUNTYFIPS": "31155", "COUNTRY": "USA", "LATITUDE": 41.193275781000096, "LONGITUDE": -96.635583267999905, "NAICS_CODE": "622110", "NAICS_DESC": "GENERAL MEDICAL AND SURGICAL HOSPITALS", "SOURCE": "http://dhhs.ne.gov/publichealth/Documents/Hospital%20Roster.pdf", "SOURCEDATE": "2018-08-09T00:00:00.000Z", "VAL_METHOD": "IMAGERY", "VAL_DATE": "2014-02-10T00:00:00.000Z", "WEBSITE": "http://www.saundersmedicalcenter.com", "STATE_ID": "281307", "ALT_NAME": "NOT AVAILABLE", "ST_FIPS": "31", "OWNER": "GOVERNMENT - LOCAL", "TTL_STAFF": -999, "BEDS": 16, "TRAUMA": "LEVEL IV", "HELIPAD": "Y" }, "geometry": { "type": "Polygon", "coordinates": [ [ [ -96.6401671, 41.0305076 ], [ -96.6404038, 41.030510099999987 ], [ -96.655366200000017, 41.045601099999942 ], [ -96.8130876, 41.206036400000016 ], [ -96.8130771, 41.206720599999983 ], [ -96.723617, 41.268775 ], [ -96.6408822, 41.3074005 ], [ -96.621483, 41.312964 ], [ -96.602382, 41.307265 ], [ -96.5029347, 41.236686499999983 ], [ -96.500713, 41.234159 ], [ -96.483597, 41.190795 ], [ -96.482654, 41.146966 ], [ -96.6401671, 41.0305076 ] ] ] } },
{ "type": "Feature", "properties": { "OBJECTID": 6768, "ID": "0005857078", "NAME": "AVERA SACRED HEART HOSPITAL", "ADDRESS": "501 SUMMIT STREET", "CITY": "YANKTON", "STATE": "SD", "ZIP": "57078", "ZIP4": "NOT AVAILABLE", "TELEPHONE": "(605) 668-8000", "TYPE": "GENERAL ACUTE CARE", "STATUS": "OPEN", "POPULATION": 99, "COUNTY": "YANKTON", "COUNTYFIPS": "46135", "COUNTRY": "USA", "LATITUDE": 42.873254545000101, "LONGITUDE": -97.408191019999904, "NAICS_CODE": "622110", "NAICS_DESC": "GENERAL MEDICAL AND SURGICAL HOSPITALS", "SOURCE": "https://apps.sd.gov/ph04lassnet/rptPH04LicenseList.Aspx", "SOURCEDATE": "2018-08-10T00:00:00.000Z", "VAL_METHOD": "IMAGERY", "VAL_DATE": "2014-02-10T00:00:00.000Z", "WEBSITE": "http://www.averasacredheart.com", "STATE_ID": "NOT AVAILABLE", "ALT_NAME": "NOT AVAILABLE", "ST_FIPS": "46", "OWNER": "NON-PROFIT", "TTL_STAFF": -999, "BEDS": 99, "TRAUMA": "ATH", "HELIPAD": "Y" }, "geometry": { "type": "Polygon", "coordinates": [ [ [ -97.444605, 42.847987 ], [ -97.445103, 42.848003 ], [ -97.4821695, 42.8497895 ], [ -97.5466461, 42.8599941 ], [ -97.53620930000001, 42.90879010000004 ], [ -97.5166008, 42.922350499999979 ], [ -97.417433, 42.981209 ], [ -97.397481, 42.981171 ], [ -97.2004707, 42.8814889 ], [ -97.200457, 42.881228499999963 ], [ -97.257174, 42.865278 ], [ -97.444605, 42.847987 ] ] ] } },
{ "type": "Feature", "properties": { "OBJECTID": 6781, "ID": "0007857078", "NAME": "SD HUMAN SERVICES CENTER", "ADDRESS": "3515 BROADWAY AVE", "CITY": "YANKTON", "STATE": "SD", "ZIP": "57078", "ZIP4": "7600", "TELEPHONE": "(605) 668-3100", "TYPE": "PSYCHIATRIC", "STATUS": "OPEN", "POPULATION": 133, "COUNTY": "YANKTON", "COUNTYFIPS": "46135", "COUNTRY": "USA", "LATITUDE": 42.914772966999998, "LONGITUDE": -97.401259174000003, "NAICS_CODE": "622210", "NAICS_DESC": "PSYCHIATRIC AND SUBSTANCE ABUSE HOSPITALS", "SOURCE": "https://apps.sd.gov/ph04lassnet/rptPH04LicenseList.Aspx", "SOURCEDATE": "2018-08-10T00:00:00.000Z", "VAL_METHOD": "IMAGERY", "VAL_DATE": "2016-11-11T00:00:00.000Z", "WEBSITE": "https://dss.sd.gov/behavioralhealth/hsc/services.aspx", "STATE_ID": "NOT AVAILABLE", "ALT_NAME": "NOT AVAILABLE", "ST_FIPS": "46", "OWNER": "GOVERNMENT - STATE", "TTL_STAFF": -999, "BEDS": 133, "TRAUMA": "NOT AVAILABLE", "HELIPAD": "N" }, "geometry": { "type": "Polygon", "coordinates": [ [ [ -97.4564365, 42.852156799999975 ], [ -97.4847283, 42.862940500000015 ], [ -97.5072235, 42.8730799 ], [ -97.55594840000002, 42.908674199999972 ], [ -97.45741, 42.981291 ], [ -97.456838, 42.981664 ], [ -97.398663762450084, 43.012865070082974 ], [ -97.367139, 42.981223 ], [ -97.2987075, 42.909759 ], [ -97.274676, 42.879932 ], [ -97.298029, 42.871519 ], [ -97.337675, 42.862768 ], [ -97.4564365, 42.852156799999975 ] ] ] } },
{ "type": "Feature", "properties": { "OBJECTID": 4193, "ID": "0001568506", "NAME": "LINCOLN SURGICAL HOSPITAL", "ADDRESS": "1710 SOUTH 70TH ST, SUITE 200", "CITY": "LINCOLN", "STATE": "NE", "ZIP": "68506", "ZIP4": "NOT AVAILABLE", "TELEPHONE": "(402) 484-9090", "TYPE": "GENERAL ACUTE CARE", "STATUS": "OPEN", "POPULATION": 21, "COUNTY": "LANCASTER", "COUNTYFIPS": "31109", "COUNTRY": "USA", "LATITUDE": 40.794733014000002, "LONGITUDE": -96.623505006999906, "NAICS_CODE": "622110", "NAICS_DESC": "GENERAL MEDICAL AND SURGICAL HOSPITALS", "SOURCE": "http://dhhs.ne.gov/publichealth/Documents/Hospital%20Roster.pdf", "SOURCEDATE": "2018-08-09T00:00:00.000Z", "VAL_METHOD": "IMAGERY", "VAL_DATE": "2014-01-02T00:00:00.000Z", "WEBSITE": "http://www.lincolnsurgery.com", "STATE_ID": "280127", "ALT_NAME": "NOT AVAILABLE", "ST_FIPS": "31", "OWNER": "PROPRIETARY", "TTL_STAFF": -999, "BEDS": 21, "TRAUMA": "NOT AVAILABLE", "HELIPAD": "N" }, "geometry": { "type": "Polygon", "coordinates": [ [ [ -96.6291659, 40.691058900000016 ], [ -96.7106225, 40.752306700000055 ], [ -96.7273342, 40.7702489 ], [ -96.7497703, 40.799130800000071 ], [ -96.7562864, 40.813723400000072 ], [ -96.756289, 40.813837099999944 ], [ -96.7120965, 40.8514763 ], [ -96.6458462, 40.88718940000004 ], [ -96.6244577, 40.8929999 ], [ -96.5864077, 40.885905 ], [ -96.4827181, 40.821619899999988 ], [ -96.4826593, 40.8129584 ], [ -96.482721, 40.79847 ], [ -96.521014600000015, 40.7551453 ], [ -96.5619887, 40.7122463 ], [ -96.6062907, 40.697269700000035 ], [ -96.6291659, 40.691058900000016 ] ] ] } },
{ "type": "Feature", "properties": { "OBJECTID": 4194, "ID": "0106868502", "NAME": "SELECT SPECIALITY HOSPITAL - LINCOLN", "ADDRESS": "2300 SOUTH 16TH STREET, 7TH FLOOR", "CITY": "LINCOLN", "STATE": "NE", "ZIP": "68502", "ZIP4": "NOT AVAILABLE", "TELEPHONE": "(402) 361-5755", "TYPE": "LONG TERM CARE", "STATUS": "OPEN", "POPULATION": 24, "COUNTY": "LANCASTER", "COUNTYFIPS": "31109", "COUNTRY": "USA", "LATITUDE": 40.789614423000003, "LONGITUDE": -96.699156626999994, "NAICS_CODE": "622310", "NAICS_DESC": "SPECIALTY (EXCEPT PSYCHIATRIC AND SUBSTANCE ABUSE) HOSPITALS", "SOURCE": "http://dhhs.ne.gov/publichealth/Documents/Hospital%20Roster.pdf", "SOURCEDATE": "2018-08-09T00:00:00.000Z", "VAL_METHOD": "IMAGERY/OTHER", "VAL_DATE": "2015-02-18T00:00:00.000Z", "WEBSITE": "http://www.selectspecialtyhospitals.com/", "STATE_ID": "NOT AVAILABLE", "ALT_NAME": "NOT AVAILABLE", "ST_FIPS": "31", "OWNER": "PROPRIETARY", "TTL_STAFF": -999, "BEDS": 24, "TRAUMA": "NOT AVAILABLE", "HELIPAD": "Y" }, "geometry": { "type": "Polygon", "coordinates": [ [ [ -96.7037914, 40.690094699999968 ], [ -96.7265278, 40.693868 ], [ -96.7409695, 40.697497100000021 ], [ -96.8016356, 40.739035700000038 ], [ -96.8416537, 40.7847881 ], [ -96.8349073, 40.813891200000036 ], [ -96.7583223, 40.886278600000011 ], [ -96.719893, 40.900716 ], [ -96.6812721, 40.8932935 ], [ -96.6436302, 40.871353 ], [ -96.5766916, 40.814131799999984 ], [ -96.5766591, 40.813181200000017 ], [ -96.577235, 40.798585 ], [ -96.587024700000015, 40.761336500000041 ], [ -96.5957914, 40.7301841 ], [ -96.5977071, 40.7287527 ], [ -96.680972, 40.697376 ], [ -96.7037914, 40.690094699999968 ] ] ] } },
{ "type": "Feature", "properties": { "OBJECTID": 4234, "ID": "0004368122", "NAME": "NEBRASKA SPINE HOSPITAL, LLC", "ADDRESS": "6901 NORTH 72ND STREET, SUITE 20300", "CITY": "OMAHA", "STATE": "NE", "ZIP": "68122", "ZIP4": "NOT AVAILABLE", "TELEPHONE": "(402) 572-3000", "TYPE": "SPECIAL", "STATUS": "OPEN", "POPULATION": 34, "COUNTY": "DOUGLAS", "COUNTYFIPS": "31055", "COUNTRY": "USA", "LATITUDE": 41.322054335000097, "LONGITUDE": -96.020356324000005, "NAICS_CODE": "622310", "NAICS_DESC": "SPECIALTY (EXCEPT PSYCHIATRIC AND SUBSTANCE ABUSE) HOSPITALS", "SOURCE": "http://dhhs.ne.gov/publichealth/Documents/Hospital%20Roster.pdf", "SOURCEDATE": "2018-08-09T00:00:00.000Z", "VAL_METHOD": "IMAGERY", "VAL_DATE": "2014-03-12T00:00:00.000Z", "WEBSITE": "http://www.nebraskaspinehospital.com", "STATE_ID": "280133", "ALT_NAME": "NOT AVAILABLE", "ST_FIPS": "31", "OWNER": "PROPRIETARY", "TTL_STAFF": -999, "BEDS": 34, "TRAUMA": "NOT AVAILABLE", "HELIPAD": "Y" }, "geometry": { "type": "Polygon", "coordinates": [ [ [ -96.0526706, 41.234164 ], [ -96.0863843, 41.238051400000025 ], [ -96.0960179, 41.248668500000022 ], [ -96.1442924, 41.306588099999971 ], [ -96.1510454, 41.32109509999993 ], [ -96.1509109, 41.321764800000025 ], [ -96.129555, 41.379135 ], [ -96.0984723, 41.4040594 ], [ -96.0382106, 41.4222424 ], [ -96.021093, 41.42212 ], [ -95.983264, 41.415188 ], [ -95.947401, 41.386292 ], [ -95.9024617, 41.301198900000017 ], [ -95.9318248, 41.260634399999979 ], [ -95.954429600000012, 41.239506799999958 ], [ -96.0497587, 41.2341968 ], [ -96.0526706, 41.234164 ] ] ] } },
{ "type": "Feature", "properties": { "OBJECTID": 4284, "ID": "0106568123", "NAME": "MADONNA REHABILITATION SPECIALTY HOSPITAL", "ADDRESS": "2500 BELLEVUE MEDICAL CENTER DRIVE, 4TH FLOOR", "CITY": "BELLEVUE", "STATE": "NE", "ZIP": "68123", "ZIP4": "NOT AVAILABLE", "TELEPHONE": "(402) 884-0006", "TYPE": "LONG TERM CARE", "STATUS": "CLOSED", "POPULATION": 32, "COUNTY": "SARPY", "COUNTYFIPS": "31153", "COUNTRY": "USA", "LATITUDE": 41.137410798000097, "LONGITUDE": -95.947890838999996, "NAICS_CODE": "622310", "NAICS_DESC": "HOSPITALS, SPECIALTY (EXCEPT PSYCHIATRIC, SUBSTANCE ABUSE)", "SOURCE": "http://dhhs.ne.gov/publichealth/Documents/Hospital%20Roster.pdf", "SOURCEDATE": "2016-08-16T00:00:00.000Z", "VAL_METHOD": "IMAGERY/OTHER", "VAL_DATE": "2015-02-18T00:00:00.000Z", "WEBSITE": "www.madonna.org", "STATE_ID": "NOT AVAILABLE", "ALT_NAME": "NOT AVAILABLE", "ST_FIPS": "31", "OWNER": "PROPRIETARY", "TTL_STAFF": -999, "BEDS": 32, "TRAUMA": "NOT AVAILABLE", "HELIPAD": "Y" }, "geometry": { "type": "Polygon", "coordinates": [ [ [ -95.94076, 41.059902 ], [ -95.942817, 41.059939 ], [ -96.009169, 41.067236 ], [ -96.0477684, 41.088939199999984 ], [ -96.081118, 41.118034100000031 ], [ -96.1041208, 41.138365600000029 ], [ -96.1098951, 41.1451981 ], [ -96.1101329, 41.150063 ], [ -96.110008, 41.152169400000012 ], [ -96.0173486, 41.223885299999985 ], [ -95.9567018, 41.266894600000015 ], [ -95.9523058, 41.2698577 ], [ -95.9494155, 41.267950399999975 ], [ -95.9253548, 41.2490984 ], [ -95.9240447, 41.248035600000023 ], [ -95.825373, 41.149285 ], [ -95.880193, 41.069907 ], [ -95.94076, 41.059902 ] ] ] } },
{ "type": "Feature", "properties": { "OBJECTID": 4430, "ID": "0105068661", "NAME": "CHI HEALTH SCHUYLER", "ADDRESS": "104 WEST 17TH ST", "CITY": "SCHUYLER", "STATE": "NE", "ZIP": "68661", "ZIP4": "NOT AVAILABLE", "TELEPHONE": "(402) 352-2441", "TYPE": "CRITICAL ACCESS", "STATUS": "OPEN", "POPULATION": 25, "COUNTY": "COLFAX", "COUNTYFIPS": "31037", "COUNTRY": "USA", "LATITUDE": 41.455769144999998, "LONGITUDE": -97.060697000999895, "NAICS_CODE": "622110", "NAICS_DESC": "GENERAL MEDICAL AND SURGICAL HOSPITALS", "SOURCE": "http://dhhs.ne.gov/publichealth/Documents/Hospital%20Roster.pdf", "SOURCEDATE": "2018-08-09T00:00:00.000Z", "VAL_METHOD": "IMAGERY/OTHER", "VAL_DATE": "2015-02-18T00:00:00.000Z", "WEBSITE": "http://www.chihealth.com/chi-health-schuyler", "STATE_ID": "NOT AVAILABLE", "ALT_NAME": "NOT AVAILABLE", "ST_FIPS": "31", "OWNER": "NON-PROFIT", "TTL_STAFF": -999, "BEDS": 25, "TRAUMA": "NOT AVAILABLE", "HELIPAD": "Y" }, "geometry": { "type": "Polygon", "coordinates": [ [ [ -97.1368859, 41.393441699999954 ], [ -97.2411606, 41.438652799999971 ], [ -97.23342, 41.453006 ], [ -97.078718, 41.583162 ], [ -97.059246, 41.597691 ], [ -97.039904, 41.590473 ], [ -96.886758, 41.481154 ], [ -96.867153, 41.466849100000012 ], [ -96.86703, 41.460776 ], [ -97.098399, 41.400759 ], [ -97.1368859, 41.393441699999954 ] ] ] } },
{ "type": "Feature", "properties": { "OBJECTID": 4432, "ID": "0107568769", "NAME": "CHI HEALTH PLAINVIEW", "ADDRESS": "704 NORTH THIRD ST, PO BOX 489", "CITY": "PLAINVIEW", "STATE": "NE", "ZIP": "68769", "ZIP4": "NOT AVAILABLE", "TELEPHONE": "(402) 582-4245", "TYPE": "CRITICAL ACCESS", "STATUS": "OPEN", "POPULATION": 15, "COUNTY": "PIERCE", "COUNTYFIPS": "31139", "COUNTRY": "USA", "LATITUDE": 42.358832981, "LONGITUDE": -97.785780745999901, "NAICS_CODE": "622110", "NAICS_DESC": "GENERAL MEDICAL AND SURGICAL HOSPITALS", "SOURCE": "http://dhhs.ne.gov/publichealth/Documents/Hospital%20Roster.pdf", "SOURCEDATE": "2018-08-09T00:00:00.000Z", "VAL_METHOD": "IMAGERY/OTHER", "VAL_DATE": "2015-02-18T00:00:00.000Z", "WEBSITE": "http://www.chihealth.com/chi-health-plainview", "STATE_ID": "NOT AVAILABLE", "ALT_NAME": "NOT AVAILABLE", "ST_FIPS": "31", "OWNER": "NON-PROFIT", "TTL_STAFF": -999, "BEDS": 15, "TRAUMA": "NOT AVAILABLE", "HELIPAD": "N" }, "geometry": { "type": "Polygon", "coordinates": [ [ [ -97.795925, 42.249378 ], [ -97.8931014, 42.306846199999967 ], [ -97.932104, 42.3356 ], [ -97.951136, 42.349862 ], [ -97.91261, 42.379014 ], [ -97.893138, 42.39363 ], [ -97.798433, 42.452273 ], [ -97.778834, 42.452348 ], [ -97.759353, 42.45239 ], [ -97.6040439, 42.354045599999935 ], [ -97.60424860000002, 42.353328399999981 ], [ -97.659771, 42.268924 ], [ -97.795925, 42.249378 ] ] ] } },
{ "type": "Feature", "properties": { "OBJECTID": 4462, "ID": "0009668701", "NAME": "FAITH REGIONAL HEALTH SERVICES EAST CAMPUS", "ADDRESS": "1500 KOENIGSTEIN AVE", "CITY": "NORFOLK", "STATE": "NE", "ZIP": "68701", "ZIP4": "NOT AVAILABLE", "TELEPHONE": "(402) 371-4880", "TYPE": "GENERAL ACUTE CARE", "STATUS": "OPEN", "POPULATION": 20, "COUNTY": "MADISON", "COUNTYFIPS": "31119", "COUNTRY": "USA", "LATITUDE": 42.034352341999998, "LONGITUDE": -97.431032672000001, "NAICS_CODE": "622110", "NAICS_DESC": "GENERAL MEDICAL AND SURGICAL HOSPITALS", "SOURCE": "http://dhhs.ne.gov/publichealth/Documents/Hospital%20Roster.pdf", "SOURCEDATE": "2018-08-09T00:00:00.000Z", "VAL_METHOD": "IMAGERY/OTHER", "VAL_DATE": "2014-02-10T00:00:00.000Z", "WEBSITE": "http://www.frhs.org", "STATE_ID": "NOT AVAILABLE", "ALT_NAME": "NOT AVAILABLE", "ST_FIPS": "31", "OWNER": "NON-PROFIT", "TTL_STAFF": -999, "BEDS": 20, "TRAUMA": "NOT AVAILABLE", "HELIPAD": "N" }, "geometry": { "type": "Polygon", "coordinates": [ [ [ -97.426378, 41.887971 ], [ -97.426616, 41.887971 ], [ -97.445714, 41.902454 ], [ -97.6075384, 42.025348800000032 ], [ -97.601293, 42.041428 ], [ -97.485207, 42.15274 ], [ -97.426506, 42.177776 ], [ -97.310287, 42.104957 ], [ -97.2522394, 42.01851020000003 ], [ -97.252256, 42.015851 ], [ -97.310255, 41.968958 ], [ -97.426378, 41.887971 ] ] ] } },
{ "type": "Feature", "properties": { "OBJECTID": 263, "ID": "0005768198", "NAME": "THE NEBRASKA MEDICAL CENTER", "ADDRESS": "987400 NEBRASKA MEDICAL CENTER", "CITY": "OMAHA", "STATE": "NE", "ZIP": "68198", "ZIP4": "NOT AVAILABLE", "TELEPHONE": "(402) 552-2040", "TYPE": "GENERAL ACUTE CARE", "STATUS": "OPEN", "POPULATION": 738, "COUNTY": "DOUGLAS", "COUNTYFIPS": "31055", "COUNTRY": "USA", "LATITUDE": 41.255229000999996, "LONGITUDE": -95.978634982999907, "NAICS_CODE": "622110", "NAICS_DESC": "GENERAL MEDICAL AND SURGICAL HOSPITALS", "SOURCE": "http://dhhs.ne.gov/publichealth/Documents/Hospital%20Roster.pdf", "SOURCEDATE": "2018-08-09T00:00:00.000Z", "VAL_METHOD": "IMAGERY/OTHER", "VAL_DATE": "2014-03-12T00:00:00.000Z", "WEBSITE": "http://www.nebraskamed.com", "STATE_ID": "280013", "ALT_NAME": "NOT AVAILABLE", "ST_FIPS": "31", "OWNER": "NON-PROFIT", "TTL_STAFF": -999, "BEDS": 738, "TRAUMA": "LEVEL I", "HELIPAD": "Y" }, "geometry": { "type": "Polygon", "coordinates": [ [ [ -95.9666949, 41.1582623 ], [ -95.99602, 41.159940899999931 ], [ -96.043127, 41.179777 ], [ -96.0937652, 41.207996 ], [ -96.1008972, 41.212253500000024 ], [ -96.102629099999987, 41.213395100000021 ], [ -96.1052013, 41.215541 ], [ -96.1074868, 41.233982500000025 ], [ -96.1074862, 41.234095600000074 ], [ -96.104652300000012, 41.248065799999985 ], [ -96.104437, 41.249113 ], [ -96.077288, 41.314471 ], [ -96.072099, 41.32482060000001 ], [ -96.071931, 41.324947600000037 ], [ -96.065825, 41.32912 ], [ -96.004737, 41.350192 ], [ -95.966497, 41.34697 ], [ -95.959099, 41.345013 ], [ -95.9135299, 41.3173176 ], [ -95.9062372, 41.308104800000017 ], [ -95.905356, 41.305205 ], [ -95.9191155, 41.176440400000011 ], [ -95.9250965, 41.170711800000014 ], [ -95.9666949, 41.1582623 ] ] ] } },
{ "type": "Feature", "properties": { "OBJECTID": 785, "ID": "0106168123", "NAME": "BELLEVUE MEDICAL CENTER DBA NEBRASKA MEDICINE - B", "ADDRESS": "2500 BELLEVUE MEDICAL CENTER DR", "CITY": "BELLEVUE", "STATE": "NE", "ZIP": "68123", "ZIP4": "NOT AVAILABLE", "TELEPHONE": "(402) 763-3600", "TYPE": "GENERAL ACUTE CARE", "STATUS": "OPEN", "POPULATION": 55, "COUNTY": "SARPY", "COUNTYFIPS": "31153", "COUNTRY": "USA", "LATITUDE": 41.137044500999998, "LONGITUDE": -95.948529139000001, "NAICS_CODE": "622110", "NAICS_DESC": "GENERAL MEDICAL AND SURGICAL HOSPITALS", "SOURCE": "http://dhhs.ne.gov/publichealth/Documents/Hospital%20Roster.pdf", "SOURCEDATE": "2018-08-09T00:00:00.000Z", "VAL_METHOD": "IMAGERY/OTHER", "VAL_DATE": "2015-02-18T00:00:00.000Z", "WEBSITE": "http://bellevue.nebraskamed.com/", "STATE_ID": "NOT AVAILABLE", "ALT_NAME": "NOT AVAILABLE", "ST_FIPS": "31", "OWNER": "PROPRIETARY", "TTL_STAFF": -999, "BEDS": 55, "TRAUMA": "NOT AVAILABLE", "HELIPAD": "Y" }, "geometry": { "type": "Polygon", "coordinates": [ [ [ -95.94076, 41.059902 ], [ -95.942817, 41.059939 ], [ -95.963283, 41.062698 ], [ -96.028649, 41.088168 ], [ -96.071541, 41.118074100000015 ], [ -96.08745, 41.1320829 ], [ -96.1005527, 41.143818800000034 ], [ -96.1014856, 41.151118500000017 ], [ -95.9523812, 41.260913499999987 ], [ -95.9294004, 41.241372399999968 ], [ -95.9226091, 41.235269699999982 ], [ -95.921457, 41.234174 ], [ -95.8559689, 41.153044699999953 ], [ -95.8559147, 41.148927700000051 ], [ -95.880193, 41.069907 ], [ -95.94076, 41.059902 ] ] ] } },
{ "type": "Feature", "properties": { "OBJECTID": 851, "ID": "0009268105", "NAME": "VA MEDICAL CENTER - OMAHA", "ADDRESS": "4101 WOOLWORTH AVE", "CITY": "OMAHA", "STATE": "NE", "ZIP": "68105", "ZIP4": "NOT AVAILABLE", "TELEPHONE": "(800) 451-5796", "TYPE": "MILITARY", "STATUS": "OPEN", "POPULATION": -999, "COUNTY": "DOUGLAS", "COUNTYFIPS": "31055", "COUNTRY": "USA", "LATITUDE": 41.242531289000098, "LONGITUDE": -95.974376496000005, "NAICS_CODE": "622110", "NAICS_DESC": "GENERAL MEDICAL AND SURGICAL HOSPITALS", "SOURCE": "https://www.va.gov/directory/guide/allstate.asp", "SOURCEDATE": "2018-09-26T00:00:00.000Z", "VAL_METHOD": "IMAGERY/OTHER", "VAL_DATE": "2015-05-22T00:00:00.000Z", "WEBSITE": "http://www.nebraska.va.gov/", "STATE_ID": "NOT AVAILABLE", "ALT_NAME": "NOT AVAILABLE", "ST_FIPS": "31", "OWNER": "GOVERNMENT - FEDERAL", "TTL_STAFF": -999, "BEDS": -999, "TRAUMA": "NOT AVAILABLE", "HELIPAD": "N" }, "geometry": { "type": "Polygon", "coordinates": [ [ [ -95.9859082, 41.138126400000019 ], [ -96.044341, 41.166778 ], [ -96.107312, 41.204026 ], [ -96.1198231, 41.212876699999981 ], [ -96.1203874, 41.231589 ], [ -96.1195234, 41.2375563 ], [ -96.055052, 41.321191 ], [ -96.004691, 41.335754 ], [ -95.9719262, 41.343622 ], [ -95.9615, 41.340248 ], [ -95.9135299, 41.3173176 ], [ -95.9075144, 41.307428300000026 ], [ -95.9107649, 41.177337600000016 ], [ -95.911118900000019, 41.172908 ], [ -95.915835, 41.163656 ], [ -95.9178864, 41.161653099999988 ], [ -95.9239792, 41.1557522 ], [ -95.938886, 41.145496 ], [ -95.9859082, 41.138126400000019 ] ] ] } },
{ "type": "Feature", "properties": { "OBJECTID": 924, "ID": "0011051502", "NAME": "CHI HEALTH MERCY HOSPITAL", "ADDRESS": "800 MERCY DRIVE", "CITY": "COUNCIL BLUFFS", "STATE": "IA", "ZIP": "51502", "ZIP4": "NOT AVAILABLE", "TELEPHONE": "(712) 328-5000", "TYPE": "GENERAL ACUTE CARE", "STATUS": "OPEN", "POPULATION": 278, "COUNTY": "POTTAWATTAMIE", "COUNTYFIPS": "19155", "COUNTRY": "USA", "LATITUDE": 41.268786732000102, "LONGITUDE": -95.838794319000002, "NAICS_CODE": "622110", "NAICS_DESC": "GENERAL MEDICAL AND SURGICAL HOSPITALS", "SOURCE": "https://dia-hfd.iowa.gov/DIA_HFD/CTLEntitySearch.do", "SOURCEDATE": "2018-08-09T00:00:00.000Z", "VAL_METHOD": "IMAGERY/OTHER", "VAL_DATE": "2016-04-15T00:00:00.000Z", "WEBSITE": "http://www.chihealth.com/", "STATE_ID": "NOT AVAILABLE", "ALT_NAME": "NOT AVAILABLE", "ST_FIPS": "19", "OWNER": "NON-PROFIT", "TTL_STAFF": -999, "BEDS": 278, "TRAUMA": "LEVEL III", "HELIPAD": "Y" }, "geometry": { "type": "Polygon", "coordinates": [ [ [ -95.8143493, 41.184198099999932 ], [ -95.9040754, 41.204164200000022 ], [ -95.908683, 41.212563 ], [ -95.9159843, 41.252184199999981 ], [ -95.9170738, 41.263617899999971 ], [ -95.900708, 41.360854 ], [ -95.8583247, 41.363756 ], [ -95.764241, 41.347229 ], [ -95.74119, 41.338133 ], [ -95.689065, 41.289557 ], [ -95.7254412, 41.232500800000054 ], [ -95.77686, 41.185597 ], [ -95.8143493, 41.184198099999932 ] ] ] } },
{ "type": "Feature", "properties": { "OBJECTID": 7435, "ID": "0009768701", "NAME": "NORFOLK REGIONAL CENTER", "ADDRESS": "1700 NORTH VICTORY RD", "CITY": "NORFOLK", "STATE": "NE", "ZIP": "68701", "ZIP4": "NOT AVAILABLE", "TELEPHONE": "(402) 370-3400", "TYPE": "PSYCHIATRIC", "STATUS": "OPEN", "POPULATION": 150, "COUNTY": "MADISON", "COUNTYFIPS": "31119", "COUNTRY": "USA", "LATITUDE": 42.050697946000099, "LONGITUDE": -97.384269106000005, "NAICS_CODE": "622210", "NAICS_DESC": "PSYCHIATRIC AND SUBSTANCE ABUSE HOSPITALS", "SOURCE": "http://dhhs.ne.gov/publichealth/Documents/Hospital%20Roster.pdf", "SOURCEDATE": "2018-08-09T00:00:00.000Z", "VAL_METHOD": "IMAGERY", "VAL_DATE": "2014-02-10T00:00:00.000Z", "WEBSITE": "http://www.hhss.ne.gov/beh/rc/nrcserv.htm", "STATE_ID": "NOT AVAILABLE", "ALT_NAME": "NOT AVAILABLE", "ST_FIPS": "31", "OWNER": "GOVERNMENT - STATE", "TTL_STAFF": -999, "BEDS": 150, "TRAUMA": "NOT AVAILABLE", "HELIPAD": "N" }, "geometry": { "type": "Polygon", "coordinates": [ [ [ -97.407133, 41.945775 ], [ -97.426532, 41.945637 ], [ -97.445943, 41.960017 ], [ -97.5430551, 42.0322938 ], [ -97.5430592, 42.0324733 ], [ -97.504681, 42.090613 ], [ -97.475852, 42.13408 ], [ -97.426442, 42.163278 ], [ -97.368169, 42.15238 ], [ -97.290606, 42.134237100000021 ], [ -97.271163, 42.119731 ], [ -97.2144233, 42.018486500000016 ], [ -97.291203, 41.957544 ], [ -97.407133, 41.945775 ] ] ] } },
{ "type": "Feature", "properties": { "OBJECTID": 7519, "ID": "0009868131", "NAME": "BOYS TOWN NATIONAL RESEARCH HOSPITAL", "ADDRESS": "555 NORTH 30TH ST", "CITY": "OMAHA", "STATE": "NE", "ZIP": "68131", "ZIP4": "NOT AVAILABLE", "TELEPHONE": "(402) 498-6362", "TYPE": "CHILDREN", "STATUS": "OPEN", "POPULATION": 31, "COUNTY": "DOUGLAS", "COUNTYFIPS": "31055", "COUNTRY": "USA", "LATITUDE": 41.264241294000001, "LONGITUDE": -95.955888486000006, "NAICS_CODE": "622110", "NAICS_DESC": "CHILDREN'S HOSPITALS, GENERAL", "SOURCE": "http://dhhs.ne.gov/publichealth/Documents/Hospital%20Roster.pdf", "SOURCEDATE": "2018-08-09T00:00:00.000Z", "VAL_METHOD": "IMAGERY", "VAL_DATE": "2014-03-12T00:00:00.000Z", "WEBSITE": "http://www.boystownhospital.org", "STATE_ID": "NOT AVAILABLE", "ALT_NAME": "NOT AVAILABLE", "ST_FIPS": "31", "OWNER": "NON-PROFIT", "TTL_STAFF": -999, "BEDS": 31, "TRAUMA": "NOT AVAILABLE", "HELIPAD": "Y" }, "geometry": { "type": "Polygon", "coordinates": [ [ [ -95.939006, 41.155582 ], [ -95.9666949, 41.1582623 ], [ -95.9886461, 41.1616757 ], [ -96.0458727, 41.190622599999976 ], [ -96.094320600000017, 41.216217400000026 ], [ -96.072793, 41.31391 ], [ -96.067956, 41.321319699999968 ], [ -96.06767, 41.321580799999964 ], [ -96.004737, 41.350192 ], [ -95.9609166, 41.359369499999957 ], [ -95.9135299, 41.3173176 ], [ -95.9062372, 41.308104800000017 ], [ -95.9024617, 41.301198900000017 ], [ -95.900316600000011, 41.293671900000028 ], [ -95.8995516, 41.2904185 ], [ -95.8988145, 41.2849315 ], [ -95.8988057, 41.283124399999984 ], [ -95.911118900000019, 41.172908 ], [ -95.9178662, 41.1634507 ], [ -95.9261138, 41.156566100000013 ], [ -95.939006, 41.155582 ] ] ] } },
{ "type": "Feature", "properties": { "OBJECTID": 7520, "ID": "0104968122", "NAME": "CHI HEALTH IMMANUEL", "ADDRESS": "6901 NORTH 72ND ST", "CITY": "OMAHA", "STATE": "NE", "ZIP": "68122", "ZIP4": "NOT AVAILABLE", "TELEPHONE": "(402) 572-2121", "TYPE": "GENERAL ACUTE CARE", "STATUS": "OPEN", "POPULATION": 356, "COUNTY": "DOUGLAS", "COUNTYFIPS": "31055", "COUNTRY": "USA", "LATITUDE": 41.322243145000101, "LONGITUDE": -96.020289019000003, "NAICS_CODE": "622110", "NAICS_DESC": "GENERAL MEDICAL AND SURGICAL HOSPITALS", "SOURCE": "http://dhhs.ne.gov/publichealth/Documents/Hospital%20Roster.pdf", "SOURCEDATE": "2018-08-09T00:00:00.000Z", "VAL_METHOD": "IMAGERY/OTHER", "VAL_DATE": "2015-02-18T00:00:00.000Z", "WEBSITE": "http://www.chihealth.com/immanuel-medical-center", "STATE_ID": "NOT AVAILABLE", "ALT_NAME": "NOT AVAILABLE", "ST_FIPS": "31", "OWNER": "NON-PROFIT", "TTL_STAFF": -999, "BEDS": 356, "TRAUMA": "NOT AVAILABLE", "HELIPAD": "Y" }, "geometry": { "type": "Polygon", "coordinates": [ [ [ -96.051022, 41.231845 ], [ -96.0879225, 41.2347499 ], [ -96.1134668, 41.263234499999989 ], [ -96.1442924, 41.306588099999971 ], [ -96.1450903, 41.3077471 ], [ -96.1510511, 41.320480799999977 ], [ -96.1512906, 41.32176759999998 ], [ -96.1473535, 41.334929199999969 ], [ -96.129555, 41.379135 ], [ -96.0984478, 41.407691599999978 ], [ -96.0382106, 41.4222424 ], [ -96.021093, 41.42212 ], [ -95.983264, 41.415188 ], [ -95.947401, 41.386292 ], [ -95.9024617, 41.301198900000017 ], [ -95.9292212, 41.260622899999987 ], [ -95.9540189, 41.2366554 ], [ -96.051022, 41.231845 ] ] ] } },
{ "type": "Feature", "properties": { "OBJECTID": 5110, "ID": "0105568506", "NAME": "BRYAN MEDICAL CENTER", "ADDRESS": "1600 SOUTH 48TH ST", "CITY": "LINCOLN", "STATE": "NE", "ZIP": "68506", "ZIP4": "NOT AVAILABLE", "TELEPHONE": "(402) 481-1111", "TYPE": "GENERAL ACUTE CARE", "STATUS": "OPEN", "POPULATION": 374, "COUNTY": "LANCASTER", "COUNTYFIPS": "31109", "COUNTRY": "USA", "LATITUDE": 40.795898213000001, "LONGITUDE": -96.652263993000005, "NAICS_CODE": "622110", "NAICS_DESC": "GENERAL MEDICAL AND SURGICAL HOSPITALS", "SOURCE": "http://dhhs.ne.gov/publichealth/Documents/Hospital%20Roster.pdf", "SOURCEDATE": "2018-08-09T00:00:00.000Z", "VAL_METHOD": "IMAGERY/OTHER", "VAL_DATE": "2015-02-18T00:00:00.000Z", "WEBSITE": "http://www.bryanhealth.com/", "STATE_ID": "NOT AVAILABLE", "ALT_NAME": "NOT AVAILABLE", "ST_FIPS": "31", "OWNER": "NON-PROFIT", "TTL_STAFF": -999, "BEDS": 374, "TRAUMA": "NOT AVAILABLE", "HELIPAD": "Y" }, "geometry": { "type": "Polygon", "coordinates": [ [ [ -96.6443261, 40.6973423 ], [ -96.6483054, 40.697335600000038 ], [ -96.6634637, 40.697357199999985 ], [ -96.739859, 40.741201 ], [ -96.782494, 40.799168 ], [ -96.7779297, 40.813783200000032 ], [ -96.7215129, 40.875428500000012 ], [ -96.6436682, 40.9075066 ], [ -96.6433999, 40.907508200000052 ], [ -96.5209762, 40.821942 ], [ -96.5209196, 40.8130259 ], [ -96.520898, 40.7840359 ], [ -96.564881, 40.726173 ], [ -96.5872329, 40.711738100000055 ], [ -96.6443261, 40.6973423 ] ] ] } },
{ "type": "Feature", "properties": { "OBJECTID": 5111, "ID": "0105868526", "NAME": "CHI HEALTH NEBRASKA HEART", "ADDRESS": "7500 SOUTH 91ST ST", "CITY": "LINCOLN", "STATE": "NE", "ZIP": "68526", "ZIP4": "NOT AVAILABLE", "TELEPHONE": "(402) 328-3000", "TYPE": "GENERAL ACUTE CARE", "STATUS": "OPEN", "POPULATION": 63, "COUNTY": "LANCASTER", "COUNTYFIPS": "31109", "COUNTRY": "USA", "LATITUDE": 40.736681028000099, "LONGITUDE": -96.593513050999903, "NAICS_CODE": "622110", "NAICS_DESC": "GENERAL MEDICAL AND SURGICAL HOSPITALS", "SOURCE": "http://dhhs.ne.gov/publichealth/Documents/Hospital%20Roster.pdf", "SOURCEDATE": "2018-08-09T00:00:00.000Z", "VAL_METHOD": "IMAGERY/OTHER", "VAL_DATE": "2015-02-18T00:00:00.000Z", "WEBSITE": "http://www.neheart.com/", "STATE_ID": "NOT AVAILABLE", "ALT_NAME": "NOT AVAILABLE", "ST_FIPS": "31", "OWNER": "NON-PROFIT", "TTL_STAFF": -999, "BEDS": 63, "TRAUMA": "NOT AVAILABLE", "HELIPAD": "Y" }, "geometry": { "type": "Polygon", "coordinates": [ [ [ -96.57241, 40.639942 ], [ -96.62944250000001, 40.644870800000035 ], [ -96.6391476, 40.654062499999988 ], [ -96.6586518, 40.6729286 ], [ -96.681931899999981, 40.697378900000018 ], [ -96.7014741, 40.7250353 ], [ -96.7133252, 40.755607 ], [ -96.710033, 40.770177 ], [ -96.7073753, 40.7809857 ], [ -96.706275, 40.782263899999947 ], [ -96.7028167, 40.784527700000027 ], [ -96.6824538, 40.7944063 ], [ -96.6249793, 40.8220577 ], [ -96.609124, 40.828046800000031 ], [ -96.5676185, 40.830343200000037 ], [ -96.563044800000014, 40.829904400000025 ], [ -96.560868, 40.829584 ], [ -96.456742, 40.754945099999972 ], [ -96.444272, 40.713171599999974 ], [ -96.444286, 40.711684 ], [ -96.4443, 40.71151 ], [ -96.4829279, 40.6832471 ], [ -96.57241, 40.639942 ] ] ] } },
{ "type": "Feature", "properties": { "OBJECTID": 5112, "ID": "0005268114", "NAME": "METHODIST HOSPITAL", "ADDRESS": "8303 DODGE ST", "CITY": "OMAHA", "STATE": "NE", "ZIP": "68114", "ZIP4": "NOT AVAILABLE", "TELEPHONE": "(402) 354-4000", "TYPE": "GENERAL ACUTE CARE", "STATUS": "OPEN", "POPULATION": 423, "COUNTY": "DOUGLAS", "COUNTYFIPS": "31055", "COUNTRY": "USA", "LATITUDE": 41.259642674000098, "LONGITUDE": -96.041361030999994, "NAICS_CODE": "622110", "NAICS_DESC": "GENERAL MEDICAL AND SURGICAL HOSPITALS", "SOURCE": "http://dhhs.ne.gov/publichealth/Documents/Hospital%20Roster.pdf", "SOURCEDATE": "2018-08-09T00:00:00.000Z", "VAL_METHOD": "IMAGERY", "VAL_DATE": "2014-03-12T00:00:00.000Z", "WEBSITE": "http://www.bestcare.org/methodist-hospital/", "STATE_ID": "280040", "ALT_NAME": "NOT AVAILABLE", "ST_FIPS": "31", "OWNER": "NON-PROFIT", "TTL_STAFF": -999, "BEDS": 423, "TRAUMA": "NOT AVAILABLE", "HELIPAD": "Y" }, "geometry": { "type": "Polygon", "coordinates": [ [ [ -96.0429592, 41.156424600000022 ], [ -96.045114, 41.157342 ], [ -96.0642886, 41.165728800000025 ], [ -96.1361149, 41.201953900000028 ], [ -96.2161718, 41.263849600000022 ], [ -96.215674, 41.264385800000021 ], [ -96.0982725, 41.3647345 ], [ -96.0621583, 41.365116 ], [ -96.0238257, 41.3519131 ], [ -95.967301, 41.317568 ], [ -95.9509577, 41.302287700000043 ], [ -95.949354, 41.300333 ], [ -95.9318286, 41.268133199999966 ], [ -95.928057, 41.23943 ], [ -95.928124, 41.236914 ], [ -95.9285353, 41.231184500000033 ], [ -95.9297552, 41.227291600000044 ], [ -95.932134, 41.2237291 ], [ -95.941775, 41.212242 ], [ -95.9485563, 41.205602200000037 ], [ -96.0371812, 41.157424299999988 ], [ -96.039035, 41.156961 ], [ -96.0416265, 41.156439 ], [ -96.0429592, 41.156424600000022 ] ] ] } },
{ "type": "Feature", "properties": { "OBJECTID": 5426, "ID": "0012651601", "NAME": "SHENANDOAH MEMORIAL HOSPITAL", "ADDRESS": "300 PERSHING AVENUE", "CITY": "SHENANDOAH", "STATE": "IA", "ZIP": "51601", "ZIP4": "NOT AVAILABLE", "TELEPHONE": "(712) 246-1230", "TYPE": "CRITICAL ACCESS", "STATUS": "OPEN", "POPULATION": 25, "COUNTY": "PAGE", "COUNTYFIPS": "19145", "COUNTRY": "USA", "LATITUDE": 40.755084551000003, "LONGITUDE": -95.373175211000003, "NAICS_CODE": "622110", "NAICS_DESC": "GENERAL MEDICAL AND SURGICAL HOSPITALS", "SOURCE": "https://dia-hfd.iowa.gov/DIA_HFD/CTLEntitySearch.do", "SOURCEDATE": "2018-08-09T00:00:00.000Z", "VAL_METHOD": "IMAGERY/OTHER", "VAL_DATE": "2016-04-18T00:00:00.000Z", "WEBSITE": "http://www.shenandoahmedcenter.com", "STATE_ID": "NOT AVAILABLE", "ALT_NAME": "NOT AVAILABLE", "ST_FIPS": "19", "OWNER": "NON-PROFIT", "TTL_STAFF": -999, "BEDS": 25, "TRAUMA": "LEVEL IV", "HELIPAD": "N" }, "geometry": { "type": "Polygon", "coordinates": [ [ [ -95.393004814855445, 40.655689004606892 ], [ -95.429919692343802, 40.685261572166254 ], [ -95.479977405549491, 40.7286719979598 ], [ -95.479380328878406, 40.771517679560795 ], [ -95.4791014024471, 40.786016732073179 ], [ -95.384653, 40.858115 ], [ -95.305218, 40.846813 ], [ -95.289498, 40.843537 ], [ -95.22794601203158, 40.742482047101831 ], [ -95.335027595267889, 40.669671471517333 ], [ -95.393004814855445, 40.655689004606892 ] ] ] } },
{ "type": "Feature", "properties": { "OBJECTID": 5432, "ID": "0093151503", "NAME": "METHODIST JENNIE EDMUNDSON", "ADDRESS": "933 EAST PIERCE STREET", "CITY": "COUNCIL BLUFFS", "STATE": "IA", "ZIP": "51503", "ZIP4": "NOT AVAILABLE", "TELEPHONE": "(712) 396-6000", "TYPE": "GENERAL ACUTE CARE", "STATUS": "OPEN", "POPULATION": 236, "COUNTY": "POTTAWATTAMIE", "COUNTYFIPS": "19155", "COUNTRY": "USA", "LATITUDE": 41.2685824590001, "LONGITUDE": -95.835357469000002, "NAICS_CODE": "622110", "NAICS_DESC": "GENERAL MEDICAL AND SURGICAL HOSPITALS", "SOURCE": "https://dia-hfd.iowa.gov/DIA_HFD/CTLEntitySearch.do", "SOURCEDATE": "2018-08-09T00:00:00.000Z", "VAL_METHOD": "IMAGERY/OTHER", "VAL_DATE": "2016-04-15T00:00:00.000Z", "WEBSITE": "https://www.bestcare.org/jennie-edmundson/", "STATE_ID": "NOT AVAILABLE", "ALT_NAME": "NOT AVAILABLE", "ST_FIPS": "19", "OWNER": "NOT AVAILABLE", "TTL_STAFF": -999, "BEDS": 236, "TRAUMA": "LEVEL III", "HELIPAD": "Y" }, "geometry": { "type": "Polygon", "coordinates": [ [ [ -95.8143493, 41.184198099999932 ], [ -95.9040754, 41.204164200000022 ], [ -95.908683, 41.212563 ], [ -95.9159843, 41.252184199999981 ], [ -95.9170738, 41.263617899999971 ], [ -95.9004204, 41.3547701 ], [ -95.858331, 41.366796 ], [ -95.741204, 41.3432 ], [ -95.689065, 41.289557 ], [ -95.7254412, 41.232500800000054 ], [ -95.77686, 41.185597 ], [ -95.8143493, 41.184198099999932 ] ] ] } },
{ "type": "Feature", "properties": { "OBJECTID": 5434, "ID": "0094251640", "NAME": "GEORGE C GRAPE COMMUNITY HOSPITAL", "ADDRESS": "2959 US HIGHWAY 275", "CITY": "HAMBURG", "STATE": "IA", "ZIP": "51640", "ZIP4": "NOT AVAILABLE", "TELEPHONE": "(712) 382-1515", "TYPE": "CRITICAL ACCESS", "STATUS": "OPEN", "POPULATION": 25, "COUNTY": "FREMONT", "COUNTYFIPS": "19071", "COUNTRY": "USA", "LATITUDE": 40.620493130000099, "LONGITUDE": -95.650623148999998, "NAICS_CODE": "622110", "NAICS_DESC": "GENERAL MEDICAL AND SURGICAL HOSPITALS", "SOURCE": "https://dia-hfd.iowa.gov/DIA_HFD/CTLEntitySearch.do", "SOURCEDATE": "2018-08-09T00:00:00.000Z", "VAL_METHOD": "IMAGERY/OTHER", "VAL_DATE": "2016-04-15T00:00:00.000Z", "WEBSITE": "http://www.grapehospital.com", "STATE_ID": "NOT AVAILABLE", "ALT_NAME": "NOT AVAILABLE", "ST_FIPS": "19", "OWNER": "NON-PROFIT", "TTL_STAFF": -999, "BEDS": 25, "TRAUMA": "LEVEL IV", "HELIPAD": "Y" }, "geometry": { "type": "Polygon", "coordinates": [ [ [ -95.5821993, 40.570091 ], [ -95.7358936, 40.5849123 ], [ -95.743688, 40.601184 ], [ -95.745846968728102, 40.652352963549603 ], [ -95.64699588832211, 40.736182914876714 ], [ -95.594087625340322, 40.687017421482977 ], [ -95.526322, 40.59923 ], [ -95.55293, 40.582635 ], [ -95.5738044, 40.570485800000071 ], [ -95.5821993, 40.570091 ] ] ] } },
{ "type": "Feature", "properties": { "OBJECTID": 5753, "ID": "0009268010", "NAME": "BOYS TOWN NATIONAL RESEARCH HOSPITAL - WEST", "ADDRESS": "14000 BOYS TOWN HOSPITAL RD", "CITY": "BOYS TOWN", "STATE": "NE", "ZIP": "68010", "ZIP4": "NOT AVAILABLE", "TELEPHONE": "(402) 778-6000", "TYPE": "CHILDREN", "STATUS": "OPEN", "POPULATION": 36, "COUNTY": "DOUGLAS", "COUNTYFIPS": "31055", "COUNTRY": "USA", "LATITUDE": 41.249994717000099, "LONGITUDE": -96.133022576000002, "NAICS_CODE": "622110", "NAICS_DESC": "CHILDREN'S HOSPITALS, GENERAL", "SOURCE": "http://dhhs.ne.gov/publichealth/Documents/Hospital%20Roster.pdf", "SOURCEDATE": "2018-08-09T00:00:00.000Z", "VAL_METHOD": "IMAGERY", "VAL_DATE": "2014-02-10T00:00:00.000Z", "WEBSITE": "http://www.boystownhospital.org/Pages/default.aspx", "STATE_ID": "NOT AVAILABLE", "ALT_NAME": "NOT AVAILABLE", "ST_FIPS": "31", "OWNER": "NON-PROFIT", "TTL_STAFF": -999, "BEDS": 36, "TRAUMA": "NOT AVAILABLE", "HELIPAD": "N" }, "geometry": { "type": "Polygon", "coordinates": [ [ [ -96.1638645, 41.1412997 ], [ -96.263128, 41.2301948 ], [ -96.2966743, 41.262873100000014 ], [ -96.2924754, 41.272821100000023 ], [ -96.158506, 41.3422198 ], [ -96.1147572, 41.335616 ], [ -96.0743766, 41.328127500000029 ], [ -96.052709, 41.321038299999962 ], [ -96.0379045, 41.306601800000031 ], [ -96.0203199, 41.2850439 ], [ -96.001171299999982, 41.251475699999951 ], [ -95.999863, 41.248749 ], [ -95.9972012, 41.223002 ], [ -96.001067, 41.219734 ], [ -96.0047217, 41.217261199999989 ], [ -96.0429171, 41.195714200000012 ], [ -96.1195848, 41.1559222 ], [ -96.1388283, 41.146408300000012 ], [ -96.1638645, 41.1412997 ] ] ] } },
{ "type": "Feature", "properties": { "OBJECTID": 5755, "ID": "0007268640", "NAME": "GENOA COMMUNITY HOSPITAL", "ADDRESS": "606/706 EWING AVE", "CITY": "GENOA", "STATE": "NE", "ZIP": "68640", "ZIP4": "NOT AVAILABLE", "TELEPHONE": "(402) 993-2283", "TYPE": "CRITICAL ACCESS", "STATUS": "OPEN", "POPULATION": 19, "COUNTY": "NANCE", "COUNTYFIPS": "31125", "COUNTRY": "USA", "LATITUDE": 41.443921455000101, "LONGITUDE": -97.732583685999899, "NAICS_CODE": "622110", "NAICS_DESC": "GENERAL MEDICAL AND SURGICAL HOSPITALS", "SOURCE": "http://dhhs.ne.gov/publichealth/Documents/Hospital%20Roster.pdf", "SOURCEDATE": "2018-08-09T00:00:00.000Z", "VAL_METHOD": "IMAGERY", "VAL_DATE": "2014-02-10T00:00:00.000Z", "WEBSITE": "http://genoamedical.org/", "STATE_ID": "281312", "ALT_NAME": "NOT AVAILABLE", "ST_FIPS": "31", "OWNER": "GOVERNMENT - LOCAL", "TTL_STAFF": -999, "BEDS": 19, "TRAUMA": "LEVEL IV", "HELIPAD": "Y" }, "geometry": { "type": "Polygon", "coordinates": [ [ [ -97.673952, 41.315556 ], [ -97.675478, 41.315555 ], [ -97.8972111, 41.393502899999966 ], [ -97.868736, 41.466877 ], [ -97.832109, 41.554275 ], [ -97.696155, 41.555578 ], [ -97.638147, 41.516704 ], [ -97.590254, 41.482338 ], [ -97.5804231, 41.475072700000013 ], [ -97.6562906, 41.337429900000018 ], [ -97.6659664, 41.32171180000001 ], [ -97.673952, 41.315556 ] ] ] } },
{ "type": "Feature", "properties": { "OBJECTID": 5759, "ID": "0105968510", "NAME": "CHI HEALTH ST. ELIZABETH", "ADDRESS": "555 SOUTH 70TH ST", "CITY": "LINCOLN", "STATE": "NE", "ZIP": "68510", "ZIP4": "NOT AVAILABLE", "TELEPHONE": "(402) 219-7700", "TYPE": "GENERAL ACUTE CARE", "STATUS": "OPEN", "POPULATION": 260, "COUNTY": "LANCASTER", "COUNTYFIPS": "31109", "COUNTRY": "USA", "LATITUDE": 40.808379469000002, "LONGITUDE": -96.627178649000001, "NAICS_CODE": "622110", "NAICS_DESC": "GENERAL MEDICAL AND SURGICAL HOSPITALS", "SOURCE": "http://dhhs.ne.gov/publichealth/Documents/Hospital%20Roster.pdf", "SOURCEDATE": "2018-08-09T00:00:00.000Z", "VAL_METHOD": "IMAGERY/OTHER", "VAL_DATE": "2015-02-18T00:00:00.000Z", "WEBSITE": "http://www.chihealthstelizabeth.com/", "STATE_ID": "NOT AVAILABLE", "ALT_NAME": "NOT AVAILABLE", "ST_FIPS": "31", "OWNER": "NON-PROFIT", "TTL_STAFF": -999, "BEDS": 260, "TRAUMA": "NOT AVAILABLE", "HELIPAD": "Y" }, "geometry": { "type": "Polygon", "coordinates": [ [ [ -96.6246243, 40.714476 ], [ -96.6254064, 40.714478699999965 ], [ -96.6635681, 40.7356576 ], [ -96.683811, 40.747646 ], [ -96.749354, 40.787917 ], [ -96.764539, 40.799235 ], [ -96.767286, 40.811952 ], [ -96.7176129, 40.8662972 ], [ -96.6436682, 40.9075066 ], [ -96.6433999, 40.907508200000052 ], [ -96.571781, 40.893413 ], [ -96.4637293, 40.8134999 ], [ -96.4637254, 40.812956399999976 ], [ -96.482721, 40.79847 ], [ -96.5870778, 40.725217 ], [ -96.5917857, 40.7223041 ], [ -96.6246243, 40.714476 ] ] ] } },
{ "type": "Feature", "properties": { "OBJECTID": 5760, "ID": "0106268502", "NAME": "BRYAN MEDICAL CENTER", "ADDRESS": "2300 SOUTH 16TH ST", "CITY": "LINCOLN", "STATE": "NE", "ZIP": "68502", "ZIP4": "NOT AVAILABLE", "TELEPHONE": "(402) 481-1111", "TYPE": "GENERAL ACUTE CARE", "STATUS": "OPEN", "POPULATION": 266, "COUNTY": "LANCASTER", "COUNTYFIPS": "31109", "COUNTRY": "USA", "LATITUDE": 40.789480234000102, "LONGITUDE": -96.698155657000001, "NAICS_CODE": "622110", "NAICS_DESC": "GENERAL MEDICAL AND SURGICAL HOSPITALS", "SOURCE": "http://dhhs.ne.gov/publichealth/Documents/Hospital%20Roster.pdf", "SOURCEDATE": "2018-08-09T00:00:00.000Z", "VAL_METHOD": "IMAGERY/OTHER", "VAL_DATE": "2015-02-18T00:00:00.000Z", "WEBSITE": "http://www.bryanhealth.com/", "STATE_ID": "NOT AVAILABLE", "ALT_NAME": "NOT AVAILABLE", "ST_FIPS": "31", "OWNER": "NON-PROFIT", "TTL_STAFF": -999, "BEDS": 266, "TRAUMA": "LEVEL II", "HELIPAD": "Y" }, "geometry": { "type": "Polygon", "coordinates": [ [ [ -96.7037914, 40.690094699999968 ], [ -96.7265278, 40.693868 ], [ -96.7409695, 40.697497100000021 ], [ -96.8016356, 40.739035700000038 ], [ -96.8416537, 40.7847881 ], [ -96.7648764, 40.879573 ], [ -96.7583223, 40.886278600000011 ], [ -96.719893, 40.900716 ], [ -96.6812721, 40.8932935 ], [ -96.62455, 40.868904 ], [ -96.5677248, 40.813081 ], [ -96.56789, 40.769618 ], [ -96.58652, 40.7257743 ], [ -96.5870778, 40.725217 ], [ -96.7037914, 40.690094699999968 ] ] ] } },
{ "type": "Feature", "properties": { "OBJECTID": 5761, "ID": "0005068114", "NAME": "CHILDREN'S HOSPITAL & MEDICAL CENTER", "ADDRESS": "8200 DODGE ST", "CITY": "OMAHA", "STATE": "NE", "ZIP": "68114", "ZIP4": "NOT AVAILABLE", "TELEPHONE": "(402) 955-5400", "TYPE": "CHILDREN", "STATUS": "OPEN", "POPULATION": 145, "COUNTY": "DOUGLAS", "COUNTYFIPS": "31055", "COUNTRY": "USA", "LATITUDE": 41.260936484000098, "LONGITUDE": -96.042255906999998, "NAICS_CODE": "622110", "NAICS_DESC": "CHILDREN'S HOSPITALS, GENERAL", "SOURCE": "http://dhhs.ne.gov/publichealth/Documents/Hospital%20Roster.pdf", "SOURCEDATE": "2018-08-09T00:00:00.000Z", "VAL_METHOD": "IMAGERY", "VAL_DATE": "2014-03-12T00:00:00.000Z", "WEBSITE": "http://www.childrensomaha.org", "STATE_ID": "283301", "ALT_NAME": "NOT AVAILABLE", "ST_FIPS": "31", "OWNER": "NON-PROFIT", "TTL_STAFF": -999, "BEDS": 145, "TRAUMA": "LEVEL II PEDIATRIC", "HELIPAD": "Y" }, "geometry": { "type": "Polygon", "coordinates": [ [ [ -96.0429592, 41.156424600000022 ], [ -96.045114, 41.157342 ], [ -96.062085, 41.164886800000019 ], [ -96.1202514, 41.19575159999998 ], [ -96.1332701, 41.203265699999967 ], [ -96.2157638, 41.2618444 ], [ -96.2161718, 41.263849600000022 ], [ -96.2155987, 41.266522400000028 ], [ -96.0982725, 41.3647345 ], [ -96.0621583, 41.365116 ], [ -96.0573187, 41.364679 ], [ -96.0238257, 41.3519131 ], [ -95.987897, 41.332154 ], [ -95.966042, 41.319378 ], [ -95.946958099999989, 41.299620699999977 ], [ -95.9318135, 41.267975 ], [ -95.929408600000016, 41.2399467 ], [ -95.9294686, 41.236029 ], [ -95.9297552, 41.227291600000044 ], [ -95.9432845, 41.21228390000001 ], [ -95.9497839, 41.2056015 ], [ -96.0402414, 41.157435 ], [ -96.0429592, 41.156424600000022 ] ] ] } },
{ "type": "Feature", "properties": { "OBJECTID": 5772, "ID": "0105768131", "NAME": "CHI HEALTH CREIGHTON UNIVERSITY MEDICAL CENTER", "ADDRESS": "601 NORTH 30TH ST", "CITY": "OMAHA", "STATE": "NE", "ZIP": "68131", "ZIP4": "NOT AVAILABLE", "TELEPHONE": "(402) 449-4000", "TYPE": "GENERAL ACUTE CARE", "STATUS": "OPEN", "POPULATION": 334, "COUNTY": "DOUGLAS", "COUNTYFIPS": "31055", "COUNTRY": "USA", "LATITUDE": 41.265109176000102, "LONGITUDE": -95.954819707999903, "NAICS_CODE": "622110", "NAICS_DESC": "GENERAL MEDICAL AND SURGICAL HOSPITALS", "SOURCE": "http://dhhs.ne.gov/publichealth/Documents/Hospital%20Roster.pdf", "SOURCEDATE": "2018-08-09T00:00:00.000Z", "VAL_METHOD": "IMAGERY/OTHER", "VAL_DATE": "2015-02-18T00:00:00.000Z", "WEBSITE": "https://www.chihealth.com/chi-health-creighton-university-medical-center", "STATE_ID": "NOT AVAILABLE", "ALT_NAME": "NOT AVAILABLE", "ST_FIPS": "31", "OWNER": "GOVERNMENT - STATE", "TTL_STAFF": -999, "BEDS": 334, "TRAUMA": "LEVEL I", "HELIPAD": "Y" }, "geometry": { "type": "Polygon", "coordinates": [ [ [ -95.939006, 41.155582 ], [ -95.984157, 41.16170129999994 ], [ -95.98631, 41.162288 ], [ -96.042906800000011, 41.192554500000028 ], [ -96.0917119, 41.21929760000004 ], [ -96.072793, 41.31391 ], [ -96.067956, 41.321319699999968 ], [ -96.06767, 41.321580799999964 ], [ -96.004725, 41.351923 ], [ -95.9602746, 41.360946099999978 ], [ -95.9135299, 41.3173176 ], [ -95.9062372, 41.308104800000017 ], [ -95.9024617, 41.301198900000017 ], [ -95.900316600000011, 41.293671900000028 ], [ -95.897551300000018, 41.2831245 ], [ -95.911143, 41.17469509999998 ], [ -95.918214600000013, 41.165585100000037 ], [ -95.9222034, 41.162785 ], [ -95.939006, 41.155582 ] ] ] } },
{ "type": "Feature", "properties": { "OBJECTID": 5773, "ID": "0106468046", "NAME": "CHI HEALTH MIDLANDS", "ADDRESS": "11111 SOUTH 84TH ST", "CITY": "PAPILLION", "STATE": "NE", "ZIP": "68046", "ZIP4": "NOT AVAILABLE", "TELEPHONE": "(402) 593-3000", "TYPE": "GENERAL ACUTE CARE", "STATUS": "OPEN", "POPULATION": 121, "COUNTY": "SARPY", "COUNTYFIPS": "31153", "COUNTRY": "USA", "LATITUDE": 41.135853516000097, "LONGITUDE": -96.040104589999899, "NAICS_CODE": "622110", "NAICS_DESC": "GENERAL MEDICAL AND SURGICAL HOSPITALS", "SOURCE": "http://dhhs.ne.gov/publichealth/Documents/Hospital%20Roster.pdf", "SOURCEDATE": "2018-08-09T00:00:00.000Z", "VAL_METHOD": "IMAGERY/OTHER", "VAL_DATE": "2015-02-18T00:00:00.000Z", "WEBSITE": "http://www.chihealth.com/chi-health-midlands", "STATE_ID": "NOT AVAILABLE", "ALT_NAME": "NOT AVAILABLE", "ST_FIPS": "31", "OWNER": "NOT AVAILABLE", "TTL_STAFF": -999, "BEDS": 121, "TRAUMA": "NOT AVAILABLE", "HELIPAD": "Y" }, "geometry": { "type": "Polygon", "coordinates": [ [ [ -96.0906346, 41.05794190000001 ], [ -96.126132, 41.08176 ], [ -96.2013771, 41.146935 ], [ -96.1773871, 41.162727500000038 ], [ -96.1389431, 41.186645600000027 ], [ -96.0898824, 41.214308 ], [ -96.043101, 41.2343263 ], [ -96.042658399999979, 41.234217599999972 ], [ -95.9385974, 41.188998299999987 ], [ -95.9326934, 41.1836793 ], [ -95.9074637, 41.148247600000026 ], [ -95.904645, 41.143837 ], [ -95.901617800000011, 41.13651009999996 ], [ -95.9282921, 41.0874844 ], [ -95.976551, 41.073561 ], [ -96.001884, 41.067438 ], [ -96.0906346, 41.05794190000001 ] ] ] } },
{ "type": "Feature", "properties": { "OBJECTID": 5976, "ID": "0004251101", "NAME": "MERCY MEDICAL CENTER SIOUX CITY", "ADDRESS": "801 5TH STREET", "CITY": "SIOUX CITY", "STATE": "IA", "ZIP": "51101", "ZIP4": "NOT AVAILABLE", "TELEPHONE": "(712) 279-2010", "TYPE": "GENERAL ACUTE CARE", "STATUS": "OPEN", "POPULATION": 484, "COUNTY": "WOODBURY", "COUNTYFIPS": "19193", "COUNTRY": "USA", "LATITUDE": 42.4958422240001, "LONGITUDE": -96.399903761000004, "NAICS_CODE": "622110", "NAICS_DESC": "GENERAL MEDICAL AND SURGICAL HOSPITALS", "SOURCE": "https://dia-hfd.iowa.gov/DIA_HFD/CTLEntitySearch.do", "SOURCEDATE": "2018-08-09T00:00:00.000Z", "VAL_METHOD": "IMAGERY/OTHER", "VAL_DATE": "2016-04-15T00:00:00.000Z", "WEBSITE": "http://www.mercysiouxcity.com/", "STATE_ID": "NOT AVAILABLE", "ALT_NAME": "NOT AVAILABLE", "ST_FIPS": "19", "OWNER": "NON-PROFIT", "TTL_STAFF": -999, "BEDS": 484, "TRAUMA": "LEVEL II", "HELIPAD": "Y" }, "geometry": { "type": "Polygon", "coordinates": [ [ [ -96.352404, 42.372561 ], [ -96.482925, 42.444576 ], [ -96.491731, 42.517662 ], [ -96.489996, 42.519915 ], [ -96.47548, 42.536204 ], [ -96.443045, 42.557962 ], [ -96.3908007, 42.5729246 ], [ -96.3335298, 42.56205420000002 ], [ -96.3192677, 42.547373899999975 ], [ -96.2826021, 42.4753924 ], [ -96.2826185, 42.475188 ], [ -96.352404, 42.372561 ] ] ] } },
{ "type": "Feature", "properties": { "OBJECTID": 3015, "ID": "0011551534", "NAME": "GLENWOOD STATE HOSPITAL SCHOOL", "ADDRESS": "711 SOUTH VINE STREET", "CITY": "GLENWOOD", "STATE": "IA", "ZIP": "51534", "ZIP4": "NOT AVAILABLE", "TELEPHONE": "(712) 527-4811", "TYPE": "GENERAL ACUTE CARE", "STATUS": "OPEN", "POPULATION": 851, "COUNTY": "MILLS", "COUNTYFIPS": "19129", "COUNTRY": "USA", "LATITUDE": 41.039211944000002, "LONGITUDE": -95.735566121999994, "NAICS_CODE": "622110", "NAICS_DESC": "GENERAL MEDICAL AND SURGICAL HOSPITALS", "SOURCE": "https://dia-hfd.iowa.gov/DIA_HFD/CTLEntitySearch.do", "SOURCEDATE": "2018-08-09T00:00:00.000Z", "VAL_METHOD": "IMAGERY", "VAL_DATE": "2016-04-19T00:00:00.000Z", "WEBSITE": "NOT AVAILABLE", "STATE_ID": "NOT AVAILABLE", "ALT_NAME": "NOT AVAILABLE", "ST_FIPS": "19", "OWNER": "GOVERNMENT - STATE", "TTL_STAFF": -999, "BEDS": 851, "TRAUMA": "NOT AVAILABLE", "HELIPAD": "N" }, "geometry": { "type": "Polygon", "coordinates": [ [ [ -95.735831, 40.963937 ], [ -95.80914580000001, 40.9792298 ], [ -95.8422037, 41.001656199999978 ], [ -95.870753, 41.04881 ], [ -95.8682958, 41.059479799999956 ], [ -95.819646, 41.097698 ], [ -95.772889, 41.130793 ], [ -95.7403966, 41.1309711 ], [ -95.709307, 41.116709 ], [ -95.642266, 41.073286499999966 ], [ -95.6089322, 41.030586199999952 ], [ -95.652008, 40.99802 ], [ -95.697553, 40.973761 ], [ -95.709181, 40.970014 ], [ -95.735831, 40.963937 ] ] ] } },
{ "type": "Feature", "properties": { "OBJECTID": 3103, "ID": "0007468781", "NAME": "TILDEN COMMUNITY HOSPITAL", "ADDRESS": "308 WEST 2ND", "CITY": "TILDEN", "STATE": "NE", "ZIP": "68781", "ZIP4": "NOT AVAILABLE", "TELEPHONE": "(402) 368-5343", "TYPE": "CRITICAL ACCESS", "STATUS": "CLOSED", "POPULATION": 12, "COUNTY": "ANTELOPE", "COUNTYFIPS": "31003", "COUNTRY": "USA", "LATITUDE": 42.0473513150001, "LONGITUDE": -97.837848074999997, "NAICS_CODE": "622110", "NAICS_DESC": "GENERAL MEDICAL AND SURGICAL HOSPITALS", "SOURCE": "http://dhhs.ne.gov/publichealth/Documents/Hospital%20Roster.pdf", "SOURCEDATE": "2012-07-12T00:00:00.000Z", "VAL_METHOD": "IMAGERY", "VAL_DATE": "2014-02-10T00:00:00.000Z", "WEBSITE": "http://www.tildenhospital.org", "STATE_ID": "281317", "ALT_NAME": "NOT AVAILABLE", "ST_FIPS": "31", "OWNER": "GOVERNMENT - LOCAL", "TTL_STAFF": -999, "BEDS": 12, "TRAUMA": "NOT AVAILABLE", "HELIPAD": "N" }, "geometry": { "type": "Polygon", "coordinates": [ [ [ -97.833256, 41.913661 ], [ -97.872308, 41.945167 ], [ -97.950126, 42.0173 ], [ -97.974423, 42.067794 ], [ -97.970393, 42.09707 ], [ -97.937293, 42.106537 ], [ -97.815132, 42.118885 ], [ -97.795818, 42.118966 ], [ -97.776478, 42.118994 ], [ -97.717832, 42.075725 ], [ -97.657271, 42.025194 ], [ -97.833256, 41.913661 ] ] ] } },
{ "type": "Feature", "properties": { "OBJECTID": 3540, "ID": "0105668124", "NAME": "CHI HEALTH CREIGHTON UNIVERSITY MEDICAL - BERGAN MERCY", "ADDRESS": "7500 MERCY RD", "CITY": "OMAHA", "STATE": "NE", "ZIP": "68124", "ZIP4": "NOT AVAILABLE", "TELEPHONE": "(402) 398-6060", "TYPE": "GENERAL ACUTE CARE", "STATUS": "OPEN", "POPULATION": 400, "COUNTY": "DOUGLAS", "COUNTYFIPS": "31055", "COUNTRY": "USA", "LATITUDE": 41.239638024000001, "LONGITUDE": -96.031070332, "NAICS_CODE": "622110", "NAICS_DESC": "GENERAL MEDICAL AND SURGICAL HOSPITALS", "SOURCE": "http://dhhs.ne.gov/publichealth/Documents/Hospital%20Roster.pdf", "SOURCEDATE": "2018-08-09T00:00:00.000Z", "VAL_METHOD": "IMAGERY/OTHER", "VAL_DATE": "2015-02-18T00:00:00.000Z", "WEBSITE": "http://www.chihealth.com/chi-health-bergan-mercy#utm_source=friendly&utm_medium=link&utm_campaign=bergan", "STATE_ID": "NOT AVAILABLE", "ALT_NAME": "ALEGENT HEALTH BERGAN", "ST_FIPS": "31", "OWNER": "NON-PROFIT", "TTL_STAFF": -999, "BEDS": 400, "TRAUMA": "NOT AVAILABLE", "HELIPAD": "Y" }, "geometry": { "type": "Polygon", "coordinates": [ [ [ -96.042942, 41.148564 ], [ -96.063191700000019, 41.1544487 ], [ -96.1388857, 41.198113400000032 ], [ -96.1468848, 41.2053529 ], [ -96.1667524, 41.233346799999964 ], [ -96.16591, 41.235363 ], [ -96.1485593, 41.263480900000026 ], [ -96.1388733, 41.2720586 ], [ -96.1151946, 41.29230440000002 ], [ -96.1007393, 41.30326510000004 ], [ -96.071931, 41.324947600000037 ], [ -96.063449, 41.327721 ], [ -96.044413, 41.327621 ], [ -96.0046617, 41.3266623 ], [ -95.9521151, 41.295783399999983 ], [ -95.930405, 41.270003 ], [ -95.9221944, 41.25217929999998 ], [ -95.9180906, 41.243147499999985 ], [ -95.915686, 41.229775 ], [ -95.932541, 41.1920411 ], [ -95.9334899, 41.190950799999946 ], [ -95.984157, 41.16170129999994 ], [ -96.0218827, 41.1507933 ], [ -96.042942, 41.148564 ] ] ] } },
{ "type": "Feature", "properties": { "OBJECTID": 3541, "ID": "0010068022", "NAME": "METHODIST WOMEN'S HOSPITAL", "ADDRESS": "707 NORTH 190TH PLAZA", "CITY": "ELKHORN", "STATE": "NE", "ZIP": "68022", "ZIP4": "NOT AVAILABLE", "TELEPHONE": "(402) 815-4000", "TYPE": "WOMEN", "STATUS": "OPEN", "POPULATION": 137, "COUNTY": "DOUGLAS", "COUNTYFIPS": "31055", "COUNTRY": "USA", "LATITUDE": 41.264639566, "LONGITUDE": -96.212289057000007, "NAICS_CODE": "622110", "NAICS_DESC": "GENERAL MEDICAL AND SURGICAL HOSPITALS", "SOURCE": "http://dhhs.ne.gov/publichealth/Documents/Hospital%20Roster.pdf", "SOURCEDATE": "2018-08-09T00:00:00.000Z", "VAL_METHOD": "IMAGERY", "VAL_DATE": "2014-02-10T00:00:00.000Z", "WEBSITE": "http://www.methodistforwomen.com/home/", "STATE_ID": "NOT AVAILABLE", "ALT_NAME": "NOT AVAILABLE", "ST_FIPS": "31", "OWNER": "NON-PROFIT", "TTL_STAFF": -999, "BEDS": 137, "TRAUMA": "NOT AVAILABLE", "HELIPAD": "Y" }, "geometry": { "type": "Polygon", "coordinates": [ [ [ -96.2356702, 41.152231499999985 ], [ -96.2387971, 41.1541978 ], [ -96.3628127, 41.233875899999987 ], [ -96.3576588, 41.306259200000049 ], [ -96.354138400000011, 41.3353138 ], [ -96.2342774, 41.3801164 ], [ -96.158506, 41.3422198 ], [ -96.1576024, 41.341625300000018 ], [ -96.0524389, 41.2632332 ], [ -96.1103306, 41.212476 ], [ -96.119541, 41.206634 ], [ -96.1364701, 41.198326599999973 ], [ -96.2157063, 41.161479199999931 ], [ -96.2356702, 41.152231499999985 ] ] ] } },
{ "type": "Feature", "properties": { "OBJECTID": 3939, "ID": "0179968118", "NAME": "MADONNA REHABILITATION SPECIALTY HOSPITAL OMAHA", "ADDRESS": "17500 BURKE STREET", "CITY": "OMAHA", "STATE": "NE", "ZIP": "68118", "ZIP4": "NOT AVAILABLE", "TELEPHONE": "(402) 401-3100", "TYPE": "REHABILITATION", "STATUS": "OPEN", "POPULATION": 100, "COUNTY": "DOUGLAS", "COUNTYFIPS": "31055", "COUNTRY": "USA", "LATITUDE": 41.260007350000102, "LONGITUDE": -96.190390281999996, "NAICS_CODE": "622310", "NAICS_DESC": "REHABILITATION HOSPITALS (EXCEPT ALCOHOLISM, DRUG ADDICTION)", "SOURCE": "http://dhhs.ne.gov/publichealth/Documents/Hospital%20Roster.pdf", "SOURCEDATE": "2018-08-09T00:00:00.000Z", "VAL_METHOD": "IMAGERY/OTHER", "VAL_DATE": "2019-05-10T00:00:00.000Z", "WEBSITE": "https://www.madonna.org/", "STATE_ID": "H000130", "ALT_NAME": "NOT AVAILABLE", "ST_FIPS": "31", "OWNER": "NON-PROFIT", "TTL_STAFF": -999, "BEDS": 100, "TRAUMA": "NOT AVAILABLE", "HELIPAD": "N" }, "geometry": { "type": "Polygon", "coordinates": [ [ [ -96.2157063, 41.161479199999931 ], [ -96.2331276, 41.167960099999974 ], [ -96.2343604, 41.168626900000049 ], [ -96.311047, 41.2192682 ], [ -96.3303381, 41.2337911 ], [ -96.3394316, 41.274865599999984 ], [ -96.339436, 41.277053 ], [ -96.3389373, 41.291821200000037 ], [ -96.3334124, 41.3063516 ], [ -96.3310786, 41.309834800000026 ], [ -96.3279481, 41.3137066 ], [ -96.23427270000002, 41.3642274 ], [ -96.1856873, 41.364517799999938 ], [ -96.17761, 41.364549 ], [ -96.0708542, 41.301984 ], [ -96.035358800000012, 41.2633024 ], [ -96.0355117, 41.259744100000027 ], [ -96.03553, 41.259603899999988 ], [ -96.101684600000013, 41.1905705 ], [ -96.1250822, 41.180114200000055 ], [ -96.1351996, 41.175841699999978 ], [ -96.1773877, 41.164639599999987 ], [ -96.2157063, 41.161479199999931 ] ] ] } }
]
}
